[
  {
    "id": "173800202",
    "name": "特別養護老人ホーム　やまと苑",
    "kana": "トクベツヨウゴロウジンホーム　ヤマトエン",
    "address": "北海道幌泉郡えりも町字大和１０６番地の３",
    "lat": 42.0318358,
    "lng": 143.1306097,
    "tel": "01466-2-2777",
    "url": "http://www.erimohukusikai.or.jp",
    "pref": "北海道",
    "city": "えりも町",
    "category": "tokuyou",
    "serviceType": "介護老人福祉施設",
    "capacity": 0,
    "openDays": [],
    "openDaysNote": ""
  },
  {
    "id": "171700347",
    "name": "特別養護老人ホームきたひやま荘",
    "kana": "トクベツヨウゴロウジンホームキタヒヤマソウ",
    "address": "北海道久遠郡せたな町北檜山区豊岡337-1",
    "lat": 42.4217817,
    "lng": 139.8728668,
    "tel": "0137-84-5557",
    "url": "https://kitahiyama.yushin-kai.com",
    "pref": "北海道",
    "city": "せたな町",
    "category": "tokuyou",
    "serviceType": "介護老人福祉施設",
    "capacity": null,
    "openDays": [],
    "openDaysNote": ""
  },
  {
    "id": "171700040",
    "name": "特別養護老人ホーム大成長生園",
    "kana": "トクベツヨウゴロウジンホーム　タイセイチョウセイエン",
    "address": "北海道久遠郡せたな町大成区宮野５２５番地２",
    "lat": 42.2294143,
    "lng": 139.875066,
    "tel": "01398-4-6411",
    "url": "http://chouseien-taisei.jp/",
    "pref": "北海道",
    "city": "せたな町",
    "category": "tokuyou",
    "serviceType": "介護老人福祉施設",
    "capacity": 50,
    "openDays": [],
    "openDaysNote": ""
  },
  {
    "id": "172200024",
    "name": "特別養護老人ホーム　ニセコハイツ",
    "kana": "トクベツヨウゴロウジンホーム　ニセコハイツ",
    "address": "北海道虻田郡ニセコ町字有島８７－４",
    "lat": 42.8084024,
    "lng": 140.7061467,
    "tel": "0136-44-2772",
    "url": "http://www.niseko-fukushikai.com",
    "pref": "北海道",
    "city": "ニセコ町",
    "category": "tokuyou",
    "serviceType": "介護老人福祉施設",
    "capacity": 50,
    "openDays": [],
    "openDaysNote": ""
  },
  {
    "id": "173600198",
    "name": "胆振東部鵡川慶寿苑",
    "kana": "イブリトウブムカワケイジュエン",
    "address": "北海道勇払郡むかわ町駒場105番地",
    "lat": 42.5722372,
    "lng": 141.9197927,
    "tel": "0145-42-5211",
    "url": "http://www.mukawakeijyukai.or.jp/",
    "pref": "北海道",
    "city": "むかわ町",
    "category": "tokuyou",
    "serviceType": "介護老人福祉施設",
    "capacity": 0,
    "openDays": [],
    "openDaysNote": ""
  },
  {
    "id": "173600180",
    "name": "特別養護老人ホーム愛誠園",
    "kana": "トクベツヨウゴロウジンホームアイセイエン",
    "address": "北海道勇払郡むかわ町穂別８０番地１０",
    "lat": 42.7664081,
    "lng": 142.1369506,
    "tel": "0145-45-2455",
    "url": "http://www.hobetsu-aiseikai.or.jp/",
    "pref": "北海道",
    "city": "むかわ町",
    "category": "tokuyou",
    "serviceType": "介護老人福祉施設",
    "capacity": 100,
    "openDays": [],
    "openDaysNote": ""
  },
  {
    "id": "173100306",
    "name": "特別養護老人ホームいこいの里「あい」",
    "kana": "トクベツヨウゴロウジンホームイコイノサト「アイ」",
    "address": "北海道上川郡愛別町字北町299番地1",
    "lat": 43.9135999,
    "lng": 142.5764785,
    "tel": "01658-9-8181",
    "url": "http://aibetsu-f.jp/",
    "pref": "北海道",
    "city": "愛別町",
    "category": "tokuyou",
    "serviceType": "介護老人福祉施設",
    "capacity": 50,
    "openDays": [],
    "openDaysNote": ""
  },
  {
    "id": "172900771",
    "name": "介護老人福祉施設　特別養護老人ホーム　たいせつの郷",
    "kana": "カイゴロウジンフクシシセツ　トクベツヨウゴロウジンホーム　タイセツノサト",
    "address": "北海道旭川市東鷹栖２線１８号１０４５番地",
    "lat": 43.8480221,
    "lng": 142.4444954,
    "tel": "0166-58-3333",
    "url": "http://www.taisetsu-sato.jp",
    "pref": "北海道",
    "city": "旭川市",
    "category": "tokuyou",
    "serviceType": "介護老人福祉施設",
    "capacity": 80,
    "openDays": [],
    "openDaysNote": ""
  },
  {
    "id": "172900771",
    "name": "介護老人福祉施設ユニット型特別養護老人ホームたいせつの郷",
    "kana": "カイゴロウジンフクシシセツユニットガタトクベツヨウゴロウジンホームタイセツノサト",
    "address": "北海道旭川市東鷹栖２線１８号1045番地",
    "lat": 43.848028,
    "lng": 142.4446223,
    "tel": "0166-58-3333",
    "url": "https://www.taisetsu-sato.jp/",
    "pref": "北海道",
    "city": "旭川市",
    "category": "tokuyou",
    "serviceType": "介護老人福祉施設",
    "capacity": 80,
    "openDays": [],
    "openDaysNote": ""
  },
  {
    "id": "172906125",
    "name": "特別養護老人ホーム　仁慈苑",
    "kana": "トクベツヨウゴロウジンホーム　ジンシエン",
    "address": "旭川市神楽3条12丁目1番8号",
    "lat": 43.7530707,
    "lng": 142.3587814,
    "tel": "0166-63-8700",
    "url": "http://www.keiyukai-group.com/jinshien/",
    "pref": "北海道",
    "city": "旭川市",
    "category": "tokuyou",
    "serviceType": "介護老人福祉施設",
    "capacity": 0,
    "openDays": [],
    "openDaysNote": ""
  },
  {
    "id": "172900078",
    "name": "特別養護老人ホーム　誠徳園",
    "kana": "トクベツヨウゴロウジンホーム　セイトクエン",
    "address": "旭川市末広８条６丁目５３０７番地",
    "lat": 43.8196834,
    "lng": 142.3733484,
    "tel": "0166-51-1126",
    "url": "http://www.a-fukushi.or.jp/",
    "pref": "北海道",
    "city": "旭川市",
    "category": "tokuyou",
    "serviceType": "介護老人福祉施設",
    "capacity": 0,
    "openDays": [],
    "openDaysNote": ""
  },
  {
    "id": "172900201",
    "name": "特別養護老人ホーム　養生の杜カムイ",
    "kana": "トクベツヨウゴロウジンホーム　ヨウジョウノモリカムイ",
    "address": "北海道旭川市永山町５丁目１３６番地の１",
    "lat": 43.7862616,
    "lng": 142.4321525,
    "tel": "0166-47-7730",
    "url": "http://www.keiyukai-group.com/kamui/",
    "pref": "北海道",
    "city": "旭川市",
    "category": "tokuyou",
    "serviceType": "介護老人福祉施設",
    "capacity": 0,
    "openDays": [],
    "openDaysNote": ""
  },
  {
    "id": "172900045",
    "name": "特別養護老人ホーム　緑が丘あさひ園",
    "kana": "トクベツヨウゴロウジンホーム　ミドリガオカアサヒエン",
    "address": "北海道旭川市緑が丘東１条２丁目１番２１号",
    "lat": 43.7288581,
    "lng": 142.3894324,
    "tel": "0166-66-2666",
    "url": "http://www.asahisanwa.org/",
    "pref": "北海道",
    "city": "旭川市",
    "category": "tokuyou",
    "serviceType": "介護老人福祉施設",
    "capacity": 60,
    "openDays": [],
    "openDaysNote": ""
  },
  {
    "id": "172908048",
    "name": "特別養護老人ホームエテルナ",
    "kana": "トクベツヨウゴロウジンホームエテルナ",
    "address": "北海道旭川市近文町13丁目2916番地２",
    "lat": 43.7835165448936,
    "lng": 142.334183909787,
    "tel": "0166-85-7875",
    "url": "http://www.jukoukai.net/",
    "pref": "北海道",
    "city": "旭川市",
    "category": "tokuyou",
    "serviceType": "介護老人福祉施設",
    "capacity": null,
    "openDays": [],
    "openDaysNote": ""
  },
  {
    "id": "172900052",
    "name": "特別養護老人ホーム愛善園",
    "kana": "トクベツヨウゴロウジンホームアイゼンエン",
    "address": "北海道旭川市春光台４条１１丁目５２４９番地の１０",
    "lat": 43.831071,
    "lng": 142.3715586,
    "tel": "0166-52-8118",
    "url": "http://aizenkai-swc.jp/",
    "pref": "北海道",
    "city": "旭川市",
    "category": "tokuyou",
    "serviceType": "介護老人福祉施設",
    "capacity": 0,
    "openDays": [],
    "openDaysNote": ""
  },
  {
    "id": "172907198",
    "name": "特別養護老人ホーム旭川ねむのきの華",
    "kana": "トクベツヨウゴロウジンホームアサヒカワネムノキノハナ",
    "address": "北海道旭川市忠和4条2丁目10番23号",
    "lat": 43.7809965,
    "lng": 142.3106903,
    "tel": "0166-61-3277",
    "url": "http://nemunokikai.hjk.ne.jp/",
    "pref": "北海道",
    "city": "旭川市",
    "category": "tokuyou",
    "serviceType": "介護老人福祉施設",
    "capacity": 80,
    "openDays": [],
    "openDaysNote": ""
  },
  {
    "id": "172900193",
    "name": "特別養護老人ホーム旭川のなか園",
    "kana": "トクベツヨウゴロウジンホームアサヒカワノナカエン",
    "address": "旭川市神居9条3丁目1番地24",
    "lat": 43.7644653,
    "lng": 142.3217985,
    "tel": "0166-62-1111",
    "url": "http://www.koizumi-hukushikai.or.jp/",
    "pref": "北海道",
    "city": "旭川市",
    "category": "tokuyou",
    "serviceType": "介護老人福祉施設",
    "capacity": 0,
    "openDays": [],
    "openDaysNote": ""
  },
  {
    "id": "172900474",
    "name": "特別養護老人ホーム旭川緑苑・ユニット型特別養護老人ホーム旭川緑苑",
    "kana": "トクベツヨウゴロウジンホームアサヒカワミドリエン・ユニットガタトクベツヨウゴロウジンホームアサヒカワミドリエン",
    "address": "旭川市東旭川町上兵村229番地の8",
    "lat": 43.7756579,
    "lng": 142.4512094,
    "tel": "0166-36-6338",
    "url": "http://www.ryokkokai.com/",
    "pref": "北海道",
    "city": "旭川市",
    "category": "tokuyou",
    "serviceType": "介護老人福祉施設",
    "capacity": 90,
    "openDays": [],
    "openDaysNote": ""
  },
  {
    "id": "172901027",
    "name": "特別養護老人ホーム永山園",
    "kana": "トクベツヨウゴロウジンホームナガヤマエン",
    "address": "旭川市永山町15丁目116番地4",
    "lat": 43.821661885587,
    "lng": 142.462593874591,
    "tel": "0166-48-3033",
    "url": "http://www.youranfukushikai.jp/nagayama/",
    "pref": "北海道",
    "city": "旭川市",
    "category": "tokuyou",
    "serviceType": "介護老人福祉施設",
    "capacity": 0,
    "openDays": [],
    "openDaysNote": ""
  },
  {
    "id": "172904567",
    "name": "特別養護老人ホーム楽生園",
    "kana": "トクベツヨウゴロウジンホームラクセイエン",
    "address": "北海道旭川市1条通12丁目177番2",
    "lat": 43.7634529999999,
    "lng": 142.3653359,
    "tel": "0166-27-0070",
    "url": "https://rakuseikai.org/",
    "pref": "北海道",
    "city": "旭川市",
    "category": "tokuyou",
    "serviceType": "介護老人福祉施設",
    "capacity": 0,
    "openDays": [],
    "openDaysNote": ""
  },
  {
    "id": "172901126",
    "name": "特別養護老人ホーム共生園",
    "kana": "トクベツヨウゴロウジンホームキョウセイエン",
    "address": "北海道旭川市東旭川町共栄１２３番地",
    "lat": 43.7432305,
    "lng": 142.428566,
    "tel": "0166-33-8000",
    "url": "http://www.a-kyouseikai.jp/",
    "pref": "北海道",
    "city": "旭川市",
    "category": "tokuyou",
    "serviceType": "介護老人福祉施設",
    "capacity": 0,
    "openDays": [],
    "openDaysNote": ""
  },
  {
    "id": "172905887",
    "name": "特別養護老人ホーム共生園Ⅲ",
    "kana": "トクベツヨウゴロウジンホームキョウセイエンスリー",
    "address": "北海道旭川市東旭川町共栄123番地",
    "lat": 43.743225,
    "lng": 142.428591,
    "tel": "0166-33-8000",
    "url": "http://www.a-kyouseikai.jp/",
    "pref": "北海道",
    "city": "旭川市",
    "category": "tokuyou",
    "serviceType": "介護老人福祉施設",
    "capacity": 0,
    "openDays": [],
    "openDaysNote": ""
  },
  {
    "id": "172900185",
    "name": "特別養護老人ホーム敬生園",
    "kana": "トクベツヨウゴロウジンホームケイセイエン",
    "address": "北海道旭川市末広8条6丁目5305番地",
    "lat": 43.8213748,
    "lng": 142.37264,
    "tel": "0166-51-5115",
    "url": "http://www.keiseikai.ne.jp/index.html",
    "pref": "北海道",
    "city": "旭川市",
    "category": "tokuyou",
    "serviceType": "介護老人福祉施設",
    "capacity": 110,
    "openDays": [],
    "openDaysNote": ""
  },
  {
    "id": "172903445",
    "name": "特別養護老人ホーム宏生苑",
    "kana": "トクベツヨウゴロウジンホームコウセイエン",
    "address": "旭川市東旭川町上兵村５５６番地４",
    "lat": 43.7676198,
    "lng": 142.4464962,
    "tel": "0166-37-3885",
    "url": "http://www.h-kouseikai.jp",
    "pref": "北海道",
    "city": "旭川市",
    "category": "tokuyou",
    "serviceType": "介護老人福祉施設",
    "capacity": 0,
    "openDays": [],
    "openDaysNote": ""
  },
  {
    "id": "172904393",
    "name": "特別養護老人ホーム末広たいせつの郷",
    "kana": "トクベツヨウゴロウジンホームスエヒロタイセツノサト",
    "address": "北海道旭川市末広東1条13丁目2番34号",
    "lat": 43.8148796,
    "lng": 142.4048512,
    "tel": "0166-58-5566",
    "url": "http://www.taisetsu-sato.jp/",
    "pref": "北海道",
    "city": "旭川市",
    "category": "tokuyou",
    "serviceType": "介護老人福祉施設",
    "capacity": 100,
    "openDays": [],
    "openDaysNote": ""
  },
  {
    "id": "177300027",
    "name": "特別養護老人ホーム芦別慈恵園",
    "kana": "トクベツヨウゴロウジンホーム　アシベツジケイエン",
    "address": "芦別市旭町28番地",
    "lat": 43.5257846,
    "lng": 142.1972824,
    "tel": "0124-22-2566",
    "url": "http://www.ashibetsu.or.jp/",
    "pref": "北海道",
    "city": "芦別市",
    "category": "tokuyou",
    "serviceType": "介護老人福祉施設",
    "capacity": 0,
    "openDays": [],
    "openDaysNote": ""
  },
  {
    "id": "177300175",
    "name": "特別養護老人ホーム芦別慈恵園",
    "kana": "トクベツヨウゴロウジンホーム　アシベツジケイエン",
    "address": "芦別市旭町28番地",
    "lat": 43.5252264,
    "lng": 142.1985767,
    "tel": "0124-22-2566",
    "url": "http://www.ashibetsu.or.jp/",
    "pref": "北海道",
    "city": "芦別市",
    "category": "tokuyou",
    "serviceType": "介護老人福祉施設",
    "capacity": 0,
    "openDays": [],
    "openDaysNote": ""
  },
  {
    "id": "173600164",
    "name": "特別養護老人ホーム追分陽光苑",
    "kana": "トクベツヨウゴロウジンホームオイワケヨウコウエン",
    "address": "北海道勇払郡安平町追分青葉1丁目102番地",
    "lat": 42.8779040658568,
    "lng": 141.802938484256,
    "tel": "0145-25-2233",
    "url": "http://oiwake-akebono.net",
    "pref": "北海道",
    "city": "安平町",
    "category": "tokuyou",
    "serviceType": "介護老人福祉施設",
    "capacity": 30,
    "openDays": [],
    "openDaysNote": ""
  },
  {
    "id": "173700717",
    "name": "特別養護老人ホームおおたきの杜",
    "kana": "トクベツヨウゴロウジンホームオオタキノモリ",
    "address": "北海道伊達市大滝区本郷町86番地1",
    "lat": 42.6680159,
    "lng": 141.0766543,
    "tel": "0142-68-6848",
    "url": "http://www.koseikai-wel.or.jp",
    "pref": "北海道",
    "city": "伊達市",
    "category": "tokuyou",
    "serviceType": "介護老人福祉施設",
    "capacity": 0,
    "openDays": [],
    "openDaysNote": ""
  },
  {
    "id": "173700139",
    "name": "特別養護老人ホームなごみの里",
    "kana": "トクベツヨウゴロウジンホームナゴミノサト",
    "address": "北海道伊達市松ヶ枝町84番地１",
    "lat": 42.4747681932197,
    "lng": 140.88622263087,
    "tel": "0142-21-7532",
    "url": "http://www.ryounkouseikai.jp/",
    "pref": "北海道",
    "city": "伊達市",
    "category": "tokuyou",
    "serviceType": "介護老人福祉施設",
    "capacity": 0,
    "openDays": [],
    "openDaysNote": ""
  },
  {
    "id": "173700030",
    "name": "特別養護老人ホームひまわり",
    "kana": "トクベツヨウゴロウジンホームヒマワリ",
    "address": "北海道伊達市松ヶ枝町154番地30",
    "lat": 42.477484,
    "lng": 140.8846075,
    "tel": "0142-21-2711",
    "url": "http://www.ryounkouseikai.jp/",
    "pref": "北海道",
    "city": "伊達市",
    "category": "tokuyou",
    "serviceType": "介護老人福祉施設",
    "capacity": 0,
    "openDays": [],
    "openDaysNote": ""
  },
  {
    "id": "173700105",
    "name": "特別養護老人ホーム喜楽園",
    "kana": "トクベツヨウゴロウジンホーム　キラクエン",
    "address": "北海道伊達市向有珠町１６０番地７",
    "lat": 42.5087031,
    "lng": 140.7845669,
    "tel": "0142-38-3001",
    "url": "http://www.kirakuen.com",
    "pref": "北海道",
    "city": "伊達市",
    "category": "tokuyou",
    "serviceType": "介護老人福祉施設",
    "capacity": 0,
    "openDays": [],
    "openDaysNote": ""
  },
  {
    "id": "176400562",
    "name": "羽幌町立特別養護老人ホームしあわせ荘",
    "kana": "ハボロチョウリツトクベツヨウゴロウジンホームシアワセソウ",
    "address": "北海道苫前郡羽幌町栄町97番地の1羽幌町立特別養護老人ホームしあわせ荘 羽幌町立特別養護老人ホームしあわせ荘",
    "lat": 44.3565023,
    "lng": 141.6948063,
    "tel": "0164-62-3014",
    "url": "haboro.s47@h-siawasesou.jp",
    "pref": "北海道",
    "city": "羽幌町",
    "category": "tokuyou",
    "serviceType": "介護老人福祉施設",
    "capacity": 0,
    "openDays": [],
    "openDaysNote": ""
  },
  {
    "id": "176400570",
    "name": "羽幌町立特別養護老人ホームしあわせ荘",
    "kana": "ハボロチョウリツトクベツヨウゴロウジンホームシアワセソウ",
    "address": "北海道苫前郡羽幌町栄町97番地の1羽幌町立特別養護老人ホームしあわせ荘 羽幌町立特別養護老人ホームしあわせ荘",
    "lat": 44.3565023,
    "lng": 141.6948063,
    "tel": "0164-62-3014",
    "url": "",
    "pref": "北海道",
    "city": "羽幌町",
    "category": "tokuyou",
    "serviceType": "介護老人福祉施設",
    "capacity": 0,
    "openDays": [],
    "openDaysNote": ""
  },
  {
    "id": "177400140",
    "name": "特別養護老人ホーム雨竜寿園",
    "kana": "トクベツヨウゴロウジンホウムウリュウコトブキエン",
    "address": "北海道雨竜郡雨竜町字満寿37番地",
    "lat": 43.6743049260198,
    "lng": 141.889939624606,
    "tel": "0125-78-3560",
    "url": "http://www.uryu-kotobukien.or.jp",
    "pref": "北海道",
    "city": "雨竜町",
    "category": "tokuyou",
    "serviceType": "介護老人福祉施設",
    "capacity": 80,
    "openDays": [],
    "openDaysNote": ""
  },
  {
    "id": "177100096",
    "name": "特別養護老人ホームゆうあいの郷",
    "kana": "トクベツヨウゴロウジンホームユウアイノサト",
    "address": "北海道樺戸郡浦臼町字キナウスナイ188番地の70",
    "lat": 43.4508568,
    "lng": 141.8372983,
    "tel": "0125-68-2711",
    "url": "http://www.yuuainosato.com/",
    "pref": "北海道",
    "city": "浦臼町",
    "category": "tokuyou",
    "serviceType": "介護老人福祉施設",
    "capacity": 0,
    "openDays": [],
    "openDaysNote": ""
  },
  {
    "id": "173801143",
    "name": "特別養護老人ホームちのみの杜",
    "kana": "トクベツヨウゴロウジンホームチノミノモリ",
    "address": "北海道浦河郡浦河町東町ちのみ4丁目15番1号",
    "lat": 42.1707285,
    "lng": 142.797421,
    "tel": "0146‐22‐3008",
    "url": "",
    "pref": "北海道",
    "city": "浦河町",
    "category": "tokuyou",
    "serviceType": "介護老人福祉施設",
    "capacity": null,
    "openDays": [],
    "openDaysNote": ""
  },
  {
    "id": "174700138",
    "name": "特別養護老人ホームはまなす園",
    "kana": "トクベツヨウゴロウジンホームハマナスエン",
    "address": "北海道十勝郡浦幌町字北町７番地２３",
    "lat": 42.815746,
    "lng": 143.6612115,
    "tel": "015-576-5252",
    "url": "https://www.protech-web.co.jp/homepage/urahoro-koujyukai/",
    "pref": "北海道",
    "city": "浦幌町",
    "category": "tokuyou",
    "serviceType": "介護老人福祉施設",
    "capacity": 0,
    "openDays": [],
    "openDaysNote": ""
  },
  {
    "id": "176700011",
    "name": "特別養護老人ホームさるふつやすらぎ苑",
    "kana": "トクベツヨウゴロウジンホームサルフツヤスラギエン",
    "address": "北海道宗谷郡猿払村鬼志別北町７０番地",
    "lat": 45.3325358,
    "lng": 142.1204046,
    "tel": "01635-3-4046",
    "url": "https://sarufutsufukushikai.or.jp",
    "pref": "北海道",
    "city": "猿払村",
    "category": "tokuyou",
    "serviceType": "介護老人福祉施設",
    "capacity": 30,
    "openDays": [],
    "openDaysNote": ""
  },
  {
    "id": "175400142",
    "name": "特別養護老人ホーム　丸瀬布ヒルトップハイツ",
    "kana": "トクベツヨウゴロウジンホーム　マルセップヒルトップハイツ",
    "address": "北海道紋別郡遠軽町丸瀬布新町274番地1",
    "lat": 44.0028480706715,
    "lng": 143.338886282826,
    "tel": "0158-47-3001",
    "url": "https://maruseppu-shk.jp/",
    "pref": "北海道",
    "city": "遠軽町",
    "category": "tokuyou",
    "serviceType": "介護老人福祉施設",
    "capacity": 0,
    "openDays": [],
    "openDaysNote": ""
  },
  {
    "id": "175400043",
    "name": "特別養護老人ホーム花の苑",
    "kana": "トクベツヨウゴロウジンホームハナノソノ",
    "address": "紋別郡遠軽町西町３丁目４番地",
    "lat": 44.0492569002163,
    "lng": 143.512199934723,
    "tel": "0158-42-4328",
    "url": "https://www.jokokai.or.jp/",
    "pref": "北海道",
    "city": "遠軽町",
    "category": "tokuyou",
    "serviceType": "介護老人福祉施設",
    "capacity": 0,
    "openDays": [],
    "openDaysNote": ""
  },
  {
    "id": "176700664",
    "name": "特別養護老人ホーム友愛苑",
    "kana": "トクベツヨウゴロウジンホームユウアイエン",
    "address": "天塩郡遠別町字本町６丁目１番地の６",
    "lat": 44.7205642,
    "lng": 141.7970159,
    "tel": "01632-7-3402",
    "url": "http://www.youranfukushikai.jp/",
    "pref": "北海道",
    "city": "遠別町",
    "category": "tokuyou",
    "serviceType": "介護老人福祉施設",
    "capacity": 0,
    "openDays": [],
    "openDaysNote": ""
  },
  {
    "id": "171600125",
    "name": "特別養護老人ホームおくしり荘",
    "kana": "トクベツヨウゴロウジンホ－ムオクシリソウ",
    "address": "北海道奥尻郡奥尻町字青苗４４２番地２１",
    "lat": 42.0630484195086,
    "lng": 139.445779921426,
    "tel": "01397-3-2600",
    "url": "http://okushirisou.com",
    "pref": "北海道",
    "city": "奥尻町",
    "category": "tokuyou",
    "serviceType": "介護老人福祉施設",
    "capacity": 30,
    "openDays": [],
    "openDaysNote": ""
  },
  {
    "id": "171600109",
    "name": "乙部町立特別養護老人ホームおとべ荘",
    "kana": "オトベチョウリツトクベツヨウゴロウジンホームオトベソウ",
    "address": "北海道爾志郡乙部町字緑町704番地3",
    "lat": 41.9691674695566,
    "lng": 140.139816952494,
    "tel": "0139-62-3827",
    "url": "",
    "pref": "北海道",
    "city": "乙部町",
    "category": "tokuyou",
    "serviceType": "介護老人福祉施設",
    "capacity": 0,
    "openDays": [],
    "openDaysNote": ""
  },
  {
    "id": "174701201",
    "name": "介護老人福祉施設ロータス音更",
    "kana": "カイゴロウジンフクシシセツロータスオトフケ",
    "address": "北海道河東郡音更町中鈴蘭元町２番地９",
    "lat": 42.9555115,
    "lng": 143.1906771,
    "tel": "0155-30-7611",
    "url": "http://www.teinelotuskai.com",
    "pref": "北海道",
    "city": "音更町",
    "category": "tokuyou",
    "serviceType": "介護老人福祉施設",
    "capacity": 80,
    "openDays": [],
    "openDaysNote": ""
  },
  {
    "id": "174700146",
    "name": "特別養護老人ホーム寿楽園",
    "kana": "トクベツヨウゴロウジンホームジュラクエン",
    "address": "北海道河東郡音更町柏寿台1番地5",
    "lat": 43.0038206634676,
    "lng": 143.19332618416,
    "tel": "0155-32-4777",
    "url": "http://www.hakuju.or.jp",
    "pref": "北海道",
    "city": "音更町",
    "category": "tokuyou",
    "serviceType": "介護老人福祉施設",
    "capacity": 120,
    "openDays": [],
    "openDaysNote": ""
  },
  {
    "id": "173200114",
    "name": "下川町立特別養護老人ホームあけぼの園",
    "kana": "シモカワチョウリツトクベツヨウゴロウジンホームアケボノエン",
    "address": "北海道上川郡下川町西町３５２番地",
    "lat": 44.3032892,
    "lng": 142.6278589,
    "tel": "01655-4-3857",
    "url": "http://www.town.shimokawa.hokkaido.jp",
    "pref": "北海道",
    "city": "下川町",
    "category": "tokuyou",
    "serviceType": "介護老人福祉施設",
    "capacity": 0,
    "openDays": [],
    "openDaysNote": ""
  },
  {
    "id": "177100542",
    "name": "社会福祉法人北海道光生舎特別養護老人ホームしらかば荘",
    "kana": "シャカイフクシホウジン　ホッカイドウコウセイシャ　トクベツヨウゴロウジンホ－ム　シラカバソウ",
    "address": "北海道歌志内市字神威280番地",
    "lat": 43.5111393,
    "lng": 142.0248475,
    "tel": "0125-42-5331",
    "url": "http://www.koseisha.or.jp",
    "pref": "北海道",
    "city": "歌志内市",
    "category": "tokuyou",
    "serviceType": "介護老人福祉施設",
    "capacity": 0,
    "openDays": [],
    "openDaysNote": ""
  },
  {
    "id": "174701557",
    "name": "特別養護老人ホーム芽室けいせい苑（ユニット型）",
    "kana": "トクベツヨウゴロウジンホームメムロケイセイエン",
    "address": "北海道河西群芽室町東３条４丁目１番地５",
    "lat": 43.7803153,
    "lng": 142.3737481,
    "tel": "0155-62-3996",
    "url": "http://www.keisei-kai.jp",
    "pref": "北海道",
    "city": "芽室町",
    "category": "tokuyou",
    "serviceType": "介護老人福祉施設",
    "capacity": 0,
    "openDays": [],
    "openDaysNote": ""
  },
  {
    "id": "174701540",
    "name": "特別養護老人ホーム芽室けいせい苑（従来型）",
    "kana": "トクベツヨウゴロウジンホームメムロケイセイエン",
    "address": "北海道芽室市東３条南4丁目1番地５",
    "lat": 42.9057383,
    "lng": 143.0547876,
    "tel": "0155-62-3996",
    "url": "http://www.keisei-kai.jp",
    "pref": "北海道",
    "city": "芽室町",
    "category": "tokuyou",
    "serviceType": "介護老人福祉施設",
    "capacity": 0,
    "openDays": [],
    "openDaysNote": ""
  },
  {
    "id": "175700079",
    "name": "特別養護老人ホーム　こぶし",
    "kana": "トクベツヨウゴロウジンホーム　コブシ",
    "address": "北海道岩見沢市志文町301番地",
    "lat": 43.1647697,
    "lng": 141.7581469,
    "tel": "0126-23-1111",
    "url": "http://www.cupid.or.jp",
    "pref": "北海道",
    "city": "岩見沢市",
    "category": "tokuyou",
    "serviceType": "介護老人福祉施設",
    "capacity": 0,
    "openDays": [],
    "openDaysNote": ""
  },
  {
    "id": "175701051",
    "name": "特別養護老人ホーム　新いちい荘",
    "kana": "トクベツヨウゴロウジンホーム　シンイチイソウ",
    "address": "北海道岩見沢市栗沢町最上222番地6",
    "lat": 43.1206134687144,
    "lng": 141.759604851428,
    "tel": "0126-45-4121",
    "url": "http://www.ichiisou.jp/",
    "pref": "北海道",
    "city": "岩見沢市",
    "category": "tokuyou",
    "serviceType": "介護老人福祉施設",
    "capacity": 0,
    "openDays": [],
    "openDaysNote": ""
  },
  {
    "id": "175700525",
    "name": "特別養護老人ホームいちい荘",
    "kana": "トクベツヨウゴロウジンホームイチイソウ",
    "address": "北海道岩見沢市栗沢町最上２２２番地６",
    "lat": 43.120021,
    "lng": 141.7596328,
    "tel": "0126-45-4121",
    "url": "http://www.ichiisou.jp/",
    "pref": "北海道",
    "city": "岩見沢市",
    "category": "tokuyou",
    "serviceType": "介護老人福祉施設",
    "capacity": null,
    "openDays": [],
    "openDaysNote": ""
  },
  {
    "id": "175700798",
    "name": "特別養護老人ホームぬくもりの郷",
    "kana": "トクベツヨウゴロウジンホームヌクモリノサト",
    "address": "岩見沢市6条西19丁目8番地",
    "lat": 43.1932411,
    "lng": 141.7498855,
    "tel": "0126-25-5500",
    "url": "https://www.iwamizawanouge.com/nukumori-top",
    "pref": "北海道",
    "city": "岩見沢市",
    "category": "tokuyou",
    "serviceType": "介護老人福祉施設",
    "capacity": 0,
    "openDays": [],
    "openDaysNote": ""
  },
  {
    "id": "175700541",
    "name": "特別養護老人ホーム野菊",
    "kana": "トクベツヨウゴロウジンホームノギク",
    "address": "北海道岩見沢市2条東15丁目2番地2",
    "lat": 43.2139758,
    "lng": 141.7824594,
    "tel": "0126-25-4165",
    "url": "http://www.nogiku.org/",
    "pref": "北海道",
    "city": "岩見沢市",
    "category": "tokuyou",
    "serviceType": "介護老人福祉施設",
    "capacity": 0,
    "openDays": [],
    "openDaysNote": ""
  },
  {
    "id": "172300253",
    "name": "社会福祉法人渓仁会　介護老人福祉施設岩内ふれ愛の郷",
    "kana": "シャカイフクシホウジンケイジンカイ　カイゴロウジンフクシシセツイワナイフレアイノサト",
    "address": "岩内郡岩内町字野束69番地4",
    "lat": 42.9676919,
    "lng": 140.5097347,
    "tel": "0135-62-3131",
    "url": "http://www.keijinkai.com/iwanai/",
    "pref": "北海道",
    "city": "岩内町",
    "category": "tokuyou",
    "serviceType": "介護老人福祉施設",
    "capacity": 0,
    "openDays": [],
    "openDaysNote": ""
  },
  {
    "id": "172200313",
    "name": "介護老人福祉施設　きもべつ喜らめきの郷",
    "kana": "カイゴロウジンフクシシセツ　キモベツキラメキノサト",
    "address": "虻田郡喜茂別町字伏見２７２番地１",
    "lat": 42.7959482567958,
    "lng": 140.948485977246,
    "tel": "0136-33-2711",
    "url": "http://www.keijinkai.com/shahuku/",
    "pref": "北海道",
    "city": "喜茂別町",
    "category": "tokuyou",
    "serviceType": "介護老人福祉施設",
    "capacity": 0,
    "openDays": [],
    "openDaysNote": ""
  },
  {
    "id": "172200347",
    "name": "ユニットケア慶和園",
    "kana": "ユニットケアケイワエン",
    "address": "北海道虻田郡京極町字更進780-1ユニットケア慶和園 ユニットケア慶和園",
    "lat": 42.8311362,
    "lng": 140.8945404,
    "tel": "0136-42-2233",
    "url": "http://www.tsukushien.or.jp/",
    "pref": "北海道",
    "city": "京極町",
    "category": "tokuyou",
    "serviceType": "介護老人福祉施設",
    "capacity": 60,
    "openDays": [],
    "openDaysNote": ""
  },
  {
    "id": "172300162",
    "name": "特別養護老人ホーム　みのりの里　共和",
    "kana": "トクベツヨウゴロウジンホーム　ミノリノサト　キョウワ",
    "address": "北海道岩内郡共和町南幌似57番地13",
    "lat": 42.9772401,
    "lng": 140.614792,
    "tel": "0135-71-2580",
    "url": "http://minorinosato.net",
    "pref": "北海道",
    "city": "共和町",
    "category": "tokuyou",
    "serviceType": "介護老人福祉施設",
    "capacity": 0,
    "openDays": [],
    "openDaysNote": ""
  },
  {
    "id": "172200032",
    "name": "特別養護老人ホーム羊蹄ハイツ",
    "kana": "トクベツヨウゴロウジンホームヨウテイハイツ",
    "address": "北海道虻田郡倶知安町字峠下１１３番地２",
    "lat": 42.9226574,
    "lng": 140.739676,
    "tel": "0136-22-3131",
    "url": "http://yotei-heights.com/",
    "pref": "北海道",
    "city": "倶知安町",
    "category": "tokuyou",
    "serviceType": "介護老人福祉施設",
    "capacity": 0,
    "openDays": [],
    "openDaysNote": ""
  },
  {
    "id": "174100107",
    "name": "社会福祉法人釧路啓生会　釧路昭和啓生園",
    "kana": "シャカイフクホウジンクシロケイセイカイ　クシロショウワケイセイエン",
    "address": "北海道釧路市昭和南５丁目２３番１号",
    "lat": 43.0220553,
    "lng": 144.3518905,
    "tel": "0154-51-5541",
    "url": "http://www.k-keisei.or.jp",
    "pref": "北海道",
    "city": "釧路市",
    "category": "tokuyou",
    "serviceType": "介護老人福祉施設",
    "capacity": 0,
    "openDays": [],
    "openDaysNote": ""
  },
  {
    "id": "174142695",
    "name": "特別養護老人ホーム　武佐の里",
    "kana": "トクベツヨウゴロウジンホーム　ムサノサト",
    "address": "北海道釧路市武佐4丁目28番10号",
    "lat": 42.9862331,
    "lng": 144.4314755,
    "tel": "0154-46-8170",
    "url": "http://musanosato.jp",
    "pref": "北海道",
    "city": "釧路市",
    "category": "tokuyou",
    "serviceType": "介護老人福祉施設",
    "capacity": null,
    "openDays": [],
    "openDaysNote": ""
  },
  {
    "id": "174300608",
    "name": "特別養護老人ホームえぞりんどうの里",
    "kana": "トクベツヨウゴロウジンホームエゾリンドウノサト",
    "address": "北海道釧路市音別町中園２丁目１１８番５",
    "lat": 42.8936133,
    "lng": 143.9287,
    "tel": "01547-9-5011",
    "url": "http://www.k-yuwakai.or.jp/",
    "pref": "北海道",
    "city": "釧路市",
    "category": "tokuyou",
    "serviceType": "介護老人福祉施設",
    "capacity": 50,
    "openDays": [],
    "openDaysNote": ""
  },
  {
    "id": "174101758",
    "name": "特別養護老人ホームきんれんかの里",
    "kana": "トクベツヨウゴロウジンホームキンレンカノサト",
    "address": "北海道釧路市愛国191番5711",
    "lat": 43.0277311,
    "lng": 144.3975796,
    "tel": "0154-38-8222",
    "url": "http://www.k-yuwakai.or.jp",
    "pref": "北海道",
    "city": "釧路市",
    "category": "tokuyou",
    "serviceType": "介護老人福祉施設",
    "capacity": 80,
    "openDays": [],
    "openDaysNote": ""
  },
  {
    "id": "174101261",
    "name": "特別養護老人ホームさくらの里",
    "kana": "トクベツヨウゴロウジンホームサクラノサト",
    "address": "北海道釧路市桜ヶ岡４丁目１４番１０号",
    "lat": 42.9639144,
    "lng": 144.425018,
    "tel": "0154-92-2151",
    "url": "http://www.kushiro-souseikai.com",
    "pref": "北海道",
    "city": "釧路市",
    "category": "tokuyou",
    "serviceType": "介護老人福祉施設",
    "capacity": 0,
    "openDays": [],
    "openDaysNote": ""
  },
  {
    "id": "174142455",
    "name": "特別養護老人ホームぬさまい",
    "kana": "トクベツヨウゴロウジンホームヌサマイ",
    "address": "北海道釧路市幣舞町4番7号",
    "lat": 42.978846943746,
    "lng": 144.386842115483,
    "tel": "0154-41-2233",
    "url": "https://www.shafuku-fukyukai.or.jp/",
    "pref": "北海道",
    "city": "釧路市",
    "category": "tokuyou",
    "serviceType": "介護老人福祉施設",
    "capacity": 80,
    "openDays": [],
    "openDaysNote": ""
  },
  {
    "id": "174100131",
    "name": "特別養護老人ホームはるとりの里",
    "kana": "トクベツヨウゴロウジンホームハルトリノサト",
    "address": "釧路市春採７丁目９番７号",
    "lat": 42.9781292,
    "lng": 144.4187793,
    "tel": "0154-47-2300",
    "url": "http://www.kushiro-souseikai.com",
    "pref": "北海道",
    "city": "釧路市",
    "category": "tokuyou",
    "serviceType": "介護老人福祉施設",
    "capacity": 0,
    "openDays": [],
    "openDaysNote": ""
  },
  {
    "id": "174100099",
    "name": "特別養護老人ホーム釧路鶴ヶ岱啓生園",
    "kana": "トクベツヨウゴロウジンホームクシロツルガダイケイセイエン",
    "address": "北海道釧路市鶴ヶ岱２丁目２番５号",
    "lat": 42.9772672,
    "lng": 144.4018564,
    "tel": "0154-41-1123",
    "url": "http://www.k-keisei.or.jp",
    "pref": "北海道",
    "city": "釧路市",
    "category": "tokuyou",
    "serviceType": "介護老人福祉施設",
    "capacity": 0,
    "openDays": [],
    "openDaysNote": ""
  },
  {
    "id": "174100750",
    "name": "特別養護老人ホーム釧路北園啓生園",
    "kana": "トクベツヨウゴロウジンホーム　クシロキタゾノケイセイエン",
    "address": "釧路市北園１丁目１番２７号",
    "lat": 43.0223826,
    "lng": 144.3411387,
    "tel": "0154-55-5252",
    "url": "http://www.k-keisei.or.jp",
    "pref": "北海道",
    "city": "釧路市",
    "category": "tokuyou",
    "serviceType": "介護老人福祉施設",
    "capacity": 90,
    "openDays": [],
    "openDaysNote": ""
  },
  {
    "id": "174300160",
    "name": "特別養護老人ホーム鶴の園",
    "kana": "トクベツヨウゴロウジンホームツルノソノ",
    "address": "北海道釧路市阿寒町富士見2丁目5番10号",
    "lat": 43.1068857378063,
    "lng": 144.119909159183,
    "tel": "0154-66-1010",
    "url": "https://www.shafuku-fukyukai.or.jp/",
    "pref": "北海道",
    "city": "釧路市",
    "category": "tokuyou",
    "serviceType": "介護老人福祉施設",
    "capacity": 100,
    "openDays": [],
    "openDaysNote": ""
  },
  {
    "id": "174100529",
    "name": "特別養護老人ホーム百花苑",
    "kana": "トクベツヨウゴロウジンホームヒャッカエン",
    "address": "釧路市昭和190番地4521",
    "lat": 43.0327514,
    "lng": 144.35434,
    "tel": "0154-55-1165",
    "url": "http://www.hjg.jp",
    "pref": "北海道",
    "city": "釧路市",
    "category": "tokuyou",
    "serviceType": "介護老人福祉施設",
    "capacity": 0,
    "openDays": [],
    "openDaysNote": ""
  },
  {
    "id": "174300053",
    "name": "特別養護老人ホーム釧路町釧望やすらぎの郷",
    "kana": "トクベツヨウゴロウジンホームクシロチョウセンボウヤスラギノサト",
    "address": "釧路郡釧路町字別保原野南20線53番地9",
    "lat": 43.0216695,
    "lng": 144.4449747,
    "tel": "0154-40-2537",
    "url": "http://www.yasuragino-sato.com/",
    "pref": "北海道",
    "city": "釧路町",
    "category": "tokuyou",
    "serviceType": "介護老人福祉施設",
    "capacity": 0,
    "openDays": [],
    "openDaysNote": ""
  },
  {
    "id": "174300798",
    "name": "特別養護老人ホーム釧路町釧望やすらぎの郷",
    "kana": "トクベツヨウゴロウジンホームクシロチョウセンボウヤスラギノサト",
    "address": "北海道釧路郡釧路町字別保原野南２０線５３番地９",
    "lat": 43.0216695,
    "lng": 144.4449747,
    "tel": "0154-40-2537",
    "url": "http://www.yasuragino-310.com/",
    "pref": "北海道",
    "city": "釧路町",
    "category": "tokuyou",
    "serviceType": "介護老人福祉施設",
    "capacity": 36,
    "openDays": [],
    "openDaysNote": ""
  },
  {
    "id": "175800093",
    "name": "特別養護老人ホーム　くりのさと",
    "kana": "トクベツヨウゴロウジンホーム　クリノサト",
    "address": "北海道夕張郡栗山町字湯地９１番20",
    "lat": 43.0584291,
    "lng": 141.8019255,
    "tel": "0123-72-6167",
    "url": "http://k-fukushikai.net/",
    "pref": "北海道",
    "city": "栗山町",
    "category": "tokuyou",
    "serviceType": "介護老人福祉施設",
    "capacity": 0,
    "openDays": [],
    "openDaysNote": ""
  },
  {
    "id": "175000124",
    "name": "特別養護老人ホーム　くんねっぷ静寿園",
    "kana": "トクベツヨウゴロウジンホーム　クンネップセイジュエン",
    "address": "常呂郡訓子府町字穂波69番地57",
    "lat": 43.7258299,
    "lng": 143.7513849,
    "tel": "0157-47-4551",
    "url": "http://www.kunneppu-fukushikai.or.jp/",
    "pref": "北海道",
    "city": "訓子府町",
    "category": "tokuyou",
    "serviceType": "介護老人福祉施設",
    "capacity": 0,
    "openDays": [],
    "openDaysNote": ""
  },
  {
    "id": "171200306",
    "name": "特別養護老人ホーム恵庭ふくろうの園",
    "kana": "トクベツヨウゴロウジンホームエニワフクロウノソノ",
    "address": "恵庭市南島松６番地１",
    "lat": 42.9203627,
    "lng": 141.5861107,
    "tel": "0123-36-1166",
    "url": "http://www.midorino.jp/",
    "pref": "北海道",
    "city": "恵庭市",
    "category": "tokuyou",
    "serviceType": "介護老人福祉施設",
    "capacity": 0,
    "openDays": [],
    "openDaysNote": ""
  },
  {
    "id": "171200017",
    "name": "特別養護老人ホーム恵望園",
    "kana": "トクベツヨウゴロウジンホームケイボウエン",
    "address": "恵庭市柏木町４２９番地６",
    "lat": 42.8853161,
    "lng": 141.5563728,
    "tel": "0123-33-2388",
    "url": "http://www.keibouen.jp/",
    "pref": "北海道",
    "city": "恵庭市",
    "category": "tokuyou",
    "serviceType": "介護老人福祉施設",
    "capacity": 71,
    "openDays": [],
    "openDaysNote": ""
  },
  {
    "id": "176100063",
    "name": "月形愛光園指定介護老人福祉施設",
    "kana": "ツキガタアイコウエンシテイカイゴロウジンフクシシセツ",
    "address": "北海道樺戸郡月形町46-30",
    "lat": 43.3319350558505,
    "lng": 141.661562156653,
    "tel": "0126-53-4311",
    "url": "http://www.t-aikouen.com",
    "pref": "北海道",
    "city": "月形町",
    "category": "tokuyou",
    "serviceType": "介護老人福祉施設",
    "capacity": 50,
    "openDays": [],
    "openDaysNote": ""
  },
  {
    "id": "176100212",
    "name": "月形藤の園　特養部ユニット型",
    "kana": "ツキガタフジノソノ　トクヨウブユニットガタ",
    "address": "北海道樺戸郡月形町字当別原野417番地9",
    "lat": 43.3097713897347,
    "lng": 141.617986022754,
    "tel": "0126-53-2214",
    "url": "https://www.fujinosono.jp/",
    "pref": "北海道",
    "city": "月形町",
    "category": "tokuyou",
    "serviceType": "介護老人福祉施設",
    "capacity": 30,
    "openDays": [],
    "openDaysNote": ""
  },
  {
    "id": "176100071",
    "name": "月形藤の園特養部",
    "kana": "ツキガタフジノソノトクヨウブ",
    "address": "北海道樺戸郡月形町字当別原野４１７番地９",
    "lat": 43.3098963,
    "lng": 141.6176427,
    "tel": "0126-53-2214",
    "url": "https://www.fujinosono.jp/",
    "pref": "北海道",
    "city": "月形町",
    "category": "tokuyou",
    "serviceType": "介護老人福祉施設",
    "capacity": 0,
    "openDays": [],
    "openDaysNote": ""
  },
  {
    "id": "173200197",
    "name": "特別養護老人ホーム剣渕ひらなみ荘",
    "kana": "トクベツヨウゴロウジンホーム　ケンブチヒラナミソウ",
    "address": "北海道上川郡剣淵町元町4番１号",
    "lat": 44.0975162750189,
    "lng": 142.369922564418,
    "tel": "0165-34-2965",
    "url": "",
    "pref": "北海道",
    "city": "剣淵町",
    "category": "tokuyou",
    "serviceType": "介護老人福祉施設",
    "capacity": 0,
    "openDays": [],
    "openDaysNote": ""
  },
  {
    "id": "174300129",
    "name": "厚岸町立特別養護老人ホーム心和園",
    "kana": "アッケシチョウリツトクベツヨウゴロウジンホームシンワエン",
    "address": "厚岸郡厚岸町白浜4丁目1番地",
    "lat": 43.0665259,
    "lng": 144.8097682,
    "tel": "0153-52-6373",
    "url": "http://akkeshishakyo.or.jp/",
    "pref": "北海道",
    "city": "厚岸町",
    "category": "tokuyou",
    "serviceType": "介護老人福祉施設",
    "capacity": 50,
    "openDays": [],
    "openDaysNote": ""
  },
  {
    "id": "173600172",
    "name": "特別養護老人ホーム豊厚園",
    "kana": "トクベツヨウゴロウジンホームホウコウエン",
    "address": "北海道勇払郡厚真町新町116番地の3",
    "lat": 42.7209157581817,
    "lng": 141.881613700579,
    "tel": "0145-27-3111",
    "url": "http://www.atsuma.or.jp/",
    "pref": "北海道",
    "city": "厚真町",
    "category": "tokuyou",
    "serviceType": "介護老人福祉施設",
    "capacity": 77,
    "openDays": [],
    "openDaysNote": ""
  },
  {
    "id": "171600091",
    "name": "特別養護老人ホームあっさぶ荘",
    "kana": "トクベツヨウゴロウジンホームアッサブソウ",
    "address": "北海道檜山郡厚沢部町赤沼町３７８番地３",
    "lat": 41.9286803,
    "lng": 140.2252133,
    "tel": "0139-67-2204",
    "url": "https://www.protech-web.co.jp/homepage/assabu-fukusikai/index.html",
    "pref": "北海道",
    "city": "厚沢部町",
    "category": "tokuyou",
    "serviceType": "介護老人福祉施設",
    "capacity": 0,
    "openDays": [],
    "openDaysNote": ""
  },
  {
    "id": "174700229",
    "name": "広尾町立特別養護老人ホームつつじ苑",
    "kana": "ヒロオチョウリツトクベツヨウゴロウジンホームツツジエン",
    "address": "広尾郡広尾町公園通南4丁目１番地",
    "lat": 42.2989789891719,
    "lng": 143.305685047885,
    "tel": "01558-2-2127",
    "url": "https://www.town.hiroo.lg.jp/kurashi/hokenhukushi/koureisha/tokuyou/",
    "pref": "北海道",
    "city": "広尾町",
    "category": "tokuyou",
    "serviceType": "介護老人福祉施設",
    "capacity": 50,
    "openDays": [],
    "openDaysNote": ""
  },
  {
    "id": "171600075",
    "name": "特別養護老人ホームえさし荘",
    "kana": "トクベツヨウゴロウジンホームエサシソウ",
    "address": "北海道桧山郡江差町字柳崎町78番2",
    "lat": 41.9165469794434,
    "lng": 140.14937419895,
    "tel": "0139-53-6336",
    "url": "http://keiaikai-esashiso.jp/",
    "pref": "北海道",
    "city": "江差町",
    "category": "tokuyou",
    "serviceType": "介護老人福祉施設",
    "capacity": 0,
    "openDays": [],
    "openDaysNote": ""
  },
  {
    "id": "171001001",
    "name": "江別地域複合型ライフケアセンター夢あかり",
    "kana": "エベツチイキフクゴウガタライフケアセンターユメアカリ",
    "address": "北海道江別市ゆめみ野東町１番地５",
    "lat": 43.1035648,
    "lng": 141.5640809,
    "tel": "011-391-2100",
    "url": "http://hokueikai.or.jp/",
    "pref": "北海道",
    "city": "江別市",
    "category": "tokuyou",
    "serviceType": "介護老人福祉施設",
    "capacity": 0,
    "openDays": [],
    "openDaysNote": ""
  },
  {
    "id": "171000102",
    "name": "指定介護老人福祉施設静苑ホーム",
    "kana": "シテイカイゴロウジンフクシシセツセイエンホーム",
    "address": "北海道江別市新栄台４６番地の１０",
    "lat": 43.1075267,
    "lng": 141.512493,
    "tel": "011-389-4165",
    "url": "http://www.yuaifukushi.net/",
    "pref": "北海道",
    "city": "江別市",
    "category": "tokuyou",
    "serviceType": "介護老人福祉施設",
    "capacity": 150,
    "openDays": [],
    "openDaysNote": ""
  },
  {
    "id": "171001787",
    "name": "特別養護老人ホームえぞりすの杜",
    "kana": "トクベツヨウゴロウジンホームエゾリスノモリ",
    "address": "北海道江別市西野幌92番地18",
    "lat": 43.07631725988,
    "lng": 141.540896586706,
    "tel": "011-887-6333",
    "url": "https://www.eijyukai.org/",
    "pref": "北海道",
    "city": "江別市",
    "category": "tokuyou",
    "serviceType": "介護老人福祉施設",
    "capacity": 0,
    "openDays": [],
    "openDaysNote": ""
  },
  {
    "id": "171000052",
    "name": "特別養護老人ホームひだまり大麻",
    "kana": "トクベツヨウゴロウジンホームヒダマリオオアサ",
    "address": "北海道江別市大麻北町608番地",
    "lat": 43.0888142,
    "lng": 141.4989374,
    "tel": "011-387-2556",
    "url": "https://syahuku-subaru.com/",
    "pref": "北海道",
    "city": "江別市",
    "category": "tokuyou",
    "serviceType": "介護老人福祉施設",
    "capacity": 50,
    "openDays": [],
    "openDaysNote": ""
  },
  {
    "id": "171000110",
    "name": "特別養護老人ホーム誠志苑",
    "kana": "トクベツヨウゴロウジンホームセイシエン",
    "address": "江別市江別太２２２番地の１０",
    "lat": 43.0979966766687,
    "lng": 141.576670888421,
    "tel": "011-382-6666",
    "url": "http://ebetsu-syoukou.com/",
    "pref": "北海道",
    "city": "江別市",
    "category": "tokuyou",
    "serviceType": "介護老人福祉施設",
    "capacity": 50,
    "openDays": [],
    "openDaysNote": ""
  },
  {
    "id": "171001936",
    "name": "特別養護老人ホーム日本介護江別",
    "kana": "トクベツヨウゴロウジンホームニホンカイゴエベツ",
    "address": "北海道江別市大麻元町154番地12",
    "lat": 43.0851372,
    "lng": 141.4973064,
    "tel": "011-387-1022",
    "url": "https://tsushima-group.com/business/agency/",
    "pref": "北海道",
    "city": "江別市",
    "category": "tokuyou",
    "serviceType": "介護老人福祉施設",
    "capacity": 0,
    "openDays": [],
    "openDaysNote": ""
  },
  {
    "id": "172100026",
    "name": "特別養護老人ホーム緑ケ丘ハイツ",
    "kana": "トクベツヨウゴロウジンホームミドリガオカハイツ",
    "address": "北海道寿都郡黒松内町字黒松内５６１番地の１",
    "lat": 42.6600597,
    "lng": 140.3104261,
    "tel": "0136-72-3330",
    "url": "http://www.tsukushien.or.jp/",
    "pref": "北海道",
    "city": "黒松内町",
    "category": "tokuyou",
    "serviceType": "介護老人福祉施設",
    "capacity": 80,
    "openDays": [],
    "openDaysNote": ""
  },
  {
    "id": "171700065",
    "name": "特別養護老人ホーム　豊寿園",
    "kana": "トクベツヨウゴロウジンホームホウジュエン",
    "address": "北海道瀬棚郡今金町字種川３９８番地の４",
    "lat": 42.4222567996045,
    "lng": 140.0677905,
    "tel": "0137-82-0344",
    "url": "http://houjuen.or.jp/",
    "pref": "北海道",
    "city": "今金町",
    "category": "tokuyou",
    "serviceType": "介護老人福祉施設",
    "capacity": 50,
    "openDays": [],
    "openDaysNote": ""
  },
  {
    "id": "174200527",
    "name": "ユニット型特別養護老人ホームはまなす園",
    "kana": "ユニットガタトクベツヨウゴロウジンホームハマナスエン",
    "address": "根室市有磯町2丁目21番地",
    "lat": 43.3334272663763,
    "lng": 145.590403242606,
    "tel": "0153-22-3711",
    "url": "http://nemuro-hamanasuen.com/",
    "pref": "北海道",
    "city": "根室市",
    "category": "tokuyou",
    "serviceType": "介護老人福祉施設",
    "capacity": 40,
    "openDays": [],
    "openDaysNote": ""
  },
  {
    "id": "174200071",
    "name": "特別養護老人ホームはまなす園",
    "kana": "トクベツヨウゴロウジンホームハマナスエン",
    "address": "根室市有磯町2丁目19番地2",
    "lat": 43.3329395,
    "lng": 145.5902924,
    "tel": "0153-22-3711",
    "url": "",
    "pref": "北海道",
    "city": "根室市",
    "category": "tokuyou",
    "serviceType": "介護老人福祉施設",
    "capacity": 46,
    "openDays": [],
    "openDaysNote": ""
  },
  {
    "id": "175400134",
    "name": "佐呂間町立特別養護老人ホーム愛の園",
    "kana": "サロマチョウリツトクベツヨウゴロウジンホームアイノソノ",
    "address": "北海道常呂郡佐呂間町字永代町１７７番地の１０",
    "lat": 44.0145702,
    "lng": 143.775625,
    "tel": "01587-2-3076",
    "url": "https://www.town.saroma.hokkaido.jp/shisetsu/fukushi/ainosono.html",
    "pref": "北海道",
    "city": "佐呂間町",
    "category": "tokuyou",
    "serviceType": "介護老人福祉施設",
    "capacity": 0,
    "openDays": [],
    "openDaysNote": ""
  },
  {
    "id": "177100351",
    "name": "特別養護老人ホーム福寿園",
    "kana": "トクベツヨウゴロウジンホームフクジュエン",
    "address": "砂川市三砂町55番地６号",
    "lat": 43.4916823,
    "lng": 141.9120476,
    "tel": "0125-54-1000",
    "url": "http://sunagawafukushikai.jp/",
    "pref": "北海道",
    "city": "砂川市",
    "category": "tokuyou",
    "serviceType": "介護老人福祉施設",
    "capacity": 100,
    "openDays": [],
    "openDaysNote": ""
  },
  {
    "id": "170511281",
    "name": "特別養護老人ホーム　光生舎　ゆいま～る・もみじ台",
    "kana": "トクベツヨウゴロウジンホーム　コウセイシャ　ユイマ～ル・モミジダイ",
    "address": "北海道札幌市厚別区もみじ台南3丁目4番1号",
    "lat": 43.0247175,
    "lng": 141.4948603,
    "tel": "011-899-1600",
    "url": "http://www.koseisya.or.jp/",
    "pref": "北海道",
    "city": "札幌市厚別区",
    "category": "tokuyou",
    "serviceType": "介護老人福祉施設",
    "capacity": 80,
    "openDays": [],
    "openDaysNote": ""
  },
  {
    "id": "170508956",
    "name": "特別養護老人ホーム　厚別園",
    "kana": "トクベツヨウゴロウジンホーム　アツベツエン",
    "address": "札幌市厚別区厚別東5条3丁目24番地9",
    "lat": 43.0489312,
    "lng": 141.478844,
    "tel": "011-375-1050",
    "url": "https://www.youranfukushikai.jp/",
    "pref": "北海道",
    "city": "札幌市厚別区",
    "category": "tokuyou",
    "serviceType": "介護老人福祉施設",
    "capacity": 0,
    "openDays": [],
    "openDaysNote": ""
  },
  {
    "id": "170512461",
    "name": "特別養護老人ホーム「サポーティ・もみじ台」",
    "kana": "トクベツヨウゴロウジンホームサポーティ・モミジダイ",
    "address": "北海道札幌市厚別区もみじ台北6丁目2-5-2",
    "lat": 43.0350857,
    "lng": 141.4932154,
    "tel": "011-897-8000",
    "url": "http://www.hokurou.or.jp/",
    "pref": "北海道",
    "city": "札幌市厚別区",
    "category": "tokuyou",
    "serviceType": "介護老人福祉施設",
    "capacity": 0,
    "openDays": [],
    "openDaysNote": ""
  },
  {
    "id": "170513766",
    "name": "特別養護老人ホームあつべつ南５丁目",
    "kana": "トクベツヨウゴロウジンホームアツベツミナミゴチョウメ",
    "address": "北海道札幌市厚別区厚別南５丁目１-１０",
    "lat": 43.023681,
    "lng": 141.4723464,
    "tel": "011-375-0526",
    "url": "https://www.eiwakai.or.jp/",
    "pref": "北海道",
    "city": "札幌市厚別区",
    "category": "tokuyou",
    "serviceType": "介護老人福祉施設",
    "capacity": null,
    "openDays": [],
    "openDaysNote": ""
  },
  {
    "id": "170500037",
    "name": "特別養護老人ホームかりぷ・あつべつ",
    "kana": "トクベツヨウゴロウジンホームカリプ・アツベツ",
    "address": "北海道札幌市厚別区厚別中央５条６丁目５番２０号",
    "lat": 43.0465288562421,
    "lng": 141.472083300664,
    "tel": "011-896-1165",
    "url": "http://www.karipu.jp/",
    "pref": "北海道",
    "city": "札幌市厚別区",
    "category": "tokuyou",
    "serviceType": "介護老人福祉施設",
    "capacity": 80,
    "openDays": [],
    "openDaysNote": ""
  },
  {
    "id": "170513220",
    "name": "特別養護老人ホームノテ新さっぽろの里",
    "kana": "トクベツヨウゴロウジンホームノテシンサッポロノサト",
    "address": "北海道札幌市厚別区上野幌1条1丁目2-25",
    "lat": 43.0238754,
    "lng": 141.4659241,
    "tel": "011-892-2221",
    "url": "https://www.note.or.jp/facilities/shisetsu/tokuyou/tokuyou-sinsapporonosato/",
    "pref": "北海道",
    "city": "札幌市厚別区",
    "category": "tokuyou",
    "serviceType": "介護老人福祉施設",
    "capacity": 0,
    "openDays": [],
    "openDaysNote": ""
  },
  {
    "id": "170500268",
    "name": "特別養護老人ホーム厚別栄和荘",
    "kana": "トクベツヨウゴロウジンホームアツベツエイワソウ",
    "address": "札幌市厚別区厚別町山本７５０番地６",
    "lat": 43.0585439,
    "lng": 141.4625669,
    "tel": "011-896-2565",
    "url": "https://www.eiwakai.or.jp/",
    "pref": "北海道",
    "city": "札幌市厚別区",
    "category": "tokuyou",
    "serviceType": "介護老人福祉施設",
    "capacity": 0,
    "openDays": [],
    "openDaysNote": ""
  },
  {
    "id": "170503387",
    "name": "特別養護老人ホーム青葉のまち",
    "kana": "トクベツヨウゴロウジンホームアオバノマチ",
    "address": "札幌市厚別区青葉町15丁目18番1号",
    "lat": 43.0269475,
    "lng": 141.483764,
    "tel": "011-891-7700",
    "url": "http://www.hokurou.or.jp/aoba/",
    "pref": "北海道",
    "city": "札幌市厚別区",
    "category": "tokuyou",
    "serviceType": "介護老人福祉施設",
    "capacity": 0,
    "openDays": [],
    "openDaysNote": ""
  },
  {
    "id": "170403992",
    "name": "介護老人福祉施設　手稲つむぎの杜",
    "kana": "カイゴロウジンフクシシセツ　テイネツムギノモリ",
    "address": "北海道札幌市手稲区前田2条10丁目1番7号",
    "lat": 43.1208301,
    "lng": 141.2492599,
    "tel": "011-685-3726",
    "url": "http://www.keijinkai.com/tsumugi/",
    "pref": "北海道",
    "city": "札幌市手稲区",
    "category": "tokuyou",
    "serviceType": "介護老人福祉施設",
    "capacity": 80,
    "openDays": [],
    "openDaysNote": ""
  },
  {
    "id": "170405138",
    "name": "介護老人福祉施設　手稲ロータス",
    "kana": "カイゴロウジンフクシシセツ　テイネロータス",
    "address": "北海道札幌市手稲区稲穂3条6丁目7番5号介護老人福祉施設　手稲ロータス 介護老人福祉施設　手稲ロータス",
    "lat": 43.1261503,
    "lng": 141.2150322,
    "tel": "011-685-8181",
    "url": "https://teinelotuskai.com",
    "pref": "北海道",
    "city": "札幌市手稲区",
    "category": "tokuyou",
    "serviceType": "介護老人福祉施設",
    "capacity": null,
    "openDays": [],
    "openDaysNote": ""
  },
  {
    "id": "170400105",
    "name": "特別養護老人ホ－ム　愛輪園",
    "kana": "トクベツヨウゴロウジンホーム　アイリンエン",
    "address": "札幌市手稲区西宮の沢４条３丁目3番４０号",
    "lat": 43.1000049,
    "lng": 141.2565022,
    "tel": "011-683-5521",
    "url": "http://www.tanakamedical.net",
    "pref": "北海道",
    "city": "札幌市手稲区",
    "category": "tokuyou",
    "serviceType": "介護老人福祉施設",
    "capacity": 0,
    "openDays": [],
    "openDaysNote": ""
  },
  {
    "id": "170400188",
    "name": "特別養護老人ホーム　ていね大空",
    "kana": "トクベツヨウゴロウジンホーム　テイネオオゾラ",
    "address": "札幌市手稲区曙11条2丁目3番10号",
    "lat": 43.1439046,
    "lng": 141.2334594,
    "tel": "011-684-5839",
    "url": "http://www.s-souseikai.or.jp/",
    "pref": "北海道",
    "city": "札幌市手稲区",
    "category": "tokuyou",
    "serviceType": "介護老人福祉施設",
    "capacity": 0,
    "openDays": [],
    "openDaysNote": ""
  },
  {
    "id": "170400121",
    "name": "特別養護老人ホーム　札幌市稲寿園",
    "kana": "トクベツヨウゴロウジンホーム　サッポロシトウジュエン",
    "address": "北海道札幌市手稲区曙5条2丁目2-21",
    "lat": 43.1328088,
    "lng": 141.2374071,
    "tel": "011-682-2160",
    "url": "http://www.sapporojikeikai.or.jp/toujuen",
    "pref": "北海道",
    "city": "札幌市手稲区",
    "category": "tokuyou",
    "serviceType": "介護老人福祉施設",
    "capacity": 100,
    "openDays": [],
    "openDaysNote": ""
  },
  {
    "id": "170400196",
    "name": "特別養護老人ホーム　神愛園手稲",
    "kana": "トクベツヨウゴロウジンホーム　シンアイエンテイネ",
    "address": "札幌市手稲区手稲金山１３１番地４",
    "lat": 43.1221712784495,
    "lng": 141.200372371194,
    "tel": "011-681-3092",
    "url": "http://www.shinaien.or.jp",
    "pref": "北海道",
    "city": "札幌市手稲区",
    "category": "tokuyou",
    "serviceType": "介護老人福祉施設",
    "capacity": 80,
    "openDays": [],
    "openDaysNote": ""
  },
  {
    "id": "170404636",
    "name": "特別養護老人ホームあすかＨＯＵＳＥ手稲",
    "kana": "トクベツヨウゴロウジンホームアスカハウステイネ",
    "address": "北海道札幌市手稲区曙１１条１丁目７－７",
    "lat": 43.1465294,
    "lng": 141.2389534,
    "tel": "011-685-8000",
    "url": "http://asuka-sw.jp/",
    "pref": "北海道",
    "city": "札幌市手稲区",
    "category": "tokuyou",
    "serviceType": "介護老人福祉施設",
    "capacity": 0,
    "openDays": [],
    "openDaysNote": ""
  },
  {
    "id": "170500284",
    "name": "特別養護老人　ノテホームふるさと",
    "kana": "トクベツヨウゴロウジンホームノテフルサト",
    "address": "札幌市清田区真栄434番地6",
    "lat": 42.9721996,
    "lng": 141.4323886,
    "tel": "011-885-8800",
    "url": "https://www.note.or.jp/facilities/details/02/",
    "pref": "北海道",
    "city": "札幌市清田区",
    "category": "tokuyou",
    "serviceType": "介護老人福祉施設",
    "capacity": 80,
    "openDays": [],
    "openDaysNote": ""
  },
  {
    "id": "170509335",
    "name": "特別養護老人ホーム　ケアタウン美しが丘",
    "kana": "トクベツヨウゴロウジンホーム　ケアタウンウツクシガオカ",
    "address": "北海道札幌市清田区真栄3条2丁目23番15号",
    "lat": 42.9882322952508,
    "lng": 141.44322320741,
    "tel": "011-885-7100",
    "url": "http://www.syujyukai.or.jp",
    "pref": "北海道",
    "city": "札幌市清田区",
    "category": "tokuyou",
    "serviceType": "介護老人福祉施設",
    "capacity": 80,
    "openDays": [],
    "openDaysNote": ""
  },
  {
    "id": "170504773",
    "name": "特別養護老人ホーム　ひらおか梅花実",
    "kana": "トクベツヨウゴロウジンホーム　ヒラオカウメハナミ",
    "address": "札幌市清田区平岡３条３丁目１番８号",
    "lat": 43.0003551,
    "lng": 141.4502936,
    "tel": "011-884-8886",
    "url": "http://www.eiwakai.or.jp",
    "pref": "北海道",
    "city": "札幌市清田区",
    "category": "tokuyou",
    "serviceType": "介護老人福祉施設",
    "capacity": 80,
    "openDays": [],
    "openDaysNote": ""
  },
  {
    "id": "170500060",
    "name": "特別養護老人ホーム　秀寿園",
    "kana": "トクベツヨウゴロウジンホーム　シュウジュエン",
    "address": "札幌市清田区真栄３９５番地１",
    "lat": 42.9766326,
    "lng": 141.4393043,
    "tel": "011-885-7111",
    "url": "http://www.syujyukai.or.jp/shujyuen",
    "pref": "北海道",
    "city": "札幌市清田区",
    "category": "tokuyou",
    "serviceType": "介護老人福祉施設",
    "capacity": 0,
    "openDays": [],
    "openDaysNote": ""
  },
  {
    "id": "170513642",
    "name": "特別養護老人ホーム　緑愛園",
    "kana": "トクベツヨウゴロウジンホーム　リョクアイエン",
    "address": "札幌市清田区北野1条1丁目6-28",
    "lat": 43.0093389,
    "lng": 141.4267037,
    "tel": "011-884-0123",
    "url": "www.hokurou.or.jp",
    "pref": "北海道",
    "city": "札幌市清田区",
    "category": "tokuyou",
    "serviceType": "介護老人福祉施設",
    "capacity": 80,
    "openDays": [],
    "openDaysNote": ""
  },
  {
    "id": "170500243",
    "name": "特別養護老人ホーム神愛園清田",
    "kana": "トクベツヨウゴロウジンホームシンアイエンキヨタ",
    "address": "北海道札幌市清田区清田6条1丁目1番30号",
    "lat": 42.9965297,
    "lng": 141.4204382,
    "tel": "011-886-6800",
    "url": "http://www.shinaien.or.jp/",
    "pref": "北海道",
    "city": "札幌市清田区",
    "category": "tokuyou",
    "serviceType": "介護老人福祉施設",
    "capacity": 0,
    "openDays": [],
    "openDaysNote": ""
  },
  {
    "id": "170500367",
    "name": "特別養護老人ホーム清幌園",
    "kana": "トクベツヨウゴロウジンホームセイコウエン",
    "address": "北海道札幌市清田区北野７条４丁目８番２５号",
    "lat": 43.0213055,
    "lng": 141.4435207,
    "tel": "011-881-7340",
    "url": "http://s-seikouen.or.jp",
    "pref": "北海道",
    "city": "札幌市清田区",
    "category": "tokuyou",
    "serviceType": "介護老人福祉施設",
    "capacity": 0,
    "openDays": [],
    "openDaysNote": ""
  },
  {
    "id": "170400097",
    "name": "特別養護老人ホーム　手稲リハビリテーションセンター",
    "kana": "トクベツヨウゴロウジンホーム　テイネリハビリテーションセンター",
    "address": "札幌市西区宮の沢490番地",
    "lat": 43.0851701,
    "lng": 141.2549334,
    "tel": "011-663-2931",
    "url": "http://www.kouyuukai.com",
    "pref": "北海道",
    "city": "札幌市西区",
    "category": "tokuyou",
    "serviceType": "介護老人福祉施設",
    "capacity": 131,
    "openDays": [],
    "openDaysNote": ""
  },
  {
    "id": "170400204",
    "name": "特別養護老人ホーム　西野ケアセンター",
    "kana": "トクベツヨウゴロウジンホーム　ニシノケアセンター",
    "address": "札幌市西区西野2条8丁目1-8",
    "lat": 43.0810153,
    "lng": 141.2744932,
    "tel": "011-669-6660",
    "url": "http://www.kouyuukai.com",
    "pref": "北海道",
    "city": "札幌市西区",
    "category": "tokuyou",
    "serviceType": "介護老人福祉施設",
    "capacity": 80,
    "openDays": [],
    "openDaysNote": ""
  },
  {
    "id": "170405625",
    "name": "特別養護老人ホーム　福井園",
    "kana": "トクベツヨウゴロウジンホーム　フクイエン",
    "address": "北海道札幌市西区福井10丁目8番3号",
    "lat": 43.0471167,
    "lng": 141.2614208,
    "tel": "011-596-0605",
    "url": "https://www.youranfukushikai.jp/fukuien/",
    "pref": "北海道",
    "city": "札幌市西区",
    "category": "tokuyou",
    "serviceType": "介護老人福祉施設",
    "capacity": 80,
    "openDays": [],
    "openDaysNote": ""
  },
  {
    "id": "170405856",
    "name": "特別養護老人ホーム　満快のふる郷山の手",
    "kana": "トクベツヨウゴロウジンホーム　マンカイノフルサトヤマノテ",
    "address": "札幌市西区山の手3条11丁目2番20号特別養護老人ホーム　満快のふる郷山の手 特別養護老人ホーム　満快のふる郷山の手",
    "lat": 43.0653292,
    "lng": 141.2899215,
    "tel": "011-590-0292",
    "url": "https://ousyukai.or.jp/",
    "pref": "北海道",
    "city": "札幌市西区",
    "category": "tokuyou",
    "serviceType": "介護老人福祉施設",
    "capacity": null,
    "openDays": [],
    "openDaysNote": ""
  },
  {
    "id": "170401947",
    "name": "特別養護老人ホームさくら苑",
    "kana": "トクベツヨウゴロウジンホームサクラエン",
    "address": "札幌市西区発寒１７条３丁目４番３０号",
    "lat": 43.1097099,
    "lng": 141.2943955,
    "tel": "011-669-7000",
    "url": "https://sakurakai-gp.or.jp/",
    "pref": "北海道",
    "city": "札幌市西区",
    "category": "tokuyou",
    "serviceType": "介護老人福祉施設",
    "capacity": 0,
    "openDays": [],
    "openDaysNote": ""
  },
  {
    "id": "170401962",
    "name": "特別養護老人ホームはっさむはる",
    "kana": "トクベツヨウゴロウジンホームハッサムハル",
    "address": "札幌市西区発寒１１条１丁目３番２０号",
    "lat": 43.0907262,
    "lng": 141.2999573,
    "tel": "011-662-0001",
    "url": "http://www.nomad.or.jp",
    "pref": "北海道",
    "city": "札幌市西区",
    "category": "tokuyou",
    "serviceType": "介護老人福祉施設",
    "capacity": 0,
    "openDays": [],
    "openDaysNote": ""
  },
  {
    "id": "170400147",
    "name": "特別養護老人ホーム五天山園",
    "kana": "トクベツヨウゴロウジンホームゴテンザンエン",
    "address": "札幌市西区平和54番地3",
    "lat": 43.0554099,
    "lng": 141.2616759,
    "tel": "011-667-1133",
    "url": "https://gotenzan.com/",
    "pref": "北海道",
    "city": "札幌市西区",
    "category": "tokuyou",
    "serviceType": "介護老人福祉施設",
    "capacity": 0,
    "openDays": [],
    "openDaysNote": ""
  },
  {
    "id": "170404107",
    "name": "特別養護老人ホーム三陽",
    "kana": "トクベツヨウゴロウジンホームサンヨウ",
    "address": "北海道札幌市西区八軒５条西８丁目５番１号",
    "lat": 43.0921567411462,
    "lng": 141.302426729886,
    "tel": "011-633-0300",
    "url": "http://www.seikeikai.server-shared.com/san-you/",
    "pref": "北海道",
    "city": "札幌市西区",
    "category": "tokuyou",
    "serviceType": "介護老人福祉施設",
    "capacity": 0,
    "openDays": [],
    "openDaysNote": ""
  },
  {
    "id": "170104939",
    "name": "あすかHOUSE中央",
    "kana": "アスカハウスチュウオウ",
    "address": "北海道札幌市中央区南3条西14丁目1-1",
    "lat": 43.0545046,
    "lng": 141.3353756,
    "tel": "011-209-8001",
    "url": "http://www.asuka-sw.jp/",
    "pref": "北海道",
    "city": "札幌市中央区",
    "category": "tokuyou",
    "serviceType": "介護老人福祉施設",
    "capacity": 0,
    "openDays": [],
    "openDaysNote": ""
  },
  {
    "id": "170100531",
    "name": "介護老人福祉施設　たんぽぽの丘",
    "kana": "カイゴロウジンフクシシセツタンポポノオカ",
    "address": "南8条西26丁目1-2",
    "lat": 43.0458138,
    "lng": 141.320677,
    "tel": "011-531-5000",
    "url": "shinya@keiyu-kai.org",
    "pref": "北海道",
    "city": "札幌市中央区",
    "category": "tokuyou",
    "serviceType": "介護老人福祉施設",
    "capacity": 80,
    "openDays": [],
    "openDaysNote": ""
  },
  {
    "id": "170100143",
    "name": "慈啓会特別養護老人ホーム",
    "kana": "ジケイカイトクベツヨウゴロウジンホーム",
    "address": "札幌市中央区旭ヶ丘５丁目６番５１号",
    "lat": 43.0366313171305,
    "lng": 141.323592196851,
    "tel": "011-561-8291",
    "url": "http://www.sapporojikeikai.or.jp",
    "pref": "北海道",
    "city": "札幌市中央区",
    "category": "tokuyou",
    "serviceType": "介護老人福祉施設",
    "capacity": 70,
    "openDays": [],
    "openDaysNote": ""
  },
  {
    "id": "170103329",
    "name": "慈啓会特別養護老人ホームユニット型",
    "kana": "ジケイカイトクベツヨウゴロウジンホームユニットガタ",
    "address": "北海道札幌市中央区旭ヶ丘5丁目6番51号",
    "lat": 43.0369567548805,
    "lng": 141.323307882695,
    "tel": "011-561-8291",
    "url": "http://www.sapporojikeikai.or.jp",
    "pref": "北海道",
    "city": "札幌市中央区",
    "category": "tokuyou",
    "serviceType": "介護老人福祉施設",
    "capacity": 80,
    "openDays": [],
    "openDaysNote": ""
  },
  {
    "id": "170100069",
    "name": "西円山敬樹園",
    "kana": "ニシマルヤマケイジュエン",
    "address": "札幌市中央区円山西町4丁目3番20号",
    "lat": 43.0421855,
    "lng": 141.3037959,
    "tel": "011-631-1021",
    "url": "http://www.keijinkai.com/keijuen/",
    "pref": "北海道",
    "city": "札幌市中央区",
    "category": "tokuyou",
    "serviceType": "介護老人福祉施設",
    "capacity": 123,
    "openDays": [],
    "openDaysNote": ""
  },
  {
    "id": "170103865",
    "name": "特別養護老人ホーム　ラスール苗穂",
    "kana": "トクベツヨウゴロウジンホーム　ラスールナエボ",
    "address": "北海道札幌市中央区北２条東１９丁目１１－２特別養護老人ホームラスール苗穂 特別養護老人ホームラスール苗穂",
    "lat": 43.069182,
    "lng": 141.3860545,
    "tel": "011-206-7677",
    "url": "http://koseikai-star.com/",
    "pref": "北海道",
    "city": "札幌市中央区",
    "category": "tokuyou",
    "serviceType": "介護老人福祉施設",
    "capacity": null,
    "openDays": [],
    "openDaysNote": ""
  },
  {
    "id": "170105613",
    "name": "特別養護老人ホーム　ラスール苗穂　ウエストサイド",
    "kana": "トクベツヨウゴロウジンホーム　ラスールナエボ　ウエストサイド",
    "address": "北海道札幌市中央区北１条東１９丁目6-3",
    "lat": 43.0686373,
    "lng": 141.3869602,
    "tel": "011-206-7154",
    "url": "http://koseikai-star.com/",
    "pref": "北海道",
    "city": "札幌市中央区",
    "category": "tokuyou",
    "serviceType": "介護老人福祉施設",
    "capacity": 100,
    "openDays": [],
    "openDaysNote": ""
  },
  {
    "id": "170105308",
    "name": "特別養護老人ホーム　ラスール苗穂リバーサイド",
    "kana": "トクベツヨウゴロウジンホーム　ラスールナエボリバーサイド",
    "address": "北海道札幌市中央区北1条東19丁目6番地3",
    "lat": 43.0686250050448,
    "lng": 141.386975814156,
    "tel": "011-206-7007",
    "url": "https://koseikai-star.com/facility/3009",
    "pref": "北海道",
    "city": "札幌市中央区",
    "category": "tokuyou",
    "serviceType": "介護老人福祉施設",
    "capacity": 100,
    "openDays": [],
    "openDaysNote": ""
  },
  {
    "id": "170104434",
    "name": "特別養護老人ホーム　札幌こもれびの家",
    "kana": "トクベツヨウゴロウジンホーム　サッポロコモレビノイエ",
    "address": "北海道札幌市中央区南25条西11丁目1番40号特別養護老人ホーム　札幌こもれびの家 特別養護老人ホーム　札幌こもれびの家",
    "lat": 43.0258662,
    "lng": 141.3444405,
    "tel": "011-520-0011",
    "url": "http://www.mizunokai.ed.jp/sapporo_komorebinoie/",
    "pref": "北海道",
    "city": "札幌市中央区",
    "category": "tokuyou",
    "serviceType": "介護老人福祉施設",
    "capacity": 80,
    "openDays": [],
    "openDaysNote": ""
  },
  {
    "id": "170208086",
    "name": "とくべつようごろうじんほーむもえれのさと",
    "kana": "特別養護老人ホームモエレノ里",
    "address": "北海道札幌市東区東雁来11条3丁目2番15号",
    "lat": 43.0978058,
    "lng": 141.4313272,
    "tel": "011-792-1666",
    "url": "http://www.k-yuwakai.or.jp",
    "pref": "北海道",
    "city": "札幌市東区",
    "category": "tokuyou",
    "serviceType": "介護老人福祉施設",
    "capacity": 80,
    "openDays": [],
    "openDaysNote": ""
  },
  {
    "id": "170200133",
    "name": "特別養護老人ホーム　セボラ・コリーナ",
    "kana": "トクベツヨウゴロウジンホーム　セボラ・コリーナ",
    "address": "札幌市東区北42条東19丁目1番10号",
    "lat": 43.1145251420203,
    "lng": 141.372816686864,
    "tel": "011-784-0433",
    "url": "http://sebora.jp/",
    "pref": "北海道",
    "city": "札幌市東区",
    "category": "tokuyou",
    "serviceType": "介護老人福祉施設",
    "capacity": 77,
    "openDays": [],
    "openDaysNote": ""
  },
  {
    "id": "170205892",
    "name": "特別養護老人ホーム　ひかりの",
    "kana": "トクベツヨウゴロウジンホーム　ヒカリノ",
    "address": "北海道札幌市東区東雁来12条4丁目1－15",
    "lat": 43.0983346476143,
    "lng": 141.436870784795,
    "tel": "011-790-1400",
    "url": "http://hikarino.or.jp/",
    "pref": "北海道",
    "city": "札幌市東区",
    "category": "tokuyou",
    "serviceType": "介護老人福祉施設",
    "capacity": 0,
    "openDays": [],
    "openDaysNote": ""
  },
  {
    "id": "170200141",
    "name": "特別養護老人ホーム　大友恵愛園",
    "kana": "トクベツヨウゴロウジンホーム　オオトモケイアイエン",
    "address": "札幌市東区北17条東5丁目2番5号",
    "lat": 43.0829268,
    "lng": 141.3592664,
    "tel": "011-751-1731",
    "url": "http://www.ootomokeiaien.or.jp/",
    "pref": "北海道",
    "city": "札幌市東区",
    "category": "tokuyou",
    "serviceType": "介護老人福祉施設",
    "capacity": 0,
    "openDays": [],
    "openDaysNote": ""
  },
  {
    "id": "170200083",
    "name": "特別養護老人ホーム　藤苑",
    "kana": "トクベツヨウゴロウジンホーム　フジゾノ",
    "address": "北海道札幌市東区伏古７条３丁目１番３３号",
    "lat": 43.0897742,
    "lng": 141.3929715,
    "tel": "011-781-2400",
    "url": "http://fujizono.org/index.html",
    "pref": "北海道",
    "city": "札幌市東区",
    "category": "tokuyou",
    "serviceType": "介護老人福祉施設",
    "capacity": 0,
    "openDays": [],
    "openDaysNote": ""
  },
  {
    "id": "170200349",
    "name": "特別養護老人ホームウィズ東苗穂",
    "kana": "トクベツヨウゴロウジンホームウィズヒガシナエボ",
    "address": "北海道札幌市東区東苗穂町1089番1",
    "lat": 43.1041258,
    "lng": 141.4099438,
    "tel": "011-789-3001",
    "url": "http://spsilvania.or.jp/",
    "pref": "北海道",
    "city": "札幌市東区",
    "category": "tokuyou",
    "serviceType": "介護老人福祉施設",
    "capacity": 0,
    "openDays": [],
    "openDaysNote": ""
  },
  {
    "id": "170200281",
    "name": "特別養護老人ホームフローラルさつなえ",
    "kana": "トクベツヨウゴロウジンホームフローラルサツナエ",
    "address": "札幌市東区東苗穂1条3丁目2番16号",
    "lat": 43.0786314,
    "lng": 141.4014909,
    "tel": "011-780-6141",
    "url": "http://www.sapporo-meikeiin.or.jp/floral/",
    "pref": "北海道",
    "city": "札幌市東区",
    "category": "tokuyou",
    "serviceType": "介護老人福祉施設",
    "capacity": 0,
    "openDays": [],
    "openDaysNote": ""
  },
  {
    "id": "170209167",
    "name": "特別養護老人ホーム神遊",
    "kana": "トクベツヨウゴロウジンホームカミユ",
    "address": "北海道札幌市東区北39条東1丁目2番21号特別養護老人ホーム神遊 特別養護老人ホーム神遊",
    "lat": 43.1070175860736,
    "lng": 141.344652379524,
    "tel": "011-733-1010",
    "url": "https://kikujyu-web.com",
    "pref": "北海道",
    "city": "札幌市東区",
    "category": "tokuyou",
    "serviceType": "介護老人福祉施設",
    "capacity": 90,
    "openDays": [],
    "openDaysNote": ""
  },
  {
    "id": "170500342",
    "name": "高齢者総合福祉施設　サン・グレイス",
    "kana": "コウレイシヤソウゴウフクシシセツ　サン・グレイス",
    "address": "札幌市南区川沿１３条３丁目５番１号",
    "lat": 42.9782970381437,
    "lng": 141.332485155017,
    "tel": "011-571-6000",
    "url": "http://www.aizenkai.or.jp/",
    "pref": "北海道",
    "city": "札幌市南区",
    "category": "tokuyou",
    "serviceType": "介護老人福祉施設",
    "capacity": 0,
    "openDays": [],
    "openDaysNote": ""
  },
  {
    "id": "170500177",
    "name": "特別養護老人ホーム　ドリームハウス",
    "kana": "トクベツヨウゴロウジンホウムドリイムハウス",
    "address": "北海道札幌市南区北ノ沢1819-9",
    "lat": 43.0089045953528,
    "lng": 141.323807911115,
    "tel": "011-572-2100",
    "url": "http://maedakinen.org/",
    "pref": "北海道",
    "city": "札幌市南区",
    "category": "tokuyou",
    "serviceType": "介護老人福祉施設",
    "capacity": 90,
    "openDays": [],
    "openDaysNote": ""
  },
  {
    "id": "170500169",
    "name": "特別養護老人ホーム　和幸園",
    "kana": "トクベツヨウゴロウジンホーム　ワコウエン",
    "address": "札幌市南区石山932番地３",
    "lat": 42.9537518,
    "lng": 141.3379303,
    "tel": "011-591-5210",
    "url": "http://hapinisu.com",
    "pref": "北海道",
    "city": "札幌市南区",
    "category": "tokuyou",
    "serviceType": "介護老人福祉施設",
    "capacity": 120,
    "openDays": [],
    "openDaysNote": ""
  },
  {
    "id": "170513790",
    "name": "特別養護老人ホームふじの",
    "kana": "トクベツヨウゴロウジンホームフジノ",
    "address": "北海道札幌市南区藤野2条12丁目20番1号",
    "lat": 42.963394,
    "lng": 141.2757623,
    "tel": "011-211-0230",
    "url": "http://suzuran-fukushi.jp/",
    "pref": "北海道",
    "city": "札幌市南区",
    "category": "tokuyou",
    "serviceType": "介護老人福祉施設",
    "capacity": null,
    "openDays": [],
    "openDaysNote": ""
  },
  {
    "id": "170510002",
    "name": "特別養護老人ホームもなみの里",
    "kana": "トクベツヨウゴロウジンホームモナミノサト",
    "address": "北海道札幌市南区石山1条1丁目12番15号",
    "lat": 42.9811347,
    "lng": 141.3426927,
    "tel": "011-588-1165",
    "url": "http://kin-fukushikai.jp/",
    "pref": "北海道",
    "city": "札幌市南区",
    "category": "tokuyou",
    "serviceType": "介護老人福祉施設",
    "capacity": 80,
    "openDays": [],
    "openDaysNote": ""
  },
  {
    "id": "170505036",
    "name": "特別養護老人ホームらいらっく",
    "kana": "トクベツヨウゴロウジンホームライラック",
    "address": "札幌市南区藤野4条4丁目20番30号",
    "lat": 42.9563226,
    "lng": 141.3017275,
    "tel": "011-591-9000",
    "url": "http://www.hokushikai-lilac.com/",
    "pref": "北海道",
    "city": "札幌市南区",
    "category": "tokuyou",
    "serviceType": "介護老人福祉施設",
    "capacity": 0,
    "openDays": [],
    "openDaysNote": ""
  },
  {
    "id": "170512446",
    "name": "特別養護老人ホームらいらっく",
    "kana": "トクベツヨウゴロウジンホームライラック",
    "address": "札幌市南区藤野4条4丁目20番30号",
    "lat": 42.9563226,
    "lng": 141.3017275,
    "tel": "011-591-9000",
    "url": "https://nomad-haru.com/",
    "pref": "北海道",
    "city": "札幌市南区",
    "category": "tokuyou",
    "serviceType": "介護老人福祉施設",
    "capacity": 0,
    "openDays": [],
    "openDaysNote": ""
  },
  {
    "id": "170512537",
    "name": "特別養護老人ホーム　ノテきくすいの里",
    "kana": "トクベツヨウゴロウジンホーム　ノテキクスイノサト",
    "address": "北海道札幌市白石区菊水元町４条１丁目1-1",
    "lat": 43.0706056285079,
    "lng": 141.403210035118,
    "tel": "011-875-6111",
    "url": "",
    "pref": "北海道",
    "city": "札幌市白石区",
    "category": "tokuyou",
    "serviceType": "介護老人福祉施設",
    "capacity": 0,
    "openDays": [],
    "openDaysNote": ""
  },
  {
    "id": "170507628",
    "name": "特別養護老人ホーム　白石ポプラ園",
    "kana": "トクベツヨウゴロウジンホーム　シロイシポプラエン",
    "address": "札幌市白石区中央1条4丁目2-6",
    "lat": 43.0547531,
    "lng": 141.395604,
    "tel": "011-818-0010",
    "url": "http:www.syujukai.or.jp",
    "pref": "北海道",
    "city": "札幌市白石区",
    "category": "tokuyou",
    "serviceType": "介護老人福祉施設",
    "capacity": 0,
    "openDays": [],
    "openDaysNote": ""
  },
  {
    "id": "170513329",
    "name": "特別養護老人ホームあすかＨＯＵＳＥ白石",
    "kana": "トクベツヨウゴロウジンホームアスカハウスシロイシ",
    "address": "北海道札幌市白石区中央１条5丁目1－10",
    "lat": 43.0526466007758,
    "lng": 141.396572040476,
    "tel": "011-833-5003",
    "url": "asuka-sw.jp",
    "pref": "北海道",
    "city": "札幌市白石区",
    "category": "tokuyou",
    "serviceType": "介護老人福祉施設",
    "capacity": null,
    "openDays": [],
    "openDaysNote": ""
  },
  {
    "id": "170500326",
    "name": "特別養護老人ホームきさく苑",
    "kana": "トクベツヨウゴロウジンホームキサクエン",
    "address": "札幌市白石区川下２１２８－２",
    "lat": 43.0776329,
    "lng": 141.4472644,
    "tel": "011-875-8838",
    "url": "http://kakushou.com/",
    "pref": "北海道",
    "city": "札幌市白石区",
    "category": "tokuyou",
    "serviceType": "介護老人福祉施設",
    "capacity": 84,
    "openDays": [],
    "openDaysNote": ""
  },
  {
    "id": "170512081",
    "name": "特別養護老人ホームへいわの郷",
    "kana": "トクベツヨウゴロウジンホームヘイワノサト",
    "address": "北海道札幌市白石区平和通１丁目南２番１号",
    "lat": 43.054059,
    "lng": 141.4057502,
    "tel": "011-867-1555",
    "url": "http://www.hakueikai.jp/",
    "pref": "北海道",
    "city": "札幌市白石区",
    "category": "tokuyou",
    "serviceType": "介護老人福祉施設",
    "capacity": 0,
    "openDays": [],
    "openDaysNote": ""
  },
  {
    "id": "170500771",
    "name": "特別養護老人ホームルミエール",
    "kana": "トクベツヨウゴロウジンホームルミエール",
    "address": "札幌市白石区東札幌1条3丁目1－1",
    "lat": 43.0484228,
    "lng": 141.382761,
    "tel": "011-825-2555",
    "url": "http://www.lumiere.or.jp",
    "pref": "北海道",
    "city": "札幌市白石区",
    "category": "tokuyou",
    "serviceType": "介護老人福祉施設",
    "capacity": 0,
    "openDays": [],
    "openDaysNote": ""
  },
  {
    "id": "170500441",
    "name": "特別養護老人ホーム平成苑",
    "kana": "トクベツヨウゴロウジンホームヘイセイエン",
    "address": "北海道札幌市白石区菊水元町8条2丁目7-15",
    "lat": 43.0718298,
    "lng": 141.4142927,
    "tel": "011-879-6666",
    "url": "https://heiseien.or.jp/",
    "pref": "北海道",
    "city": "札幌市白石区",
    "category": "tokuyou",
    "serviceType": "介護老人福祉施設",
    "capacity": 80,
    "openDays": [],
    "openDaysNote": ""
  },
  {
    "id": "170503197",
    "name": "アビターレナーシングホーム",
    "kana": "アビターレナーシングホーム",
    "address": "札幌市豊平区平岸2条2丁目1番1号",
    "lat": 43.0410845,
    "lng": 141.3668626,
    "tel": "011-821-7000",
    "url": "http://www.aizenkai.or.jp",
    "pref": "北海道",
    "city": "札幌市豊平区",
    "category": "tokuyou",
    "serviceType": "介護老人福祉施設",
    "capacity": 80,
    "openDays": [],
    "openDaysNote": ""
  },
  {
    "id": "170500144",
    "name": "介護老人福祉施設ノテ幸栄の里",
    "kana": "カイゴロウジンフクシシセツノテコウエイノサト",
    "address": "北海道札幌市豊平区月寒東1条13丁目4-58",
    "lat": 43.0326772,
    "lng": 141.3910581,
    "tel": "011-853-0181",
    "url": "",
    "pref": "北海道",
    "city": "札幌市豊平区",
    "category": "tokuyou",
    "serviceType": "介護老人福祉施設",
    "capacity": 0,
    "openDays": [],
    "openDaysNote": ""
  },
  {
    "id": "170507206",
    "name": "介護老人福祉施設月寒あさがおの郷",
    "kana": "カイゴロウジンフクシシセツツキサムアサガオノサト",
    "address": "札幌市豊平区月寒西1条11丁目2番35号",
    "lat": 43.023473,
    "lng": 141.3977581,
    "tel": "011-858-3333",
    "url": "http://www.keijinkai.com/asagao/",
    "pref": "北海道",
    "city": "札幌市豊平区",
    "category": "tokuyou",
    "serviceType": "介護老人福祉施設",
    "capacity": 0,
    "openDays": [],
    "openDaysNote": ""
  },
  {
    "id": "170502256",
    "name": "特別養護老人ホーム　コスモス苑",
    "kana": "トクベツヨウゴロウジンホーム　コスモスエン",
    "address": "札幌市豊平区月寒東4条10丁目8番30号",
    "lat": 43.0309725,
    "lng": 141.4110175,
    "tel": "011-859-3311",
    "url": "http://www.cosmosen.jp",
    "pref": "北海道",
    "city": "札幌市豊平区",
    "category": "tokuyou",
    "serviceType": "介護老人福祉施設",
    "capacity": 60,
    "openDays": [],
    "openDaysNote": ""
  },
  {
    "id": "170508428",
    "name": "特別養護老人ホーム　ノテとよひらの里",
    "kana": "トクベツヨウゴロウジンホーム　ノテトヨヒラノサト",
    "address": "札幌市豊平区豊平3条11丁目2-15",
    "lat": 43.0467893728188,
    "lng": 141.38045368109,
    "tel": "011-820-5200",
    "url": "http://www.note.or.jp/facilities/details/04/",
    "pref": "北海道",
    "city": "札幌市豊平区",
    "category": "tokuyou",
    "serviceType": "介護老人福祉施設",
    "capacity": 0,
    "openDays": [],
    "openDaysNote": ""
  },
  {
    "id": "170515456",
    "name": "特別養護老人ホーム　ノテ中の島",
    "kana": "トクベツヨウゴロウジンホーム　ノテナカノシマ",
    "address": "北海道札幌市豊平区中の島2条5丁目5番1号",
    "lat": 43.0310193479114,
    "lng": 141.362078708598,
    "tel": "011-376-5580",
    "url": "https://www.note.or.jp/facilities/shisetsu/tokuyou/tokuyou-note-nakanoshima/",
    "pref": "北海道",
    "city": "札幌市豊平区",
    "category": "tokuyou",
    "serviceType": "介護老人福祉施設",
    "capacity": null,
    "openDays": [],
    "openDaysNote": ""
  },
  {
    "id": "170500292",
    "name": "特別養護老人ホーム　みどりの丘",
    "kana": "トクベツヨウゴロウジンホーム　ミドリノオカ",
    "address": "札幌市豊平区西岡５条１２丁目１番２号",
    "lat": 42.9962897,
    "lng": 141.382461,
    "tel": "011-581-3001",
    "url": "http://www.s-kouyoukai.jp/",
    "pref": "北海道",
    "city": "札幌市豊平区",
    "category": "tokuyou",
    "serviceType": "介護老人福祉施設",
    "capacity": 0,
    "openDays": [],
    "openDaysNote": ""
  },
  {
    "id": "170512594",
    "name": "特別養護老人ホームアビターレアネックス",
    "kana": "トクベツヨウゴロウジンホームアビターレアネックス",
    "address": "北海道札幌市豊平区平岸2条2丁目1番10号",
    "lat": 43.0411655611657,
    "lng": 141.367507038762,
    "tel": "011-821-7000",
    "url": "http://www.aizenkai.or.jp/",
    "pref": "北海道",
    "city": "札幌市豊平区",
    "category": "tokuyou",
    "serviceType": "介護老人福祉施設",
    "capacity": 0,
    "openDays": [],
    "openDaysNote": ""
  },
  {
    "id": "170501357",
    "name": "特別養護老人ホームくりのみ",
    "kana": "トクベツヨウゴロウジンホームクリノミ",
    "address": "札幌市豊平区平岸8条12丁目３－２０",
    "lat": 43.0263501,
    "lng": 141.3841897,
    "tel": "011-813-8881",
    "url": "http://keiwakai-kurinomi.or.jp/shisetu/",
    "pref": "北海道",
    "city": "札幌市豊平区",
    "category": "tokuyou",
    "serviceType": "介護老人福祉施設",
    "capacity": null,
    "openDays": [],
    "openDaysNote": ""
  },
  {
    "id": "170513832",
    "name": "特別養護老人ホーム羊ヶ丘陽光苑",
    "kana": "トクベツヨウゴロウジンホームヒツジガオカヨウコウエン",
    "address": "福住3条9丁目4番32号",
    "lat": 43.0033077438661,
    "lng": 141.392977477479,
    "tel": "011-858-1155",
    "url": "http://oiwake-akebono.net",
    "pref": "北海道",
    "city": "札幌市豊平区",
    "category": "tokuyou",
    "serviceType": "介護老人福祉施設",
    "capacity": 80,
    "openDays": [],
    "openDaysNote": ""
  },
  {
    "id": "170200026",
    "name": "介護老人福祉施設　福寿園",
    "kana": "カイゴロウジンフクシシセツ　フクジュエン",
    "address": "札幌市北区東茨戸２条２丁目８番２１号",
    "lat": 43.1642911,
    "lng": 141.357581,
    "tel": "011-772-7181",
    "url": "http://www.keiyu-kai.org",
    "pref": "北海道",
    "city": "札幌市北区",
    "category": "tokuyou",
    "serviceType": "介護老人福祉施設",
    "capacity": 0,
    "openDays": [],
    "openDaysNote": ""
  },
  {
    "id": "170205884",
    "name": "介護老人福祉施設ら・せれな",
    "kana": "カイゴロウジンフクシシセツラ・セレナ",
    "address": "北海道札幌市北区百合が原3丁目１－１",
    "lat": 43.1250839012432,
    "lng": 141.355301282278,
    "tel": "011-702-1152",
    "url": "",
    "pref": "北海道",
    "city": "札幌市北区",
    "category": "tokuyou",
    "serviceType": "介護老人福祉施設",
    "capacity": 0,
    "openDays": [],
    "openDaysNote": ""
  },
  {
    "id": "170205215",
    "name": "介護老人福祉施設白ゆりあいの里",
    "kana": "カイゴロウジンフクシシセツシラユリアイノサト",
    "address": "北海道札幌市北区あいの里３条８丁目１４番１号",
    "lat": 43.1655135,
    "lng": 141.4115761,
    "tel": "011-770-5880",
    "url": "http://www.h-yuuseikai.or.jp",
    "pref": "北海道",
    "city": "札幌市北区",
    "category": "tokuyou",
    "serviceType": "介護老人福祉施設",
    "capacity": 80,
    "openDays": [],
    "openDaysNote": ""
  },
  {
    "id": "170200067",
    "name": "新川エバーライフ",
    "kana": "シンカワエバーライフ",
    "address": "北海道札幌市北区新川７１５番地２",
    "lat": 43.1181504193701,
    "lng": 141.29700874418,
    "tel": "011-764-3663",
    "url": "http://www.keiyu-kai.org/",
    "pref": "北海道",
    "city": "札幌市北区",
    "category": "tokuyou",
    "serviceType": "介護老人福祉施設",
    "capacity": 0,
    "openDays": [],
    "openDaysNote": ""
  },
  {
    "id": "170209001",
    "name": "特別養護老人ホーム　あいの郷",
    "kana": "トクベツヨウゴロウジンホーム　アイノサト",
    "address": "北海道札幌市北区あいの里1条6丁目1番25号",
    "lat": 43.1554820538582,
    "lng": 141.402469705171,
    "tel": "011-790-6677",
    "url": "https://ainosato-fureai.jp/",
    "pref": "北海道",
    "city": "札幌市北区",
    "category": "tokuyou",
    "serviceType": "介護老人福祉施設",
    "capacity": 100,
    "openDays": [],
    "openDaysNote": ""
  },
  {
    "id": "170200216",
    "name": "特別養護老人ホーム　オニオンコート",
    "kana": "トクベツヨウゴロウジンホーム　オニオンコート",
    "address": "札幌市北区百合が原11丁目185－13",
    "lat": 43.1322535,
    "lng": 141.3668626,
    "tel": "011-774-2133",
    "url": "http://onion.or.jp",
    "pref": "北海道",
    "city": "札幌市北区",
    "category": "tokuyou",
    "serviceType": "介護老人福祉施設",
    "capacity": 0,
    "openDays": [],
    "openDaysNote": ""
  },
  {
    "id": "170200224",
    "name": "特別養護老人ホーム　グリーンピア篠路",
    "kana": "トクベツヨウゴロウジンホーム　グリーンピアシノロ",
    "address": "札幌市北区篠路２条９丁目１番８０号",
    "lat": 43.1413997,
    "lng": 141.3690924,
    "tel": "011-770-2121",
    "url": "http://www1/odn.ne.jp/green-pia/",
    "pref": "北海道",
    "city": "札幌市北区",
    "category": "tokuyou",
    "serviceType": "介護老人福祉施設",
    "capacity": 0,
    "openDays": [],
    "openDaysNote": ""
  },
  {
    "id": "170202121",
    "name": "特別養護老人ホーム　清明庵",
    "kana": "トクベツヨウゴロウジンホーム　セイメイアン",
    "address": "北海道札幌市北区屯田９条３丁目３番３０号特別養護老人ホーム清明庵 特別養護老人ホーム清明庵",
    "lat": 43.1433709,
    "lng": 141.3412583,
    "tel": "011-774-9277",
    "url": "http://www.shoyokai.org",
    "pref": "北海道",
    "city": "札幌市北区",
    "category": "tokuyou",
    "serviceType": "介護老人福祉施設",
    "capacity": 0,
    "openDays": [],
    "openDaysNote": ""
  },
  {
    "id": "170208649",
    "name": "特別養護老人ホームしのろ三清荘",
    "kana": "トクベツヨウゴロウジンホームシノロサンセイソウ",
    "address": "北海道札幌市北区篠路5条8丁目2-8",
    "lat": 43.1476905,
    "lng": 141.3676724,
    "tel": "011-214-1241",
    "url": "http://www.keizankai.or.jp",
    "pref": "北海道",
    "city": "札幌市北区",
    "category": "tokuyou",
    "serviceType": "介護老人福祉施設",
    "capacity": 80,
    "openDays": [],
    "openDaysNote": ""
  },
  {
    "id": "170207278",
    "name": "特別養護老人ホーム七色の風",
    "kana": "トクベツヨウゴロウジンホームナナイロノカゼ",
    "address": "北海道札幌市北区屯田9条9丁目5番15号",
    "lat": 43.1438177,
    "lng": 141.324451,
    "tel": "011-775-7160",
    "url": "www.partner.or.jp/",
    "pref": "北海道",
    "city": "札幌市北区",
    "category": "tokuyou",
    "serviceType": "介護老人福祉施設",
    "capacity": 0,
    "openDays": [],
    "openDaysNote": ""
  },
  {
    "id": "170200893",
    "name": "特別養護老人ホーム清香園",
    "kana": "トクベツヨウゴロウジンホームセイカエン",
    "address": "北海道札幌市北区新琴似1条3丁目3番6号",
    "lat": 43.104623,
    "lng": 141.3221738,
    "tel": "011-769-8520",
    "url": "http://www.seikaen-hp.com",
    "pref": "北海道",
    "city": "札幌市北区",
    "category": "tokuyou",
    "serviceType": "介護老人福祉施設",
    "capacity": 65,
    "openDays": [],
    "openDaysNote": ""
  },
  {
    "id": "176000131",
    "name": "三笠市ことぶき荘",
    "kana": "ミカサシコトブキソウ",
    "address": "北海道三笠市清住町112番地5",
    "lat": 43.2545626819202,
    "lng": 141.903188362566,
    "tel": "01267‐2‐2146",
    "url": "http://www.mikasa-jigyodan.or.jp",
    "pref": "北海道",
    "city": "三笠市",
    "category": "tokuyou",
    "serviceType": "介護老人福祉施設",
    "capacity": 88,
    "openDays": [],
    "openDaysNote": ""
  },
  {
    "id": "173200205",
    "name": "介護老人福祉施設朝日美土里ハイツ",
    "kana": "カイゴロウジンフクシシセツアサヒミドリハイツ",
    "address": "北海道士別市朝日町中央4029番地",
    "lat": 44.1164969,
    "lng": 142.5923969,
    "tel": "0165-28-2201",
    "url": "http://www.asahifukushi.or.jp/",
    "pref": "北海道",
    "city": "士別市",
    "category": "tokuyou",
    "serviceType": "介護老人福祉施設",
    "capacity": 0,
    "openDays": [],
    "openDaysNote": ""
  },
  {
    "id": "173200593",
    "name": "特別養護老人ホーム士別コスモス苑",
    "kana": "トクベツヨウゴロウジンホームシベツコスモスエン",
    "address": "士別市東9条2丁目2番地",
    "lat": 44.1809698,
    "lng": 142.4043363,
    "tel": "0165-22-2280",
    "url": "http://www.city.shibetsu.lg.jp/www/contents/1250838870199/index.html",
    "pref": "北海道",
    "city": "士別市",
    "category": "tokuyou",
    "serviceType": "介護老人福祉施設",
    "capacity": 70,
    "openDays": [],
    "openDaysNote": ""
  },
  {
    "id": "174700799",
    "name": "士幌町立特別養護老人ホーム",
    "kana": "シホロチョウリツトクベツヨウゴロウジンホーム",
    "address": "河東郡士幌町字士幌西2線169番地",
    "lat": 43.1717853,
    "lng": 143.2470123,
    "tel": "01564-5-2416",
    "url": "",
    "pref": "北海道",
    "city": "士幌町",
    "category": "tokuyou",
    "serviceType": "介護老人福祉施設",
    "capacity": 0,
    "openDays": [],
    "openDaysNote": ""
  },
  {
    "id": "176700037",
    "name": "特別養護老人ホーム歌翠園",
    "kana": "トクベツヨウゴロウジンホウムカスイエン",
    "address": "北海道枝幸郡枝幸町歌登桧垣町１４２番地",
    "lat": 44.8371826,
    "lng": 142.466947,
    "tel": "0163-68-3031",
    "url": "http://kasuien.com/html/",
    "pref": "北海道",
    "city": "枝幸町",
    "category": "tokuyou",
    "serviceType": "介護老人福祉施設",
    "capacity": 0,
    "openDays": [],
    "openDaysNote": ""
  },
  {
    "id": "176700227",
    "name": "特別養護老人ホーム枝幸苑",
    "kana": "トクベツヨウゴロウジンホームエサシエン",
    "address": "北海道枝幸郡枝幸町三笠町1611番地43",
    "lat": 44.9408019,
    "lng": 142.5687173,
    "tel": "0163-62-4038",
    "url": "",
    "pref": "北海道",
    "city": "枝幸町",
    "category": "tokuyou",
    "serviceType": "介護老人福祉施設",
    "capacity": null,
    "openDays": [],
    "openDaysNote": ""
  },
  {
    "id": "174700161",
    "name": "特別養護老人ホームしゃくなげ荘",
    "kana": "トクベツヨウゴロウジンホームシャクナゲソウ",
    "address": "北海道河東郡鹿追町北町1丁目13番地",
    "lat": 43.1112205,
    "lng": 142.9961612,
    "tel": "0156-66-2588",
    "url": "http://www.shikaoi-keiaikai.jp",
    "pref": "北海道",
    "city": "鹿追町",
    "category": "tokuyou",
    "serviceType": "介護老人福祉施設",
    "capacity": 0,
    "openDays": [],
    "openDaysNote": ""
  },
  {
    "id": "171500309",
    "name": "渡島リハビリテーションセンター特別養護部",
    "kana": "オシマリハビリテーションセンタートクベツヨウゴブ",
    "address": "北海道茅部郡鹿部町字鹿部258番地7",
    "lat": 42.023142,
    "lng": 140.8337416,
    "tel": "01372-7-3321",
    "url": "http://www.oshima-rehabili.com/",
    "pref": "北海道",
    "city": "鹿部町",
    "category": "tokuyou",
    "serviceType": "介護老人福祉施設",
    "capacity": 0,
    "openDays": [],
    "openDaysNote": ""
  },
  {
    "id": "171500598",
    "name": "介護老人福祉施設　ゆうりん",
    "kana": "カイゴロウジンフクシシセツ　ユウリン",
    "address": "北海道亀田郡七飯町鳴川3丁目25番2号",
    "lat": 41.8888899,
    "lng": 140.6936055,
    "tel": "0138-65-1122",
    "url": "http://www.nanaeyurinkai.or.jp",
    "pref": "北海道",
    "city": "七飯町",
    "category": "tokuyou",
    "serviceType": "介護老人福祉施設",
    "capacity": 0,
    "openDays": [],
    "openDaysNote": ""
  },
  {
    "id": "173501727",
    "name": "ユニット型特別養護老人ホームエンルムハイツ",
    "kana": "ユニットガタトクベツヨウゴロウジンホームエンルムハイツ",
    "address": "室蘭市祝津町３丁目１６番３２号",
    "lat": 42.3334853,
    "lng": 140.9433946,
    "tel": "0143-27-5577",
    "url": "http://muroran-fukushi.com/",
    "pref": "北海道",
    "city": "室蘭市",
    "category": "tokuyou",
    "serviceType": "介護老人福祉施設",
    "capacity": 0,
    "openDays": [],
    "openDaysNote": ""
  },
  {
    "id": "173500059",
    "name": "特別養護老人ホーム　エンルムハイツ",
    "kana": "トクベツヨウゴロウジンホーム　エンルムハイツ",
    "address": "室蘭市祝津町３丁目１６番３２号",
    "lat": 42.3334853,
    "lng": 140.9433946,
    "tel": "0143-27-5577",
    "url": "http://muroran-fukushi.com/",
    "pref": "北海道",
    "city": "室蘭市",
    "category": "tokuyou",
    "serviceType": "介護老人福祉施設",
    "capacity": 0,
    "openDays": [],
    "openDaysNote": ""
  },
  {
    "id": "173501263",
    "name": "特別養護老人ホームみたらの杜",
    "kana": "トクベツヨウゴロウジンホームミタラノモリ",
    "address": "北海道室蘭市絵鞆町２丁目２２番地１",
    "lat": 42.3344936,
    "lng": 140.9351781,
    "tel": "0143-26-2700",
    "url": "http://www.koseikai-wel.or.jp",
    "pref": "北海道",
    "city": "室蘭市",
    "category": "tokuyou",
    "serviceType": "介護老人福祉施設",
    "capacity": 124,
    "openDays": [],
    "openDaysNote": ""
  },
  {
    "id": "173500067",
    "name": "特別養護老人ホーム白鳥ハイツ",
    "kana": "トクベツヨウゴロウジンホームハクチョウハイツ",
    "address": "北海道室蘭市白鳥台４丁目８番１号",
    "lat": 42.3829365,
    "lng": 140.9471505,
    "tel": "0143-59-3033",
    "url": "http://muroran-fukushi.com/",
    "pref": "北海道",
    "city": "室蘭市",
    "category": "tokuyou",
    "serviceType": "介護老人福祉施設",
    "capacity": 0,
    "openDays": [],
    "openDaysNote": ""
  },
  {
    "id": "175300482",
    "name": "特別養護老人ホームやすらぎの苑",
    "kana": "トクベツヨウゴロウジンホーム　ヤスラギノソノ",
    "address": "北海道斜里郡斜里町青葉町３８番地",
    "lat": 43.9037993,
    "lng": 144.6623918,
    "tel": "0152-23-2552",
    "url": "https://www.protech-web.co.jp/homepage/sharifukushikai/index.html",
    "pref": "北海道",
    "city": "斜里町",
    "category": "tokuyou",
    "serviceType": "介護老人福祉施設",
    "capacity": 0,
    "openDays": [],
    "openDaysNote": ""
  },
  {
    "id": "172100059",
    "name": "寿都寿海荘",
    "kana": "スッツジュカイソウ",
    "address": "北海道寿都郡寿都町字開進町５０番地",
    "lat": 42.7895243671598,
    "lng": 140.236416236319,
    "tel": "0136-75-7584",
    "url": "",
    "pref": "北海道",
    "city": "寿都町",
    "category": "tokuyou",
    "serviceType": "介護老人福祉施設",
    "capacity": 0,
    "openDays": [],
    "openDaysNote": ""
  },
  {
    "id": "175300128",
    "name": "小清水町特別養護老人ホーム愛寿苑",
    "kana": "コシミズチョウトクベツヨウゴロウジンホームアイジュエン",
    "address": "北海道斜里郡小清水町字共和13番地の1",
    "lat": 43.8520608,
    "lng": 144.4628423,
    "tel": "0152-62-3301",
    "url": "http://www.dou-kouseiren.com/",
    "pref": "北海道",
    "city": "小清水町",
    "category": "tokuyou",
    "serviceType": "介護老人福祉施設",
    "capacity": 70,
    "openDays": [],
    "openDaysNote": ""
  },
  {
    "id": "172000036",
    "name": "特別養護老人ホーム　リバーサイドなんたる",
    "kana": "リバーサイドナンタル",
    "address": "北海道小樽市若松２丁目８番20号",
    "lat": 43.1822126933849,
    "lng": 141.008655075278,
    "tel": "0134-29-0015",
    "url": "https://www.otaru-hokubenkai.or.jp/",
    "pref": "北海道",
    "city": "小樽市",
    "category": "tokuyou",
    "serviceType": "介護老人福祉施設",
    "capacity": 0,
    "openDays": [],
    "openDaysNote": ""
  },
  {
    "id": "172000051",
    "name": "特別養護老人ホームはる",
    "kana": "トクベツヨウゴロウジンホームハル",
    "address": "小樽市赤岩２丁目１８番２２号",
    "lat": 43.2251025,
    "lng": 140.9937568,
    "tel": "0134-31-2222",
    "url": "https://nomad-haru.com/",
    "pref": "北海道",
    "city": "小樽市",
    "category": "tokuyou",
    "serviceType": "介護老人福祉施設",
    "capacity": 0,
    "openDays": [],
    "openDaysNote": ""
  },
  {
    "id": "172000044",
    "name": "特別養護老人ホームやすらぎ荘",
    "kana": "トクベツヨウゴロウジンホームヤスラギソウ",
    "address": "北海道小樽市オタモイ1丁目20番18号",
    "lat": 43.2196109,
    "lng": 140.9589015,
    "tel": "0134-28-2500",
    "url": "http://www.otaru-ikuseiin.com/",
    "pref": "北海道",
    "city": "小樽市",
    "category": "tokuyou",
    "serviceType": "介護老人福祉施設",
    "capacity": 0,
    "openDays": [],
    "openDaysNote": ""
  },
  {
    "id": "172001125",
    "name": "特別養護老人ホーム朝里温泉",
    "kana": "トクベツヨウゴロウジンホームアサリオンセン",
    "address": "小樽市朝里川温泉２丁目７０８番地１",
    "lat": 43.1505203,
    "lng": 141.042393,
    "tel": "0134-54-9001",
    "url": "http://www.otaru-hokubenkai.or.jp",
    "pref": "北海道",
    "city": "小樽市",
    "category": "tokuyou",
    "serviceType": "介護老人福祉施設",
    "capacity": 80,
    "openDays": [],
    "openDaysNote": ""
  },
  {
    "id": "172002420",
    "name": "特別養護老人ホーム東小樽",
    "kana": "トクベツヨウゴロウジンホームヒガシオタル",
    "address": "北海道小樽市新光2丁目29番3号東小樽病院 東小樽病院",
    "lat": 43.1684295753964,
    "lng": 141.052944809262,
    "tel": "0134-52-3200",
    "url": "https://www.otaru-hokubenkai.or.jp/",
    "pref": "北海道",
    "city": "小樽市",
    "category": "tokuyou",
    "serviceType": "介護老人福祉施設",
    "capacity": null,
    "openDays": [],
    "openDaysNote": ""
  },
  {
    "id": "176400026",
    "name": "小平町立特別養護老人ホーム愛生園",
    "kana": "オビラチョウリツトクベツヨウゴロウジンホームアイセイエン",
    "address": "北海道留萌郡小平町字小平町３９８番地の20",
    "lat": 44.0125661,
    "lng": 141.6624059,
    "tel": "0164-59-1146",
    "url": "",
    "pref": "北海道",
    "city": "小平町",
    "category": "tokuyou",
    "serviceType": "介護老人福祉施設",
    "capacity": 0,
    "openDays": [],
    "openDaysNote": ""
  },
  {
    "id": "171500168",
    "name": "特別養護老人ホーム松前南殿荘",
    "kana": "トクベツヨウゴロウジンホームマツマエナデンソウ",
    "address": "北海道松前郡松前町建石216-184",
    "lat": 41.4318044,
    "lng": 140.0792377,
    "tel": "0139-42-2550",
    "url": "http://nadensou.sakura.ne.jp/nadensou/top.html",
    "pref": "北海道",
    "city": "松前町",
    "category": "tokuyou",
    "serviceType": "介護老人福祉施設",
    "capacity": 0,
    "openDays": [],
    "openDaysNote": ""
  },
  {
    "id": "177400165",
    "name": "沼田町特別養護老人ホーム旭寿園",
    "kana": "ヌマタチョウトクベツヨウゴロウジンホームキョクジュエン",
    "address": "雨竜郡沼田町旭町3丁目5番25号",
    "lat": 43.8063721,
    "lng": 141.9434984,
    "tel": "0164-35-2611",
    "url": "https://kyokujyuen.wixsite.com/numata",
    "pref": "北海道",
    "city": "沼田町",
    "category": "tokuyou",
    "serviceType": "介護老人福祉施設",
    "capacity": 80,
    "openDays": [],
    "openDaysNote": ""
  },
  {
    "id": "171600083",
    "name": "特別養護老人ホーム　かみのくに荘",
    "kana": "トクベツヨウゴロウジンホーム　カミノクニソウ",
    "address": "檜山郡上ノ国町字勝山２４番地１",
    "lat": 41.7970624,
    "lng": 140.1173205,
    "tel": "0139-55-3601",
    "url": "http://kaminokuni-fukushi.jp/",
    "pref": "北海道",
    "city": "上ノ国町",
    "category": "tokuyou",
    "serviceType": "介護老人福祉施設",
    "capacity": 50,
    "openDays": [],
    "openDaysNote": ""
  },
  {
    "id": "177100088",
    "name": "上砂川町立特別養護老人ホーム",
    "kana": "カミスナガワチョウリツトクベツヨウゴロウジンホーム",
    "address": "北海道空知郡上砂川町字上砂川２２番地１６",
    "lat": 43.466681,
    "lng": 142.0125115,
    "tel": "0125-62-3546",
    "url": "http://www.town.kamisunagawa.hokkaido.jp/",
    "pref": "北海道",
    "city": "上砂川町",
    "category": "tokuyou",
    "serviceType": "介護老人福祉施設",
    "capacity": 0,
    "openDays": [],
    "openDaysNote": ""
  },
  {
    "id": "174700153",
    "name": "特別養護老人ホーム上士幌すずらん荘",
    "kana": "トクベツヨウゴロウジンホームカミシホロスズランソウ",
    "address": "北海道河東郡上士幌町字上士幌東２線２４２番地",
    "lat": 43.2363059,
    "lng": 143.2907838,
    "tel": "01564-2-4632",
    "url": "http://www.kamishihoro.or.jp",
    "pref": "北海道",
    "city": "上士幌町",
    "category": "tokuyou",
    "serviceType": "介護老人福祉施設",
    "capacity": 0,
    "openDays": [],
    "openDaysNote": ""
  },
  {
    "id": "173100074",
    "name": "上川町特別養護老人ホーム大雪荘",
    "kana": "カミカワチョウトクベツヨウゴロウジンホームタイセツソウ",
    "address": "北海道上川郡上川町西町４番地１",
    "lat": 43.8548985,
    "lng": 142.7594455,
    "tel": "01658-2-3333",
    "url": "https://kamikawa-fukujuen.jp/",
    "pref": "北海道",
    "city": "上川町",
    "category": "tokuyou",
    "serviceType": "介護老人福祉施設",
    "capacity": 0,
    "openDays": [],
    "openDaysNote": ""
  },
  {
    "id": "173000068",
    "name": "上富良野町ラベンダーハイツ　特別養護老人ホーム",
    "kana": "カミフラノチョウ　ラベンダーハイツ　トクベツヨウゴロウジンホーム",
    "address": "北海道空知郡上富良野町西１線北２４号",
    "lat": 43.4593687,
    "lng": 142.4547842,
    "tel": "0167-45-2300",
    "url": "http://www.town.kamifurano.hokkaido.jp/",
    "pref": "北海道",
    "city": "上富良野町",
    "category": "tokuyou",
    "serviceType": "介護老人福祉施設",
    "capacity": 50,
    "openDays": [],
    "openDaysNote": ""
  },
  {
    "id": "173800749",
    "name": "新ひだか町立特別養護老人ホーム静寿園",
    "kana": "シンヒダカチョウリツトクベツヨウゴロウジンホームセイジュエン",
    "address": "北海道日高郡新ひだか町静内緑町７丁目５番１号新ひだか町立特別養護老人ホーム静寿園 新ひだか町立特別養護老人ホーム静寿園",
    "lat": 42.3389082648297,
    "lng": 142.375831660049,
    "tel": "0146-42-3018",
    "url": "",
    "pref": "北海道",
    "city": "新ひだか町",
    "category": "tokuyou",
    "serviceType": "介護老人福祉施設",
    "capacity": 0,
    "openDays": [],
    "openDaysNote": ""
  },
  {
    "id": "173800756",
    "name": "新ひだか町立特別養護老人ホーム蓬莱荘",
    "kana": "シンヒダカチョウリツトクベツヨウゴロウジンホームホウライソウ",
    "address": "北海道日高郡新ひだか町三石旭町49番地の13",
    "lat": 42.2480104,
    "lng": 142.5664482,
    "tel": "0146-33-2214",
    "url": "http://moe-fukushi.com/",
    "pref": "北海道",
    "city": "新ひだか町",
    "category": "tokuyou",
    "serviceType": "介護老人福祉施設",
    "capacity": 0,
    "openDays": [],
    "openDaysNote": ""
  },
  {
    "id": "173800178",
    "name": "新冠町立特別養護老人ホーム恵寿荘",
    "kana": "ニイカップチョウリツトクベツヨウゴロウジンホームケイジュソウ",
    "address": "北海道新冠郡新冠町字中央町５番地の３６",
    "lat": 42.3631053,
    "lng": 142.3139547,
    "tel": "0146-47-2355",
    "url": "http://www.niikappu.jp",
    "pref": "北海道",
    "city": "新冠町",
    "category": "tokuyou",
    "serviceType": "介護老人福祉施設",
    "capacity": 70,
    "openDays": [],
    "openDaysNote": ""
  },
  {
    "id": "173801440",
    "name": "特別養護老人ホームおうるの郷",
    "kana": "トクベツヨウゴロウジンホームオウルノサト",
    "address": "北海道新冠郡新冠町字共栄３１８番地１９",
    "lat": 42.4529542939684,
    "lng": 142.296561647221,
    "tel": "0146-47-6296",
    "url": "https://fukuroukai.org/",
    "pref": "北海道",
    "city": "新冠町",
    "category": "tokuyou",
    "serviceType": "介護老人福祉施設",
    "capacity": 0,
    "openDays": [],
    "openDaysNote": ""
  },
  {
    "id": "171000037",
    "name": "特別養護老人ホーム新篠津福祉園",
    "kana": "トクベツヨウゴロウジンホームシンシノツフクシエン",
    "address": "北海道石狩郡新篠津村第45線北12番地",
    "lat": 43.2232791,
    "lng": 141.6408196,
    "tel": "0126-57-2730",
    "url": "http://www.sinsinotu.jp/",
    "pref": "北海道",
    "city": "新篠津村",
    "category": "tokuyou",
    "serviceType": "介護老人福祉施設",
    "capacity": 0,
    "openDays": [],
    "openDaysNote": ""
  },
  {
    "id": "177100369",
    "name": "特別養護老人ホームかおる園",
    "kana": "トクベツヨウゴロウジンホームカオルエン",
    "address": "樺戸郡新十津川町字花月２０１番地１",
    "lat": 43.4993718,
    "lng": 141.860057,
    "tel": "0125-74-2211",
    "url": "https://www.maywakai.info/",
    "pref": "北海道",
    "city": "新十津川町",
    "category": "tokuyou",
    "serviceType": "介護老人福祉施設",
    "capacity": 100,
    "openDays": [],
    "openDaysNote": ""
  },
  {
    "id": "174700179",
    "name": "特別養護老人ホーム新得やすらぎ荘",
    "kana": "トクベツヨウゴロウジンホームシントクヤスラギソウ",
    "address": "北海道上川郡新得町西３条北１丁目",
    "lat": 43.0818069,
    "lng": 142.8250348,
    "tel": "0156-64-5196",
    "url": "http://www.wakafuji.or.jp",
    "pref": "北海道",
    "city": "新得町",
    "category": "tokuyou",
    "serviceType": "介護老人福祉施設",
    "capacity": 0,
    "openDays": [],
    "openDaysNote": ""
  },
  {
    "id": "171500911",
    "name": "森町立特別養護老人ホームさくらの園",
    "kana": "モリチョウリツトクベツヨウゴロウジンホームサクラノソノ",
    "address": "北海道茅部郡森町字森川町278番地2",
    "lat": 42.0969431,
    "lng": 140.5778989,
    "tel": "01374-2-0281",
    "url": "http://www.town.hokkaido-mori.lg.jp/moriweb/01life/03kenko/tokuro/index.html",
    "pref": "北海道",
    "city": "森町",
    "category": "tokuyou",
    "serviceType": "介護老人福祉施設",
    "capacity": 0,
    "openDays": [],
    "openDaysNote": ""
  },
  {
    "id": "171500044",
    "name": "特別養護老人ホーム　シャリテさわら",
    "kana": "トクベツヨウゴロウジンホーム　シャリテサワラ",
    "address": "北海道茅部郡森町字砂原2丁目１８８番地１９",
    "lat": 42.1216040204603,
    "lng": 140.668937617197,
    "tel": "01374-8-4111",
    "url": "http://charite-sawara.net/",
    "pref": "北海道",
    "city": "森町",
    "category": "tokuyou",
    "serviceType": "介護老人福祉施設",
    "capacity": 0,
    "openDays": [],
    "openDaysNote": ""
  },
  {
    "id": "177400108",
    "name": "特別養護老人ホーム永福園",
    "kana": "トクベツヨウゴロウジンホームエイフクエン",
    "address": "深川市西町1番13号",
    "lat": 43.7161938,
    "lng": 142.0301961,
    "tel": "0164-22-4401",
    "url": "https://mypage.fukanavi.com/eifukuen/",
    "pref": "北海道",
    "city": "深川市",
    "category": "tokuyou",
    "serviceType": "介護老人福祉施設",
    "capacity": 50,
    "openDays": [],
    "openDaysNote": ""
  },
  {
    "id": "177400520",
    "name": "特別養護老人ホーム清祥園",
    "kana": "トクベツヨウゴロウジンホームセイショウエン",
    "address": "北海道深川市納内町北3番97号",
    "lat": 43.0646147,
    "lng": 141.3468074,
    "tel": "0164-24-3911",
    "url": "https://yourankai-group.jp",
    "pref": "北海道",
    "city": "深川市",
    "category": "tokuyou",
    "serviceType": "介護老人福祉施設",
    "capacity": 0,
    "openDays": [],
    "openDaysNote": ""
  },
  {
    "id": "172200073",
    "name": "特別養護老人ホーム真狩羊蹄園",
    "kana": "トクベツヨウゴロウジンホームマッカリヨウテイエン",
    "address": "北海道虻田郡真狩村字共明３７番地６",
    "lat": 42.7688679,
    "lng": 140.8076625,
    "tel": "0136-45-3311",
    "url": "http://www.fukushinkai.com/index.html",
    "pref": "北海道",
    "city": "真狩村",
    "category": "tokuyou",
    "serviceType": "介護老人福祉施設",
    "capacity": 0,
    "openDays": [],
    "openDaysNote": ""
  },
  {
    "id": "172500035",
    "name": "特別養護老人ホーム　仁木長寿園",
    "kana": "トクベツヨウゴロウジンホーム　ニキチョウジュエン",
    "address": "北海道余市郡仁木町北町８丁目４０番地４",
    "lat": 43.1640679,
    "lng": 140.771712,
    "tel": "0135-32-3585",
    "url": "",
    "pref": "北海道",
    "city": "仁木町",
    "category": "tokuyou",
    "serviceType": "介護老人福祉施設",
    "capacity": 0,
    "openDays": [],
    "openDaysNote": ""
  },
  {
    "id": "174700823",
    "name": "特別養護老人ホームせせらぎ荘",
    "kana": "トクベツヨウゴロウジンホームセセラギソウ",
    "address": "北海道上川郡清水町南3条1丁目1番地",
    "lat": 43.0109451,
    "lng": 142.8825264,
    "tel": "0156-62-3611",
    "url": "http://www.asahiyama.or.jp",
    "pref": "北海道",
    "city": "清水町",
    "category": "tokuyou",
    "serviceType": "介護老人福祉施設",
    "capacity": 60,
    "openDays": [],
    "openDaysNote": ""
  },
  {
    "id": "175300110",
    "name": "特別養護老人ホーム清楽園",
    "kana": "トクベツヨウゴロウジンホームセイラクエン",
    "address": "北海道斜里郡清里町水元町３８番地４",
    "lat": 43.8399124,
    "lng": 144.5863321,
    "tel": "0152-25-2323",
    "url": "https://www.kiyosato-seirakuen.com/",
    "pref": "北海道",
    "city": "清里町",
    "category": "tokuyou",
    "serviceType": "介護老人福祉施設",
    "capacity": null,
    "openDays": [],
    "openDaysNote": ""
  },
  {
    "id": "175100072",
    "name": "特別養護老人ホーム　にしおこっぺ興楽園",
    "kana": "トクベツヨウゴロウジンホーム　ニシオコッペコウラクエン",
    "address": "北海道紋別郡西興部村字西興部289番地1",
    "lat": 44.3322556,
    "lng": 142.9467221,
    "tel": "0158-87-2331",
    "url": "https://ni-fukushikai.com/",
    "pref": "北海道",
    "city": "西興部村",
    "category": "tokuyou",
    "serviceType": "介護老人福祉施設",
    "capacity": 0,
    "openDays": [],
    "openDaysNote": ""
  },
  {
    "id": "175100387",
    "name": "特別養護老人ホームにしおこっぺ興楽園",
    "kana": "トクベツヨウゴロウジンホームニシオコッペコウラクエン",
    "address": "北海道紋別郡西興部村字西興部289番地1",
    "lat": 44.3322556,
    "lng": 142.9467221,
    "tel": "0158-87-2331",
    "url": "https://ni-fukushikai.com/",
    "pref": "北海道",
    "city": "西興部村",
    "category": "tokuyou",
    "serviceType": "介護老人福祉施設",
    "capacity": 0,
    "openDays": [],
    "openDaysNote": ""
  },
  {
    "id": "177600343",
    "name": "特別養護老人ホーム　ばんなぐろ",
    "kana": "トクベツヨウゴロウジンホーム　バンナグロ",
    "address": "石狩市花畔360番地26",
    "lat": 43.16714,
    "lng": 141.3049545,
    "tel": "0133-76-1133",
    "url": "https://yourakukai.or.jp/facilities/bannaguro/index.html",
    "pref": "北海道",
    "city": "石狩市",
    "category": "tokuyou",
    "serviceType": "介護老人福祉施設",
    "capacity": 50,
    "openDays": [],
    "openDaysNote": ""
  },
  {
    "id": "177600079",
    "name": "特別養護老人ホーム厚田みよし園",
    "kana": "トクベツヨウゴロウジンホームアツタミヨシエン",
    "address": "北海道石狩市厚田区厚田１８９番地１",
    "lat": 43.4021087,
    "lng": 141.4353384,
    "tel": "0133-78-2111",
    "url": "http://miyosien.jp/",
    "pref": "北海道",
    "city": "石狩市",
    "category": "tokuyou",
    "serviceType": "介護老人福祉施設",
    "capacity": 0,
    "openDays": [],
    "openDaysNote": ""
  },
  {
    "id": "177600061",
    "name": "特別養護老人ホーム石狩希久の園",
    "kana": "トクベツヨウゴロウジンホームイシカリキクノソノ",
    "address": "石狩市八幡町高岡27番地9",
    "lat": 43.254568,
    "lng": 141.4224791,
    "tel": "0133-66-4181",
    "url": "http://www.u-i.or.jp",
    "pref": "北海道",
    "city": "石狩市",
    "category": "tokuyou",
    "serviceType": "介護老人福祉施設",
    "capacity": 100,
    "openDays": [],
    "openDaysNote": ""
  },
  {
    "id": "177200045",
    "name": "あかびらエルムハイツ",
    "kana": "アカビラエルムハイツ",
    "address": "赤平市幌岡町４７番地",
    "lat": 43.5766221,
    "lng": 142.035044,
    "tel": "0125-32-0500",
    "url": "http://www.elm812.com/",
    "pref": "北海道",
    "city": "赤平市",
    "category": "tokuyou",
    "serviceType": "介護老人福祉施設",
    "capacity": 0,
    "openDays": [],
    "openDaysNote": ""
  },
  {
    "id": "177200151",
    "name": "特別養護老人ホーム　ユニット型あかびらエルムハイツ",
    "kana": "トクベツヨウゴロウジンホーム　ユニットガタアカビラエルムハイツ",
    "address": "北海道赤平市幌岡町47番地",
    "lat": 43.5769524320192,
    "lng": 142.03577892527,
    "tel": "0125-32-0500",
    "url": "http://www.elm812.com",
    "pref": "北海道",
    "city": "赤平市",
    "category": "tokuyou",
    "serviceType": "介護老人福祉施設",
    "capacity": 0,
    "openDays": [],
    "openDaysNote": ""
  },
  {
    "id": "177200185",
    "name": "特別養護老人ホーム　赤平愛真ホーム",
    "kana": "トクベツヨウゴロウジンホーム　アカビラアイシンホーム",
    "address": "北海道赤平市豊栄町１丁目7-1",
    "lat": 43.5653144805666,
    "lng": 142.036129209262,
    "tel": "0125-32-2884",
    "url": "http://www.elm812.com",
    "pref": "北海道",
    "city": "赤平市",
    "category": "tokuyou",
    "serviceType": "介護老人福祉施設",
    "capacity": 50,
    "openDays": [],
    "openDaysNote": ""
  },
  {
    "id": "171100258",
    "name": "特別養護老人ホームやまとの里",
    "kana": "トクベツヨウゴロウジンホームヤマトノサト",
    "address": "千歳市大和4丁目2番1号",
    "lat": 42.8212487,
    "lng": 141.6316527,
    "tel": "0123-23-1228",
    "url": "http://yamato-10980.chitose-hukushikai.biz",
    "pref": "北海道",
    "city": "千歳市",
    "category": "tokuyou",
    "serviceType": "介護老人福祉施設",
    "capacity": 0,
    "openDays": [],
    "openDaysNote": ""
  },
  {
    "id": "171100035",
    "name": "特別養護老人ホーム暢寿園",
    "kana": "トクベツヨウゴロウジンホームチョウジュエン",
    "address": "北海道千歳市富丘２丁目７番５号",
    "lat": 42.840472,
    "lng": 141.6499609,
    "tel": "0123-24-7922",
    "url": "http://www.chitose-hukushikai.biz/",
    "pref": "北海道",
    "city": "千歳市",
    "category": "tokuyou",
    "serviceType": "介護老人福祉施設",
    "capacity": 100,
    "openDays": [],
    "openDaysNote": ""
  },
  {
    "id": "173700154",
    "name": "特別養護老人ホーム　第2長日園",
    "kana": "トクベツヨウゴロウジンホーム　ダイ２チョウジツエン",
    "address": "有珠郡壮瞥町字滝之町287番地8",
    "lat": 42.5531167,
    "lng": 140.8900944,
    "tel": "0142-66-3255",
    "url": "http://www.tyoujituen.jp/",
    "pref": "北海道",
    "city": "壮瞥町",
    "category": "tokuyou",
    "serviceType": "介護老人福祉施設",
    "capacity": 50,
    "openDays": [],
    "openDaysNote": ""
  },
  {
    "id": "176400083",
    "name": "特別養護老人ホーム増毛町立明和園",
    "kana": "トクベツヨウゴロウジンホームマシケチョウリツメイワエン",
    "address": "増毛郡増毛町見晴町438番地1",
    "lat": 43.8503392,
    "lng": 141.5298364,
    "tel": "0164-53-1601",
    "url": "http://www.town.mashike.hokkaido.jp/",
    "pref": "北海道",
    "city": "増毛町",
    "category": "tokuyou",
    "serviceType": "介護老人福祉施設",
    "capacity": 0,
    "openDays": [],
    "openDaysNote": ""
  },
  {
    "id": "174700260",
    "name": "足寄町立特別養護老人ホームあゆみの園",
    "kana": "アショロチョウリツトクベツヨウゴロウジンホームアユミノソノ",
    "address": "足寄郡足寄町西町9丁目2番地31",
    "lat": 43.2530499,
    "lng": 143.5427167,
    "tel": "0156-25-3355",
    "url": "",
    "pref": "北海道",
    "city": "足寄町",
    "category": "tokuyou",
    "serviceType": "介護老人福祉施設",
    "capacity": 0,
    "openDays": [],
    "openDaysNote": ""
  },
  {
    "id": "174600072",
    "name": "特別養護老人ホーム　愛仁園",
    "kana": "トクベツヨウゴロウジホーム　アイジエン",
    "address": "北海道帯広市西17条南28丁目1番地1",
    "lat": 42.8977762,
    "lng": 143.1782586,
    "tel": "0155-48-3311",
    "url": "http://www.fujikai.or.jp",
    "pref": "北海道",
    "city": "帯広市",
    "category": "tokuyou",
    "serviceType": "介護老人福祉施設",
    "capacity": 100,
    "openDays": [],
    "openDaysNote": ""
  },
  {
    "id": "174600098",
    "name": "特別養護老人ホーム　帯広けいせい苑",
    "kana": "トクベツヨウゴロウジンホーム　オビヒロケイセイエン",
    "address": "北海道帯広市川西町西１線４７番地３",
    "lat": 42.8550808,
    "lng": 143.1779694,
    "tel": "0155-59-2952",
    "url": "http://www.keiseien.or.jp",
    "pref": "北海道",
    "city": "帯広市",
    "category": "tokuyou",
    "serviceType": "介護老人福祉施設",
    "capacity": 71,
    "openDays": [],
    "openDaysNote": ""
  },
  {
    "id": "174601740",
    "name": "特別養護老人ホーム　帯広至心寮",
    "kana": "トクベツヨウゴロウジンホーム　オビヒロシシンリョウ",
    "address": "北海道帯広市西5条南30丁目14番地",
    "lat": 42.8969441,
    "lng": 143.2011093,
    "tel": "0155-24-9572",
    "url": "http://shinsyukyoukai.jp/",
    "pref": "北海道",
    "city": "帯広市",
    "category": "tokuyou",
    "serviceType": "介護老人福祉施設",
    "capacity": null,
    "openDays": [],
    "openDaysNote": ""
  },
  {
    "id": "174600106",
    "name": "特別養護老人ホーム太陽園",
    "kana": "トクベツヨウゴロウジンホームタイヨウエン",
    "address": "帯広市大正町西１線９６－１",
    "lat": 42.7986643,
    "lng": 143.1574404,
    "tel": "0155-64-5570",
    "url": "",
    "pref": "北海道",
    "city": "帯広市",
    "category": "tokuyou",
    "serviceType": "介護老人福祉施設",
    "capacity": 0,
    "openDays": [],
    "openDaysNote": ""
  },
  {
    "id": "174601765",
    "name": "特別養護老人ホーム太陽園",
    "kana": "トクベツヨウゴロウジンホームタイヨウエン",
    "address": "北海道帯広市大正町西１線９６－１",
    "lat": 42.7986643,
    "lng": 143.1574404,
    "tel": "0155-64-5570",
    "url": "http://taiyo-fukushi.com/",
    "pref": "北海道",
    "city": "帯広市",
    "category": "tokuyou",
    "serviceType": "介護老人福祉施設",
    "capacity": 0,
    "openDays": [],
    "openDaysNote": ""
  },
  {
    "id": "174602045",
    "name": "特別養護老人ホーム帯広けいせい苑ユニット型",
    "kana": "トクベツヨウゴロウジンホームオビヒロケイセイエンユニットガタ",
    "address": "北海道帯広市川西町西1線47番地３",
    "lat": 42.8550808,
    "lng": 143.1779694,
    "tel": "0155-59-2952",
    "url": "http://www.keiseien.or.jp",
    "pref": "北海道",
    "city": "帯広市",
    "category": "tokuyou",
    "serviceType": "介護老人福祉施設",
    "capacity": 44,
    "openDays": [],
    "openDaysNote": ""
  },
  {
    "id": "174601088",
    "name": "特別養護老人ホーム帯広慈恩の里",
    "kana": "トクベツヨウゴロウジンホームオビヒロジオンノサト",
    "address": "北海道帯広市空港南町３０３番地１",
    "lat": 42.8765306,
    "lng": 143.1627557,
    "tel": "0155-49-2800",
    "url": "http://www.shinsyukyoukai.jp/",
    "pref": "北海道",
    "city": "帯広市",
    "category": "tokuyou",
    "serviceType": "介護老人福祉施設",
    "capacity": 0,
    "openDays": [],
    "openDaysNote": ""
  },
  {
    "id": "175200237",
    "name": "特別養護老人ホーム　女満別ドリーム苑",
    "kana": "トクベツヨウゴロウジンホーム　メマンベツドリームエン",
    "address": "北海道網走郡大空町女満別西４条５丁目４番１０号",
    "lat": 43.90837,
    "lng": 144.1729428,
    "tel": "0152-74-2555",
    "url": "http://memanbetsuhukushikai.web.fc2.com/",
    "pref": "北海道",
    "city": "大空町",
    "category": "tokuyou",
    "serviceType": "介護老人福祉施設",
    "capacity": 0,
    "openDays": [],
    "openDaysNote": ""
  },
  {
    "id": "175200021",
    "name": "特別養護老人ホーム女満別ドリーム苑",
    "kana": "トクベツヨウゴロウジンホームメマンベツドリームエン",
    "address": "北海道網走郡大空町女満別西４条５丁目４－１０",
    "lat": 43.915941,
    "lng": 144.170818,
    "tel": "0152-74-2555",
    "url": "http://memanbetsuhukushikai.web.fc2.com/",
    "pref": "北海道",
    "city": "大空町",
    "category": "tokuyou",
    "serviceType": "介護老人福祉施設",
    "capacity": 30,
    "openDays": [],
    "openDaysNote": ""
  },
  {
    "id": "175300094",
    "name": "特別養護老人ホーム東藻琴福寿苑",
    "kana": "トクベツヨウゴロウジンホームヒガシモコトフクジュエン",
    "address": "網走郡大空町東藻琴３８７番地８",
    "lat": 43.8408378,
    "lng": 144.2914384,
    "tel": "0152-66-3314",
    "url": "http://hukujyue.hp.infoseek.co.jp",
    "pref": "北海道",
    "city": "大空町",
    "category": "tokuyou",
    "serviceType": "介護老人福祉施設",
    "capacity": 0,
    "openDays": [],
    "openDaysNote": ""
  },
  {
    "id": "175200286",
    "name": "特別養護老人ホーム東藻琴福寿苑ユニット館",
    "kana": "トクベツヨウゴロウジンホームヒガシモコトフクジュエンユニットカン",
    "address": "北海道網走郡大空町東藻琴３８３番地の３５特別養護老人ホーム東藻琴福寿苑ユニット館 特別養護老人ホーム東藻琴福寿苑ユニット館",
    "lat": 43.8403712,
    "lng": 144.29263,
    "tel": "0152-67-5160",
    "url": "https://www.fukujyuen.info/",
    "pref": "北海道",
    "city": "大空町",
    "category": "tokuyou",
    "serviceType": "介護老人福祉施設",
    "capacity": null,
    "openDays": [],
    "openDaysNote": ""
  },
  {
    "id": "174700211",
    "name": "大樹町特別養護老人ホームコスモス苑",
    "kana": "タイキチョウトクベツヨウゴロウジンホームコスモスエン",
    "address": "広尾郡大樹町暁町６番地１",
    "lat": 42.4889244,
    "lng": 143.280128,
    "tel": "01558-6-2361",
    "url": "https://www.town.taiki.hokaido.jp",
    "pref": "北海道",
    "city": "大樹町",
    "category": "tokuyou",
    "serviceType": "介護老人福祉施設",
    "capacity": 50,
    "openDays": [],
    "openDaysNote": ""
  },
  {
    "id": "173100082",
    "name": "特別養護老人ホーム鷹栖さつき苑",
    "kana": "トクベツヨウゴロウジンホームタカスサツキエン",
    "address": "北海道上川郡鷹栖町南1条3丁目2番7号",
    "lat": 43.8439971,
    "lng": 142.3565591,
    "tel": "0166-87-3321",
    "url": "http://www.satsuki-kai.jp/",
    "pref": "北海道",
    "city": "鷹栖町",
    "category": "tokuyou",
    "serviceType": "介護老人福祉施設",
    "capacity": 0,
    "openDays": [],
    "openDaysNote": ""
  },
  {
    "id": "175100064",
    "name": "特別養護老人ホーム渓樹園",
    "kana": "トクベツヨウゴロウジンホームケイジュエン",
    "address": "北海道紋別郡滝上町字オシラネップ原野２８０番地",
    "lat": 44.197074822,
    "lng": 143.100232792065,
    "tel": "0158-29-2588",
    "url": "https://takinouefukushikai.com",
    "pref": "北海道",
    "city": "滝上町",
    "category": "tokuyou",
    "serviceType": "介護老人福祉施設",
    "capacity": 50,
    "openDays": [],
    "openDaysNote": ""
  },
  {
    "id": "177500519",
    "name": "滝川市特別養護老人ホーム緑寿園",
    "kana": "タキカワシトクベツヨウゴロウジンホームリョクジュエン",
    "address": "北海道滝川市江部乙町東12丁目13番16号",
    "lat": 43.6285851656995,
    "lng": 141.944374752332,
    "tel": "0125-75-2101",
    "url": "http://www.hokkaido-fukushi.jp",
    "pref": "北海道",
    "city": "滝川市",
    "category": "tokuyou",
    "serviceType": "介護老人福祉施設",
    "capacity": 60,
    "openDays": [],
    "openDaysNote": ""
  },
  {
    "id": "177540655",
    "name": "滝川市特別養護老人ホーム緑寿園（ユニット型）",
    "kana": "タキカワシトクベツヨウゴロウジンホームリョクジュエン(ユニットガタ)",
    "address": "北海道滝川市江部乙町東12丁目13番16号",
    "lat": 43.6287781,
    "lng": 141.9445386,
    "tel": "0125-75-2101",
    "url": "http://www.hokkaido-fukushi.jp",
    "pref": "北海道",
    "city": "滝川市",
    "category": "tokuyou",
    "serviceType": "介護老人福祉施設",
    "capacity": 140,
    "openDays": [],
    "openDaysNote": ""
  },
  {
    "id": "171500242",
    "name": "介護老人福祉施設　知内しおさい園",
    "kana": "カイゴロウジンフクシシセツ　シリウチシオサイエン",
    "address": "北海道上磯郡知内町字重内９７５番地",
    "lat": 41.6006035,
    "lng": 140.4257315,
    "tel": "01392-5-6363",
    "url": "http://siosai.kyouai-kai.com/",
    "pref": "北海道",
    "city": "知内町",
    "category": "tokuyou",
    "serviceType": "介護老人福祉施設",
    "capacity": 0,
    "openDays": [],
    "openDaysNote": ""
  },
  {
    "id": "174700245",
    "name": "特別養護老人ホーム池田光寿苑",
    "kana": "トクベツヨウゴロウジンホームイケダコウジュエン",
    "address": "北海道中川郡池田町字西2条10丁目2番地２０",
    "lat": 42.9357928,
    "lng": 143.4429634,
    "tel": "015-572-5955",
    "url": "http://www.ikeda-kojyukai.com",
    "pref": "北海道",
    "city": "池田町",
    "category": "tokuyou",
    "serviceType": "介護老人福祉施設",
    "capacity": 0,
    "openDays": [],
    "openDaysNote": ""
  },
  {
    "id": "176700755",
    "name": "社会福祉法人稚内市社会福祉事業団稚内市特別養護老人ホーム富士見園",
    "kana": "シャカイフクシホウジンワッカナイシシャカイフクシジギョウダンワッカナイシトクベツヨウゴロウジンホームフジミエン",
    "address": "稚内市富士見５丁目１１７８番地の１",
    "lat": 45.413919,
    "lng": 141.6368318,
    "tel": "0162-28-1011",
    "url": "http://www.wakkanai-fukusijigyodan.com/",
    "pref": "北海道",
    "city": "稚内市",
    "category": "tokuyou",
    "serviceType": "介護老人福祉施設",
    "capacity": null,
    "openDays": [],
    "openDaysNote": ""
  },
  {
    "id": "176700938",
    "name": "稚内市特別養護老人ホーム富士見園",
    "kana": "ワッカナイシトクベツヨウゴロウジンホームフジミエン",
    "address": "北海道稚内市富士見5丁目1178番地の1",
    "lat": 45.4136318,
    "lng": 141.6366974,
    "tel": "0162-28-1011",
    "url": "http://www.wakkanai-fukusijigyoudan.com/",
    "pref": "北海道",
    "city": "稚内市",
    "category": "tokuyou",
    "serviceType": "介護老人福祉施設",
    "capacity": 0,
    "openDays": [],
    "openDaysNote": ""
  },
  {
    "id": "176700565",
    "name": "特別養護老人ホーム稚内緑風苑",
    "kana": "トクベツヨウゴロウジンホームワッカナイリョクフウエン",
    "address": "稚内市声問５丁目４４番１１号",
    "lat": 45.397822,
    "lng": 141.7605356,
    "tel": "0162-26-2626",
    "url": "http://www.w-midorigaoka.com/ryokufuen_home/",
    "pref": "北海道",
    "city": "稚内市",
    "category": "tokuyou",
    "serviceType": "介護老人福祉施設",
    "capacity": 0,
    "openDays": [],
    "openDaysNote": ""
  },
  {
    "id": "175000132",
    "name": "置戸町特別養護老人ホーム緑清園",
    "kana": "オケトチョウトクベツヨウゴロウジンホームリョクセイエン",
    "address": "北海道常呂郡置戸町字拓殖５１番地の１３",
    "lat": 43.6662737,
    "lng": 143.5655353,
    "tel": "0157-52-3355",
    "url": "",
    "pref": "北海道",
    "city": "置戸町",
    "category": "tokuyou",
    "serviceType": "介護老人福祉施設",
    "capacity": 0,
    "openDays": [],
    "openDaysNote": ""
  },
  {
    "id": "177400132",
    "name": "介護老人福祉施設和敬園",
    "kana": "カイゴロウジンフクシシセツワケイエン",
    "address": "北海道雨竜郡秩父別町１５１４番地",
    "lat": 43.7708128,
    "lng": 141.9542913,
    "tel": "0164-33-3111",
    "url": "http://wakeien.hjk.ne.jp",
    "pref": "北海道",
    "city": "秩父別町",
    "category": "tokuyou",
    "serviceType": "介護老人福祉施設",
    "capacity": 80,
    "openDays": [],
    "openDaysNote": ""
  },
  {
    "id": "174700203",
    "name": "特別養護老人ホーム中札内恵津美ハイツ",
    "kana": "トクベツヨウゴロウジンホームナカサツナイエツミハイツ",
    "address": "北海道河西郡中札内村西２条南４丁目１１番地５",
    "lat": 42.6966051,
    "lng": 143.1274097,
    "tel": "0155-68-3339",
    "url": "http://www.poroshiri.com",
    "pref": "北海道",
    "city": "中札内村",
    "category": "tokuyou",
    "serviceType": "介護老人福祉施設",
    "capacity": 0,
    "openDays": [],
    "openDaysNote": ""
  },
  {
    "id": "173200486",
    "name": "中川町社協特別養護老人ホーム一心苑",
    "kana": "ナカガワチョウシャキョウトクベツヨウゴロウジンホームイッシンエン",
    "address": "北海道中川郡中川町字中川５２３番地２",
    "lat": 44.8035746,
    "lng": 142.073838734393,
    "tel": "01656-7-2112",
    "url": "",
    "pref": "北海道",
    "city": "中川町",
    "category": "tokuyou",
    "serviceType": "介護老人福祉施設",
    "capacity": 0,
    "openDays": [],
    "openDaysNote": ""
  },
  {
    "id": "176711224",
    "name": "中頓別町特別養護老人ホーム長寿園",
    "kana": "ナカトンベツチョウトクベツヨウゴロウジンホームチョウジュエン",
    "address": "北海道枝幸郡中頓別町字中頓別160番地9",
    "lat": 44.9712098,
    "lng": 142.285019,
    "tel": "01634-6-1234",
    "url": "",
    "pref": "北海道",
    "city": "中頓別町",
    "category": "tokuyou",
    "serviceType": "介護老人福祉施設",
    "capacity": null,
    "openDays": [],
    "openDaysNote": ""
  },
  {
    "id": "174200519",
    "name": "広域ユニット型特別養護老人ホーム　中標津りんどう園",
    "kana": "コウイキユニットガタトクベツヨウゴロウジンホーム　ナカシベツリンドウエン",
    "address": "標津郡中標津町りんどう町5番地9",
    "lat": 43.5433273853471,
    "lng": 144.926093152362,
    "tel": "0153-73-5335",
    "url": "http://www.rindouen.com",
    "pref": "北海道",
    "city": "中標津町",
    "category": "tokuyou",
    "serviceType": "介護老人福祉施設",
    "capacity": 0,
    "openDays": [],
    "openDaysNote": ""
  },
  {
    "id": "174200063",
    "name": "特別養護老人ホーム　中標津りんどう園",
    "kana": "トクベツヨウゴロウジンホーム　ナカシベツリンドウエン",
    "address": "北海道標津郡中標津町りんどう町５番地８",
    "lat": 43.5432812474878,
    "lng": 144.926590744838,
    "tel": "0153-73-5335",
    "url": "http://www.rindouen.com/",
    "pref": "北海道",
    "city": "中標津町",
    "category": "tokuyou",
    "serviceType": "介護老人福祉施設",
    "capacity": 0,
    "openDays": [],
    "openDaysNote": ""
  },
  {
    "id": "173000498",
    "name": "中富良野町特別養護老人ホーム　こぶし苑　ラベンダー棟",
    "kana": "ナカフラノチョウトクベツヨウゴロウジンホーム　コブシエン　ラベンダートウ",
    "address": "北海道空知郡中富良野町東町３番８号中富良野町特別養護老人ホーム　こぶし苑　ラベンダー棟 中富良野町特別養護老人ホーム　こぶし苑　ラベンダー棟",
    "lat": 43.4041069,
    "lng": 142.4274614,
    "tel": "0167-44-2000",
    "url": "http://www.town.nakafurano.lg.jp",
    "pref": "北海道",
    "city": "中富良野町",
    "category": "tokuyou",
    "serviceType": "介護老人福祉施設",
    "capacity": null,
    "openDays": [],
    "openDaysNote": ""
  },
  {
    "id": "173000076",
    "name": "中富良野町特別養護老人ホームこぶし苑",
    "kana": "ナカフラノチョウトクベツヨウゴロウジンホームコブシエン",
    "address": "空知郡中富良野町東町３番８号",
    "lat": 43.404118,
    "lng": 142.4274864,
    "tel": "0167-44-2000",
    "url": "http://www.town.nakafurano.lg.jp",
    "pref": "北海道",
    "city": "中富良野町",
    "category": "tokuyou",
    "serviceType": "介護老人福祉施設",
    "capacity": 0,
    "openDays": [],
    "openDaysNote": ""
  },
  {
    "id": "175800085",
    "name": "特別養護老人ホーム迎光園",
    "kana": "トクベツヨウゴロウジンホームゲイコウエン",
    "address": "北海道夕張郡長沼町南町２丁目３番２０号",
    "lat": 43.0058572682794,
    "lng": 141.686505339951,
    "tel": "0123-88-3030",
    "url": "http://home.geikoukai.or.jp/",
    "pref": "北海道",
    "city": "長沼町",
    "category": "tokuyou",
    "serviceType": "介護老人福祉施設",
    "capacity": 0,
    "openDays": [],
    "openDaysNote": ""
  },
  {
    "id": "171500333",
    "name": "特別養護老人ホ－ム長万部慈恵園",
    "kana": "トクベツヨウゴロウジンホ-ムオシャマンベジケイエン",
    "address": "山越郡長万部町字平里91番地11",
    "lat": 42.4938878,
    "lng": 140.3535145,
    "tel": "01377-2-5121",
    "url": "https://www.protech-web.co.jp/homepage/oshamanbe-choaikai/index.html",
    "pref": "北海道",
    "city": "長万部町",
    "category": "tokuyou",
    "serviceType": "介護老人福祉施設",
    "capacity": 80,
    "openDays": [],
    "openDaysNote": ""
  },
  {
    "id": "175200229",
    "name": "特別養護老人ホームいちいの園",
    "kana": "トクベツヨウゴロウジンホームイチイノソノ",
    "address": "北海道網走郡津別町字共和25番地の1",
    "lat": 43.6984766000001,
    "lng": 144.0287404,
    "tel": "0152-76-3205",
    "url": "http://www.keiwafukushi.jp/",
    "pref": "北海道",
    "city": "津別町",
    "category": "tokuyou",
    "serviceType": "介護老人福祉施設",
    "capacity": 50,
    "openDays": [],
    "openDaysNote": ""
  },
  {
    "id": "174300640",
    "name": "ＪＡ北海道厚生連特別養護老人ホーム摩周",
    "kana": "ジェイエーホッカイドウコウセイレントクベツヨウゴロウジンホームマシュウ",
    "address": "北海道川上郡弟子屈町泉２丁目３番７－２号",
    "lat": 43.480279,
    "lng": 144.4635289,
    "tel": "015-482-5337",
    "url": "http://www.dou-kouseiren.com/",
    "pref": "北海道",
    "city": "弟子屈町",
    "category": "tokuyou",
    "serviceType": "介護老人福祉施設",
    "capacity": 0,
    "openDays": [],
    "openDaysNote": ""
  },
  {
    "id": "176700193",
    "name": "天塩町立特別養護老人ホーム恵愛荘",
    "kana": "テシオチョウリツトクベツヨウゴロウジンホームケイアイソウ",
    "address": "北海道天塩郡天塩町字サラキシ５７１０番地",
    "lat": 44.8776735,
    "lng": 141.7521301,
    "tel": "01632-2-2429",
    "url": "https://www.protech-web.co.jp/homepage/teshio/index.html",
    "pref": "北海道",
    "city": "天塩町",
    "category": "tokuyou",
    "serviceType": "介護老人福祉施設",
    "capacity": 50,
    "openDays": [],
    "openDaysNote": ""
  },
  {
    "id": "173501867",
    "name": "特別養護老人ホームわかくさ",
    "kana": "トクベツヨウゴロウジンホームワカクサ",
    "address": "北海道登別市若草町２丁目１１番地１",
    "lat": 42.3689719506188,
    "lng": 141.056659512828,
    "tel": "0143-86-0111",
    "url": "http://yuuaikai.jp/wakakusa/",
    "pref": "北海道",
    "city": "登別市",
    "category": "tokuyou",
    "serviceType": "介護老人福祉施設",
    "capacity": 0,
    "openDays": [],
    "openDaysNote": ""
  },
  {
    "id": "173500133",
    "name": "特別養護老人ホーム緑風園",
    "kana": "トクベツヨウゴロウジンホームリョクフウエン",
    "address": "登別市中登別町２５３番地7",
    "lat": 42.4785644,
    "lng": 141.1632397,
    "tel": "0143-84-3033",
    "url": "http://www.ryokufuu.com/",
    "pref": "北海道",
    "city": "登別市",
    "category": "tokuyou",
    "serviceType": "介護老人福祉施設",
    "capacity": 100,
    "openDays": [],
    "openDaysNote": ""
  },
  {
    "id": "173100561",
    "name": "東神楽町特別養護老人ホーム　アゼリアハイツ",
    "kana": "ヒガシカグラチョウトクベツヨウゴロウジンホームアゼリアハイツ",
    "address": "北海道上川郡東神楽町南2条東1丁目4番1号",
    "lat": 43.6946177,
    "lng": 142.4534788,
    "tel": "0166-83-2097",
    "url": "",
    "pref": "北海道",
    "city": "東神楽町",
    "category": "tokuyou",
    "serviceType": "介護老人福祉施設",
    "capacity": 0,
    "openDays": [],
    "openDaysNote": ""
  },
  {
    "id": "173100272",
    "name": "特別養護老人ホーム東川町羽衣園",
    "kana": "トクベツヨウゴロウジンホームヒガシカワチョウハゴロモエン",
    "address": "北海道上川郡東川町西町８丁目２９番３号特別養護老人ホーム東川町羽衣園 特別養護老人ホーム東川町羽衣園",
    "lat": 43.7004927,
    "lng": 142.4783671,
    "tel": "0166-82-3631",
    "url": "http://www.a-fukushi.or.jp/",
    "pref": "北海道",
    "city": "東川町",
    "category": "tokuyou",
    "serviceType": "介護老人福祉施設",
    "capacity": 0,
    "openDays": [],
    "openDaysNote": ""
  },
  {
    "id": "171001472",
    "name": "特別養護老人ホーム長寿の郷",
    "kana": "トクベツヨウゴロウジンホームチョウジュノサト",
    "address": "北海道石狩郡当別町太美町1488番地18社会福祉法人当別長生会 社会福祉法人当別長生会",
    "lat": 43.1969197298887,
    "lng": 141.449464996295,
    "tel": "0133-26-2380",
    "url": "http://toubetutyouseikai.com",
    "pref": "北海道",
    "city": "当別町",
    "category": "tokuyou",
    "serviceType": "介護老人福祉施設",
    "capacity": 30,
    "openDays": [],
    "openDaysNote": ""
  },
  {
    "id": "171000078",
    "name": "特別養護老人ホーム当別長寿園",
    "kana": "トクベツヨウゴロウジンホウムトウベツチョウジュエン",
    "address": "北海道石狩郡当別町太美町1488番地274",
    "lat": 43.1967009518105,
    "lng": 141.449675198425,
    "tel": "0133-26-2380",
    "url": "http://toubetutyouseikai.com",
    "pref": "北海道",
    "city": "当別町",
    "category": "tokuyou",
    "serviceType": "介護老人福祉施設",
    "capacity": 0,
    "openDays": [],
    "openDaysNote": ""
  },
  {
    "id": "173100108",
    "name": "特別養護老人ホーム当麻柏陽園",
    "kana": "トクベツヨウゴロウジンホームトウマハクヨウエン",
    "address": "北海道上川郡当麻町６条東４丁目６番１号",
    "lat": 43.8306216,
    "lng": 142.5306774,
    "tel": "0166-84-5050",
    "url": "http://toumahakuyoukai.hjk.ne.jp",
    "pref": "北海道",
    "city": "当麻町",
    "category": "tokuyou",
    "serviceType": "介護老人福祉施設",
    "capacity": 50,
    "openDays": [],
    "openDaysNote": ""
  },
  {
    "id": "173700758",
    "name": "特別養護老人ホーム　幸豊の杜・成香２０２１",
    "kana": "トクベツヨウゴロウジンホーム　コウホウノモリナルカ",
    "address": "北海道虻田郡洞爺湖町成香109番地18",
    "lat": 42.6226343,
    "lng": 140.79102,
    "tel": "0142-82-3127",
    "url": "http://www.koseikai-wel.or.jp",
    "pref": "北海道",
    "city": "洞爺湖町",
    "category": "tokuyou",
    "serviceType": "介護老人福祉施設",
    "capacity": null,
    "openDays": [],
    "openDaysNote": ""
  },
  {
    "id": "173700121",
    "name": "特別養護老人ホーム幸楽園",
    "kana": "トクベツヨウゴロウジンホームコウラクエン",
    "address": "北海道虻田郡洞爺湖町清水４３４番地ふる里の丘総合福祉館 ふる里の丘総合福祉館",
    "lat": 42.5587834,
    "lng": 140.7458555,
    "tel": "0142-76-4309",
    "url": "http://www.koseikai-wel.or.jp",
    "pref": "北海道",
    "city": "洞爺湖町",
    "category": "tokuyou",
    "serviceType": "介護老人福祉施設",
    "capacity": 60,
    "openDays": [],
    "openDaysNote": ""
  },
  {
    "id": "173700709",
    "name": "特別養護老人ホーム大原の杜２０１６",
    "kana": "トクベツヨウゴロウジンホームオオハラノモリニイゼロイチロク",
    "address": "北海道虻田郡洞爺湖町大原105番地3",
    "lat": 42.6742386,
    "lng": 140.8407875,
    "tel": "0142-89-3500",
    "url": "http://www.koseikai-wel.or.jp/ohara.html",
    "pref": "北海道",
    "city": "洞爺湖町",
    "category": "tokuyou",
    "serviceType": "介護老人福祉施設",
    "capacity": 0,
    "openDays": [],
    "openDaysNote": ""
  },
  {
    "id": "173600073",
    "name": "特別養護老人ホーム　樽前慈生園",
    "kana": "トクベツヨウゴロウジンホーム　タルマエジセイエン",
    "address": "苫小牧市字樽前２１９番地の１",
    "lat": 42.5977314762785,
    "lng": 141.427523812303,
    "tel": "0144-67-5601",
    "url": "http://www.jikoukai.or.jp",
    "pref": "北海道",
    "city": "苫小牧市",
    "category": "tokuyou",
    "serviceType": "介護老人福祉施設",
    "capacity": 50,
    "openDays": [],
    "openDaysNote": ""
  },
  {
    "id": "173602939",
    "name": "特別養護老人ホーム　樽前慈生園",
    "kana": "トクベツヨウゴロウジンホーム　タルマエジセイエン",
    "address": "北海道苫小牧市美原町3丁目9番1号",
    "lat": 42.611377280977,
    "lng": 141.503199120653,
    "tel": "0144-67-5601",
    "url": "https://www.tomakomaijikoukai.jp/",
    "pref": "北海道",
    "city": "苫小牧市",
    "category": "tokuyou",
    "serviceType": "介護老人福祉施設",
    "capacity": 0,
    "openDays": [],
    "openDaysNote": ""
  },
  {
    "id": "173600081",
    "name": "特別養護老人ホーム　陽明園",
    "kana": "トクベツヨウゴロウジンホーム　ヨウメイエン",
    "address": "苫小牧市字植苗５１番１７７",
    "lat": 42.7248101,
    "lng": 141.7196756,
    "tel": "0144-58-2421",
    "url": "http://www.ryokusei.or.jp/",
    "pref": "北海道",
    "city": "苫小牧市",
    "category": "tokuyou",
    "serviceType": "介護老人福祉施設",
    "capacity": 0,
    "openDays": [],
    "openDaysNote": ""
  },
  {
    "id": "173602251",
    "name": "特別養護老人ホーム「彩」",
    "kana": "トクベツヨウゴロウジンホームアヤ",
    "address": "北海道苫小牧市表町５丁目１１番５号",
    "lat": 42.6398463412264,
    "lng": 141.598070639148,
    "tel": "0144-31-2313",
    "url": "http://www.friend.or.jp/roujin3/t_aya.html",
    "pref": "北海道",
    "city": "苫小牧市",
    "category": "tokuyou",
    "serviceType": "介護老人福祉施設",
    "capacity": 120,
    "openDays": [],
    "openDaysNote": ""
  },
  {
    "id": "173600065",
    "name": "特別養護老人ホームアポロ園",
    "kana": "トクベツヨウゴロウジンホームアポロエン",
    "address": "北海道苫小牧市山手町1丁目12番3号",
    "lat": 42.6427306,
    "lng": 141.5793416,
    "tel": "0144-74-8377",
    "url": "http://www.yamatenosato.or.jp/",
    "pref": "北海道",
    "city": "苫小牧市",
    "category": "tokuyou",
    "serviceType": "介護老人福祉施設",
    "capacity": 50,
    "openDays": [],
    "openDaysNote": ""
  },
  {
    "id": "173602467",
    "name": "特別養護老人ホーム沼ノ端はくちょう苑",
    "kana": "トクベツヨウゴロウジンホームヌマノハタハクチョウエン",
    "address": "北海道苫小牧市北栄町３丁目１９番２６号",
    "lat": 42.6343021,
    "lng": 141.6053721,
    "tel": "0144-84-3000",
    "url": "http://www.hakuchoukai.jp/",
    "pref": "北海道",
    "city": "苫小牧市",
    "category": "tokuyou",
    "serviceType": "介護老人福祉施設",
    "capacity": null,
    "openDays": [],
    "openDaysNote": ""
  },
  {
    "id": "173602087",
    "name": "特別養護老人ホーム陽だまりの樹",
    "kana": "トクベツヨウゴロウジンホームヒダマリノキ",
    "address": "北海道苫小牧市元中野町2丁目3番3号",
    "lat": 42.635191326107,
    "lng": 141.61774938214,
    "tel": "0144-33-2818",
    "url": "http://hidamarinoki.or.jp/",
    "pref": "北海道",
    "city": "苫小牧市",
    "category": "tokuyou",
    "serviceType": "介護老人福祉施設",
    "capacity": 0,
    "openDays": [],
    "openDaysNote": ""
  },
  {
    "id": "173600131",
    "name": "特別養護老人ホーム緑樹園Ⅰ",
    "kana": "トクベツヨウゴロウジンホーム　リョクジュエンイチ",
    "address": "苫小牧市松風町２番１７号",
    "lat": 42.6386517329588,
    "lng": 141.560685593685,
    "tel": "0144-84-7337",
    "url": "http://www.ryokuyoukai.or.jp/",
    "pref": "北海道",
    "city": "苫小牧市",
    "category": "tokuyou",
    "serviceType": "介護老人福祉施設",
    "capacity": 0,
    "openDays": [],
    "openDaysNote": ""
  },
  {
    "id": "173602897",
    "name": "特別養護老人ホーム緑樹園Ⅱ",
    "kana": "トクベツヨウゴロウジンホームリョクジュエンニ",
    "address": "北海道苫小牧市松風町２番１７号緑樹園Ⅱ 緑樹園Ⅱ",
    "lat": 42.6383361,
    "lng": 141.5592601,
    "tel": "0144-84-7337",
    "url": "http://www.ryokuyoukai.or.jp",
    "pref": "北海道",
    "city": "苫小牧市",
    "category": "tokuyou",
    "serviceType": "介護老人福祉施設",
    "capacity": 0,
    "openDays": [],
    "openDaysNote": ""
  },
  {
    "id": "173600123",
    "name": "特別養護老人ホーム緑陽園",
    "kana": "トクベツヨウゴロウジンホームリョクヨウエン",
    "address": "苫小牧市字樽前222番地11",
    "lat": 42.5962145,
    "lng": 141.4315309,
    "tel": "0144-67-0166",
    "url": "http://www.ryokuyoukai.or.jp/",
    "pref": "北海道",
    "city": "苫小牧市",
    "category": "tokuyou",
    "serviceType": "介護老人福祉施設",
    "capacity": 0,
    "openDays": [],
    "openDaysNote": ""
  },
  {
    "id": "176400091",
    "name": "特別養護老人ホーム　苫前幸寿園",
    "kana": "トクベツヨウゴロウジンホーム　トママエコウジュエン",
    "address": "苫前郡苫前町字旭105-7",
    "lat": 44.3059039,
    "lng": 141.6594274,
    "tel": "0164-64-2076",
    "url": "",
    "pref": "北海道",
    "city": "苫前町",
    "category": "tokuyou",
    "serviceType": "介護老人福祉施設",
    "capacity": 0,
    "openDays": [],
    "openDaysNote": ""
  },
  {
    "id": "177100765",
    "name": "特別養護老人ホームやすらぎの家",
    "kana": "トクベツヨウゴロウジンホームヤスラギノイエ",
    "address": "北海道空知郡奈井江町字奈井江町１６１番地1特別養護老人ホームやすらぎの家 特別養護老人ホームやすらぎの家",
    "lat": 43.4207343,
    "lng": 141.8845266,
    "tel": "0125-65-2866",
    "url": "http://tsushima-group.com/business/agency/",
    "pref": "北海道",
    "city": "奈井江町",
    "category": "tokuyou",
    "serviceType": "介護老人福祉施設",
    "capacity": null,
    "openDays": [],
    "openDaysNote": ""
  },
  {
    "id": "173000357",
    "name": "社会福祉法人　南富良野大乗会　　特別養護老人ホーム　一味園",
    "kana": "シャカイフクシホウジン　ミナミフラノダイジョウカイ　　トクベツヨウゴロウジンホーム　イチミエン",
    "address": "北海道空知郡南富良野町字幾寅５２８番地１",
    "lat": 43.1692234,
    "lng": 142.5682043,
    "tel": "0167-52-2919",
    "url": "http://mint.hokkai.net/daijoukai/index.html",
    "pref": "北海道",
    "city": "南富良野町",
    "category": "tokuyou",
    "serviceType": "介護老人福祉施設",
    "capacity": 0,
    "openDays": [],
    "openDaysNote": ""
  },
  {
    "id": "173000316",
    "name": "特別養護老人ホームふくしあ",
    "kana": "トクベツヨウゴロウジンホームフクシア",
    "address": "北海道空知郡南富良野町字金山586番地4",
    "lat": 43.1445248,
    "lng": 142.4140682,
    "tel": "0167-38-3800",
    "url": "http://daijyoukai.jp/",
    "pref": "北海道",
    "city": "南富良野町",
    "category": "tokuyou",
    "serviceType": "介護老人福祉施設",
    "capacity": 0,
    "openDays": [],
    "openDaysNote": ""
  },
  {
    "id": "175800051",
    "name": "特別養護老人ホーム南幌みどり苑",
    "kana": "トクベツヨウゴロウジンホームナンポロミドリエン",
    "address": "北海道空知郡南幌町元町２丁目２番２号",
    "lat": 43.0699094,
    "lng": 141.651063,
    "tel": "011-378-1556",
    "url": "https://www.n-fukushikai.or.jp/main_m.html",
    "pref": "北海道",
    "city": "南幌町",
    "category": "tokuyou",
    "serviceType": "介護老人福祉施設",
    "capacity": 0,
    "openDays": [],
    "openDaysNote": ""
  },
  {
    "id": "173800962",
    "name": "特別養護老人ホーム門別得陽園",
    "kana": "トクベツヨウゴロウジンホームモンベツトクヨウエン",
    "address": "北海道沙流郡日高町字富浜223-143",
    "lat": 42.4965981166045,
    "lng": 142.050769508398,
    "tel": "01456-2-3211",
    "url": "http://www.midorino.jp/",
    "pref": "北海道",
    "city": "日高町",
    "category": "tokuyou",
    "serviceType": "介護老人福祉施設",
    "capacity": 0,
    "openDays": [],
    "openDaysNote": ""
  },
  {
    "id": "173800657",
    "name": "日高町立特別養護老人ホーム日高高寿園",
    "kana": "ヒダカチョウリツ　トクベツヨウゴロウジンホーム　ヒダカコウジュエン",
    "address": "北海道沙流郡日高町栄町東1丁目303番地の12",
    "lat": 42.8790478,
    "lng": 142.4404185,
    "tel": "01457-6-3780",
    "url": "",
    "pref": "北海道",
    "city": "日高町",
    "category": "tokuyou",
    "serviceType": "介護老人福祉施設",
    "capacity": 0,
    "openDays": [],
    "openDaysNote": ""
  },
  {
    "id": "172300063",
    "name": "泊村特別養護老人ホームむつみ荘",
    "kana": "トマリムラトクベツヨウゴロウジンホームムツミソウ",
    "address": "北海道古宇郡泊村大字茅沼村711番地3",
    "lat": 43.0565019086844,
    "lng": 140.512881170175,
    "tel": "0135-65-2255",
    "url": "https://www.tsukushien.or.jp",
    "pref": "北海道",
    "city": "泊村",
    "category": "tokuyou",
    "serviceType": "介護老人福祉施設",
    "capacity": 0,
    "openDays": [],
    "openDaysNote": ""
  },
  {
    "id": "174300582",
    "name": "特別養護老人ホーム清和園",
    "kana": "トクベツヨウゴロウジンホーム　セイワエン",
    "address": "北海道白糠郡白糠町和天別100番地1",
    "lat": 42.9621653021817,
    "lng": 144.048102731159,
    "tel": "01547-2-3200",
    "url": "http://k-yuwakai.or.jp/seiwaen.html",
    "pref": "北海道",
    "city": "白糠町",
    "category": "tokuyou",
    "serviceType": "介護老人福祉施設",
    "capacity": 72,
    "openDays": [],
    "openDaysNote": ""
  },
  {
    "id": "173629734",
    "name": "特別養護老人ホーム　寿幸園",
    "kana": "トクベツヨウゴロウジンホーム　ジュコウエン",
    "address": "北海道白老郡白老町東町４丁目６番地８号",
    "lat": 42.5542609327087,
    "lng": 141.368127015689,
    "tel": "0144-82-2929",
    "url": "https://s-tenjyu.org",
    "pref": "北海道",
    "city": "白老町",
    "category": "tokuyou",
    "serviceType": "介護老人福祉施設",
    "capacity": null,
    "openDays": [],
    "openDaysNote": ""
  },
  {
    "id": "173600149",
    "name": "白老町立特別養護老人ホーム寿幸園",
    "kana": "シラオイチョウリツトベツヨウゴロウジンホームジュコウエン",
    "address": "白老郡白老町東町４丁目６番８号",
    "lat": 42.5543488,
    "lng": 141.368271,
    "tel": "0144-82-2929",
    "url": "http://tenjyukai.or.jp",
    "pref": "北海道",
    "city": "白老町",
    "category": "tokuyou",
    "serviceType": "介護老人福祉施設",
    "capacity": 55,
    "openDays": [],
    "openDaysNote": ""
  },
  {
    "id": "173600156",
    "name": "北海道リハビリテーションセンター特養部",
    "kana": "ホッカイドウリハビリテーションセンタートクヨウブ",
    "address": "北海道白老郡白老町字竹浦１３２番地",
    "lat": 42.4712946,
    "lng": 141.230429,
    "tel": "0144-87-6333",
    "url": "http://tenjyukai.or.jp",
    "pref": "北海道",
    "city": "白老町",
    "category": "tokuyou",
    "serviceType": "介護老人福祉施設",
    "capacity": 0,
    "openDays": [],
    "openDaysNote": ""
  },
  {
    "id": "173602814",
    "name": "友活の里",
    "kana": "トモイキノサト",
    "address": "北海道白老郡白老町字竹浦132番地",
    "lat": 42.4710542,
    "lng": 141.2307557,
    "tel": "0144-87-6333",
    "url": "https://www.s-tenjyu.org/",
    "pref": "北海道",
    "city": "白老町",
    "category": "tokuyou",
    "serviceType": "介護老人福祉施設",
    "capacity": 0,
    "openDays": [],
    "openDaysNote": ""
  },
  {
    "id": "171402522",
    "name": "ももハウス",
    "kana": "モモハウス",
    "address": "函館市赤川町390番地の2",
    "lat": 41.8365763,
    "lng": 140.7695687,
    "tel": "0138-47-3335",
    "url": "http://momo-house.koseiin.or.jp/",
    "pref": "北海道",
    "city": "函館市",
    "category": "tokuyou",
    "serviceType": "介護老人福祉施設",
    "capacity": 0,
    "openDays": [],
    "openDaysNote": ""
  },
  {
    "id": "171400294",
    "name": "旭ヶ岡の家介護老人福祉施設",
    "kana": "アサヒガオカノイエカイゴロウジンフクシシセツ",
    "address": "北海道函館市旭岡町78番地",
    "lat": 41.8073044619946,
    "lng": 140.843589443517,
    "tel": "0138-50-2121",
    "url": "http://www.asahigaoka.jp/",
    "pref": "北海道",
    "city": "函館市",
    "category": "tokuyou",
    "serviceType": "介護老人福祉施設",
    "capacity": 0,
    "openDays": [],
    "openDaysNote": ""
  },
  {
    "id": "171500291",
    "name": "介護老人福祉施設　みなみかやべ荘",
    "kana": "カイゴロウジンフクシシセツ　ミナミカヤベソウ",
    "address": "函館市川汲町９８６番１３",
    "lat": 41.9017786,
    "lng": 140.9858608,
    "tel": "0135-25-5300",
    "url": "http://minami.kyouai-kai.com",
    "pref": "北海道",
    "city": "函館市",
    "category": "tokuyou",
    "serviceType": "介護老人福祉施設",
    "capacity": 50,
    "openDays": [],
    "openDaysNote": ""
  },
  {
    "id": "171405137",
    "name": "広域型特別養護老人ホーム　ベルソーレ",
    "kana": "コウイキガタトクベツヨウゴロウジンホーム　ベルソーレ",
    "address": "北海道函館市日吉町4丁目16-20広域型特別養護老人ホーム　ベルソーレ 広域型特別養護老人ホーム　ベルソーレ",
    "lat": 41.8054589,
    "lng": 140.7906961,
    "tel": "0138-30-7777",
    "url": "",
    "pref": "北海道",
    "city": "函館市",
    "category": "tokuyou",
    "serviceType": "介護老人福祉施設",
    "capacity": 100,
    "openDays": [],
    "openDaysNote": ""
  },
  {
    "id": "171401177",
    "name": "社会福祉法人函館大庚会　特別養護老人ホーム　「松濤」",
    "kana": "シャカイフクシホウジンハコダテタイコウカイ　トクベツヨウゴロウジンホームショウトウ",
    "address": "北海道函館市松風町１８番１５号",
    "lat": 41.773168,
    "lng": 140.7320711,
    "tel": "0138-27-0077",
    "url": "https://www.hakodate-taikoukai.jp/",
    "pref": "北海道",
    "city": "函館市",
    "category": "tokuyou",
    "serviceType": "介護老人福祉施設",
    "capacity": 50,
    "openDays": [],
    "openDaysNote": ""
  },
  {
    "id": "171500184",
    "name": "特別養護老人ホ－ム恵楽園",
    "kana": "トクベツヨウゴロウジンホームケイラクエン",
    "address": "北海道函館市柏野町１１７番地",
    "lat": 41.790963,
    "lng": 141.1541557,
    "tel": "0138-85-2893",
    "url": "http://www.esan-keiaikai.com/",
    "pref": "北海道",
    "city": "函館市",
    "category": "tokuyou",
    "serviceType": "介護老人福祉施設",
    "capacity": 50,
    "openDays": [],
    "openDaysNote": ""
  },
  {
    "id": "171401490",
    "name": "特別養護老人ホーム　おおぞら",
    "kana": "トクベツヨウゴロウジンホームオオゾラ",
    "address": "北海道函館市銅山町12番地",
    "lat": 41.7925278,
    "lng": 140.8150142,
    "tel": "0138-36-1100",
    "url": "http://oozora-tokuyou.com/",
    "pref": "北海道",
    "city": "函館市",
    "category": "tokuyou",
    "serviceType": "介護老人福祉施設",
    "capacity": 0,
    "openDays": [],
    "openDaysNote": ""
  },
  {
    "id": "171400948",
    "name": "特別養護老人ホーム　シンフォニー",
    "kana": "トクベツヨウゴロウジンホーム　シンフォニー",
    "address": "北海道函館市中野町７４－１",
    "lat": 41.7633536,
    "lng": 140.8391659,
    "tel": "0138-58-2000",
    "url": "https://www.behappy-symphony.com/",
    "pref": "北海道",
    "city": "函館市",
    "category": "tokuyou",
    "serviceType": "介護老人福祉施設",
    "capacity": 100,
    "openDays": [],
    "openDaysNote": ""
  },
  {
    "id": "171403603",
    "name": "特別養護老人ホーム　桔梗みのりの里",
    "kana": "トクベツヨウゴロウジンホーム　キキョウミノリノサト",
    "address": "北海道函館市桔梗1丁目3番8号",
    "lat": 41.8296873,
    "lng": 140.7310473,
    "tel": "0138-46-5151",
    "url": "http://keiseikai-h.or.jp/minorihp/index.html",
    "pref": "北海道",
    "city": "函館市",
    "category": "tokuyou",
    "serviceType": "介護老人福祉施設",
    "capacity": 100,
    "openDays": [],
    "openDaysNote": ""
  },
  {
    "id": "171400237",
    "name": "特別養護老人ホーム　百楽園",
    "kana": "トクベツヨウゴロウジンホーム　ヒャクラクエン",
    "address": "北海道函館市高丘町3番1号",
    "lat": 41.7876261418259,
    "lng": 140.801351936909,
    "tel": "0138-57-7418",
    "url": "https://hyakuraku.koseiin.or.jp/",
    "pref": "北海道",
    "city": "函館市",
    "category": "tokuyou",
    "serviceType": "介護老人福祉施設",
    "capacity": 100,
    "openDays": [],
    "openDaysNote": ""
  },
  {
    "id": "171403579",
    "name": "特別養護老人ホームあい亀田港",
    "kana": "トクベツヨウゴロウジンホームアイカメダミナト",
    "address": "北海道函館市亀田港町56番12号",
    "lat": 41.81182912625,
    "lng": 140.721785152918,
    "tel": "0138-62-6300",
    "url": "http://ai-sinyukai..jp",
    "pref": "北海道",
    "city": "函館市",
    "category": "tokuyou",
    "serviceType": "介護老人福祉施設",
    "capacity": 60,
    "openDays": [],
    "openDaysNote": ""
  },
  {
    "id": "171403744",
    "name": "特別養護老人ホーム倶有",
    "kana": "トクベツヨウゴロウジンホームクユウ",
    "address": "北海道函館市松風町19番18号",
    "lat": 41.7735318,
    "lng": 140.7317128,
    "tel": "0138-24-2255",
    "url": "http://www.hakodate-taikoukai.jp/",
    "pref": "北海道",
    "city": "函館市",
    "category": "tokuyou",
    "serviceType": "介護老人福祉施設",
    "capacity": 0,
    "openDays": [],
    "openDaysNote": ""
  },
  {
    "id": "171400021",
    "name": "特別養護老人ホーム幸成園",
    "kana": "トクベツヨウゴロウジンホームコウセイエン",
    "address": "函館市桔梗町４３５－２８",
    "lat": 41.8465411,
    "lng": 140.7425117,
    "tel": "0138-47-1113",
    "url": "http://www.kouseien.jp",
    "pref": "北海道",
    "city": "函館市",
    "category": "tokuyou",
    "serviceType": "介護老人福祉施設",
    "capacity": 0,
    "openDays": [],
    "openDaysNote": ""
  },
  {
    "id": "171403595",
    "name": "特別養護老人ホーム幸成園",
    "kana": "トクベツヨウゴロウジンホームコウセイエン",
    "address": "函館市桔梗町435番地28",
    "lat": 41.8465411,
    "lng": 140.7425117,
    "tel": "0138-47-1113",
    "url": "http://www.kouseien.jp",
    "pref": "北海道",
    "city": "函館市",
    "category": "tokuyou",
    "serviceType": "介護老人福祉施設",
    "capacity": 0,
    "openDays": [],
    "openDaysNote": ""
  },
  {
    "id": "171500283",
    "name": "特別養護老人ホーム潮寿荘",
    "kana": "トクベツヨウゴロウジンホームチョウジュソウ",
    "address": "北海道函館市釜谷町６０５番地１",
    "lat": 41.7367617,
    "lng": 140.9384725,
    "tel": "0138-82-3535",
    "url": "http://www.hakotoi.com",
    "pref": "北海道",
    "city": "函館市",
    "category": "tokuyou",
    "serviceType": "介護老人福祉施設",
    "capacity": 50,
    "openDays": [],
    "openDaysNote": ""
  },
  {
    "id": "171400229",
    "name": "特別養護老人ホーム函館はくあい園",
    "kana": "トクベツヨウゴロウジンホームハコダテハクアイエン",
    "address": "北海道函館市吉川町３番１６号",
    "lat": 41.7922939,
    "lng": 140.7285123,
    "tel": "0138-45-5250",
    "url": "http://www.h-shoujukai.com/",
    "pref": "北海道",
    "city": "函館市",
    "category": "tokuyou",
    "serviceType": "介護老人福祉施設",
    "capacity": 50,
    "openDays": [],
    "openDaysNote": ""
  },
  {
    "id": "171403587",
    "name": "特別養護老人ホーム函館はくあい園",
    "kana": "トクベツヨウゴロウジンホームハコダテハクアイエン",
    "address": "北海道函館市吉川町３番１６号",
    "lat": 41.7922939,
    "lng": 140.7285123,
    "tel": "0138-45-5250",
    "url": "http://www.h-shoujukai.com/",
    "pref": "北海道",
    "city": "函館市",
    "category": "tokuyou",
    "serviceType": "介護老人福祉施設",
    "capacity": 50,
    "openDays": [],
    "openDaysNote": ""
  },
  {
    "id": "171400203",
    "name": "函館共愛会愛泉寮",
    "kana": "ハコダテキョウアイカイアイセンリョウ",
    "address": "北海道函館市中島町35番7号",
    "lat": 41.7861754,
    "lng": 140.7413143,
    "tel": "0138-52-1065",
    "url": "http://aisenryou-kyouai-kai.jp/",
    "pref": "北海道",
    "city": "函館市",
    "category": "tokuyou",
    "serviceType": "介護老人福祉施設",
    "capacity": 160,
    "openDays": [],
    "openDaysNote": ""
  },
  {
    "id": "171400211",
    "name": "福寿荘さくら館",
    "kana": "フクジュソウサクラカン",
    "address": "函館市石川町１８９－１９",
    "lat": 41.8363254,
    "lng": 140.7416426,
    "tel": "0138-34-7101",
    "url": "http://www.jinaikai.net",
    "pref": "北海道",
    "city": "函館市",
    "category": "tokuyou",
    "serviceType": "介護老人福祉施設",
    "capacity": 0,
    "openDays": [],
    "openDaysNote": ""
  },
  {
    "id": "171600117",
    "name": "特別養護老人ホーム　くまいし荘",
    "kana": "トクベツヨウゴロウジンホーム　クマイシソウ",
    "address": "北海道二海郡八雲町熊石平町324番地269",
    "lat": 42.1303781168369,
    "lng": 140.001611119852,
    "tel": "01398-2-2020",
    "url": "https://www.kumaishi-keiaikai.com",
    "pref": "北海道",
    "city": "八雲町",
    "category": "tokuyou",
    "serviceType": "介護老人福祉施設",
    "capacity": 80,
    "openDays": [],
    "openDaysNote": ""
  },
  {
    "id": "171500325",
    "name": "特別養護老人ホーム厚生園",
    "kana": "トクベツヨウゴロウジンホームコウセイエン",
    "address": "二海郡八雲町大新４７番地4",
    "lat": 42.2384641,
    "lng": 140.2612437,
    "tel": "0137-63-3101",
    "url": "http:/www.yakumokai.com",
    "pref": "北海道",
    "city": "八雲町",
    "category": "tokuyou",
    "serviceType": "介護老人福祉施設",
    "capacity": 50,
    "openDays": [],
    "openDaysNote": ""
  },
  {
    "id": "173100116",
    "name": "特別養護老人ホームあそか苑",
    "kana": "トクベツヨウゴロウジンホーム　アソカエン",
    "address": "北海道上川郡比布町東町２丁目５番２号",
    "lat": 43.8754117,
    "lng": 142.4812099,
    "tel": "0166-85-3147",
    "url": "https://web.gogo.jp/publicpreview/62ce99538db448686ca2c503#/",
    "pref": "北海道",
    "city": "比布町",
    "category": "tokuyou",
    "serviceType": "介護老人福祉施設",
    "capacity": null,
    "openDays": [],
    "openDaysNote": ""
  },
  {
    "id": "176100196",
    "name": "特別養護老人ホーム　モエズヴィラ美唄",
    "kana": "トクベツヨウゴロウジンホーム　モエズゔィラビバイ",
    "address": "北海道美唄市東7条南2丁目5番24号",
    "lat": 43.3271493,
    "lng": 141.8839555,
    "tel": "0126-66-6151",
    "url": "https://www.moe-kaze.or.jp/service/tokuyou.html",
    "pref": "北海道",
    "city": "美唄市",
    "category": "tokuyou",
    "serviceType": "介護老人福祉施設",
    "capacity": 0,
    "openDays": [],
    "openDaysNote": ""
  },
  {
    "id": "176100055",
    "name": "特別養護老人ホーム　美唄市恵祥園",
    "kana": "トクベツヨウゴロウジンホーム　ビバイシケイショウエン",
    "address": "北海道美唄市字峰延原野2645番地１（峰延町公園）",
    "lat": 43.2588319702206,
    "lng": 141.814278626845,
    "tel": "0126-63-4200",
    "url": "http://www.city.bibai.hokkaido.jp/",
    "pref": "北海道",
    "city": "美唄市",
    "category": "tokuyou",
    "serviceType": "介護老人福祉施設",
    "capacity": 59,
    "openDays": [],
    "openDaysNote": ""
  },
  {
    "id": "173100587",
    "name": "特別養護老人ホーム美瑛慈光園",
    "kana": "トクベツヨウゴロウジンホーム　ビエイジコウエン",
    "address": "北海道上川郡美瑛町南町4丁目4番18号特別養護老人ホーム美瑛慈光園 特別養護老人ホーム美瑛慈光園",
    "lat": 43.5832966620533,
    "lng": 142.469110973016,
    "tel": "0166-92-4111",
    "url": "http://www.biei-jikoukai.or.jp",
    "pref": "北海道",
    "city": "美瑛町",
    "category": "tokuyou",
    "serviceType": "介護老人福祉施設",
    "capacity": 60,
    "openDays": [],
    "openDaysNote": ""
  },
  {
    "id": "173200759",
    "name": "美深町特別養護老人ホーム",
    "kana": "ビフカチョウトクベツヨウゴロウジンホーム",
    "address": "北海道中川郡美深町字敷島91番地",
    "lat": 44.4892302150788,
    "lng": 142.336461238068,
    "tel": "01656-2-2005",
    "url": "",
    "pref": "北海道",
    "city": "美深町",
    "category": "tokuyou",
    "serviceType": "介護老人福祉施設",
    "capacity": 50,
    "openDays": [],
    "openDaysNote": ""
  },
  {
    "id": "175200179",
    "name": "特別養護老人ホーム緑の苑",
    "kana": "トクベツヨウゴロウジンホームミドリノソノ",
    "address": "北海道網走郡美幌町字稲美105番地７",
    "lat": 43.8211156,
    "lng": 144.1209656,
    "tel": "0152-73-1215",
    "url": "https://www.keiwafukushi.jp/",
    "pref": "北海道",
    "city": "美幌町",
    "category": "tokuyou",
    "serviceType": "介護老人福祉施設",
    "capacity": 0,
    "openDays": [],
    "openDaysNote": ""
  },
  {
    "id": "174300145",
    "name": "標茶町立特別養護老人ホームやすらぎ園",
    "kana": "シベチャチョウリツトクベツヨウゴロウジンホームヤスラギエン",
    "address": "北海道川上郡標茶町川上10丁目5番地",
    "lat": 43.3016235,
    "lng": 144.5934238,
    "tel": "015-485-3501",
    "url": "",
    "pref": "北海道",
    "city": "標茶町",
    "category": "tokuyou",
    "serviceType": "介護老人福祉施設",
    "capacity": 0,
    "openDays": [],
    "openDaysNote": ""
  },
  {
    "id": "174200105",
    "name": "特別養護老人ホーム　標津はまなす苑",
    "kana": "トクベツヨウゴロウジンホーム　シベツハマナスエン",
    "address": "北海道標津郡標津町北1条西5丁目６番１－３号",
    "lat": 43.6596703,
    "lng": 145.1204056,
    "tel": "0153-82-1414",
    "url": "http://shibefuku.com",
    "pref": "北海道",
    "city": "標津町",
    "category": "tokuyou",
    "serviceType": "介護老人福祉施設",
    "capacity": 0,
    "openDays": [],
    "openDaysNote": ""
  },
  {
    "id": "174300038",
    "name": "特別養護老人ホームハイツ・野いちご",
    "kana": "トクベツヨウゴロウジンホーム　ハイツ　ノイチゴ",
    "address": "北海道厚岸郡浜中町茶内緑９１番地",
    "lat": 43.1288102,
    "lng": 145.024446,
    "tel": "0153-65-3100",
    "url": "http://tokubetsuyogorojinho-muhaitsunoichigo.hp.go.go.jp/pc",
    "pref": "北海道",
    "city": "浜中町",
    "category": "tokuyou",
    "serviceType": "介護老人福祉施設",
    "capacity": 50,
    "openDays": [],
    "openDaysNote": ""
  },
  {
    "id": "176701019",
    "name": "特別養護老人ホーム　ぬくもりの舎",
    "kana": "トクベツヨウゴロウジンホーム　ヌクモリノイエ",
    "address": "北海道枝幸郡浜頓別町クッチャロ湖畔51番地特別養護老人ホーム　ぬくもりの舎 特別養護老人ホーム　ぬくもりの舎",
    "lat": 45.1246545,
    "lng": 142.3531594,
    "tel": "01634-9-2266",
    "url": "https://hamatonbetu-fukusikai.com/",
    "pref": "北海道",
    "city": "浜頓別町",
    "category": "tokuyou",
    "serviceType": "介護老人福祉施設",
    "capacity": 0,
    "openDays": [],
    "openDaysNote": ""
  },
  {
    "id": "176700219",
    "name": "特別養護老人ホーム清風苑",
    "kana": "トクベツヨウゴロウジンホームセイフウエン",
    "address": "北海道枝幸郡浜頓別町旭ヶ丘３丁目８番地",
    "lat": 45.1180553,
    "lng": 142.3675811,
    "tel": "01634-2-3737",
    "url": "https://hamatonbetu-fukusikai.com",
    "pref": "北海道",
    "city": "浜頓別町",
    "category": "tokuyou",
    "serviceType": "介護老人福祉施設",
    "capacity": 50,
    "openDays": [],
    "openDaysNote": ""
  },
  {
    "id": "173000035",
    "name": "特別養護老人ホーム　北の峯ハイツ",
    "kana": "トクベツヨウゴロウジンホーム　キタノミネハイツ",
    "address": "富良野市中御料地２０６７の３",
    "lat": 43.3180504,
    "lng": 142.363782,
    "tel": "0167-23-1611",
    "url": "http://www.furanoasahigou.or.jp/",
    "pref": "北海道",
    "city": "富良野市",
    "category": "tokuyou",
    "serviceType": "介護老人福祉施設",
    "capacity": null,
    "openDays": [],
    "openDaysNote": ""
  },
  {
    "id": "173000449",
    "name": "特別養護老人ホーム　北の峯ハイツ",
    "kana": "トクベツヨウゴロウジンホーム　キタノミネハイツ",
    "address": "北海道富良野市東雲町1番1号北の峯ハイツ 北の峯ハイツ",
    "lat": 43.3479035,
    "lng": 142.4015735,
    "tel": "0167-23-1611",
    "url": "https://furanoasahigou.or.jp",
    "pref": "北海道",
    "city": "富良野市",
    "category": "tokuyou",
    "serviceType": "介護老人福祉施設",
    "capacity": 0,
    "openDays": [],
    "openDaysNote": ""
  },
  {
    "id": "171500200",
    "name": "特別養護老人ホーム陽光園",
    "kana": "トクベツヨウゴロウジンホームヨウコウエン",
    "address": "北海道松前郡福島町字三岳160-13",
    "lat": 41.4902573,
    "lng": 140.2551726,
    "tel": "0139-47-3551",
    "url": "http://www.youkouen.org/",
    "pref": "北海道",
    "city": "福島町",
    "category": "tokuyou",
    "serviceType": "介護老人福祉施設",
    "capacity": null,
    "openDays": [],
    "openDaysNote": ""
  },
  {
    "id": "173800152",
    "name": "特別養護老人ホーム　平取かつら園",
    "kana": "トクベツヨウゴロウジンホーム　ビラトリカツラエン",
    "address": "沙流郡平取町本町１７番地１",
    "lat": 42.5840531,
    "lng": 142.1256284,
    "tel": "01457-2-3670",
    "url": "http://birafuku.jp/",
    "pref": "北海道",
    "city": "平取町",
    "category": "tokuyou",
    "serviceType": "介護老人福祉施設",
    "capacity": null,
    "openDays": [],
    "openDaysNote": ""
  },
  {
    "id": "174200634",
    "name": "特別養護老人ホーム清翠園",
    "kana": "トクベツヨウゴロウジンホームセイスイエン",
    "address": "北海道野付郡別海町別海西本町52番地２",
    "lat": 43.3919628,
    "lng": 145.1231095,
    "tel": "0153-75-2224",
    "url": "http://betsukai-seisuien.com/",
    "pref": "北海道",
    "city": "別海町",
    "category": "tokuyou",
    "serviceType": "介護老人福祉施設",
    "capacity": 0,
    "openDays": [],
    "openDaysNote": ""
  },
  {
    "id": "173700089",
    "name": "特別養護老人ホーム幸豊園",
    "kana": "トクベツヨウゴロウジンホームコウホウエン",
    "address": "北海道虻田郡豊浦町字大岸１５１番地２",
    "lat": 42.6019908,
    "lng": 140.659217,
    "tel": "0142-84-1053",
    "url": "http://www.koseikai-wel.or.jp/kohoen",
    "pref": "北海道",
    "city": "豊浦町",
    "category": "tokuyou",
    "serviceType": "介護老人福祉施設",
    "capacity": 80,
    "openDays": [],
    "openDaysNote": ""
  },
  {
    "id": "174700070",
    "name": "特別養護老人ホームとよころ荘",
    "kana": "トクベツヨウゴロウジンホームトヨコロソウ",
    "address": "北海道中川郡豊頃町茂岩４９番地７８",
    "lat": 42.8017401,
    "lng": 143.4980498,
    "tel": "015-574-2627",
    "url": "http://www.toyokoroso.or.jp",
    "pref": "北海道",
    "city": "豊頃町",
    "category": "tokuyou",
    "serviceType": "介護老人福祉施設",
    "capacity": 0,
    "openDays": [],
    "openDaysNote": ""
  },
  {
    "id": "176700490",
    "name": "社会福祉法人豊富福祉会",
    "kana": "シャカイフクシホウジン　トヨトミフクシカイ",
    "address": "天塩郡豊富町字上サロベツ2005-29",
    "lat": 45.0965449,
    "lng": 141.7774688,
    "tel": "0162-82-2333",
    "url": "http://onshinen.com/",
    "pref": "北海道",
    "city": "豊富町",
    "category": "tokuyou",
    "serviceType": "介護老人福祉施設",
    "capacity": 0,
    "openDays": [],
    "openDaysNote": ""
  },
  {
    "id": "175012228",
    "name": "JA北海道厚生連特別養護老人ホームところ",
    "kana": "ジェイエイホッカイドウコウセイレントクベツヨウゴロウジンホームトコロ",
    "address": "北見市常呂町字常呂５６１番地２６",
    "lat": 44.1174598827764,
    "lng": 144.066325833469,
    "tel": "0152-54-2273",
    "url": "http://www.dou-kouseiren.com/shisetsu/tokuyo_tokoro/",
    "pref": "北海道",
    "city": "北見市",
    "category": "tokuyou",
    "serviceType": "介護老人福祉施設",
    "capacity": 0,
    "openDays": [],
    "openDaysNote": ""
  },
  {
    "id": "175000116",
    "name": "指定介護老人福祉施設　北寿園",
    "kana": "シテイカイゴロウジンフクシシセツ　ホクジュエン",
    "address": "北見市川東３５４番地7",
    "lat": 43.7976633,
    "lng": 143.9174215,
    "tel": "0157-61-3135",
    "url": "http://www.k-megumikai.or.jp/newpage1.html",
    "pref": "北海道",
    "city": "北見市",
    "category": "tokuyou",
    "serviceType": "介護老人福祉施設",
    "capacity": 0,
    "openDays": [],
    "openDaysNote": ""
  },
  {
    "id": "175012087",
    "name": "特別養護老人ホーム　くつろぎ",
    "kana": "トクベツヨウゴロウジンホーム　クツロギ",
    "address": "北見市とん田東町４４４－１",
    "lat": 43.7975067,
    "lng": 143.8792749,
    "tel": "0157-33-5537",
    "url": "http://www.jikei-kutsurogi.org",
    "pref": "北海道",
    "city": "北見市",
    "category": "tokuyou",
    "serviceType": "介護老人福祉施設",
    "capacity": 110,
    "openDays": [],
    "openDaysNote": ""
  },
  {
    "id": "175012640",
    "name": "特別養護老人ホーム　くつろぎユニット",
    "kana": "トクベツヨウゴロウジンホーム　クツロギユニット",
    "address": "北海道北見市とん田東町３８１番地１６",
    "lat": 43.7984511207369,
    "lng": 143.878964520485,
    "tel": "0157-33-5537",
    "url": "http://www.jikei-kutsurogi.org/",
    "pref": "北海道",
    "city": "北見市",
    "category": "tokuyou",
    "serviceType": "介護老人福祉施設",
    "capacity": 35,
    "openDays": [],
    "openDaysNote": ""
  },
  {
    "id": "175000322",
    "name": "特別養護老人ホーム　光の苑",
    "kana": "トクベツヨウゴロウジンホーム　ヒカリノソノ",
    "address": "北海道北見市東陵町１１６番1",
    "lat": 43.82651,
    "lng": 143.8981553,
    "tel": "0157-23-4063",
    "url": "http://shiaikai.jp/",
    "pref": "北海道",
    "city": "北見市",
    "category": "tokuyou",
    "serviceType": "介護老人福祉施設",
    "capacity": 0,
    "openDays": [],
    "openDaysNote": ""
  },
  {
    "id": "175000942",
    "name": "特別養護老人ホームあいせいの杜",
    "kana": "トクベツヨウゴロウジンホームアイセイノモリ",
    "address": "北海道北見市相内町97番地1",
    "lat": 43.8003785,
    "lng": 143.7557404,
    "tel": "0157-66-6888",
    "url": "https://www.aiseinomori.com/",
    "pref": "北海道",
    "city": "北見市",
    "category": "tokuyou",
    "serviceType": "介護老人福祉施設",
    "capacity": 0,
    "openDays": [],
    "openDaysNote": ""
  },
  {
    "id": "175000215",
    "name": "特別養護老人ホームこもれびの里",
    "kana": "トクベツヨウゴロウジンホームコモレビノサト",
    "address": "北海道北見市北光280番地7",
    "lat": 43.7795112,
    "lng": 143.86776,
    "tel": "0157-68-1165",
    "url": "https://www.kitano-aikoukai.com",
    "pref": "北海道",
    "city": "北見市",
    "category": "tokuyou",
    "serviceType": "介護老人福祉施設",
    "capacity": 0,
    "openDays": [],
    "openDaysNote": ""
  },
  {
    "id": "175012319",
    "name": "特別養護老人ホームこもれびの里せせらぎ",
    "kana": "トクベツヨウゴロウジンホームコモレビノサトセセラギ",
    "address": "北海道北見市北光280番地10",
    "lat": 43.7793946,
    "lng": 143.8669156,
    "tel": "0157-68-1165",
    "url": "https://www.kitano-aikoukai.com",
    "pref": "北海道",
    "city": "北見市",
    "category": "tokuyou",
    "serviceType": "介護老人福祉施設",
    "capacity": 50,
    "openDays": [],
    "openDaysNote": ""
  },
  {
    "id": "175000140",
    "name": "特別養護老人ホームるべしべ希楽苑",
    "kana": "トクベツヨウゴロウジンホームルベシベキラクエン",
    "address": "北海道北見市留辺蘂町上町143番地1",
    "lat": 43.788375,
    "lng": 143.6029265,
    "tel": "0157-42-2223",
    "url": "http://www.hokuyoukai12721.info",
    "pref": "北海道",
    "city": "北見市",
    "category": "tokuyou",
    "serviceType": "介護老人福祉施設",
    "capacity": null,
    "openDays": [],
    "openDaysNote": ""
  },
  {
    "id": "175012616",
    "name": "特別養護老人ホーム光の苑",
    "kana": "トクベツヨウゴロウジンホームヒカリノソノ",
    "address": "北海道北見市東陵町116番1",
    "lat": 43.82656,
    "lng": 143.8981664,
    "tel": "0157-23-4063",
    "url": "http://shiaikai.jp/",
    "pref": "北海道",
    "city": "北見市",
    "category": "tokuyou",
    "serviceType": "介護老人福祉施設",
    "capacity": null,
    "openDays": [],
    "openDaysNote": ""
  },
  {
    "id": "171300676",
    "name": "東部緑の苑",
    "kana": "トウブミドリノソノ",
    "address": "北海道北広島市共栄276番地20",
    "lat": 42.992356537651,
    "lng": 141.54504572209,
    "tel": "011-376-8686",
    "url": "http://www.kitahiro-fukusikai.or.jp",
    "pref": "北海道",
    "city": "北広島市",
    "category": "tokuyou",
    "serviceType": "介護老人福祉施設",
    "capacity": 100,
    "openDays": [],
    "openDaysNote": ""
  },
  {
    "id": "171300023",
    "name": "北広島リハビリセンター特養部四恩園",
    "kana": "キタヒロシマリハビリセンタートクヨウブシオンエン",
    "address": "北広島市富ヶ岡509番地31",
    "lat": 42.9551934,
    "lng": 141.5336214,
    "tel": "011-373-6655",
    "url": "http://www.shionen.or.jp",
    "pref": "北海道",
    "city": "北広島市",
    "category": "tokuyou",
    "serviceType": "介護老人福祉施設",
    "capacity": 49,
    "openDays": [],
    "openDaysNote": ""
  },
  {
    "id": "171300015",
    "name": "北広島市高齢者総合ケアセンター　特別養護老人ホーム　聖芳園",
    "kana": "キタヒロシマシコウレイシャソウゴウケアセンター　トクベツヨウゴロウジンホーム　セイホウエン",
    "address": "北海道北広島市西の里３４７番地４",
    "lat": 43.0120559,
    "lng": 141.5158731,
    "tel": "011-375-3126",
    "url": "https://www.seihoen.or.jp/",
    "pref": "北海道",
    "city": "北広島市",
    "category": "tokuyou",
    "serviceType": "介護老人福祉施設",
    "capacity": 0,
    "openDays": [],
    "openDaysNote": ""
  },
  {
    "id": "171500267",
    "name": "社会福祉法人民生博愛会　特別養護老人ホーム清華園",
    "kana": "シャカイフクシホウジンミンセイハクアイカイ　トクベツヨウゴロウジンホームセイカエン",
    "address": "北海道北斗市添山４７２番地１",
    "lat": 41.8245676,
    "lng": 140.6328298,
    "tel": "0138-74-3100",
    "url": "http://minsei-hakuaikai.com/",
    "pref": "北海道",
    "city": "北斗市",
    "category": "tokuyou",
    "serviceType": "介護老人福祉施設",
    "capacity": 0,
    "openDays": [],
    "openDaysNote": ""
  },
  {
    "id": "171500275",
    "name": "特別養護老人ホーム　美ヶ丘敬楽荘",
    "kana": "トクベツヨウゴロウジンホーム　ウツクシガオカケイラクソウ",
    "address": "北海道北斗市向野2丁目19-18",
    "lat": 41.887709944689,
    "lng": 140.634928098282,
    "tel": "0138-77-7345",
    "url": "http://hakodateryokkakai.com/",
    "pref": "北海道",
    "city": "北斗市",
    "category": "tokuyou",
    "serviceType": "介護老人福祉施設",
    "capacity": 0,
    "openDays": [],
    "openDaysNote": ""
  },
  {
    "id": "171501158",
    "name": "特別養護老人ホームつれづれの郷",
    "kana": "トクベツヨウゴロウジンホームツレヅレノサト",
    "address": "北斗市追分7丁目11番21号",
    "lat": 41.8387433,
    "lng": 140.6981264,
    "tel": "0138-48-1777",
    "url": "http://www.turedurenosato.sakura.ne.jp",
    "pref": "北海道",
    "city": "北斗市",
    "category": "tokuyou",
    "serviceType": "介護老人福祉施設",
    "capacity": 0,
    "openDays": [],
    "openDaysNote": ""
  },
  {
    "id": "177400157",
    "name": "特別養護老人ホーム北竜町永楽園",
    "kana": "トクベツヨウゴロウジンホーム　ホクリュウチョウ　エイラクエン",
    "address": "北海道雨竜郡北竜町字和19番地6",
    "lat": 43.7262233,
    "lng": 141.8822114,
    "tel": "0164-34-2050",
    "url": "https://eirakuen.jp/",
    "pref": "北海道",
    "city": "北竜町",
    "category": "tokuyou",
    "serviceType": "介護老人福祉施設",
    "capacity": 0,
    "openDays": [],
    "openDaysNote": ""
  },
  {
    "id": "176700169",
    "name": "特別養護老人ホームこざくら荘",
    "kana": "トクベツヨウゴロウジンホームコザクラソウ",
    "address": "北海道天塩郡幌延町1条北2丁目1番3号",
    "lat": 45.0173888,
    "lng": 141.8443651,
    "tel": "01632-5-1181",
    "url": "http://kozakura-horonobe.jp/",
    "pref": "北海道",
    "city": "幌延町",
    "category": "tokuyou",
    "serviceType": "介護老人福祉施設",
    "capacity": 35,
    "openDays": [],
    "openDaysNote": ""
  },
  {
    "id": "174700252",
    "name": "本別町特別養護老人ホーム",
    "kana": "ホンベツチョウトクベツヨウゴロウジンホーム",
    "address": "北海道中川郡本別町向陽町23番地1",
    "lat": 43.1195832876315,
    "lng": 143.616330798148,
    "tel": "0156-22-2794",
    "url": "http://www.town.honbetsu.hokkaido.jp/",
    "pref": "北海道",
    "city": "本別町",
    "category": "tokuyou",
    "serviceType": "介護老人福祉施設",
    "capacity": 50,
    "openDays": [],
    "openDaysNote": ""
  },
  {
    "id": "174700237",
    "name": "特別養護老人ホーム札内寮",
    "kana": "トクベツヨウゴロウジンホームサツナイリョウ",
    "address": "中川郡幕別町字依田379番地",
    "lat": 42.8957249,
    "lng": 143.2535979,
    "tel": "0155-56-4706",
    "url": "https://www.maku.or.jp/",
    "pref": "北海道",
    "city": "幕別町",
    "category": "tokuyou",
    "serviceType": "介護老人福祉施設",
    "capacity": 0,
    "openDays": [],
    "openDaysNote": ""
  },
  {
    "id": "173200700",
    "name": "介護老人福祉施設　名寄市特別養護老人ホーム清峰園",
    "kana": "カイゴロウジンフクシシセツ　ナヨロシトクベツヨウゴロウジンホームセイホウエン",
    "address": "北海道名寄市東8条南8丁目117番地",
    "lat": 44.348391864129,
    "lng": 142.476894971164,
    "tel": "01654-3-3228",
    "url": "http://www.city.nayoro.lg.jp/section/tokurou/prkeql000000urtj.html",
    "pref": "北海道",
    "city": "名寄市",
    "category": "tokuyou",
    "serviceType": "介護老人福祉施設",
    "capacity": 100,
    "openDays": [],
    "openDaysNote": ""
  },
  {
    "id": "173200676",
    "name": "名寄市風連特別養護老人ホームしらかばハイツ",
    "kana": "ナヨロシフウレントクベツヨウゴロウジンホームシラカバハイツ",
    "address": "北海道名寄市風連町北栄町５１番地１",
    "lat": 44.298226,
    "lng": 142.4190595,
    "tel": "01655-3-2971",
    "url": "http://www.city.nayoro.lg.jp/",
    "pref": "北海道",
    "city": "名寄市",
    "category": "tokuyou",
    "serviceType": "介護老人福祉施設",
    "capacity": 0,
    "openDays": [],
    "openDaysNote": ""
  },
  {
    "id": "175300037",
    "name": "特別養護老人ホーム　なないろ館",
    "kana": "トクベツヨウゴロウジンホーム　ナナイロカン",
    "address": "北海道網走市南６条東３丁目５番地",
    "lat": 44.0198012559724,
    "lng": 144.271685033754,
    "tel": "0152-67-5516",
    "url": "http://www.rainbow-heights.com/",
    "pref": "北海道",
    "city": "網走市",
    "category": "tokuyou",
    "serviceType": "介護老人福祉施設",
    "capacity": 0,
    "openDays": [],
    "openDaysNote": ""
  },
  {
    "id": "171501844",
    "name": "木古内町特別養護老人ホームいさりび",
    "kana": "キコナイチョウトクベツヨウゴロウジンホームイサリビ",
    "address": "北海道上磯郡木古内町字本町704番地",
    "lat": 41.6759947,
    "lng": 140.4385736,
    "tel": "01392-2-5700",
    "url": "https://isaribi.org",
    "pref": "北海道",
    "city": "木古内町",
    "category": "tokuyou",
    "serviceType": "介護老人福祉施設",
    "capacity": null,
    "openDays": [],
    "openDaysNote": ""
  },
  {
    "id": "175100320",
    "name": "特別養護老人ホーム安養園",
    "kana": "トクベツヨウゴロウジンホームアンニョウエン",
    "address": "紋別市大山町１丁目５２番１５号",
    "lat": 44.3406908,
    "lng": 143.3396861,
    "tel": "0158-24-4700",
    "url": "http://www.annyouen777.com/",
    "pref": "北海道",
    "city": "紋別市",
    "category": "tokuyou",
    "serviceType": "介護老人福祉施設",
    "capacity": 0,
    "openDays": [],
    "openDaysNote": ""
  },
  {
    "id": "175400357",
    "name": "社会福祉法人上湧別福祉会　特別養護老人ホーム湧愛園",
    "kana": "シャカイフクシホウジンカミユウベツフクシカイ　トクベツヨウゴロウジンホームユウアイエン",
    "address": "北海道紋別郡湧別町上湧別屯田市街地３３６番地の１",
    "lat": 44.1535926,
    "lng": 143.5742907,
    "tel": "01586-2-3151",
    "url": "https://kamiyuubetsufukushi.or.jp",
    "pref": "北海道",
    "city": "湧別町",
    "category": "tokuyou",
    "serviceType": "介護老人福祉施設",
    "capacity": 0,
    "openDays": [],
    "openDaysNote": ""
  },
  {
    "id": "175400761",
    "name": "特別養護老人ホーム湧愛園",
    "kana": "トクベツヨウゴロウジンホームユウアイエン",
    "address": "北海道紋別郡湧別町上湧別屯田市街地３３６番地の１",
    "lat": 44.1536549,
    "lng": 143.5741731,
    "tel": "01586-2-3151",
    "url": "",
    "pref": "北海道",
    "city": "湧別町",
    "category": "tokuyou",
    "serviceType": "介護老人福祉施設",
    "capacity": null,
    "openDays": [],
    "openDaysNote": ""
  },
  {
    "id": "175400159",
    "name": "特別養護老人ホーム湧別オホーツク園",
    "kana": "トクベツヨウゴロウジンホームユウベツオホーツクエン",
    "address": "紋別郡湧別町東41番地の1",
    "lat": 44.2168560359016,
    "lng": 143.621273292135,
    "tel": "01586-5-3660",
    "url": "http://yubetsu-f.jp/",
    "pref": "北海道",
    "city": "湧別町",
    "category": "tokuyou",
    "serviceType": "介護老人福祉施設",
    "capacity": 0,
    "openDays": [],
    "openDaysNote": ""
  },
  {
    "id": "175400720",
    "name": "特別養護老人ホーム湧別オホーツク園",
    "kana": "トクベツヨウゴロウジンホームユウベツオホーツクエン",
    "address": "紋別郡湧別町東41番地の1",
    "lat": 44.2164342378885,
    "lng": 143.621373167622,
    "tel": "01586-5-3660",
    "url": "https://yubetsu-f.jp/",
    "pref": "北海道",
    "city": "湧別町",
    "category": "tokuyou",
    "serviceType": "介護老人福祉施設",
    "capacity": null,
    "openDays": [],
    "openDaysNote": ""
  },
  {
    "id": "175800465",
    "name": "ユンニこもれびの家",
    "kana": "ユンニコモレビノイエ",
    "address": "北海道夕張郡由仁町東栄86番地",
    "lat": 43.0099512,
    "lng": 141.7886042,
    "tel": "0123-82-2222",
    "url": "http://www.mizunokai.ed.jp/komorebinoie/",
    "pref": "北海道",
    "city": "由仁町",
    "category": "tokuyou",
    "serviceType": "介護老人福祉施設",
    "capacity": 0,
    "openDays": [],
    "openDaysNote": ""
  },
  {
    "id": "175100262",
    "name": "雄武町立特別養護老人ホーム雄愛園",
    "kana": "オウムチョウリツトクベツヨウゴロウジンホームユウアイエン",
    "address": "北海道紋別郡雄武町字雄武１８８５番地３",
    "lat": 44.5839032,
    "lng": 142.958955,
    "tel": "0158-84-2772",
    "url": "http://oumu-shakyo.jp/",
    "pref": "北海道",
    "city": "雄武町",
    "category": "tokuyou",
    "serviceType": "介護老人福祉施設",
    "capacity": 0,
    "openDays": [],
    "openDaysNote": ""
  },
  {
    "id": "175900034",
    "name": "特別養護老人ホーム　清光園",
    "kana": "トクベツヨウゴロウジンホーム　セイコウエン",
    "address": "北海道夕張市南清水沢1丁目55番地1",
    "lat": 42.9868991,
    "lng": 142.0017529,
    "tel": "0123-59-6213",
    "url": "http://www.yubari-seikouen.jp",
    "pref": "北海道",
    "city": "夕張市",
    "category": "tokuyou",
    "serviceType": "介護老人福祉施設",
    "capacity": 105,
    "openDays": [],
    "openDaysNote": ""
  },
  {
    "id": "172500498",
    "name": "ユニット型特別養護老人ホームフルーツ・シャトーよいち",
    "kana": "ユニットガタトクベツヨウゴロウジンホームフルーツシャトーヨイチ",
    "address": "北海道余市郡余市町黒川町19丁目1番地2",
    "lat": 43.187276,
    "lng": 140.8142569,
    "tel": "0135-22-5350",
    "url": "https://www.fruit.or.jp",
    "pref": "北海道",
    "city": "余市町",
    "category": "tokuyou",
    "serviceType": "介護老人福祉施設",
    "capacity": 0,
    "openDays": [],
    "openDaysNote": ""
  },
  {
    "id": "172500068",
    "name": "特別養護老人ホーム　フルーツ・シャトーよいち",
    "kana": "トクベツヨウゴロウジンホーム　フルーツ・シャトーヨイチ",
    "address": "北海道余市郡余市町黒川町19丁目1番地2",
    "lat": 43.187276,
    "lng": 140.8142569,
    "tel": "0135-22-5350",
    "url": "https://www.fruit.or.jp",
    "pref": "北海道",
    "city": "余市町",
    "category": "tokuyou",
    "serviceType": "介護老人福祉施設",
    "capacity": 0,
    "openDays": [],
    "openDaysNote": ""
  },
  {
    "id": "173800194",
    "name": "特別養護老人ホーム様似ソビラ荘",
    "kana": "トクベツヨウゴロウジンホームサマニソビラソウ",
    "address": "北海道様似郡様似町朝日丘45番地",
    "lat": 42.1293732020847,
    "lng": 142.944674851695,
    "tel": "0146-36-3126",
    "url": "http://sobira.jp",
    "pref": "北海道",
    "city": "様似町",
    "category": "tokuyou",
    "serviceType": "介護老人福祉施設",
    "capacity": null,
    "openDays": [],
    "openDaysNote": ""
  },
  {
    "id": "172200057",
    "name": "介護老人福祉施設　特別養護老人ホーム　一灯園",
    "kana": "カイゴロウジンフクシシセツ　トクベツヨウゴロウジンホーム　イットウエン",
    "address": "北海道磯谷郡蘭越町字大谷２７２番地",
    "lat": 42.8020009,
    "lng": 140.5232959,
    "tel": "0136-57-5498",
    "url": "http://www.ittoen-r.or.jp/",
    "pref": "北海道",
    "city": "蘭越町",
    "category": "tokuyou",
    "serviceType": "介護老人福祉施設",
    "capacity": 0,
    "openDays": [],
    "openDaysNote": ""
  },
  {
    "id": "176700243",
    "name": "利尻町特別養護老人ホームほのぼの荘",
    "kana": "リシリチョウトクベツヨウゴロウジンホームホノボノソウ",
    "address": "北海道利尻郡利尻町仙法志字政泊９１番地１",
    "lat": 45.1137622,
    "lng": 141.2126781,
    "tel": "0163-85-1700",
    "url": "",
    "pref": "北海道",
    "city": "利尻町",
    "category": "tokuyou",
    "serviceType": "介護老人福祉施設",
    "capacity": 0,
    "openDays": [],
    "openDaysNote": ""
  },
  {
    "id": "176701100",
    "name": "利尻富士町立特別養護老人ホーム秀峰園",
    "kana": "リシリフジチョウリツトクベツヨウゴロウジンホームシュウホウエン",
    "address": "北海道利尻郡利尻富士町鬼脇字鬼脇205番地1",
    "lat": 45.1323263031502,
    "lng": 141.305174194506,
    "tel": "0163-83-1313",
    "url": "",
    "pref": "北海道",
    "city": "利尻富士町",
    "category": "tokuyou",
    "serviceType": "介護老人福祉施設",
    "capacity": null,
    "openDays": [],
    "openDaysNote": ""
  },
  {
    "id": "174700278",
    "name": "特別養護老人ホームしらかば苑",
    "kana": "トクベツヨウゴロウジンホームシラカバエン",
    "address": "足寄郡陸別町字陸別原野基線３２１番地の５",
    "lat": 43.4650062,
    "lng": 143.747654,
    "tel": "0156-27-3803",
    "url": "http://www.rikubetsu.or.jp/",
    "pref": "北海道",
    "city": "陸別町",
    "category": "tokuyou",
    "serviceType": "介護老人福祉施設",
    "capacity": 60,
    "openDays": [],
    "openDaysNote": ""
  },
  {
    "id": "176400034",
    "name": "特別養護老人ホーム萌寿園",
    "kana": "トクベツヨウゴロウジンホームホウジュエン",
    "address": "北海道留萌市沖見町６丁目１８番地６",
    "lat": 43.9251968420663,
    "lng": 141.643760916008,
    "tel": "0164-43-2727",
    "url": "http://hoju-en.jp/",
    "pref": "北海道",
    "city": "留萌市",
    "category": "tokuyou",
    "serviceType": "介護老人福祉施設",
    "capacity": 0,
    "openDays": [],
    "openDaysNote": ""
  },
  {
    "id": "176700128",
    "name": "特別養護老人ホーム礼宝園",
    "kana": "トクベツヨウゴロウジンホームレイホウエン",
    "address": "北海道礼文郡礼文町大字香深村字カフカイ766番地の3",
    "lat": 45.3415928,
    "lng": 141.0414813,
    "tel": "0163-86-2200",
    "url": "http://www.reihouen.or.jp/",
    "pref": "北海道",
    "city": "礼文町",
    "category": "tokuyou",
    "serviceType": "介護老人福祉施設",
    "capacity": 30,
    "openDays": [],
    "openDaysNote": ""
  },
  {
    "id": "173200189",
    "name": "和寒町特別養護老人ホーム芳生苑",
    "kana": "ワッサムチョウトクベツヨウゴロウジンホームホウセイエン",
    "address": "北海道上川郡和寒町字三笠6番地",
    "lat": 44.0224432,
    "lng": 142.4081013,
    "tel": "0165-32-3164",
    "url": "https://houseien.org/",
    "pref": "北海道",
    "city": "和寒町",
    "category": "tokuyou",
    "serviceType": "介護老人福祉施設",
    "capacity": 100,
    "openDays": [],
    "openDaysNote": ""
  }
]