[
  {
    "id": "1278600448",
    "name": "社会福祉法人林声会特別養護老人ホームゆかり岬",
    "kana": "シャカイフクシホウジンリンセイカイトクベツヨウゴロウジンホームユカリミサキ",
    "address": "千葉県いすみ市岬町押日1508番地3",
    "lat": 35.3104981,
    "lng": 140.3633258,
    "tel": "0470-62-6660",
    "url": "https://rinseikai.or.jp/misaki/index.html",
    "pref": "千葉県",
    "city": "いすみ市",
    "category": "tokuyou",
    "serviceType": "介護老人福祉施設",
    "capacity": 80,
    "openDays": [],
    "openDaysNote": ""
  },
  {
    "id": "1277500037",
    "name": "特別養護老人ホーム　シルバーガーデン",
    "kana": "トクベツヨウゴロウジンホーム　シルバーガーデン",
    "address": "千葉県いすみ市新田若山深堀入会地９番地",
    "lat": 35.2386601,
    "lng": 140.3736317,
    "tel": "0470-62-8855",
    "url": "http://isumisilvergarden.web.fc2.com/",
    "pref": "千葉県",
    "city": "いすみ市",
    "category": "tokuyou",
    "serviceType": "介護老人福祉施設",
    "capacity": 80,
    "openDays": [],
    "openDaysNote": ""
  },
  {
    "id": "1277300065",
    "name": "特別養護老人ホームいすみ苑",
    "kana": "トクベツヨウゴロウジンホームイスミエン",
    "address": "千葉県いすみ市能実６１５番地",
    "lat": 35.3166485,
    "lng": 140.3066329,
    "tel": "0470-86-5560",
    "url": "http://www.koujyu-kai.jp/",
    "pref": "千葉県",
    "city": "いすみ市",
    "category": "tokuyou",
    "serviceType": "介護老人福祉施設",
    "capacity": 0,
    "openDays": [],
    "openDaysNote": ""
  },
  {
    "id": "1278600331",
    "name": "特別養護老人ホームいすみ苑弐号館",
    "kana": "トクベツヨウゴ　ロウジンホームイスミエンニゴウカン",
    "address": "千葉県いすみ市能実615",
    "lat": 35.3166485,
    "lng": 140.3066329,
    "tel": "0470－86－5560",
    "url": "http://www.koujyu-kai.jp/",
    "pref": "千葉県",
    "city": "いすみ市",
    "category": "tokuyou",
    "serviceType": "介護老人福祉施設",
    "capacity": 0,
    "openDays": [],
    "openDaysNote": ""
  },
  {
    "id": "1277600092",
    "name": "特別養護老人ホーム愛恵苑",
    "kana": "トクベツヨウゴロウジンホームアイケイエン",
    "address": "千葉県いすみ市岬町中滝１６９２－３",
    "lat": 35.3020664,
    "lng": 140.3565703,
    "tel": "0470-87-8861",
    "url": "https://aikeikai-misaki.com",
    "pref": "千葉県",
    "city": "いすみ市",
    "category": "tokuyou",
    "serviceType": "介護老人福祉施設",
    "capacity": 0,
    "openDays": [],
    "openDaysNote": ""
  },
  {
    "id": "1275400057",
    "name": "恵天堂特別養護老人ホーム",
    "kana": "ケイテンドウトクベツヨウゴロウジンホーム",
    "address": "千葉県旭市蛇園2532",
    "lat": 35.7191268,
    "lng": 140.7040584,
    "tel": "0479-55-3100",
    "url": "https://keitendo.or.jp/",
    "pref": "千葉県",
    "city": "旭市",
    "category": "tokuyou",
    "serviceType": "介護老人福祉施設",
    "capacity": 0,
    "openDays": [],
    "openDaysNote": ""
  },
  {
    "id": "1272001049",
    "name": "特別養護老人ホーム　心楽",
    "kana": "トクベツヨウゴロウジンホーム　ココラ",
    "address": "千葉県旭市イの4322番地",
    "lat": 35.7229521,
    "lng": 140.6715934,
    "tel": "0479-85-8698",
    "url": "https://www.rakutendo.org",
    "pref": "千葉県",
    "city": "旭市",
    "category": "tokuyou",
    "serviceType": "介護老人福祉施設",
    "capacity": 0,
    "openDays": [],
    "openDaysNote": ""
  },
  {
    "id": "1272000090",
    "name": "特別養護老人ホームやすらぎ園",
    "kana": "トクベツヨウゴロウジンホーム　　ヤスラギエン",
    "address": "千葉県旭市イ３９２５番２",
    "lat": 35.7261307,
    "lng": 140.6722081,
    "tel": "0479-63-9011",
    "url": "https://yasuragien.or.jp/",
    "pref": "千葉県",
    "city": "旭市",
    "category": "tokuyou",
    "serviceType": "介護老人福祉施設",
    "capacity": 0,
    "openDays": [],
    "openDaysNote": ""
  },
  {
    "id": "1272000637",
    "name": "特別養護老人ホームやすらぎ園　（ユニット型）",
    "kana": "トクベツヨウゴロウジンホーム　ヤスラギエン　（ユニットガタ）",
    "address": "千葉県旭市イ3925-1",
    "lat": 35.7254169,
    "lng": 140.6723137,
    "tel": "0479-63-9011",
    "url": "https://yasuragien.or.jp/",
    "pref": "千葉県",
    "city": "旭市",
    "category": "tokuyou",
    "serviceType": "介護老人福祉施設",
    "capacity": 0,
    "openDays": [],
    "openDaysNote": ""
  },
  {
    "id": "1275500047",
    "name": "特別養護老人ホーム東風荘",
    "kana": "トクベツヨウゴロウジンホーム　トウフウソウ",
    "address": "千葉県旭市三川字篠堆６３０１－６",
    "lat": 35.7056085,
    "lng": 140.6898823,
    "tel": "0479-57-6110",
    "url": "http://www.toufuukai.com/",
    "pref": "千葉県",
    "city": "旭市",
    "category": "tokuyou",
    "serviceType": "介護老人福祉施設",
    "capacity": null,
    "openDays": [],
    "openDaysNote": ""
  },
  {
    "id": "1275200028",
    "name": "特別養護老人ホーム白寿園",
    "kana": "トクベツヨウゴロウジンホームハクジュエン",
    "address": "千葉県旭市清和乙２０番地1",
    "lat": 35.770494,
    "lng": 140.6176062,
    "tel": "0479-68-3311",
    "url": "https://www.hakujyuen.com",
    "pref": "千葉県",
    "city": "旭市",
    "category": "tokuyou",
    "serviceType": "介護老人福祉施設",
    "capacity": 0,
    "openDays": [],
    "openDaysNote": ""
  },
  {
    "id": "1276600259",
    "name": "特別養護老人ホーム　一宮喜楽園ユニット型",
    "kana": "トクベツヨウゴロウジンホーム　イチノミヤキラクエン　ユニットガタ",
    "address": "千葉県長生郡一宮町船頭給201",
    "lat": 35.3823117,
    "lng": 140.36787,
    "tel": "0475-40-1165",
    "url": "https://houyuukai.or.jp/",
    "pref": "千葉県",
    "city": "一宮町",
    "category": "tokuyou",
    "serviceType": "介護老人福祉施設",
    "capacity": 0,
    "openDays": [],
    "openDaysNote": ""
  },
  {
    "id": "1276600051",
    "name": "特別養護老人ホーム一宮苑",
    "kana": "トクベツヨウゴロウジンホームイチノミヤエン",
    "address": "千葉県長生郡一宮町一宮３８９特別養護老人ホーム一宮苑 特別養護老人ホーム一宮苑",
    "lat": 35.3818965203035,
    "lng": 140.382156555895,
    "tel": "0475-42-1180",
    "url": "http://www.ichinomiyaen.jp/",
    "pref": "千葉県",
    "city": "一宮町",
    "category": "tokuyou",
    "serviceType": "介護老人福祉施設",
    "capacity": 54,
    "openDays": [],
    "openDaysNote": ""
  },
  {
    "id": "1276600242",
    "name": "特別養護老人ホーム一宮喜楽園",
    "kana": "トクベツヨウゴロウジンホーム　イチノミヤキラクエン",
    "address": "千葉県長生郡一宮町船頭給201",
    "lat": 35.3823117,
    "lng": 140.36787,
    "tel": "0475-40-1165",
    "url": "https://houyuukai.or.jp/",
    "pref": "千葉県",
    "city": "一宮町",
    "category": "tokuyou",
    "serviceType": "介護老人福祉施設",
    "capacity": 0,
    "openDays": [],
    "openDaysNote": ""
  },
  {
    "id": "1273600302",
    "name": "介護老人福祉施設ハートヴィレッヂ",
    "kana": "カイゴロウジンフクシシセツ　ハートウ゛ィレッヂ",
    "address": "千葉県印西市武西1269-1",
    "lat": 35.7891622,
    "lng": 140.1096437,
    "tel": "0476-47-1122",
    "url": "https://ryushinkai.or.jp",
    "pref": "千葉県",
    "city": "印西市",
    "category": "tokuyou",
    "serviceType": "介護老人福祉施設",
    "capacity": 0,
    "openDays": [],
    "openDaysNote": ""
  },
  {
    "id": "1273600625",
    "name": "介護老人福祉施設ハートヴィレッヂⅡ",
    "kana": "カイゴロウジンフクシシセツ　ハートウ゛ィレッジ　Ⅱ",
    "address": "千葉県印西市武西１２６９－１",
    "lat": 35.7891622,
    "lng": 140.1096437,
    "tel": "０４７６－４７－１１２２",
    "url": "https://ryushinkai.or.jp",
    "pref": "千葉県",
    "city": "印西市",
    "category": "tokuyou",
    "serviceType": "介護老人福祉施設",
    "capacity": 0,
    "openDays": [],
    "openDaysNote": ""
  },
  {
    "id": "1273600971",
    "name": "特別養護老人ホーム　サクラビア印西（ユニット型）",
    "kana": "トクベツヨウゴロウジンホーム　サクラビアインザイ（ユニットガタ）",
    "address": "千葉県印西市草深1161",
    "lat": 35.8028309557124,
    "lng": 140.131707620441,
    "tel": "0476-85-8110",
    "url": "https://shououkai.or.jp/",
    "pref": "千葉県",
    "city": "印西市",
    "category": "tokuyou",
    "serviceType": "介護老人福祉施設",
    "capacity": 0,
    "openDays": [],
    "openDaysNote": ""
  },
  {
    "id": "1273600963",
    "name": "特別養護老人ホーム　サクラビア印西（従来型）",
    "kana": "トクベツヨウゴロウジンホーム　サクラビアインザイ（ジュウライガタ）",
    "address": "千葉県印西市草深1161",
    "lat": 35.802752642528,
    "lng": 140.131965112506,
    "tel": "0476-85-8110",
    "url": "http://shououkai.or.jp/",
    "pref": "千葉県",
    "city": "印西市",
    "category": "tokuyou",
    "serviceType": "介護老人福祉施設",
    "capacity": 0,
    "openDays": [],
    "openDaysNote": ""
  },
  {
    "id": "1274300050",
    "name": "特別養護老人ホームプレーゲ本埜",
    "kana": "トクベツヨウゴロウジンホーム　プレーゲモトノ",
    "address": "千葉県印西市笠神1620",
    "lat": 35.8267982,
    "lng": 140.2097658,
    "tel": "0476-97-0100",
    "url": "http://www.rikushinkai.com/",
    "pref": "千葉県",
    "city": "印西市",
    "category": "tokuyou",
    "serviceType": "介護老人福祉施設",
    "capacity": 0,
    "openDays": [],
    "openDaysNote": ""
  },
  {
    "id": "1273600146",
    "name": "特別養護老人ホームみどり荘",
    "kana": "トクベツヨウゴロウジンホームミドリソウ",
    "address": "千葉県印西市竜腹寺３４２番２",
    "lat": 35.8306483,
    "lng": 140.1312358,
    "tel": "0476-80-8800",
    "url": "http://www.midorisou.jp/",
    "pref": "千葉県",
    "city": "印西市",
    "category": "tokuyou",
    "serviceType": "介護老人福祉施設",
    "capacity": 64,
    "openDays": [],
    "openDaysNote": ""
  },
  {
    "id": "1273600914",
    "name": "特別養護老人ホームみどり荘ユニット型",
    "kana": "トクベツヨウゴロウジンホームミドリソウユニットガタ",
    "address": "千葉県印西市竜復寺342番2",
    "lat": 35.8028271,
    "lng": 140.1937098,
    "tel": "0476-80-8800",
    "url": "http://www.midorisou.jp/",
    "pref": "千葉県",
    "city": "印西市",
    "category": "tokuyou",
    "serviceType": "介護老人福祉施設",
    "capacity": 0,
    "openDays": [],
    "openDaysNote": ""
  },
  {
    "id": "1273600773",
    "name": "特別養護老人ホーム印西",
    "kana": "トクベツヨウゴロウジンホームインザイ",
    "address": "千葉県印西市草深２２５－５",
    "lat": 35.7922356803763,
    "lng": 140.150482679193,
    "tel": "0476-40-6110",
    "url": "http://shououkai.or.jp/",
    "pref": "千葉県",
    "city": "印西市",
    "category": "tokuyou",
    "serviceType": "介護老人福祉施設",
    "capacity": 0,
    "openDays": [],
    "openDaysNote": ""
  },
  {
    "id": "1274100088",
    "name": "特別養護老人ホーム印旛晴山苑",
    "kana": "トクベツヨウゴロウジンホームインバセイザンエン",
    "address": "千葉県印西市大廻１８７番地",
    "lat": 35.7784726,
    "lng": 140.1786498,
    "tel": "0476-99-2522",
    "url": "https://seizan-kai.or.jp/",
    "pref": "千葉県",
    "city": "印西市",
    "category": "tokuyou",
    "serviceType": "介護老人福祉施設",
    "capacity": 0,
    "openDays": [],
    "openDaysNote": ""
  },
  {
    "id": "1273201085",
    "name": "うらやす和楽苑（ユニット型）",
    "kana": "ウラヤスワラクエン（ユニットガタ）",
    "address": "千葉県浦安市当代島2-14-2",
    "lat": 35.6704151,
    "lng": 139.8898124,
    "tel": "047-380-0111",
    "url": "http://www.urayasuwarakuen.com/",
    "pref": "千葉県",
    "city": "浦安市",
    "category": "tokuyou",
    "serviceType": "介護老人福祉施設",
    "capacity": 54,
    "openDays": [],
    "openDaysNote": ""
  },
  {
    "id": "1273201093",
    "name": "うらやす和楽苑（従来型）",
    "kana": "ウラヤスワラクエン（ジュウライガタ）",
    "address": "千葉県浦安市当代島2-14-2",
    "lat": 35.6704151,
    "lng": 139.8898124,
    "tel": "047-380-0111",
    "url": "http://www.urayasuwarakuen.com/",
    "pref": "千葉県",
    "city": "浦安市",
    "category": "tokuyou",
    "serviceType": "介護老人福祉施設",
    "capacity": 30,
    "openDays": [],
    "openDaysNote": ""
  },
  {
    "id": "1273200681",
    "name": "浦安愛光園",
    "kana": "ウラヤスアイコウエン",
    "address": "千葉県浦安市高洲九丁目3番2号",
    "lat": 35.6315822,
    "lng": 139.9187909,
    "tel": "047-700-6600",
    "url": "https://www.seirei.or.jp/elderlyhome/urayasu/about/aikoen/",
    "pref": "千葉県",
    "city": "浦安市",
    "category": "tokuyou",
    "serviceType": "介護老人福祉施設",
    "capacity": 0,
    "openDays": [],
    "openDaysNote": ""
  },
  {
    "id": "1273200129",
    "name": "浦安市特別養護老人ホーム",
    "kana": "ウラヤスシトクベツヨウゴロウジンホーム",
    "address": "千葉県浦安市高洲９－３－１",
    "lat": 35.6310028,
    "lng": 139.919375,
    "tel": "047-382-2943",
    "url": "",
    "pref": "千葉県",
    "city": "浦安市",
    "category": "tokuyou",
    "serviceType": "介護老人福祉施設",
    "capacity": 0,
    "openDays": [],
    "openDaysNote": ""
  },
  {
    "id": "1274400066",
    "name": "特別養護老人ホーム栄白翠園",
    "kana": "トクベツヨウゴロウジンホーム　サカエハクスイエン",
    "address": "千葉県印旛郡栄町酒直1335番地",
    "lat": 35.8309716,
    "lng": 140.2601406,
    "tel": "0476-95-8941",
    "url": "http://hakusuien.jp/sakae/",
    "pref": "千葉県",
    "city": "栄町",
    "category": "tokuyou",
    "serviceType": "介護老人福祉施設",
    "capacity": 0,
    "openDays": [],
    "openDaysNote": ""
  },
  {
    "id": "1279100307",
    "name": "ユニット型特別養護老人ホーム横芝光",
    "kana": "ユニットガタトクベツヨウゴロウジンホームヨコシバヒカリ",
    "address": "千葉県山武郡横芝光町横芝422-41",
    "lat": 35.6600102,
    "lng": 140.4780153,
    "tel": "0479-75-4165",
    "url": "http://naginosato.or.jp/",
    "pref": "千葉県",
    "city": "横芝光町",
    "category": "tokuyou",
    "serviceType": "介護老人福祉施設",
    "capacity": 0,
    "openDays": [],
    "openDaysNote": ""
  },
  {
    "id": "1279100182",
    "name": "高齢者福祉施設三愛(ユニット)",
    "kana": "コウレイシャフクシシセツサンアイ(ユニット)",
    "address": "千葉県山武郡横芝光町栗山2700",
    "lat": 35.6581924,
    "lng": 140.4952027,
    "tel": "0479-82-3433",
    "url": "http://care-net.biz/12/sanai-touwa/",
    "pref": "千葉県",
    "city": "横芝光町",
    "category": "tokuyou",
    "serviceType": "介護老人福祉施設",
    "capacity": 30,
    "openDays": [],
    "openDaysNote": ""
  },
  {
    "id": "1279100174",
    "name": "高齢者福祉施設三愛（従来型）",
    "kana": "コウレイシャフクシシセツ　サンアイ　（ジュウライガタ）",
    "address": "千葉県山武郡横芝光町栗山2700",
    "lat": 35.6581924,
    "lng": 140.4952027,
    "tel": "0479-82-3433",
    "url": "http://care-net.biz/12/sanai-touwa/",
    "pref": "千葉県",
    "city": "横芝光町",
    "category": "tokuyou",
    "serviceType": "介護老人福祉施設",
    "capacity": 50,
    "openDays": [],
    "openDaysNote": ""
  },
  {
    "id": "1279100299",
    "name": "従来型特別養護老人ホーム横芝光",
    "kana": "ジュウライガタトクベツヨウゴロウジンホームヨコシバヒカリ",
    "address": "千葉県山武郡横芝光町横芝422-41",
    "lat": 35.6600102,
    "lng": 140.4780153,
    "tel": "0479-75-4165",
    "url": "http://naginosato.or.jp/",
    "pref": "千葉県",
    "city": "横芝光町",
    "category": "tokuyou",
    "serviceType": "介護老人福祉施設",
    "capacity": 0,
    "openDays": [],
    "openDaysNote": ""
  },
  {
    "id": "1276400064",
    "name": "特別養護老人ホーム吉祥苑",
    "kana": "トクベツヨウゴロウジンホームキッショウエン",
    "address": "千葉県山武郡横芝光町寺方780-1",
    "lat": 35.6764647,
    "lng": 140.4611755,
    "tel": "0479-80-0084",
    "url": "https://www.kissyoen.net/",
    "pref": "千葉県",
    "city": "横芝光町",
    "category": "tokuyou",
    "serviceType": "介護老人福祉施設",
    "capacity": 0,
    "openDays": [],
    "openDaysNote": ""
  },
  {
    "id": "1275600045",
    "name": "特別養護老人ホーム第二松丘園",
    "kana": "トクベツヨウゴロウジンホームダイニショウキュウエン",
    "address": "千葉県山武郡横芝光町宮川１２１０３－１",
    "lat": 35.6577655,
    "lng": 140.5039851,
    "tel": "0479-84-3969",
    "url": "https://www.99-home.com/",
    "pref": "千葉県",
    "city": "横芝光町",
    "category": "tokuyou",
    "serviceType": "介護老人福祉施設",
    "capacity": 0,
    "openDays": [],
    "openDaysNote": ""
  },
  {
    "id": "1272701184",
    "name": "ユニット型特別養護老人ホームアクイール",
    "kana": "ユニットガタトクベツヨウゴロウジンホームアクイール",
    "address": "千葉県我孫子市岡発戸１４９８",
    "lat": 35.8614979414744,
    "lng": 140.060821736385,
    "tel": "０４－７１６５－６５１１",
    "url": "https://www.acomoder.or.jp/",
    "pref": "千葉県",
    "city": "我孫子市",
    "category": "tokuyou",
    "serviceType": "介護老人福祉施設",
    "capacity": 0,
    "openDays": [],
    "openDaysNote": ""
  },
  {
    "id": "1272701671",
    "name": "特別養護老人ホーム　けやきの里",
    "kana": "トクベツヨウゴロウジンホーム　ケヤキノサト",
    "address": "千葉県我孫子市青山４１７番",
    "lat": 35.8770320092591,
    "lng": 140.051945874568,
    "tel": "04-7181-1110",
    "url": "http://koujinkai-keyakinosato.com/",
    "pref": "千葉県",
    "city": "我孫子市",
    "category": "tokuyou",
    "serviceType": "介護老人福祉施設",
    "capacity": 0,
    "openDays": [],
    "openDaysNote": ""
  },
  {
    "id": "1272701663",
    "name": "特別養護老人ホーム　けやきの里従来型",
    "kana": "トクベツヨウゴロウジンホウム　ケヤキノサト",
    "address": "千葉県我孫子市青山417番地",
    "lat": 35.8839315,
    "lng": 140.0489143,
    "tel": "04-7181-1110",
    "url": "https://kojk.jp/keyakinosato/index.html",
    "pref": "千葉県",
    "city": "我孫子市",
    "category": "tokuyou",
    "serviceType": "介護老人福祉施設",
    "capacity": null,
    "openDays": [],
    "openDaysNote": ""
  },
  {
    "id": "1272701390",
    "name": "特別養護老人ホームあおいの里・我孫子（ユニット型）",
    "kana": "トクベツヨウゴロウジンホーム　アオイノサト・アビコ（ユニットガタ）",
    "address": "千葉県我孫子市柴崎216-1",
    "lat": 35.8737798,
    "lng": 140.0348912,
    "tel": "04-7181-0010",
    "url": "http://www.aoikai.jp/abiko/",
    "pref": "千葉県",
    "city": "我孫子市",
    "category": "tokuyou",
    "serviceType": "介護老人福祉施設",
    "capacity": 0,
    "openDays": [],
    "openDaysNote": ""
  },
  {
    "id": "1272701382",
    "name": "特別養護老人ホームあおいの里・我孫子（従来型）",
    "kana": "トクベツヨウゴロウジンホーム　アオイノサト・アビコ（ジュウライガタ）",
    "address": "千葉県我孫子市柴崎216-1",
    "lat": 35.8778736,
    "lng": 140.035727,
    "tel": "04-7181-0010",
    "url": "http://www.aoikai.jp/abiko/",
    "pref": "千葉県",
    "city": "我孫子市",
    "category": "tokuyou",
    "serviceType": "介護老人福祉施設",
    "capacity": 0,
    "openDays": [],
    "openDaysNote": ""
  },
  {
    "id": "1272701176",
    "name": "特別養護老人ホームアクイール",
    "kana": "トクベツヨウゴロウジンホームアクイール",
    "address": "千葉県我孫子市岡発戸1498",
    "lat": 35.8612892604925,
    "lng": 140.060151184131,
    "tel": "04-7165-6511",
    "url": "https://www.acomoder.or.jp/",
    "pref": "千葉県",
    "city": "我孫子市",
    "category": "tokuyou",
    "serviceType": "介護老人福祉施設",
    "capacity": 0,
    "openDays": [],
    "openDaysNote": ""
  },
  {
    "id": "1272700145",
    "name": "特別養護老人ホームアコモード",
    "kana": "トクベツヨウゴロウジンホームアコモード",
    "address": "千葉県我孫子市布佐1559-2",
    "lat": 35.8556833,
    "lng": 140.1249466,
    "tel": "04-7189-5201",
    "url": "https://www.acomoder.or.jp/",
    "pref": "千葉県",
    "city": "我孫子市",
    "category": "tokuyou",
    "serviceType": "介護老人福祉施設",
    "capacity": 110,
    "openDays": [],
    "openDaysNote": ""
  },
  {
    "id": "1272702133",
    "name": "特別養護老人ホームけやきの里あやめ館　従来型",
    "kana": "トクベツヨウゴロウジンホームケヤキノサトアヤメカンジュウライガタ",
    "address": "千葉県我孫子市青山415",
    "lat": 35.8771406,
    "lng": 140.0516147,
    "tel": "04-7181-1110",
    "url": "https://kojk.jp/ayamekan/index.html",
    "pref": "千葉県",
    "city": "我孫子市",
    "category": "tokuyou",
    "serviceType": "介護老人福祉施設",
    "capacity": null,
    "openDays": [],
    "openDaysNote": ""
  },
  {
    "id": "1272702125",
    "name": "特別養護老人ホームけやきの里あやめ館ユニット型",
    "kana": "トクベツヨウゴロウジンホームケヤキノサトアヤメカンユニットガタ",
    "address": "千葉県我孫子市青山415",
    "lat": 35.8771406,
    "lng": 140.0516147,
    "tel": "04-7181-1110",
    "url": "https://kojk.jp/ayamekan/index.html",
    "pref": "千葉県",
    "city": "我孫子市",
    "category": "tokuyou",
    "serviceType": "介護老人福祉施設",
    "capacity": null,
    "openDays": [],
    "openDaysNote": ""
  },
  {
    "id": "1272700210",
    "name": "特別養護老人ホーム久遠苑",
    "kana": "トクベツヨウゴロウジンホーム　クオンエン",
    "address": "千葉県我孫子市日秀208番地",
    "lat": 35.8609658,
    "lng": 140.0888885,
    "tel": "04-7187-3141",
    "url": "http://www.z-kuonen.com",
    "pref": "千葉県",
    "city": "我孫子市",
    "category": "tokuyou",
    "serviceType": "介護老人福祉施設",
    "capacity": 0,
    "openDays": [],
    "openDaysNote": ""
  },
  {
    "id": "1272700228",
    "name": "特別養護老人ホーム和楽園",
    "kana": "トクベツヨウゴロウジンホーム　ワラクエン",
    "address": "千葉県我孫子市中峠字篠堤２４７３番",
    "lat": 35.8734473,
    "lng": 140.0762452,
    "tel": "04-7188-6261",
    "url": "http://www.eiko-kai.or.jp/",
    "pref": "千葉県",
    "city": "我孫子市",
    "category": "tokuyou",
    "serviceType": "介護老人福祉施設",
    "capacity": 50,
    "openDays": [],
    "openDaysNote": ""
  },
  {
    "id": "1272901412",
    "name": "コミュニティホームくぬぎ山（ユニット型）",
    "kana": "コミュニティホーム　クヌギヤマ（ユニットガタ）",
    "address": "千葉県鎌ケ谷市初富35-4コミュニティホームくぬぎ山 コミュニティホームくぬぎ山",
    "lat": 35.7790994,
    "lng": 139.9797758,
    "tel": "047-441-5621",
    "url": "https://kouseikai-gr.or.jp/kunugiyama/",
    "pref": "千葉県",
    "city": "鎌ケ谷市",
    "category": "tokuyou",
    "serviceType": "介護老人福祉施設",
    "capacity": 40,
    "openDays": [],
    "openDaysNote": ""
  },
  {
    "id": "1272901420",
    "name": "コミュニティホームくぬぎ山（従来型）",
    "kana": "コミュニティホーム　クヌギヤマ　（ジュウライガタ）",
    "address": "千葉県鎌ケ谷市初富35-4",
    "lat": 35.7790994,
    "lng": 139.9797758,
    "tel": "047-441-5621",
    "url": "https://kouseikai-gr.or.jp/kunugiyama/",
    "pref": "千葉県",
    "city": "鎌ケ谷市",
    "category": "tokuyou",
    "serviceType": "介護老人福祉施設",
    "capacity": 0,
    "openDays": [],
    "openDaysNote": ""
  },
  {
    "id": "1272902154",
    "name": "特別養護老人ホーム　アウル鎌ケ谷",
    "kana": "トクベツヨウゴロウジンホームアウルカマガヤ",
    "address": "千葉県鎌ケ谷市佐津間字南木戸568",
    "lat": 35.7953137,
    "lng": 140.011066,
    "tel": "047-401-2962",
    "url": "https://www.soukafukushikai.jp/area/detail/?id=9",
    "pref": "千葉県",
    "city": "鎌ケ谷市",
    "category": "tokuyou",
    "serviceType": "介護老人福祉施設",
    "capacity": 100,
    "openDays": [],
    "openDaysNote": ""
  },
  {
    "id": "1272902436",
    "name": "特別養護老人ホーム　アウル鎌ケ谷ネクスト",
    "kana": "トクベツヨウゴロウジンホーム　アウルカマガヤネクスト",
    "address": "千葉県鎌ケ谷市佐津間616-3",
    "lat": 35.7952538,
    "lng": 140.00517,
    "tel": "047-404-5321",
    "url": "https://www.soukafukushikai.jp/area/?search_keyword=&search_facility_area_id=&search_facility_category_id=1#reslist",
    "pref": "千葉県",
    "city": "鎌ケ谷市",
    "category": "tokuyou",
    "serviceType": "介護老人福祉施設",
    "capacity": 100,
    "openDays": [],
    "openDaysNote": ""
  },
  {
    "id": "1272900158",
    "name": "特別養護老人ホーム　鎌ヶ谷翔裕園",
    "kana": "トクベツヨウゴロウジンホーム　カマガヤショウユウエン",
    "address": "千葉県鎌ケ谷市初富字東野848番地10",
    "lat": 35.77839,
    "lng": 140.0224148,
    "tel": "047-498-5715",
    "url": "https://cyoujyunosato.jp/",
    "pref": "千葉県",
    "city": "鎌ケ谷市",
    "category": "tokuyou",
    "serviceType": "介護老人福祉施設",
    "capacity": 64,
    "openDays": [],
    "openDaysNote": ""
  },
  {
    "id": "1272900992",
    "name": "特別養護老人ホーム　鎌ヶ谷翔裕園（ユニット型）",
    "kana": "トクベツヨウゴロウジンホーム　カマガヤショウユウエン（ユニットガタ）",
    "address": "千葉県鎌ケ谷市初富字東野848番地10",
    "lat": 35.77839,
    "lng": 140.0224148,
    "tel": "047-498-5715",
    "url": "https://cyoujyunosato.jp/",
    "pref": "千葉県",
    "city": "鎌ケ谷市",
    "category": "tokuyou",
    "serviceType": "介護老人福祉施設",
    "capacity": 0,
    "openDays": [],
    "openDaysNote": ""
  },
  {
    "id": "1272900539",
    "name": "特別養護老人ホーム　幸豊苑",
    "kana": "トクベツヨウゴロウジンホーム　コウホウエン",
    "address": "千葉県鎌ケ谷市粟野225-1",
    "lat": 35.7837632,
    "lng": 139.9976737,
    "tel": "047-443-5665",
    "url": "http://www.awanokai.or.jp/",
    "pref": "千葉県",
    "city": "鎌ケ谷市",
    "category": "tokuyou",
    "serviceType": "介護老人福祉施設",
    "capacity": 0,
    "openDays": [],
    "openDaysNote": ""
  },
  {
    "id": "1272900075",
    "name": "特別養護老人ホーム　慈祐苑",
    "kana": "トクベツヨウゴロウジンホーム　ジユウエン",
    "address": "千葉県鎌ケ谷市道野辺　214-4",
    "lat": 35.7531881,
    "lng": 139.9895958,
    "tel": "047-446-3300",
    "url": "http://care-net.biz/12/keibikai/",
    "pref": "千葉県",
    "city": "鎌ケ谷市",
    "category": "tokuyou",
    "serviceType": "介護老人福祉施設",
    "capacity": 0,
    "openDays": [],
    "openDaysNote": ""
  },
  {
    "id": "1272900927",
    "name": "特別養護老人ホーム　初富の里２",
    "kana": "トクベツヨウゴロウジンホーム　ハツトミノサト　ニ",
    "address": "千葉県鎌ヶ谷市東初富一丁目4番3号",
    "lat": 35.7730258,
    "lng": 140.0123087,
    "tel": "047-445-4700",
    "url": "https://youandi.takaminefukushikai.com/%e9%ab%98%e9%bd%a2%e8%80%85%e6%94%af%e6%8f%b4/%e5%88%9d%e5%af%8c%e3%81%ae%e9%87%8c/",
    "pref": "千葉県",
    "city": "鎌ケ谷市",
    "category": "tokuyou",
    "serviceType": "介護老人福祉施設",
    "capacity": 0,
    "openDays": [],
    "openDaysNote": ""
  },
  {
    "id": "1272901719",
    "name": "特別養護老人ホームあかりユニット型",
    "kana": "トクベツヨウゴロウジンホームアカリユニットガタ",
    "address": "千葉県鎌ケ谷市鎌ケ谷7-13-33",
    "lat": 35.7489724,
    "lng": 140.0090576,
    "tel": "047-441-6610",
    "url": "http://www.kamagayahikari.or.jp/business3.html",
    "pref": "千葉県",
    "city": "鎌ケ谷市",
    "category": "tokuyou",
    "serviceType": "介護老人福祉施設",
    "capacity": 0,
    "openDays": [],
    "openDaysNote": ""
  },
  {
    "id": "1272901768",
    "name": "特別養護老人ホームあかり従来型",
    "kana": "トクベツヨウゴロウジンホームアカリジュウライガタ",
    "address": "千葉県鎌ケ谷市鎌ケ谷7-13-33",
    "lat": 35.7489724,
    "lng": 140.0090576,
    "tel": "047-441-6610",
    "url": "http://www.kamagayahikari.or.jp/business3.html",
    "pref": "千葉県",
    "city": "鎌ケ谷市",
    "category": "tokuyou",
    "serviceType": "介護老人福祉施設",
    "capacity": 0,
    "openDays": [],
    "openDaysNote": ""
  },
  {
    "id": "1272901289",
    "name": "特別養護老人ホームさつまの里",
    "kana": "トクベツヨウゴロウジンホーム　サツマノサト",
    "address": "千葉県鎌ケ谷市佐津間989番地1",
    "lat": 35.8026892,
    "lng": 140.005647,
    "tel": "047-401-1500",
    "url": "http://takaminefukushikai.com/",
    "pref": "千葉県",
    "city": "鎌ケ谷市",
    "category": "tokuyou",
    "serviceType": "介護老人福祉施設",
    "capacity": 0,
    "openDays": [],
    "openDaysNote": ""
  },
  {
    "id": "1272800150",
    "name": "特別養護老人ホーム　めぐみの里",
    "kana": "トクベツヨウゴロウジンホーム　メグミノサト",
    "address": "千葉県鴨川市大幡１２２２番地１",
    "lat": 35.1363734,
    "lng": 139.9884572,
    "tel": "04-7098-1000",
    "url": "http://www.taiyou-kai.jp/megumi/index.html",
    "pref": "千葉県",
    "city": "鴨川市",
    "category": "tokuyou",
    "serviceType": "介護老人福祉施設",
    "capacity": 0,
    "openDays": [],
    "openDaysNote": ""
  },
  {
    "id": "1272800291",
    "name": "特別養護老人ホーム千の風・清澄",
    "kana": "トクベツヨウゴロウジンホームセンノカゼ・キヨスミ",
    "address": "千葉県鴨川市天津３４６６",
    "lat": 35.1334017,
    "lng": 140.1504774,
    "tel": "04-7099-5611",
    "url": "http:/www.kenjin.or.jp/sennokaze/index.html",
    "pref": "千葉県",
    "city": "鴨川市",
    "category": "tokuyou",
    "serviceType": "介護老人福祉施設",
    "capacity": 0,
    "openDays": [],
    "openDaysNote": ""
  },
  {
    "id": "1272800598",
    "name": "特別養護老人ホーム南小町",
    "kana": "トクベツヨウゴロウジンホームミナミコマチ",
    "address": "千葉県鴨川市南小町809番地1",
    "lat": 35.1282964126269,
    "lng": 140.03395874418,
    "tel": "04-7094-5558",
    "url": "https://eiwa.or.jp/",
    "pref": "千葉県",
    "city": "鴨川市",
    "category": "tokuyou",
    "serviceType": "介護老人福祉施設",
    "capacity": null,
    "openDays": [],
    "openDaysNote": ""
  },
  {
    "id": "1272800606",
    "name": "特別養護老人ホーム南小町（ユニット型）",
    "kana": "トクベツヨウゴロウジンホームミナミコマチ（ユニットガタ）",
    "address": "千葉県鴨川市南小町809番地1",
    "lat": 35.1283051873729,
    "lng": 140.033969473016,
    "tel": "04-7094-5558",
    "url": "https://eiwa.or.jp/",
    "pref": "千葉県",
    "city": "鴨川市",
    "category": "tokuyou",
    "serviceType": "介護老人福祉施設",
    "capacity": null,
    "openDays": [],
    "openDaysNote": ""
  },
  {
    "id": "1271000851",
    "name": "ユニット型特別養護老人ホーム　微笑の郷",
    "kana": "ユニットガタトクベツヨウゴロウジンホーム　ホホエミノサト",
    "address": "千葉県館山市広瀬667-1",
    "lat": 35.0052521,
    "lng": 139.8959988,
    "tel": "0470-20-6070",
    "url": "http://www.8910.or.jp",
    "pref": "千葉県",
    "city": "館山市",
    "category": "tokuyou",
    "serviceType": "介護老人福祉施設",
    "capacity": 0,
    "openDays": [],
    "openDaysNote": ""
  },
  {
    "id": "1271000067",
    "name": "館山特別養護老人ホーム",
    "kana": "タテヤマトクベツヨウゴロウジンホーム",
    "address": "千葉県館山市湊３７３番地",
    "lat": 35.0115285,
    "lng": 139.8667126,
    "tel": "0470-23-4831",
    "url": "http://www.tateyama-tokuyou.com/",
    "pref": "千葉県",
    "city": "館山市",
    "category": "tokuyou",
    "serviceType": "介護老人福祉施設",
    "capacity": 100,
    "openDays": [],
    "openDaysNote": ""
  },
  {
    "id": "1271000380",
    "name": "特別養護老人ホーム　だん暖の郷",
    "kana": "トクベツヨウゴロウジンホーム　ダンダンノサト",
    "address": "千葉県館山市波左間405",
    "lat": 34.9688194,
    "lng": 139.7861683,
    "tel": "0470-20-8090",
    "url": "http://www.8910.or.jp/",
    "pref": "千葉県",
    "city": "館山市",
    "category": "tokuyou",
    "serviceType": "介護老人福祉施設",
    "capacity": 0,
    "openDays": [],
    "openDaysNote": ""
  },
  {
    "id": "1271001198",
    "name": "特別養護老人ホーム　館山明光苑",
    "kana": "トクベツヨウゴロウジンホーム　タテヤマメイコウエン",
    "address": "千葉県館山市大神宮巴井３６番地７",
    "lat": 34.9281758812883,
    "lng": 139.830530564418,
    "tel": "0470-20-7515",
    "url": "https://www.meikouen.jp/",
    "pref": "千葉県",
    "city": "館山市",
    "category": "tokuyou",
    "serviceType": "介護老人福祉施設",
    "capacity": 50,
    "openDays": [],
    "openDaysNote": ""
  },
  {
    "id": "1271000869",
    "name": "特別養護老人ホーム　微笑の里",
    "kana": "トクベツヨウゴロウジンホーム　ホホエミノサト",
    "address": "千葉県館山市広瀬667-1",
    "lat": 35.0052521,
    "lng": 139.8959988,
    "tel": "0470-20-6070",
    "url": "http://www.8910.or.jp/",
    "pref": "千葉県",
    "city": "館山市",
    "category": "tokuyou",
    "serviceType": "介護老人福祉施設",
    "capacity": 0,
    "openDays": [],
    "openDaysNote": ""
  },
  {
    "id": "1271001156",
    "name": "特別養護老人ホームポピー",
    "kana": "トクベツヨウゴロウジンホームポピー",
    "address": "千葉県館山市下真倉407番地の2",
    "lat": 34.98436458649,
    "lng": 139.872350616481,
    "tel": "0470-29-5911",
    "url": "https://hakusinkai.com/",
    "pref": "千葉県",
    "city": "館山市",
    "category": "tokuyou",
    "serviceType": "介護老人福祉施設",
    "capacity": 0,
    "openDays": [],
    "openDaysNote": ""
  },
  {
    "id": "1277900070",
    "name": "特別養護老人ホーム鋸南苑",
    "kana": "トクベツヨウゴロウジンホームキョナンエン",
    "address": "千葉県安房郡鋸南町保田854-1",
    "lat": 35.1452905,
    "lng": 139.8469632,
    "tel": "0470-55-2727",
    "url": "http://www.tenyuukai.jp",
    "pref": "千葉県",
    "city": "鋸南町",
    "category": "tokuyou",
    "serviceType": "介護老人福祉施設",
    "capacity": 0,
    "openDays": [],
    "openDaysNote": ""
  },
  {
    "id": "1277900211",
    "name": "特別養護老人ホーム鋸南苑（本館）",
    "kana": "トクベツヨウゴロウジンホームキョナンエン（ホンカン）",
    "address": "千葉県安房郡鋸南町保田854-1",
    "lat": 35.1452905,
    "lng": 139.8469632,
    "tel": "0470-55-2727",
    "url": "http://www.tenyuukai.jp",
    "pref": "千葉県",
    "city": "鋸南町",
    "category": "tokuyou",
    "serviceType": "介護老人福祉施設",
    "capacity": 80,
    "openDays": [],
    "openDaysNote": ""
  },
  {
    "id": "1275900031",
    "name": "特別養護老人ホーム九十九里園",
    "kana": "トクベツヨウゴロウジンホームクジュウクリエン",
    "address": "千葉県山武郡九十九里町粟生1532番1",
    "lat": 35.5252463,
    "lng": 140.4318816,
    "tel": "0475-76-0108",
    "url": "",
    "pref": "千葉県",
    "city": "九十九里町",
    "category": "tokuyou",
    "serviceType": "介護老人福祉施設",
    "capacity": 0,
    "openDays": [],
    "openDaysNote": ""
  },
  {
    "id": "1273001279",
    "name": "ユニット型特別養護老人ホームウィステリア八重原",
    "kana": "ユニットガタトクベツヨウゴロウジンホームウィステリアヤエハラ",
    "address": "千葉県君津市八重原１７２番２７５",
    "lat": 35.327850832263,
    "lng": 139.936167960188,
    "tel": "０４３９－５０－００８５",
    "url": "http://sf-sanyukai.com/",
    "pref": "千葉県",
    "city": "君津市",
    "category": "tokuyou",
    "serviceType": "介護老人福祉施設",
    "capacity": 0,
    "openDays": [],
    "openDaysNote": ""
  },
  {
    "id": "1273000123",
    "name": "特別養護老人ホーム　上総園",
    "kana": "トクベツヨウゴロウジンホーム　カズサエン",
    "address": "千葉県君津市広岡３７５番地",
    "lat": 35.2519737,
    "lng": 140.0550409,
    "tel": "0439-50-7211",
    "url": "http://www.kazusaen.jp",
    "pref": "千葉県",
    "city": "君津市",
    "category": "tokuyou",
    "serviceType": "介護老人福祉施設",
    "capacity": 0,
    "openDays": [],
    "openDaysNote": ""
  },
  {
    "id": "1273001014",
    "name": "特別養護老人ホーム　上総園（ユニット型）",
    "kana": "トクベツヨウゴロウジンホーム　カズサエン（ユニットガタ）",
    "address": "千葉県君津市広岡３７５番地",
    "lat": 35.2519737,
    "lng": 140.0550409,
    "tel": "0439-50-7211",
    "url": "http://www.kazusaen.jp",
    "pref": "千葉県",
    "city": "君津市",
    "category": "tokuyou",
    "serviceType": "介護老人福祉施設",
    "capacity": 0,
    "openDays": [],
    "openDaysNote": ""
  },
  {
    "id": "1273000131",
    "name": "特別養護老人ホーム山の手フラワーヒル",
    "kana": "トクベツヨウゴロウジンホームヤマノテフラワーヒル",
    "address": "千葉県君津市大山野８７５番地",
    "lat": 35.2816239,
    "lng": 139.9308538,
    "tel": "0439-55-8601",
    "url": "http://xn--u9j4kia4flw5g9265bi9k.com/",
    "pref": "千葉県",
    "city": "君津市",
    "category": "tokuyou",
    "serviceType": "介護老人福祉施設",
    "capacity": 0,
    "openDays": [],
    "openDaysNote": ""
  },
  {
    "id": "1273001261",
    "name": "特別養護老人ホーム山の手フラワーヒル（ユニット）",
    "kana": "トクベツヨウゴロウジンホームヤマノテフラワーヒル（ユニット）",
    "address": "千葉県君津市大山野８７５番地",
    "lat": 35.2816239,
    "lng": 139.930851,
    "tel": "0439-55-8601",
    "url": "http://xn--u9j4kia4flw5g9265bi9k.com/",
    "pref": "千葉県",
    "city": "君津市",
    "category": "tokuyou",
    "serviceType": "介護老人福祉施設",
    "capacity": 0,
    "openDays": [],
    "openDaysNote": ""
  },
  {
    "id": "1273001295",
    "name": "特別養護老人ホーム夢の郷",
    "kana": "トクベツヨウゴロウジンホームユメノサト",
    "address": "千葉県君津市杉谷3-1",
    "lat": 35.311425,
    "lng": 139.9117876,
    "tel": "0439-50-3301",
    "url": "https://tsubasa-shishinkai.com/",
    "pref": "千葉県",
    "city": "君津市",
    "category": "tokuyou",
    "serviceType": "介護老人福祉施設",
    "capacity": 0,
    "openDays": [],
    "openDaysNote": ""
  },
  {
    "id": "1277400030",
    "name": "特別養護老人ホーム　外房",
    "kana": "トクベツヨウゴロウジンホームソトボウ",
    "address": "千葉県夷隅郡御宿町久保７９６",
    "lat": 35.201285,
    "lng": 140.3600939,
    "tel": "0470-68-5800",
    "url": "https://kaigosisetu-sotobou.com/",
    "pref": "千葉県",
    "city": "御宿町",
    "category": "tokuyou",
    "serviceType": "介護老人福祉施設",
    "capacity": 50,
    "openDays": [],
    "openDaysNote": ""
  },
  {
    "id": "1274900081",
    "name": "九十九里ホーム山田特別養護老人ホーム",
    "kana": "クジュウクリホームヤマダトクベツヨウゴロウジンホーム",
    "address": "千葉県香取市大角１５４５－１６",
    "lat": 35.7828236,
    "lng": 140.5552735,
    "tel": "0478-70-7171",
    "url": "https://www.99-home.com/",
    "pref": "千葉県",
    "city": "香取市",
    "category": "tokuyou",
    "serviceType": "介護老人福祉施設",
    "capacity": 0,
    "openDays": [],
    "openDaysNote": ""
  },
  {
    "id": "1278900632",
    "name": "特別養護老人ホーム　かとりの郷福楽園（ユニット型）",
    "kana": "トクベツヨウゴロウジンホーム　カトリノサトフクラクエン（ユニットガタ）",
    "address": "千葉県香取市内野448-1",
    "lat": 35.8530142,
    "lng": 140.5584429,
    "tel": "0478-79-7272",
    "url": "http://e-houseikai.or.jp/",
    "pref": "千葉県",
    "city": "香取市",
    "category": "tokuyou",
    "serviceType": "介護老人福祉施設",
    "capacity": 0,
    "openDays": [],
    "openDaysNote": ""
  },
  {
    "id": "1278900640",
    "name": "特別養護老人ホーム　かとりの郷福楽園（従来型）",
    "kana": "トクベツヨウゴロウジンホーム　カトリノサトフクラクエン（ジュウライガタ）",
    "address": "千葉県香取市内野448-1",
    "lat": 35.8530142,
    "lng": 140.5584429,
    "tel": "0478-79-7272",
    "url": "http://e-houseikai.or.jp/",
    "pref": "千葉県",
    "city": "香取市",
    "category": "tokuyou",
    "serviceType": "介護老人福祉施設",
    "capacity": 0,
    "openDays": [],
    "openDaysNote": ""
  },
  {
    "id": "1274800059",
    "name": "特別養護老人ホーム水都苑",
    "kana": "トクベツヨウゴロウジンホームスイトエン",
    "address": "千葉県香取市小見川676-2",
    "lat": 35.8495107,
    "lng": 140.6154192,
    "tel": "0478-82-3388",
    "url": "http://suitoen.jp",
    "pref": "千葉県",
    "city": "香取市",
    "category": "tokuyou",
    "serviceType": "介護老人福祉施設",
    "capacity": 6,
    "openDays": [],
    "openDaysNote": ""
  },
  {
    "id": "1275000048",
    "name": "特別養護老人ホーム杜の家くりもと",
    "kana": "トクベツヨウゴロウジンホームモリノイエクリモト",
    "address": "千葉県香取市岩部869番60",
    "lat": 35.812619,
    "lng": 140.5170966,
    "tel": "0478-70-5665",
    "url": "https://www.gakudan.org/",
    "pref": "千葉県",
    "city": "香取市",
    "category": "tokuyou",
    "serviceType": "介護老人福祉施設",
    "capacity": 0,
    "openDays": [],
    "openDaysNote": ""
  },
  {
    "id": "1271400127",
    "name": "特別養護老人ホーム東総あやめ苑",
    "kana": "トクベツヨウゴロウジンホーム　トウソウアヤメエン",
    "address": "千葉県香取市佐原イ１２５７番地１",
    "lat": 35.882502821912,
    "lng": 140.486359367984,
    "tel": "0478-52-1151",
    "url": "",
    "pref": "千葉県",
    "city": "香取市",
    "category": "tokuyou",
    "serviceType": "介護老人福祉施設",
    "capacity": 0,
    "openDays": [],
    "openDaysNote": ""
  },
  {
    "id": "1271700245",
    "name": "介護老人福祉施設志津ユーカリ苑",
    "kana": "カイゴロウジンフクシシセツシヅユーカリエン",
    "address": "千葉県佐倉市青菅1008番地7",
    "lat": 35.7456672,
    "lng": 140.1423545,
    "tel": "043-463-2944",
    "url": "https://www.yukarien.or.jp/",
    "pref": "千葉県",
    "city": "佐倉市",
    "category": "tokuyou",
    "serviceType": "介護老人福祉施設",
    "capacity": 0,
    "openDays": [],
    "openDaysNote": ""
  },
  {
    "id": "1271700229",
    "name": "特別養護老人ホーム　さくら苑",
    "kana": "トクベツヨウゴロウジンホーム　サクラエン",
    "address": "千葉県佐倉市鏑木町３４６番地",
    "lat": 35.7154623,
    "lng": 140.2339716,
    "tel": "043-486-5050",
    "url": "https://sakuraen-346.or.jp",
    "pref": "千葉県",
    "city": "佐倉市",
    "category": "tokuyou",
    "serviceType": "介護老人福祉施設",
    "capacity": 0,
    "openDays": [],
    "openDaysNote": ""
  },
  {
    "id": "1271700542",
    "name": "特別養護老人ホーム　ゆたか苑",
    "kana": "トクベツヨウゴロウジンホーム　ユタカエン",
    "address": "千葉県佐倉市上志津原９",
    "lat": 35.7035767,
    "lng": 140.1419165,
    "tel": "043-463-6805",
    "url": "https://www.yutakaen.or.jp",
    "pref": "千葉県",
    "city": "佐倉市",
    "category": "tokuyou",
    "serviceType": "介護老人福祉施設",
    "capacity": 60,
    "openDays": [],
    "openDaysNote": ""
  },
  {
    "id": "1271702092",
    "name": "特別養護老人ホームさくらの丘",
    "kana": "トクベツヨウゴロウジンホーム　サクラノオカ",
    "address": "千葉県佐倉市飯重６２２番地",
    "lat": 35.7253283463732,
    "lng": 140.20065353183,
    "tel": "043-481-3020",
    "url": "https://www.sakuranooka.net/",
    "pref": "千葉県",
    "city": "佐倉市",
    "category": "tokuyou",
    "serviceType": "介護老人福祉施設",
    "capacity": 0,
    "openDays": [],
    "openDaysNote": ""
  },
  {
    "id": "1271701698",
    "name": "特別養護老人ホームちとせ小町",
    "kana": "トクベツヨウゴロウジンホーム　チトセコマチ",
    "address": "千葉県佐倉市大蛇町215-7",
    "lat": 35.7150294,
    "lng": 140.2449902,
    "tel": "043-312-5111",
    "url": "https://1000.or.jp/",
    "pref": "千葉県",
    "city": "佐倉市",
    "category": "tokuyou",
    "serviceType": "介護老人福祉施設",
    "capacity": 0,
    "openDays": [],
    "openDaysNote": ""
  },
  {
    "id": "1271701649",
    "name": "特別養護老人ホームときわの杜",
    "kana": "トクベツヨウゴロウジンホーム　トキワノモリ",
    "address": "千葉県佐倉市石川556",
    "lat": 35.6891018,
    "lng": 140.2283676,
    "tel": "043-485-3711",
    "url": "https://daisen.or.jp/",
    "pref": "千葉県",
    "city": "佐倉市",
    "category": "tokuyou",
    "serviceType": "介護老人福祉施設",
    "capacity": 100,
    "openDays": [],
    "openDaysNote": ""
  },
  {
    "id": "1271700252",
    "name": "特別養護老人ホームはちす苑",
    "kana": "トクベツヨウゴロウジンホーム　ハチスエン",
    "address": "千葉県佐倉市太田１１４５－１",
    "lat": 35.684227,
    "lng": 140.2092619,
    "tel": "043-483-4165",
    "url": "https://www.rc-aikoh.or.jp/",
    "pref": "千葉県",
    "city": "佐倉市",
    "category": "tokuyou",
    "serviceType": "介護老人福祉施設",
    "capacity": 0,
    "openDays": [],
    "openDaysNote": ""
  },
  {
    "id": "1271702951",
    "name": "特別養護老人ホームユーカリゆうとの杜",
    "kana": "トクベツヨウゴロウジンホームユーカリユウトノモリ",
    "address": "千葉県佐倉市青菅1023-14",
    "lat": 35.7443354371839,
    "lng": 140.143161893429,
    "tel": "043-309-8837",
    "url": "https://yutonomori.yutokai.com/",
    "pref": "千葉県",
    "city": "佐倉市",
    "category": "tokuyou",
    "serviceType": "介護老人福祉施設",
    "capacity": 0,
    "openDays": [],
    "openDaysNote": ""
  },
  {
    "id": "1271700237",
    "name": "特別養護老人ホーム佐倉白翠園",
    "kana": "トクベツヨウゴロウジンホーム　サクラハクスイエン",
    "address": "千葉県佐倉市岩名1011番地",
    "lat": 35.738262,
    "lng": 140.2201054,
    "tel": "043-486-8941",
    "url": "http://hakusuien.jp/sakura/",
    "pref": "千葉県",
    "city": "佐倉市",
    "category": "tokuyou",
    "serviceType": "介護老人福祉施設",
    "capacity": 0,
    "openDays": [],
    "openDaysNote": ""
  },
  {
    "id": "1271702027",
    "name": "特別養護老人ホーム佐倉白翠園ユニット型",
    "kana": "トクベツヨウゴロウジンホームサクラハクスイエンユニットガタ",
    "address": "千葉県佐倉市岩名１０１１番地",
    "lat": 35.738262,
    "lng": 140.2201054,
    "tel": "０４３－４８６－８９４１",
    "url": "http://hakusuien.jp/sakura/",
    "pref": "千葉県",
    "city": "佐倉市",
    "category": "tokuyou",
    "serviceType": "介護老人福祉施設",
    "capacity": 0,
    "openDays": [],
    "openDaysNote": ""
  },
  {
    "id": "1271702134",
    "name": "特別養護老人ホーム志津ユーカリ苑（ユニット）",
    "kana": "トクベツヨウゴロウジンホームシヅユーカリエン（ユニット）",
    "address": "千葉県佐倉市青菅１００８－７",
    "lat": 35.7456672,
    "lng": 140.1423545,
    "tel": "043-463-2944",
    "url": "",
    "pref": "千葉県",
    "city": "佐倉市",
    "category": "tokuyou",
    "serviceType": "介護老人福祉施設",
    "capacity": 0,
    "openDays": [],
    "openDaysNote": ""
  },
  {
    "id": "1271701482",
    "name": "特別養護老人ホーム弥富あさくら",
    "kana": "トクベツヨウゴロウジンホーム　ヤトミアサクラ",
    "address": "千葉県佐倉市岩富町541",
    "lat": 35.6483569,
    "lng": 140.2408879,
    "tel": "043-481-5131",
    "url": "https://www.harmonichearts.or.jp/asakura/",
    "pref": "千葉県",
    "city": "佐倉市",
    "category": "tokuyou",
    "serviceType": "介護老人福祉施設",
    "capacity": 0,
    "openDays": [],
    "openDaysNote": ""
  },
  {
    "id": "1276300033",
    "name": "桔梗ケ丘シルバーホーム",
    "kana": "キキョウガオカシルバーホーム",
    "address": "千葉県山武市松尾町田越756-6",
    "lat": 35.63009,
    "lng": 140.4438552,
    "tel": "0479-86-7220",
    "url": "http://www.kikyou.jp",
    "pref": "千葉県",
    "city": "山武市",
    "category": "tokuyou",
    "serviceType": "介護老人福祉施設",
    "capacity": 0,
    "openDays": [],
    "openDaysNote": ""
  },
  {
    "id": "1279000390",
    "name": "特別養護老人ホーム　成島苑(ユニット型)",
    "kana": "トクベツヨウゴロウジンホーム　セイトウエン(ユニットガタ)",
    "address": "千葉県山武市成東651-2",
    "lat": 35.5967914996595,
    "lng": 140.402226360188,
    "tel": "0475-71-2350",
    "url": "https://asukafukushikai.com/",
    "pref": "千葉県",
    "city": "山武市",
    "category": "tokuyou",
    "serviceType": "介護老人福祉施設",
    "capacity": 40,
    "openDays": [],
    "openDaysNote": ""
  },
  {
    "id": "1276200050",
    "name": "特別養護老人ホーム海",
    "kana": "トクベツヨウゴロウジンホームウミ",
    "address": "千葉県山武市蓮沼二5032番地",
    "lat": 35.5942591,
    "lng": 140.4824147,
    "tel": "0475-80-5010",
    "url": "http://minorinomura.or.jp/",
    "pref": "千葉県",
    "city": "山武市",
    "category": "tokuyou",
    "serviceType": "介護老人福祉施設",
    "capacity": 0,
    "openDays": [],
    "openDaysNote": ""
  },
  {
    "id": "1279000382",
    "name": "特別養護老人ホーム成島苑(従来型)",
    "kana": "トクベツヨウゴロウジンホーム　ナルシマエン(ジュウライガタ)",
    "address": "千葉県山武市成東651-2",
    "lat": 35.5967958616466,
    "lng": 140.402226360188,
    "tel": "0475-71-2350",
    "url": "https://asukafukushikai.com/",
    "pref": "千葉県",
    "city": "山武市",
    "category": "tokuyou",
    "serviceType": "介護老人福祉施設",
    "capacity": 40,
    "openDays": [],
    "openDaysNote": ""
  },
  {
    "id": "1276000021",
    "name": "特別養護老人ホーム青松苑",
    "kana": "トクベツヨウゴロウジンホーム　セイショウエン",
    "address": "千葉県山武市木戸８４８",
    "lat": 35.5807387,
    "lng": 140.4882064,
    "tel": "0475-84-2131",
    "url": "http://midorimi.starfree.jp/",
    "pref": "千葉県",
    "city": "山武市",
    "category": "tokuyou",
    "serviceType": "介護老人福祉施設",
    "capacity": 0,
    "openDays": [],
    "openDaysNote": ""
  },
  {
    "id": "1276100052",
    "name": "特別養護老人ホーム北総長寿苑",
    "kana": "トクベツヨウゴロウジンホーム　ホクソウチョウジュエン",
    "address": "千葉県山武市木原８１４番地１",
    "lat": 35.6484536,
    "lng": 140.3536686,
    "tel": "0475-88-0411",
    "url": "https://www.juyoukai.jp/",
    "pref": "千葉県",
    "city": "山武市",
    "category": "tokuyou",
    "serviceType": "介護老人福祉施設",
    "capacity": 0,
    "openDays": [],
    "openDaysNote": ""
  },
  {
    "id": "1273300861",
    "name": "まごころ館四街道",
    "kana": "マゴコロカンヨツカイドウ",
    "address": "千葉県四街道市中台４９８－１",
    "lat": 35.657611,
    "lng": 140.2089915,
    "tel": "043-312-5556",
    "url": "https://magokorokan.com/",
    "pref": "千葉県",
    "city": "四街道市",
    "category": "tokuyou",
    "serviceType": "介護老人福祉施設",
    "capacity": 50,
    "openDays": [],
    "openDaysNote": ""
  },
  {
    "id": "1273300879",
    "name": "まごころ館四街道（ユニット）",
    "kana": "マゴコロカンヨツカイドウ（ユニット）",
    "address": "千葉県四街道市中台498-1",
    "lat": 35.657611,
    "lng": 140.2089915,
    "tel": "043-312-5556",
    "url": "https://magokorokan.com/",
    "pref": "千葉県",
    "city": "四街道市",
    "category": "tokuyou",
    "serviceType": "介護老人福祉施設",
    "capacity": 50,
    "openDays": [],
    "openDaysNote": ""
  },
  {
    "id": "1273300093",
    "name": "特別養護老人ホームあさひ園",
    "kana": "トクベツヨウゴロウジンホームアサヒエン",
    "address": "千葉県四街道市山梨字東根柄内1488番1",
    "lat": 35.6753378,
    "lng": 140.1961209,
    "tel": "043-432-6382",
    "url": "https://www.asahikai-asahien.com/",
    "pref": "千葉県",
    "city": "四街道市",
    "category": "tokuyou",
    "serviceType": "介護老人福祉施設",
    "capacity": null,
    "openDays": [],
    "openDaysNote": ""
  },
  {
    "id": "1273300101",
    "name": "特別養護老人ホームあすみの丘",
    "kana": "トクベツヨウゴロウジンホームアスミノオカ",
    "address": "千葉県四街道市大日１６２３－１",
    "lat": 35.6906963,
    "lng": 140.1663536,
    "tel": "043-421-5188",
    "url": "http://www.asuminooka.or.jp/",
    "pref": "千葉県",
    "city": "四街道市",
    "category": "tokuyou",
    "serviceType": "介護老人福祉施設",
    "capacity": 50,
    "openDays": [],
    "openDaysNote": ""
  },
  {
    "id": "1273301471",
    "name": "特別養護老人ホームからたち",
    "kana": "トクベツヨウゴロウジンホームカラタチ",
    "address": "千葉県四街道市大日595-1",
    "lat": 35.6809776085429,
    "lng": 140.166673094303,
    "tel": "043-312-3111",
    "url": "https://www.egao-shafuku.com/",
    "pref": "千葉県",
    "city": "四街道市",
    "category": "tokuyou",
    "serviceType": "介護老人福祉施設",
    "capacity": 0,
    "openDays": [],
    "openDaysNote": ""
  },
  {
    "id": "1273301190",
    "name": "特別養護老人ホーム四街道苑",
    "kana": "トクベツヨウゴロウジンホーム　ヨツカイドウエン",
    "address": "千葉県四街道市鹿放ヶ丘593番地3",
    "lat": 35.6861545,
    "lng": 140.1517615,
    "tel": "043-304-8161",
    "url": "http://www.itsukikai.com/",
    "pref": "千葉県",
    "city": "四街道市",
    "category": "tokuyou",
    "serviceType": "介護老人福祉施設",
    "capacity": 90,
    "openDays": [],
    "openDaysNote": ""
  },
  {
    "id": "1273301828",
    "name": "特別養護老人ホーム四街道陽光園",
    "kana": "トクベツヨウゴロウジンホーム　ヨツカイドウヨウコウエン",
    "address": "千葉県四街道市鹿放ケ丘291-4",
    "lat": 35.6763682,
    "lng": 140.147610398148,
    "tel": "043-310-6107",
    "url": "https://www.hakuju-kai.com",
    "pref": "千葉県",
    "city": "四街道市",
    "category": "tokuyou",
    "serviceType": "介護老人福祉施設",
    "capacity": 0,
    "openDays": [],
    "openDaysNote": ""
  },
  {
    "id": "1272400761",
    "name": "特別養護老人ホーム　あじさい苑",
    "kana": "トクベツヨウゴロウジンホーム　アジサイエン",
    "address": "千葉県市原市新堀947-3",
    "lat": 35.467717,
    "lng": 140.1374721,
    "tel": "0436-36-1533",
    "url": "http://www.n-ajisaien.jp/",
    "pref": "千葉県",
    "city": "市原市",
    "category": "tokuyou",
    "serviceType": "介護老人福祉施設",
    "capacity": 0,
    "openDays": [],
    "openDaysNote": ""
  },
  {
    "id": "1272400324",
    "name": "特別養護老人ホーム　グランモア和光苑",
    "kana": "トクベツヨウゴロウジンホーム　グランモアワコウエン",
    "address": "千葉県市原市椎津５番地１号",
    "lat": 35.4677711,
    "lng": 140.0269513,
    "tel": "0436-62-6008",
    "url": "http://www.mmjp.or.jp/wakouen/",
    "pref": "千葉県",
    "city": "市原市",
    "category": "tokuyou",
    "serviceType": "介護老人福祉施設",
    "capacity": 0,
    "openDays": [],
    "openDaysNote": ""
  },
  {
    "id": "1272403617",
    "name": "特別養護老人ホーム　グリーンライフ・ネクステ",
    "kana": "トクベツヨウゴロウジンホーム　グリーンライフ・ネクステ",
    "address": "千葉県市原市福増459-1",
    "lat": 35.4719653972609,
    "lng": 140.134649248302,
    "tel": "0436-37-7701",
    "url": "https://yamanokami-fukushikai.com/",
    "pref": "千葉県",
    "city": "市原市",
    "category": "tokuyou",
    "serviceType": "介護老人福祉施設",
    "capacity": 0,
    "openDays": [],
    "openDaysNote": ""
  },
  {
    "id": "1272404185",
    "name": "特別養護老人ホーム　しらつか",
    "kana": "トクベツヨウゴロウジンホーム　シラツカ",
    "address": "千葉県市原市白塚603-1",
    "lat": 35.4894480814928,
    "lng": 140.058952672492,
    "tel": "0436-24-2700",
    "url": "http://ichihara-uguisukai.jp/",
    "pref": "千葉県",
    "city": "市原市",
    "category": "tokuyou",
    "serviceType": "介護老人福祉施設",
    "capacity": 0,
    "openDays": [],
    "openDaysNote": ""
  },
  {
    "id": "1272404193",
    "name": "特別養護老人ホーム　しらつかⅡ",
    "kana": "トクベツヨウゴロウジンホーム　シラツカニ",
    "address": "千葉県市原市白塚603-1",
    "lat": 35.4894598420917,
    "lng": 140.058955554462,
    "tel": "0436-24-2700",
    "url": "http;//ichihara-uguisukai.jp/",
    "pref": "千葉県",
    "city": "市原市",
    "category": "tokuyou",
    "serviceType": "介護老人福祉施設",
    "capacity": 0,
    "openDays": [],
    "openDaysNote": ""
  },
  {
    "id": "1272400357",
    "name": "特別養護老人ホーム　ふるさと苑",
    "kana": "トクベツヨウゴロウジンホーム　フルサトエン",
    "address": "千葉県市原市能満1925番282",
    "lat": 35.4994877017725,
    "lng": 140.144621288853,
    "tel": "0436-75-2525",
    "url": "http://www.furusatoen.or.jp/",
    "pref": "千葉県",
    "city": "市原市",
    "category": "tokuyou",
    "serviceType": "介護老人福祉施設",
    "capacity": 0,
    "openDays": [],
    "openDaysNote": ""
  },
  {
    "id": "1272400548",
    "name": "特別養護老人ホーム　高滝神明の里",
    "kana": "トクベツヨウゴロウジンホーム　タカタキシンメイノサト",
    "address": "千葉県市原市駒込字初崎１９６番１",
    "lat": 35.3645019369003,
    "lng": 140.148310032541,
    "tel": "0436-98-1900",
    "url": "http://www.shinmeinosato.com/",
    "pref": "千葉県",
    "city": "市原市",
    "category": "tokuyou",
    "serviceType": "介護老人福祉施設",
    "capacity": 0,
    "openDays": [],
    "openDaysNote": ""
  },
  {
    "id": "1272400068",
    "name": "特別養護老人ホーム　市原園",
    "kana": "トクベツヨウゴロウジンホーム　イチハラエン",
    "address": "千葉県市原市万田野732番地6社会福祉法人　昭和村 社会福祉法人　昭和村",
    "lat": 35.3220892,
    "lng": 140.1238727,
    "tel": "0436-96-1148",
    "url": "http://www.showamura.or.jp",
    "pref": "千葉県",
    "city": "市原市",
    "category": "tokuyou",
    "serviceType": "介護老人福祉施設",
    "capacity": null,
    "openDays": [],
    "openDaysNote": ""
  },
  {
    "id": "1272402460",
    "name": "特別養護老人ホーム　緑佑の郷　II",
    "kana": "トクベツヨウゴロウジンホーム　リョクユウノサト　ニ",
    "address": "千葉県市原市養老９９８－１",
    "lat": 35.3560128,
    "lng": 140.1535185,
    "tel": "0436-98-1011",
    "url": "http://ichihara-uguisukai.jp/ryokuyunosato/",
    "pref": "千葉県",
    "city": "市原市",
    "category": "tokuyou",
    "serviceType": "介護老人福祉施設",
    "capacity": 0,
    "openDays": [],
    "openDaysNote": ""
  },
  {
    "id": "1272402452",
    "name": "特別養護老人ホーム　緑祐の郷",
    "kana": "トクベツヨウゴロウジンホーム　リョクユウノサト",
    "address": "千葉県市原市養老998-1",
    "lat": 35.356284053925,
    "lng": 140.153271736771,
    "tel": "0436-98-1011",
    "url": "http://ichihara-uguisukai.jp/ryokuyunosato/",
    "pref": "千葉県",
    "city": "市原市",
    "category": "tokuyou",
    "serviceType": "介護老人福祉施設",
    "capacity": 0,
    "openDays": [],
    "openDaysNote": ""
  },
  {
    "id": "1272402668",
    "name": "特別養護老人ホームあじさい苑ユニット型",
    "kana": "トクベツヨウゴロウジンホームアジサイエンユニットガタ",
    "address": "千葉県市原市新堀947-3",
    "lat": 35.467717,
    "lng": 140.1374721,
    "tel": "0436-36-1533",
    "url": "http://www.n-ajisaien.jp/",
    "pref": "千葉県",
    "city": "市原市",
    "category": "tokuyou",
    "serviceType": "介護老人福祉施設",
    "capacity": null,
    "openDays": [],
    "openDaysNote": ""
  },
  {
    "id": "1272403187",
    "name": "特別養護老人ホームグリーンホーム",
    "kana": "トクベツヨウゴロウジンホーム　グリーンホーム",
    "address": "千葉県市原市喜多893番地1",
    "lat": 35.4931588,
    "lng": 140.1858517,
    "tel": "0436-76-8100",
    "url": "http://ichihara-uguisukai.jp/",
    "pref": "千葉県",
    "city": "市原市",
    "category": "tokuyou",
    "serviceType": "介護老人福祉施設",
    "capacity": 0,
    "openDays": [],
    "openDaysNote": ""
  },
  {
    "id": "1272401603",
    "name": "特別養護老人ホームトータス",
    "kana": "トクベツヨウゴロウジンホームトータス",
    "address": "千葉県市原市鶴舞559-1",
    "lat": 35.3871258,
    "lng": 140.1842357,
    "tel": "0436-50-6161",
    "url": "http://www.ctg.or.jp/",
    "pref": "千葉県",
    "city": "市原市",
    "category": "tokuyou",
    "serviceType": "介護老人福祉施設",
    "capacity": 0,
    "openDays": [],
    "openDaysNote": ""
  },
  {
    "id": "1272400183",
    "name": "特別養護老人ホームゆうしゅう園",
    "kana": "トクベツヨウゴロウジンホームユウシュウエン",
    "address": "千葉県市原市天羽田下細山1500番3",
    "lat": 35.4327832741111,
    "lng": 140.059727738665,
    "tel": "0436-66-2351",
    "url": "https://ss-yushuen.jimdo.com/",
    "pref": "千葉県",
    "city": "市原市",
    "category": "tokuyou",
    "serviceType": "介護老人福祉施設",
    "capacity": 0,
    "openDays": [],
    "openDaysNote": ""
  },
  {
    "id": "1272400365",
    "name": "特別養護老人ホーム清流園",
    "kana": "トクベツヨウゴロウジンホームセイリュウエン",
    "address": "千葉県市原市勝間下五反目337番2",
    "lat": 35.4785493,
    "lng": 140.1651095,
    "tel": "0436-75-6666",
    "url": "http://webmaster-seiryukai.com/",
    "pref": "千葉県",
    "city": "市原市",
    "category": "tokuyou",
    "serviceType": "介護老人福祉施設",
    "capacity": null,
    "openDays": [],
    "openDaysNote": ""
  },
  {
    "id": "1272402635",
    "name": "特別養護老人ホーム清流園（ユニット型）",
    "kana": "トクベツヨウゴロウジンホームセイリュウエン（ユニットガタ）",
    "address": "千葉県市原市勝間下五反目337番2",
    "lat": 35.4785493,
    "lng": 140.1651095,
    "tel": "0436-75-6666",
    "url": "http://webmaster-seiryukai.com/",
    "pref": "千葉県",
    "city": "市原市",
    "category": "tokuyou",
    "serviceType": "介護老人福祉施設",
    "capacity": 0,
    "openDays": [],
    "openDaysNote": ""
  },
  {
    "id": "1272400340",
    "name": "特別養護老人ホーム青柳園",
    "kana": "トクベツヨウゴロウジンホームアオヤギエン",
    "address": "千葉県市原市青柳３－６－６",
    "lat": 35.502902,
    "lng": 140.0562053,
    "tel": "0436-25-1611",
    "url": "http://www.ichihara-aoyagien.com/",
    "pref": "千葉県",
    "city": "市原市",
    "category": "tokuyou",
    "serviceType": "介護老人福祉施設",
    "capacity": 0,
    "openDays": [],
    "openDaysNote": ""
  },
  {
    "id": "1272400274",
    "name": "特別養護老人ホーム辰巳萬緑苑",
    "kana": "トクベツヨウゴロウジンホームタツミバンリョクエン",
    "address": "千葉県市原市神崎263-1",
    "lat": 35.5082449,
    "lng": 140.1535065,
    "tel": "0436-75-2251",
    "url": "http://www.takushinkai.net",
    "pref": "千葉県",
    "city": "市原市",
    "category": "tokuyou",
    "serviceType": "介護老人福祉施設",
    "capacity": 70,
    "openDays": [],
    "openDaysNote": ""
  },
  {
    "id": "1270800038",
    "name": "ナーシングホーム市川",
    "kana": "ナーシングホームイチカワ",
    "address": "千葉県市川市柏井町４－３１０",
    "lat": 35.7537516398588,
    "lng": 139.973284063646,
    "tel": "047-339-5600",
    "url": "http://care-net.biz/12/keibikai/",
    "pref": "千葉県",
    "city": "市川市",
    "category": "tokuyou",
    "serviceType": "介護老人福祉施設",
    "capacity": 60,
    "openDays": [],
    "openDaysNote": ""
  },
  {
    "id": "1270802224",
    "name": "特別養護老人ホーム　　市川ヒルズ",
    "kana": "トクベツヨウゴロウジンホーム　　イチカワヒルズ",
    "address": "千葉県市川市柏井町４－３１２",
    "lat": 35.7527379,
    "lng": 139.9741221,
    "tel": "047-337-9888",
    "url": "http://care-net.biz/12/keibikai/",
    "pref": "千葉県",
    "city": "市川市",
    "category": "tokuyou",
    "serviceType": "介護老人福祉施設",
    "capacity": 100,
    "openDays": [],
    "openDaysNote": ""
  },
  {
    "id": "1270803404",
    "name": "特別養護老人ホーム　レガーレ市川",
    "kana": "トクベツヨウゴロウジンホーム　レガーレイチカワ",
    "address": "千葉県市川市柏井町4-315",
    "lat": 35.7530434,
    "lng": 139.9735027,
    "tel": "047-303-7700",
    "url": "http://care-net.biz/12/keibikai/",
    "pref": "千葉県",
    "city": "市川市",
    "category": "tokuyou",
    "serviceType": "介護老人福祉施設",
    "capacity": 0,
    "openDays": [],
    "openDaysNote": ""
  },
  {
    "id": "1270805888",
    "name": "特別養護老人ホーム　華つばき",
    "kana": "トクベツヨウゴロウジンホーム　ハナツバキ",
    "address": "千葉県市川市原木2-10-42",
    "lat": 35.6995838,
    "lng": 139.9459819,
    "tel": "047-702-5512",
    "url": "https://www.nissyoukai.net/",
    "pref": "千葉県",
    "city": "市川市",
    "category": "tokuyou",
    "serviceType": "介護老人福祉施設",
    "capacity": 0,
    "openDays": [],
    "openDaysNote": ""
  },
  {
    "id": "1270802729",
    "name": "特別養護老人ホーム　広尾苑",
    "kana": "トクベツヨウゴロウジンホーム　ヒロオエン",
    "address": "千葉県市川市広尾２丁目３番１号",
    "lat": 35.6795057,
    "lng": 139.8903951,
    "tel": "047-390-2727",
    "url": "http://www.tenyuukai.jp",
    "pref": "千葉県",
    "city": "市川市",
    "category": "tokuyou",
    "serviceType": "介護老人福祉施設",
    "capacity": 0,
    "openDays": [],
    "openDaysNote": ""
  },
  {
    "id": "1270806126",
    "name": "特別養護老人ホーム　桜楓親愛の丘",
    "kana": "トクベツヨウゴロウジンホーム　オウフウシンアイノオカ",
    "address": "千葉県市川市国分７丁目６番１１号",
    "lat": 35.7535033,
    "lng": 139.9201922,
    "tel": "047-701-7940",
    "url": "https://oufu.sakura.ne.jp/",
    "pref": "千葉県",
    "city": "市川市",
    "category": "tokuyou",
    "serviceType": "介護老人福祉施設",
    "capacity": 100,
    "openDays": [],
    "openDaysNote": ""
  },
  {
    "id": "1270806019",
    "name": "特別養護老人ホーム　市川ひかり（従来型）",
    "kana": "トクベツヨウゴロウジンホーム　イチカワヒカリ（ジュウライガタ）",
    "address": "千葉県市川市柏井町4-417-4",
    "lat": 35.7506611,
    "lng": 139.9692867,
    "tel": "047-700-5256",
    "url": "http://souseikai-swc.or.jp/index.html",
    "pref": "千葉県",
    "city": "市川市",
    "category": "tokuyou",
    "serviceType": "介護老人福祉施設",
    "capacity": 40,
    "openDays": [],
    "openDaysNote": ""
  },
  {
    "id": "1270805151",
    "name": "特別養護老人ホーム　市川三愛",
    "kana": "トクベツヨウゴロウジンホーム　イチカワサンアイ",
    "address": "千葉県市川市柏井町2-727特別養護老人ホーム市川三愛 特別養護老人ホーム市川三愛",
    "lat": 35.7428770167702,
    "lng": 139.965809265045,
    "tel": "047-303-6006",
    "url": "http://www.e-care-sanai.jp",
    "pref": "千葉県",
    "city": "市川市",
    "category": "tokuyou",
    "serviceType": "介護老人福祉施設",
    "capacity": null,
    "openDays": [],
    "openDaysNote": ""
  },
  {
    "id": "1270805359",
    "name": "特別養護老人ホーム　親愛の丘市川（従来型）",
    "kana": "トクベツヨウゴロウジンホーム　シンアイノオカイチカワ（ジュウライガタ）",
    "address": "千葉県市川市原木4-10-20",
    "lat": 35.6984189548084,
    "lng": 139.951206919046,
    "tel": "047-712-5667",
    "url": "https://sinaikai.com/",
    "pref": "千葉県",
    "city": "市川市",
    "category": "tokuyou",
    "serviceType": "介護老人福祉施設",
    "capacity": 0,
    "openDays": [],
    "openDaysNote": ""
  },
  {
    "id": "1270800202",
    "name": "特別養護老人ホーム　清山荘",
    "kana": "トクベツヨウゴロウジンホーム　セイザンソウ",
    "address": "千葉県市川市柏井町４丁目３１４番地",
    "lat": 35.7527323,
    "lng": 139.9733999,
    "tel": "047-337-1231",
    "url": "http://care-net.biz/12/keibikai/",
    "pref": "千葉県",
    "city": "市川市",
    "category": "tokuyou",
    "serviceType": "介護老人福祉施設",
    "capacity": 0,
    "openDays": [],
    "openDaysNote": ""
  },
  {
    "id": "1270801473",
    "name": "特別養護老人ホーム　太陽と緑の家",
    "kana": "トクベツヨウゴロウジンホーム　タイヨウトミドリノイエ",
    "address": "千葉県市川市大町５５２番地",
    "lat": 35.7632585,
    "lng": 139.9520818,
    "tel": "047-303-7881",
    "url": "http://www.syoutoukai.jp",
    "pref": "千葉県",
    "city": "市川市",
    "category": "tokuyou",
    "serviceType": "介護老人福祉施設",
    "capacity": 0,
    "openDays": [],
    "openDaysNote": ""
  },
  {
    "id": "1270803602",
    "name": "特別養護老人ホームいちかわ翔裕園",
    "kana": "トクベツヨウゴロウジンホーム　イチカワショウユウエン",
    "address": "千葉県市川市柏井町1-1076",
    "lat": 35.7409752,
    "lng": 139.9714561,
    "tel": "047-303-5525",
    "url": "https://cyoujyunosato.jp/ichikawa/",
    "pref": "千葉県",
    "city": "市川市",
    "category": "tokuyou",
    "serviceType": "介護老人福祉施設",
    "capacity": 0,
    "openDays": [],
    "openDaysNote": ""
  },
  {
    "id": "1270804279",
    "name": "特別養護老人ホームサンライズ市川",
    "kana": "トクベツヨウゴロウジンホーム　サンライズイチカワ",
    "address": "千葉県市川市大町７９－２",
    "lat": 35.7691936415717,
    "lng": 139.958898442328,
    "tel": "047-303-6539",
    "url": "https://www.asahiso.com/",
    "pref": "千葉県",
    "city": "市川市",
    "category": "tokuyou",
    "serviceType": "介護老人福祉施設",
    "capacity": 100,
    "openDays": [],
    "openDaysNote": ""
  },
  {
    "id": "1270805714",
    "name": "特別養護老人ホームタムスさくらの杜市川",
    "kana": "トクベツヨウゴロウジンホームタムスサクラノモリイチカワ",
    "address": "千葉県市川市高谷3-1-1",
    "lat": 35.6976966611824,
    "lng": 139.941063895631,
    "tel": "047-314-8303",
    "url": "https://ichikawa.sakuranomori.tums.jp/",
    "pref": "千葉県",
    "city": "市川市",
    "category": "tokuyou",
    "serviceType": "介護老人福祉施設",
    "capacity": 100,
    "openDays": [],
    "openDaysNote": ""
  },
  {
    "id": "1270805532",
    "name": "特別養護老人ホームなごみ",
    "kana": "トクベツヨウゴロウジンホームナゴミ",
    "address": "千葉県市川市大町442",
    "lat": 35.7655367067852,
    "lng": 139.957840884131,
    "tel": "047-303-8515",
    "url": "",
    "pref": "千葉県",
    "city": "市川市",
    "category": "tokuyou",
    "serviceType": "介護老人福祉施設",
    "capacity": 0,
    "openDays": [],
    "openDaysNote": ""
  },
  {
    "id": "1270800343",
    "name": "特別養護老人ホームホワイト市川",
    "kana": "トクベツヨウゴロウジンホームホワイトイチカワ",
    "address": "千葉県市川市高谷１８５４番地",
    "lat": 35.692082,
    "lng": 139.9451095,
    "tel": "047-327-3311",
    "url": "http://www.howaito-ichikawa.jp",
    "pref": "千葉県",
    "city": "市川市",
    "category": "tokuyou",
    "serviceType": "介護老人福祉施設",
    "capacity": 0,
    "openDays": [],
    "openDaysNote": ""
  },
  {
    "id": "1270801549",
    "name": "特別養護老人ホームやわらぎの郷",
    "kana": "トクベツヨウゴロウジンホームヤワラギノサト",
    "address": "千葉県市川市大町438-2",
    "lat": 35.7658361,
    "lng": 139.957984,
    "tel": "047-337-6121",
    "url": "https://koushikai.jp/",
    "pref": "千葉県",
    "city": "市川市",
    "category": "tokuyou",
    "serviceType": "介護老人福祉施設",
    "capacity": 0,
    "openDays": [],
    "openDaysNote": ""
  },
  {
    "id": "1270800350",
    "name": "特別養護老人ホーム市川あさひ荘",
    "kana": "トクベツヨウゴロウジンホームイチカワアサヒソウ",
    "address": "千葉県市川市大町537",
    "lat": 35.7606561,
    "lng": 139.9535401,
    "tel": "047-337-6565",
    "url": "https://www.asahiso.com/",
    "pref": "千葉県",
    "city": "市川市",
    "category": "tokuyou",
    "serviceType": "介護老人福祉施設",
    "capacity": 0,
    "openDays": [],
    "openDaysNote": ""
  },
  {
    "id": "1270805995",
    "name": "特別養護老人ホーム市川ひかり（ユニット型）",
    "kana": "トクベツヨウゴロウジンホーム　イチカワヒカリ（ユニットガタ）",
    "address": "千葉県市川市柏井町4-417-4特別養護老人ホーム市川ひかり 特別養護老人ホーム市川ひかり",
    "lat": 35.7520345,
    "lng": 139.9687373,
    "tel": "047-700-5256",
    "url": "http://souseikai-swc.or.jp/business9.html",
    "pref": "千葉県",
    "city": "市川市",
    "category": "tokuyou",
    "serviceType": "介護老人福祉施設",
    "capacity": 0,
    "openDays": [],
    "openDaysNote": ""
  },
  {
    "id": "1270805342",
    "name": "特別養護老人ホーム親愛の丘市川（ユニット型）",
    "kana": "トクベツヨウゴロウジンホームシンアイノオカイチカワ（ユニットガタ）",
    "address": "千葉県市川市原木4-10-20",
    "lat": 35.6984207413153,
    "lng": 139.951207872778,
    "tel": "047-712-5667",
    "url": "https://sinaikai.com/",
    "pref": "千葉県",
    "city": "市川市",
    "category": "tokuyou",
    "serviceType": "介護老人福祉施設",
    "capacity": 0,
    "openDays": [],
    "openDaysNote": ""
  },
  {
    "id": "1276500145",
    "name": "特別養護老人ホームおもとの郷芝山（ユニット型）",
    "kana": "トクベツヨウゴロウジンホームオモトノサトシバヤマ（ユニットガタ）",
    "address": "千葉県山武郡芝山町大里2631",
    "lat": 35.7346906,
    "lng": 140.4180184,
    "tel": "０４７９－８５－５３３５",
    "url": "https://syunyoukai.org",
    "pref": "千葉県",
    "city": "芝山町",
    "category": "tokuyou",
    "serviceType": "介護老人福祉施設",
    "capacity": 30,
    "openDays": [],
    "openDaysNote": ""
  },
  {
    "id": "1276500137",
    "name": "特別養護老人ホームおもとの郷芝山（従来型）",
    "kana": "トクベツヨウゴロウジンホームオモトノサトシバヤマ（ジュウライガタ）",
    "address": "千葉県山武郡芝山町大里２６３１",
    "lat": 35.7346906,
    "lng": 140.4180184,
    "tel": "０４７９－８５－５３３５",
    "url": "https://syunyoukai.org",
    "pref": "千葉県",
    "city": "芝山町",
    "category": "tokuyou",
    "serviceType": "介護老人福祉施設",
    "capacity": 30,
    "openDays": [],
    "openDaysNote": ""
  },
  {
    "id": "1276500079",
    "name": "特別養護老人ホームユニットケア芝山苑",
    "kana": "トクベツヨウゴロウジンホームユニットケアシバヤマエン",
    "address": "千葉県山武郡芝山町山中1337-1",
    "lat": 35.7001279,
    "lng": 140.4339687,
    "tel": "0479-77-1331",
    "url": "https://tokuyou-shibayamaen.jp/",
    "pref": "千葉県",
    "city": "芝山町",
    "category": "tokuyou",
    "serviceType": "介護老人福祉施設",
    "capacity": 30,
    "openDays": [],
    "openDaysNote": ""
  },
  {
    "id": "1276500046",
    "name": "特別養護老人ホーム芝山苑",
    "kana": "トクベツヨウゴロウジンホーム　シバヤマエン",
    "address": "千葉県山武郡芝山町山中1337-1",
    "lat": 35.7001279,
    "lng": 140.4339687,
    "tel": "0479-77-1331",
    "url": "https://www.tokuyou-shibayamaen.jp/",
    "pref": "千葉県",
    "city": "芝山町",
    "category": "tokuyou",
    "serviceType": "介護老人福祉施設",
    "capacity": 0,
    "openDays": [],
    "openDaysNote": ""
  },
  {
    "id": "1273900074",
    "name": "特別養護老人ホームエコトピア酒々井",
    "kana": "トクベツヨウゴロウジンホーム　エコトピアシスイ",
    "address": "千葉県印旛郡酒々井町本佐倉３５２－２",
    "lat": 35.715949,
    "lng": 140.2551172,
    "tel": "043-496-1910",
    "url": "http://www.ecotopia.or.jp/",
    "pref": "千葉県",
    "city": "酒々井町",
    "category": "tokuyou",
    "serviceType": "介護老人福祉施設",
    "capacity": 70,
    "openDays": [],
    "openDaysNote": ""
  },
  {
    "id": "1273900264",
    "name": "特別養護老人ホームエコトピア酒々井（ユニット型）",
    "kana": "トクベツヨウゴロウジンホームエコトピアシスイ（ユニットガタ）",
    "address": "千葉県印旛郡酒々井町本佐倉３５２－２2号館 2号館",
    "lat": 35.7159824,
    "lng": 140.255145,
    "tel": "043-496-1910",
    "url": "http://www.ecotopia.or.jp",
    "pref": "千葉県",
    "city": "酒々井町",
    "category": "tokuyou",
    "serviceType": "介護老人福祉施設",
    "capacity": 40,
    "openDays": [],
    "openDaysNote": ""
  },
  {
    "id": "1272100197",
    "name": "セイワ習志野介護老人福祉施設",
    "kana": "セイワナラシノカイゴロウジンフクシシセツ",
    "address": "千葉県習志野市秋津3-5-3",
    "lat": 35.668681,
    "lng": 140.0172214,
    "tel": "047-453-1000",
    "url": "http://www.seiwaen.org/",
    "pref": "千葉県",
    "city": "習志野市",
    "category": "tokuyou",
    "serviceType": "介護老人福祉施設",
    "capacity": 0,
    "openDays": [],
    "openDaysNote": ""
  },
  {
    "id": "1272101443",
    "name": "ゆいまーる習志野介護老人福祉施設",
    "kana": "ユイマールナラシノカイゴロウジンフクシシセツ",
    "address": "千葉県習志野市秋津3-5-1",
    "lat": 35.6693809,
    "lng": 140.017463,
    "tel": "047-453-1002",
    "url": "https://seiwaen.org/",
    "pref": "千葉県",
    "city": "習志野市",
    "category": "tokuyou",
    "serviceType": "介護老人福祉施設",
    "capacity": 0,
    "openDays": [],
    "openDaysNote": ""
  },
  {
    "id": "1272102375",
    "name": "特別養護老人ホーム　かがやきの郷福楽園（ユニット型）",
    "kana": "トクベツヨウゴロウジンホーム　カガヤキノサトフクラクエン（ユニットガタ）",
    "address": "千葉県習志野市東習志野1-1-20",
    "lat": 35.6951194,
    "lng": 140.0638582,
    "tel": "047-409-5701",
    "url": "https://e-houseikai.or.jp/kagayakinosato/",
    "pref": "千葉県",
    "city": "習志野市",
    "category": "tokuyou",
    "serviceType": "介護老人福祉施設",
    "capacity": 0,
    "openDays": [],
    "openDaysNote": ""
  },
  {
    "id": "1272102052",
    "name": "特別養護老人ホーム　サンクレール谷津",
    "kana": "トクベツヨウゴロウジンホーム　サンクレールヤツ",
    "address": "千葉県習志野市谷津4-6-10",
    "lat": 35.6841375,
    "lng": 140.0062636,
    "tel": "047-411-5888",
    "url": "http://care-net.biz/12/keibikai/",
    "pref": "千葉県",
    "city": "習志野市",
    "category": "tokuyou",
    "serviceType": "介護老人福祉施設",
    "capacity": null,
    "openDays": [],
    "openDaysNote": ""
  },
  {
    "id": "1272102078",
    "name": "特別養護老人ホーム　サンクレール谷津（ユニット型）",
    "kana": "トクベツヨウゴロウジンホーム　サンクレールヤツ（ユニットガタ）",
    "address": "千葉県習志野市谷津4-6-10",
    "lat": 35.6841375,
    "lng": 140.0062636,
    "tel": "047-411-5888",
    "url": "http://care-net.biz/12/keibikai/",
    "pref": "千葉県",
    "city": "習志野市",
    "category": "tokuyou",
    "serviceType": "介護老人福祉施設",
    "capacity": null,
    "openDays": [],
    "openDaysNote": ""
  },
  {
    "id": "1272100684",
    "name": "特別養護老人ホーム　マイホーム習志野",
    "kana": "トクベツヨウゴロウジンホーム　マイホームナラシノ",
    "address": "千葉県習志野市屋敷1-1-1",
    "lat": 35.6775892,
    "lng": 140.0512403,
    "tel": "047-470-1212",
    "url": "http://care-net.biz/12/keibikai",
    "pref": "千葉県",
    "city": "習志野市",
    "category": "tokuyou",
    "serviceType": "介護老人福祉施設",
    "capacity": null,
    "openDays": [],
    "openDaysNote": ""
  },
  {
    "id": "1272102367",
    "name": "特別養護老人ホームかがやきの郷福楽園（従来型）",
    "kana": "トクベツヨウゴロウジンホームカガヤキノサトフクラクエン(ジュウライガタ)",
    "address": "千葉県習志野市東習志野1-1-20",
    "lat": 35.694744729615,
    "lng": 140.063815284656,
    "tel": "047-409-5701",
    "url": "https://e-houseikai.or.jp/kagayakinosato/",
    "pref": "千葉県",
    "city": "習志野市",
    "category": "tokuyou",
    "serviceType": "介護老人福祉施設",
    "capacity": 0,
    "openDays": [],
    "openDaysNote": ""
  },
  {
    "id": "1272100072",
    "name": "特別養護老人ホーム習志野偕生園",
    "kana": "トクベツヨウゴロウジンホームナラシノカイセイエン",
    "address": "千葉県習志野市新栄1-10-2",
    "lat": 35.6898463,
    "lng": 140.0623501,
    "tel": "047-476-5122",
    "url": "https://kyokuyukai.or.jp/",
    "pref": "千葉県",
    "city": "習志野市",
    "category": "tokuyou",
    "serviceType": "介護老人福祉施設",
    "capacity": null,
    "openDays": [],
    "openDaysNote": ""
  },
  {
    "id": "1272101732",
    "name": "特別養護老人ホーム習志野偕生園　（ユニット型）",
    "kana": "トクベツヨウゴロウジンホーム　ナラシノカイセイエン　（ユニットガタ）",
    "address": "千葉県習志野市新栄1-10-2",
    "lat": 35.6898463,
    "lng": 140.0623501,
    "tel": "047-476-5122",
    "url": "http://kyokuyukai.or.jp",
    "pref": "千葉県",
    "city": "習志野市",
    "category": "tokuyou",
    "serviceType": "介護老人福祉施設",
    "capacity": 0,
    "openDays": [],
    "openDaysNote": ""
  },
  {
    "id": "1272101807",
    "name": "特別養護老人ホーム玲光苑習志野ローズ館",
    "kana": "トクベツヨウゴロウジンホーム　レイコウエンナラシノローズカン",
    "address": "千葉県習志野市谷津3-14-7",
    "lat": 35.6839855,
    "lng": 140.0037686,
    "tel": "047-407-3600",
    "url": "http://www.reikouen.or.jp",
    "pref": "千葉県",
    "city": "習志野市",
    "category": "tokuyou",
    "serviceType": "介護老人福祉施設",
    "capacity": 60,
    "openDays": [],
    "openDaysNote": ""
  },
  {
    "id": "1272101831",
    "name": "特別養護老人ホーム玲光苑習志野ローズ館（ユニット型）",
    "kana": "トクベツヨウゴロウジンホーム　レイコウエン　ナラシノローズカン（ユニットガタ）",
    "address": "千葉県習志野市谷津3-14-7",
    "lat": 35.6839698742801,
    "lng": 140.003705095107,
    "tel": "047-407-3600",
    "url": "http://www.reikouen.or.jp/",
    "pref": "千葉県",
    "city": "習志野市",
    "category": "tokuyou",
    "serviceType": "介護老人福祉施設",
    "capacity": 30,
    "openDays": [],
    "openDaysNote": ""
  },
  {
    "id": "1272300276",
    "name": "ユニット型特別養護老人ホーム名木緑風苑",
    "kana": "ユニットガタトクベツヨウゴロウジンホームナギリョクフウエン",
    "address": "千葉県勝浦市名木89番地13",
    "lat": 35.1533972,
    "lng": 140.2320474,
    "tel": "0470-70-5150",
    "url": "http://www.ryokufuuen.jp/",
    "pref": "千葉県",
    "city": "勝浦市",
    "category": "tokuyou",
    "serviceType": "介護老人福祉施設",
    "capacity": 30,
    "openDays": [],
    "openDaysNote": ""
  },
  {
    "id": "1272300078",
    "name": "特別養護老人ホーム　勝浦裕和園",
    "kana": "トクベツヨウゴロウジンホーム　カツウラユウワエン",
    "address": "千葉県勝浦市市野郷２３０番地１",
    "lat": 35.2285292754367,
    "lng": 140.278514286508,
    "tel": "0470-77-1321",
    "url": "https://onjukai.com",
    "pref": "千葉県",
    "city": "勝浦市",
    "category": "tokuyou",
    "serviceType": "介護老人福祉施設",
    "capacity": 80,
    "openDays": [],
    "openDaysNote": ""
  },
  {
    "id": "1272300342",
    "name": "特別養護老人ホーム勝浦総野園",
    "kana": "トクベツヨウゴロウジンホームカツウラフサノエン",
    "address": "千葉県勝浦市蟹田88番地",
    "lat": 35.2010871592767,
    "lng": 140.27540899259,
    "tel": "0470-77-0005",
    "url": "http://katsuurashifusanoen4961.jp/",
    "pref": "千葉県",
    "city": "勝浦市",
    "category": "tokuyou",
    "serviceType": "介護老人福祉施設",
    "capacity": 0,
    "openDays": [],
    "openDaysNote": ""
  },
  {
    "id": "1272300268",
    "name": "特別養護老人ホーム名木緑風苑",
    "kana": "トクベツヨウゴロウジンホームナギリョクフウエン",
    "address": "千葉県勝浦市名木89番地13",
    "lat": 35.1530323977246,
    "lng": 140.232040552779,
    "tel": "0470-70-5150",
    "url": "http://www.ryokufuuen.jp/",
    "pref": "千葉県",
    "city": "勝浦市",
    "category": "tokuyou",
    "serviceType": "介護老人福祉施設",
    "capacity": 60,
    "openDays": [],
    "openDaysNote": ""
  },
  {
    "id": "1271207795",
    "name": "ユニット型特別養護老人ホームプレミア東松戸",
    "kana": "ユニットガタトクベツヨウゴロウジンホームプレミアヒガシマツド",
    "address": "千葉県松戸市紙敷297番2",
    "lat": 35.7691675305471,
    "lng": 139.947919654547,
    "tel": "047-712-1165",
    "url": "http://100.or.jp",
    "pref": "千葉県",
    "city": "松戸市",
    "category": "tokuyou",
    "serviceType": "介護老人福祉施設",
    "capacity": 0,
    "openDays": [],
    "openDaysNote": ""
  },
  {
    "id": "1271208363",
    "name": "特別養護老人ホーム　アウル大金平（ユニット型）",
    "kana": "トクベツヨウゴロウジンホーム　アウルオオガネダイラ（ユニットガタ）",
    "address": "千葉県松戸市大金平3-155",
    "lat": 35.8362581,
    "lng": 139.9207286,
    "tel": "047-382-6011",
    "url": "https://www.soukafukushikai.jp/",
    "pref": "千葉県",
    "city": "松戸市",
    "category": "tokuyou",
    "serviceType": "介護老人福祉施設",
    "capacity": 0,
    "openDays": [],
    "openDaysNote": ""
  },
  {
    "id": "1271208371",
    "name": "特別養護老人ホーム　アウル大金平（従来型）",
    "kana": "トクベツヨウゴロウジンホーム　アウルオオガネダイラ（ジュウライガタ）",
    "address": "千葉県松戸市大金平3-155",
    "lat": 35.8362581,
    "lng": 139.9207286,
    "tel": "047-382-6011",
    "url": "https://www.soukafukushikai.jp/",
    "pref": "千葉県",
    "city": "松戸市",
    "category": "tokuyou",
    "serviceType": "介護老人福祉施設",
    "capacity": 0,
    "openDays": [],
    "openDaysNote": ""
  },
  {
    "id": "1271204115",
    "name": "特別養護老人ホーム　あすなろ",
    "kana": "トクベツヨウゴロウジンホーム　アスナロ",
    "address": "千葉県松戸市金ヶ作139-10",
    "lat": 35.8065092,
    "lng": 139.9422809,
    "tel": "047-311-7001",
    "url": "http://asunaro-takagi.com/",
    "pref": "千葉県",
    "city": "松戸市",
    "category": "tokuyou",
    "serviceType": "介護老人福祉施設",
    "capacity": 0,
    "openDays": [],
    "openDaysNote": ""
  },
  {
    "id": "1271208041",
    "name": "特別養護老人ホーム　セイワ松戸",
    "kana": "トクベツヨウゴロウジンホーム　セイワマツド",
    "address": "千葉県松戸市大橋89",
    "lat": 35.7661126966596,
    "lng": 139.9207100394,
    "tel": "047-382-6161",
    "url": "http://www.seiwaen.org/",
    "pref": "千葉県",
    "city": "松戸市",
    "category": "tokuyou",
    "serviceType": "介護老人福祉施設",
    "capacity": 0,
    "openDays": [],
    "openDaysNote": ""
  },
  {
    "id": "1271208058",
    "name": "特別養護老人ホーム　セイワ松戸（従来型）",
    "kana": "トクベツヨウゴロウジンホーム　セイワマツド（ジュウライガタ）",
    "address": "千葉県松戸市大橋89",
    "lat": 35.7660966744117,
    "lng": 139.92078018505,
    "tel": "047-382-6161",
    "url": "http://www.seiwaen.org/",
    "pref": "千葉県",
    "city": "松戸市",
    "category": "tokuyou",
    "serviceType": "介護老人福祉施設",
    "capacity": 0,
    "openDays": [],
    "openDaysNote": ""
  },
  {
    "id": "1271207076",
    "name": "特別養護老人ホーム　ひまわりの丘（ユニット型）",
    "kana": "トクベツヨウゴロウジンホーム　ヒマワリノオカ　ユニットガタ",
    "address": "千葉県松戸市五香西５－１９－８",
    "lat": 35.7866895,
    "lng": 139.9519727,
    "tel": "０４７－３１１－２１００",
    "url": "http://happy-sunflower.or.jp",
    "pref": "千葉県",
    "city": "松戸市",
    "category": "tokuyou",
    "serviceType": "介護老人福祉施設",
    "capacity": 0,
    "openDays": [],
    "openDaysNote": ""
  },
  {
    "id": "1271201053",
    "name": "特別養護老人ホーム　ひまわりの丘（従来型）",
    "kana": "トクベツヨウゴロウジンホーム　ヒマワリノオカ(ジュウライガタ）",
    "address": "千葉県松戸市五香西５－１９－８",
    "lat": 35.7866895,
    "lng": 139.9519727,
    "tel": "047-311-2100",
    "url": "https://www.happy-sunflower.or.jp/",
    "pref": "千葉県",
    "city": "松戸市",
    "category": "tokuyou",
    "serviceType": "介護老人福祉施設",
    "capacity": 0,
    "openDays": [],
    "openDaysNote": ""
  },
  {
    "id": "1271202432",
    "name": "特別養護老人ホーム　まんさくの里",
    "kana": "トクベツヨウゴロウジンホーム　マンサクノサト",
    "address": "千葉県松戸市八ヶ崎二丁目15番地の1",
    "lat": 35.8147826,
    "lng": 139.9333423,
    "tel": "047-348-8352",
    "url": "https://www.mansakunosato.biz/",
    "pref": "千葉県",
    "city": "松戸市",
    "category": "tokuyou",
    "serviceType": "介護老人福祉施設",
    "capacity": 70,
    "openDays": [],
    "openDaysNote": ""
  },
  {
    "id": "1271200568",
    "name": "特別養護老人ホーム　南花園",
    "kana": "トクベツヨウゴロウジンホーム　ミナミハナエン",
    "address": "千葉県松戸市河原塚南花102-8",
    "lat": 35.780767535113,
    "lng": 139.938355124854,
    "tel": "047-392-0881",
    "url": "http://www.kiyou.or.jp/",
    "pref": "千葉県",
    "city": "松戸市",
    "category": "tokuyou",
    "serviceType": "介護老人福祉施設",
    "capacity": 76,
    "openDays": [],
    "openDaysNote": ""
  },
  {
    "id": "1271200733",
    "name": "特別養護老人ホーム　陽光苑",
    "kana": "トクベツヨウゴロウジンホーム　ヨウコウエン",
    "address": "千葉県松戸市旭町２丁目２３８番地",
    "lat": 35.8175844,
    "lng": 139.89937,
    "tel": "047-348-1866",
    "url": "http://youkoukai.or.jp/",
    "pref": "千葉県",
    "city": "松戸市",
    "category": "tokuyou",
    "serviceType": "介護老人福祉施設",
    "capacity": 0,
    "openDays": [],
    "openDaysNote": ""
  },
  {
    "id": "1271200691",
    "name": "特別養護老人ホーム　緑風園",
    "kana": "トクベツヨウゴロウジンホーム　リョクフウエン",
    "address": "千葉県松戸市和名ヶ谷1484",
    "lat": 35.7718899,
    "lng": 139.9220175,
    "tel": "047-392-2900",
    "url": "http://ryokufuen.jp/",
    "pref": "千葉県",
    "city": "松戸市",
    "category": "tokuyou",
    "serviceType": "介護老人福祉施設",
    "capacity": 80,
    "openDays": [],
    "openDaysNote": ""
  },
  {
    "id": "1271205443",
    "name": "特別養護老人ホームなでしこ(ユニット型)",
    "kana": "トクベツヨウゴロウジンホームナデシコ(ユニットガタ)",
    "address": "千葉県松戸市中矢切259-1特別養護老人ホームなでしこ 特別養護老人ホームなでしこ",
    "lat": 35.7640301,
    "lng": 139.8939713,
    "tel": "047‐312‐3033",
    "url": "",
    "pref": "千葉県",
    "city": "松戸市",
    "category": "tokuyou",
    "serviceType": "介護老人福祉施設",
    "capacity": 0,
    "openDays": [],
    "openDaysNote": ""
  },
  {
    "id": "1271205435",
    "name": "特別養護老人ホームなでしこ(従来型)",
    "kana": "トクベツヨウゴロウジンホームナデシコ(ジュウライガタ)",
    "address": "千葉県松戸市中矢切259-1特別養護老人ホームなでしこ 特別養護老人ホームなでしこ",
    "lat": 35.7640301,
    "lng": 139.8939713,
    "tel": "047‐312‐3033",
    "url": "",
    "pref": "千葉県",
    "city": "松戸市",
    "category": "tokuyou",
    "serviceType": "介護老人福祉施設",
    "capacity": 0,
    "openDays": [],
    "openDaysNote": ""
  },
  {
    "id": "1271207803",
    "name": "特別養護老人ホームプレミア東松戸",
    "kana": "トクベツヨウゴロウジンホームプレミアヒガシマツド",
    "address": "千葉県松戸市紙敷297番2",
    "lat": 35.7691112947862,
    "lng": 139.947924588554,
    "tel": "047-712-1165",
    "url": "http://100.or.jp",
    "pref": "千葉県",
    "city": "松戸市",
    "category": "tokuyou",
    "serviceType": "介護老人福祉施設",
    "capacity": 0,
    "openDays": [],
    "openDaysNote": ""
  },
  {
    "id": "1271200717",
    "name": "特別養護老人ホームマーシイヒル",
    "kana": "トクベツヨウゴロウジンホームマーシイヒル",
    "address": "千葉県松戸市根木内６７７番地２",
    "lat": 35.829715,
    "lng": 139.9470766,
    "tel": "047-348-8787",
    "url": "http://s-sanseikai.or.jp/",
    "pref": "千葉県",
    "city": "松戸市",
    "category": "tokuyou",
    "serviceType": "介護老人福祉施設",
    "capacity": 0,
    "openDays": [],
    "openDaysNote": ""
  },
  {
    "id": "1271200725",
    "name": "特別養護老人ホームやわら木苑",
    "kana": "トクベツヨウゴロウジンホーム　ヤワラギエン",
    "address": "千葉県松戸市金ケ作277",
    "lat": 35.8080711,
    "lng": 139.9645233,
    "tel": "047-386-0213",
    "url": "http://www.yawaragien.or.jp/",
    "pref": "千葉県",
    "city": "松戸市",
    "category": "tokuyou",
    "serviceType": "介護老人福祉施設",
    "capacity": 0,
    "openDays": [],
    "openDaysNote": ""
  },
  {
    "id": "1271203166",
    "name": "特別養護老人ホーム秋桜",
    "kana": "トクベツヨウゴロウジンホームコスモス",
    "address": "千葉県松戸市栄町西3-1036-2",
    "lat": 35.8122878,
    "lng": 139.8964149,
    "tel": "047-703-1275",
    "url": "https://www.eishunkai.or.jp/service/senior_housing_facility/elderly-cosmos/",
    "pref": "千葉県",
    "city": "松戸市",
    "category": "tokuyou",
    "serviceType": "介護老人福祉施設",
    "capacity": 70,
    "openDays": [],
    "openDaysNote": ""
  },
  {
    "id": "1271201665",
    "name": "特別養護老人ホーム松戸愛光園",
    "kana": "トクベツヨウゴロウジンホームマツドアイコウエン",
    "address": "千葉県松戸市高塚新田128-8",
    "lat": 35.7544955,
    "lng": 139.9434578,
    "tel": "047-330-8125",
    "url": "http://www.seirei.or.jp/hq/",
    "pref": "千葉県",
    "city": "松戸市",
    "category": "tokuyou",
    "serviceType": "介護老人福祉施設",
    "capacity": 0,
    "openDays": [],
    "openDaysNote": ""
  },
  {
    "id": "1271205302",
    "name": "特別養護老人ホーム松戸陽だまり館",
    "kana": "トクベツヨウゴロウジンホームマツドヒダマリカン",
    "address": "千葉県松戸市幸田111番地",
    "lat": 35.8452058,
    "lng": 139.9201784,
    "tel": "０４７－３７４－６３１１",
    "url": "http://www.heart-pia.com",
    "pref": "千葉県",
    "city": "松戸市",
    "category": "tokuyou",
    "serviceType": "介護老人福祉施設",
    "capacity": 70,
    "openDays": [],
    "openDaysNote": ""
  },
  {
    "id": "1271200709",
    "name": "特別養護老人ホーム松寿園",
    "kana": "トクベツヨウゴロウジンホームショウジュエン",
    "address": "千葉県松戸市六高台2丁目19番地の2",
    "lat": 35.7956342,
    "lng": 139.9869269,
    "tel": "047-386-6357",
    "url": "http://www.rokkoudai.net",
    "pref": "千葉県",
    "city": "松戸市",
    "category": "tokuyou",
    "serviceType": "介護老人福祉施設",
    "capacity": 90,
    "openDays": [],
    "openDaysNote": ""
  },
  {
    "id": "1271205328",
    "name": "特別養護老人ホーム松寿園アネックス",
    "kana": "トクベツヨウゴロウジンホームショウジュエンアネックス",
    "address": "千葉県松戸市六高台2丁目19番地の2",
    "lat": 35.7959300759131,
    "lng": 139.986782060713,
    "tel": "047-386-6357",
    "url": "http://www.rokkoudai.net",
    "pref": "千葉県",
    "city": "松戸市",
    "category": "tokuyou",
    "serviceType": "介護老人福祉施設",
    "capacity": 60,
    "openDays": [],
    "openDaysNote": ""
  },
  {
    "id": "1271207019",
    "name": "特別養護老人ホーム親愛の丘",
    "kana": "トクベツヨウゴロウジンホーム　シンアイノオカ",
    "address": "千葉県松戸市和名ケ谷1258番1特別養護老人ホーム親愛の丘 特別養護老人ホーム親愛の丘",
    "lat": 35.7751701,
    "lng": 139.9226561,
    "tel": "047-712-1200",
    "url": "https://sinaikai.com/",
    "pref": "千葉県",
    "city": "松戸市",
    "category": "tokuyou",
    "serviceType": "介護老人福祉施設",
    "capacity": 100,
    "openDays": [],
    "openDaysNote": ""
  },
  {
    "id": "1271205666",
    "name": "特別養護老人ホーム第二南花園",
    "kana": "トクベツヨウゴロウジンホームダイニミナミハナエン",
    "address": "千葉県松戸市紙敷１１８６－８特別養護老人ホーム第二南花園 特別養護老人ホーム第二南花園",
    "lat": 35.7695072,
    "lng": 139.9331333,
    "tel": "047-392-3336",
    "url": "http://www.kiyou.or.jp",
    "pref": "千葉県",
    "city": "松戸市",
    "category": "tokuyou",
    "serviceType": "介護老人福祉施設",
    "capacity": 0,
    "openDays": [],
    "openDaysNote": ""
  },
  {
    "id": "1271205658",
    "name": "特別養護老人ホーム第二南花園（個室ユニット型）",
    "kana": "トクベツヨウゴロウジンホームダイニミナミハナエン（コシツユニットガタ）",
    "address": "千葉県松戸市紙敷1186-8特別養護老人ホーム第二南花園 特別養護老人ホーム第二南花園",
    "lat": 35.7695072,
    "lng": 139.9331333,
    "tel": "047-392-3336",
    "url": "http://www.kiyou.or.jp",
    "pref": "千葉県",
    "city": "松戸市",
    "category": "tokuyou",
    "serviceType": "介護老人福祉施設",
    "capacity": 0,
    "openDays": [],
    "openDaysNote": ""
  },
  {
    "id": "1271207530",
    "name": "特別養護老人ホーム東松戸ヒルズ",
    "kana": "トクベツヨウゴロウジンホームヒガシマツドヒルズ",
    "address": "千葉県松戸市紙敷1065-4特別養護老人ホーム東松戸ヒルズ 特別養護老人ホーム東松戸ヒルズ",
    "lat": 35.7716398398621,
    "lng": 139.938907164757,
    "tel": "047-312-8633",
    "url": "http://www.youkoukai.or.jp",
    "pref": "千葉県",
    "city": "松戸市",
    "category": "tokuyou",
    "serviceType": "介護老人福祉施設",
    "capacity": 0,
    "openDays": [],
    "openDaysNote": ""
  },
  {
    "id": "1271207522",
    "name": "特別養護老人ホーム東松戸ヒルズ（従来型）",
    "kana": "トクベツヨウゴロウジンホームヒガシマツドヒルズ",
    "address": "千葉県松戸市紙敷1065-4",
    "lat": 35.7716326145333,
    "lng": 139.938891285307,
    "tel": "047－312－8633",
    "url": "http://www.youkoukai.or.jp",
    "pref": "千葉県",
    "city": "松戸市",
    "category": "tokuyou",
    "serviceType": "介護老人福祉施設",
    "capacity": 0,
    "openDays": [],
    "openDaysNote": ""
  },
  {
    "id": "1271202440",
    "name": "特別養護老人ホーム明尽苑",
    "kana": "トクベツヨウゴロウジンホームミョウジンエン",
    "address": "千葉県松戸市金ヶ作296-1",
    "lat": 35.8024302,
    "lng": 139.9658929,
    "tel": "047-385-2220",
    "url": "http://www.seishin-kai.or.jp",
    "pref": "千葉県",
    "city": "松戸市",
    "category": "tokuyou",
    "serviceType": "介護老人福祉施設",
    "capacity": 70,
    "openDays": [],
    "openDaysNote": ""
  },
  {
    "id": "1274600038",
    "name": "特別養護老人ホームじょうもんの郷",
    "kana": "トクベツヨウゴロウジンホームジョウモンノサト",
    "address": "千葉県香取郡神崎町神崎神宿66-10",
    "lat": 35.8966555,
    "lng": 140.3998158,
    "tel": "0478-70-1230",
    "url": "http://www.koubun.or.jp/publics/index/16/",
    "pref": "千葉県",
    "city": "神崎町",
    "category": "tokuyou",
    "serviceType": "介護老人福祉施設",
    "capacity": 0,
    "openDays": [],
    "openDaysNote": ""
  },
  {
    "id": "1271600957",
    "name": "ユニット型介護老人福祉施設玲光苑なのはな館",
    "kana": "ユニットガタカイゴロウジンフクシシセツレイコウエンナノハナカン",
    "address": "千葉県成田市押畑８９６ー４",
    "lat": 35.8018679030006,
    "lng": 140.306980894443,
    "tel": "0476-24-2164",
    "url": "https://www.reikouen.or.jp/",
    "pref": "千葉県",
    "city": "成田市",
    "category": "tokuyou",
    "serviceType": "介護老人福祉施設",
    "capacity": 30,
    "openDays": [],
    "openDaysNote": ""
  },
  {
    "id": "1271601575",
    "name": "特別養護老人ホーム　まきの里（従来型）",
    "kana": "トクベツヨウゴロウジンホーム　マキノサト（ジュウライガタ）",
    "address": "千葉県成田市吉岡1342-6",
    "lat": 35.8120968,
    "lng": 140.3947688,
    "tel": "0476-29-5335",
    "url": "https://makinosato.or.jp/",
    "pref": "千葉県",
    "city": "成田市",
    "category": "tokuyou",
    "serviceType": "介護老人福祉施設",
    "capacity": 0,
    "openDays": [],
    "openDaysNote": ""
  },
  {
    "id": "1271602086",
    "name": "特別養護老人ホームひだまりの杜（ユニット型）",
    "kana": "トクベツヨウゴロウジンホームヒダマリノモリ（ユニットガタ）",
    "address": "千葉県成田市不動ヶ岡2012番地3",
    "lat": 35.7685429465505,
    "lng": 140.31019081898,
    "tel": "0476-37-3117",
    "url": "https://daiyuukai.jp/",
    "pref": "千葉県",
    "city": "成田市",
    "category": "tokuyou",
    "serviceType": "介護老人福祉施設",
    "capacity": null,
    "openDays": [],
    "openDaysNote": ""
  },
  {
    "id": "1271602078",
    "name": "特別養護老人ホームひだまりの杜（従来型）",
    "kana": "トクベツヨウゴロウジンホームヒダマリノモリ（ジュウライガタ）",
    "address": "千葉県成田市不動ヶ岡2012番地3",
    "lat": 35.7716892,
    "lng": 140.3111745,
    "tel": "0476-37-3117",
    "url": "https://daiyuukai.jp/",
    "pref": "千葉県",
    "city": "成田市",
    "category": "tokuyou",
    "serviceType": "介護老人福祉施設",
    "capacity": null,
    "openDays": [],
    "openDaysNote": ""
  },
  {
    "id": "1271601567",
    "name": "特別養護老人ホームまきの里（ユニット型）",
    "kana": "トクベツヨウゴロウジンホーム　マキノサト（ユニットガタ）",
    "address": "千葉県成田市吉岡１３４２－６",
    "lat": 35.8128884,
    "lng": 140.3934689,
    "tel": "0476-29-5335",
    "url": "https://makinosato.or.jp/",
    "pref": "千葉県",
    "city": "成田市",
    "category": "tokuyou",
    "serviceType": "介護老人福祉施設",
    "capacity": 0,
    "openDays": [],
    "openDaysNote": ""
  },
  {
    "id": "1271601104",
    "name": "特別養護老人ホームユニットケア成田苑",
    "kana": "トクベツヨウゴロウジンホームユニットケアナリタエン",
    "address": "千葉県成田市大室1783-22",
    "lat": 35.8167127,
    "lng": 140.3870138,
    "tel": "0476-36-6311",
    "url": "https://www.naritaen.com/",
    "pref": "千葉県",
    "city": "成田市",
    "category": "tokuyou",
    "serviceType": "介護老人福祉施設",
    "capacity": 30,
    "openDays": [],
    "openDaysNote": ""
  },
  {
    "id": "1271600262",
    "name": "特別養護老人ホーム成田苑",
    "kana": "トクベツヨウゴロウジンホーム　ナリタエン",
    "address": "千葉県成田市大室1783-22",
    "lat": 35.8167127,
    "lng": 140.3870138,
    "tel": "0476-36-6311",
    "url": "http://naritaen.com/",
    "pref": "千葉県",
    "city": "成田市",
    "category": "tokuyou",
    "serviceType": "介護老人福祉施設",
    "capacity": 0,
    "openDays": [],
    "openDaysNote": ""
  },
  {
    "id": "1271600064",
    "name": "特別養護老人ホーム長寿園",
    "kana": "トクベツヨウゴロウジンホーム　チョウジュエン",
    "address": "千葉県成田市長沼字長津１６００",
    "lat": 35.8305005,
    "lng": 140.3002109,
    "tel": "0476-37-1061",
    "url": "http://www.choju-en.jp/",
    "pref": "千葉県",
    "city": "成田市",
    "category": "tokuyou",
    "serviceType": "介護老人福祉施設",
    "capacity": 0,
    "openDays": [],
    "openDaysNote": ""
  },
  {
    "id": "1271601609",
    "name": "特別養護老人ホーム杜の家なりた",
    "kana": "トクベツヨウゴロウジンホームモリノイエナリタ",
    "address": "千葉県成田市下方686-1",
    "lat": 40.1557353,
    "lng": -74.9239346,
    "tel": "0476-20-7575",
    "url": "http://www.gakudan.org",
    "pref": "千葉県",
    "city": "成田市",
    "category": "tokuyou",
    "serviceType": "介護老人福祉施設",
    "capacity": 0,
    "openDays": [],
    "openDaysNote": ""
  },
  {
    "id": "1271600981",
    "name": "特別養護老人ホーム蓬莱の杜（広域型）",
    "kana": "トクベツヨウゴロウジンホーム　ホウライノモリ　（コウイキガタ）",
    "address": "千葉県成田市川栗８４２－４",
    "lat": 35.7639489,
    "lng": 140.3577329,
    "tel": "0476-35-0380",
    "url": "http://suhamakai.or.jp/homes/narita/Kouiki/index.html",
    "pref": "千葉県",
    "city": "成田市",
    "category": "tokuyou",
    "serviceType": "介護老人福祉施設",
    "capacity": 0,
    "openDays": [],
    "openDaysNote": ""
  },
  {
    "id": "1271601724",
    "name": "特別養護老人ホーム蓬莱の杜（広域多床）",
    "kana": "トクベツヨウゴロウジンホーム　ホウライノモリ　（コウイキタショウ）",
    "address": "千葉県成田市川栗８４２－４",
    "lat": 35.7639489,
    "lng": 140.3577329,
    "tel": "0476-35-0380",
    "url": "http://suhamakai.or.jp",
    "pref": "千葉県",
    "city": "成田市",
    "category": "tokuyou",
    "serviceType": "介護老人福祉施設",
    "capacity": 0,
    "openDays": [],
    "openDaysNote": ""
  },
  {
    "id": "1271600627",
    "name": "特別養護老人ホーム名木の里",
    "kana": "トクベツヨウゴロウジンホーム　ナギノサト",
    "address": "千葉県成田市名木192番地",
    "lat": 35.8804921,
    "lng": 140.3867019,
    "tel": "0476-96-4165",
    "url": "http://naginosato.or.jp",
    "pref": "千葉県",
    "city": "成田市",
    "category": "tokuyou",
    "serviceType": "介護老人福祉施設",
    "capacity": 90,
    "openDays": [],
    "openDaysNote": ""
  },
  {
    "id": "1274700028",
    "name": "特別養護老人ホーム有楽苑",
    "kana": "トクベツヨウゴロウジンホーム　ウラクエン",
    "address": "千葉県成田市横山204番40",
    "lat": 35.8158531,
    "lng": 140.4541828,
    "tel": "0476-49-0322",
    "url": "http://www.urakuen.jp/",
    "pref": "千葉県",
    "city": "成田市",
    "category": "tokuyou",
    "serviceType": "介護老人福祉施設",
    "capacity": 0,
    "openDays": [],
    "openDaysNote": ""
  },
  {
    "id": "1271601088",
    "name": "特別養護老人ホーム有楽苑（ユニット）",
    "kana": "トクベツヨウゴロウジンホーム　ウラクエン（ユニット）",
    "address": "千葉県成田市横山２０４－４０",
    "lat": 35.8158531,
    "lng": 140.4541828,
    "tel": "0476-49-0322",
    "url": "http://www.urakuen.jp/",
    "pref": "千葉県",
    "city": "成田市",
    "category": "tokuyou",
    "serviceType": "介護老人福祉施設",
    "capacity": 0,
    "openDays": [],
    "openDaysNote": ""
  },
  {
    "id": "1271600072",
    "name": "特別養護老人ホーム玲光苑",
    "kana": "トクベツヨウゴロウジンホームレイコウエン",
    "address": "千葉県成田市押畑８９６－４",
    "lat": 35.8015764,
    "lng": 140.3072062,
    "tel": "0476-24-2164",
    "url": "https://www.reikouen.or.jp",
    "pref": "千葉県",
    "city": "成田市",
    "category": "tokuyou",
    "serviceType": "介護老人福祉施設",
    "capacity": 0,
    "openDays": [],
    "openDaysNote": ""
  },
  {
    "id": "1270302878",
    "name": "介護老人福祉施設　ハピネス稲毛",
    "kana": "カイゴロウジンフクシシセツ　ハピネスイナゲ",
    "address": "千葉県千葉市稲毛区長沼原町847-7ハピネス稲毛 ハピネス稲毛",
    "lat": 35.6656818,
    "lng": 140.1324657,
    "tel": "043-441-6004",
    "url": "https://happiness-inage.com/",
    "pref": "千葉県",
    "city": "千葉市稲毛区",
    "category": "tokuyou",
    "serviceType": "介護老人福祉施設",
    "capacity": null,
    "openDays": [],
    "openDaysNote": ""
  },
  {
    "id": "1270300153",
    "name": "特別養護老人ホ－ム双樹苑",
    "kana": "トクベツヨウゴロウジンホ－ムソウジュエン",
    "address": "千葉市稲毛区山王町１６２－１",
    "lat": 35.6678662,
    "lng": 140.1402293,
    "tel": "043-422-8711",
    "url": "http://souju-kai.or.jp/",
    "pref": "千葉県",
    "city": "千葉市稲毛区",
    "category": "tokuyou",
    "serviceType": "介護老人福祉施設",
    "capacity": 110,
    "openDays": [],
    "openDaysNote": ""
  },
  {
    "id": "1270303041",
    "name": "特別養護老人ホーム　こぶしの里",
    "kana": "トクベツヨウゴロウジンホーム　コブシノサト",
    "address": "千葉県千葉市稲毛区山王町１７１－１",
    "lat": 35.6656447961859,
    "lng": 140.1388042811,
    "tel": "０４３－２３５－８１６１",
    "url": "http://souju-kai.or.jp/",
    "pref": "千葉県",
    "city": "千葉市稲毛区",
    "category": "tokuyou",
    "serviceType": "介護老人福祉施設",
    "capacity": 100,
    "openDays": [],
    "openDaysNote": ""
  },
  {
    "id": "1270300104",
    "name": "特別養護老人ホーム　ソレイユ千葉北",
    "kana": "トクベツヨウゴロウジンホーム　ソレイユチバキタ",
    "address": "千葉市稲毛区長沼原町250番地",
    "lat": 35.6703258,
    "lng": 140.1275323,
    "tel": "043-286-5300",
    "url": "https://www.soreiyu.or.jp",
    "pref": "千葉県",
    "city": "千葉市稲毛区",
    "category": "tokuyou",
    "serviceType": "介護老人福祉施設",
    "capacity": 0,
    "openDays": [],
    "openDaysNote": ""
  },
  {
    "id": "1270302621",
    "name": "特別養護老人ホーム　とどろき一倫荘",
    "kana": "トクベツヨウゴロウジンホーム　トドロキイチリンソウ",
    "address": "千葉県千葉市稲毛区轟町５－２－１",
    "lat": 35.6296794540222,
    "lng": 140.111166083328,
    "tel": "０４３－３０７－８３０１",
    "url": "http://www.ichirin.or.jp",
    "pref": "千葉県",
    "city": "千葉市稲毛区",
    "category": "tokuyou",
    "serviceType": "介護老人福祉施設",
    "capacity": 0,
    "openDays": [],
    "openDaysNote": ""
  },
  {
    "id": "1270301391",
    "name": "特別養護老人ホーム　プラタナス",
    "kana": "トクベツヨウゴロウジンホーム　プラタナス",
    "address": "千葉県千葉市稲毛区園生町1283-12",
    "lat": 35.6435662,
    "lng": 140.100395,
    "tel": "043-290-8010",
    "url": "http://souju-kai.or.jp/",
    "pref": "千葉県",
    "city": "千葉市稲毛区",
    "category": "tokuyou",
    "serviceType": "介護老人福祉施設",
    "capacity": 0,
    "openDays": [],
    "openDaysNote": ""
  },
  {
    "id": "1270302340",
    "name": "特別養護老人ホームいなげ一倫荘",
    "kana": "トクベツヨウゴロウジンホーム　イナゲイチリンソウ",
    "address": "千葉県千葉市稲毛区稲毛町５－８７－１",
    "lat": 35.6404021,
    "lng": 140.0788389,
    "tel": "043-204-8880",
    "url": "http://ichirin.or.jp",
    "pref": "千葉県",
    "city": "千葉市稲毛区",
    "category": "tokuyou",
    "serviceType": "介護老人福祉施設",
    "capacity": null,
    "openDays": [],
    "openDaysNote": ""
  },
  {
    "id": "1270301987",
    "name": "特別養護老人ホームソレイユ千葉北ユニット",
    "kana": "トクベツヨウゴロウジンホーム　ソレイユチバキタユニット",
    "address": "千葉県千葉市稲毛区長沼原町250番地",
    "lat": 35.6703193,
    "lng": 140.1276033,
    "tel": "043-286-5300",
    "url": "www.soreiyu.or.jp",
    "pref": "千葉県",
    "city": "千葉市稲毛区",
    "category": "tokuyou",
    "serviceType": "介護老人福祉施設",
    "capacity": 0,
    "openDays": [],
    "openDaysNote": ""
  },
  {
    "id": "1270302837",
    "name": "特別養護老人ホームちとせ稲毛",
    "kana": "トクベツヨウゴロウジンホームチトセイナゲ",
    "address": "千葉県千葉市稲毛区萩台町50-1特別養護老人ホームちとせ稲毛 特別養護老人ホームちとせ稲毛",
    "lat": 35.636460043035,
    "lng": 140.12176171793,
    "tel": "043-445-7840",
    "url": "www.1000.or.jp",
    "pref": "千葉県",
    "city": "千葉市稲毛区",
    "category": "tokuyou",
    "serviceType": "介護老人福祉施設",
    "capacity": null,
    "openDays": [],
    "openDaysNote": ""
  },
  {
    "id": "1270300914",
    "name": "特別養護老人ホーム稲毛こひつじ園",
    "kana": "トクベツヨウゴロウジンホームイナゲコヒツジエン",
    "address": "千葉県千葉市稲毛区萩台町380-2",
    "lat": 35.6442563,
    "lng": 140.1214167,
    "tel": "043-207-5599",
    "url": "http://hatsuhokai.com",
    "pref": "千葉県",
    "city": "千葉市稲毛区",
    "category": "tokuyou",
    "serviceType": "介護老人福祉施設",
    "capacity": 0,
    "openDays": [],
    "openDaysNote": ""
  },
  {
    "id": "1270302548",
    "name": "特別養護老人ホーム桃花苑",
    "kana": "トクベツヨウゴロウジンホームモモカエン",
    "address": "千葉県千葉市稲毛区山王町255-3",
    "lat": 35.6643381068282,
    "lng": 140.134961687219,
    "tel": "043-308-3975",
    "url": "http://www.souju-kai.or.jp/",
    "pref": "千葉県",
    "city": "千葉市稲毛区",
    "category": "tokuyou",
    "serviceType": "介護老人福祉施設",
    "capacity": 0,
    "openDays": [],
    "openDaysNote": ""
  },
  {
    "id": "1270200536",
    "name": "介護老人福祉施設　花見の里",
    "kana": "カイゴロウジンフクシシセツ　ハナミノサト",
    "address": "千葉県千葉市花見川区柏井町２７７番５",
    "lat": 35.6887361,
    "lng": 140.1141144,
    "tel": "043-216-7701",
    "url": "http://www.hanaminosato.or.jp",
    "pref": "千葉県",
    "city": "千葉市花見川区",
    "category": "tokuyou",
    "serviceType": "介護老人福祉施設",
    "capacity": 0,
    "openDays": [],
    "openDaysNote": ""
  },
  {
    "id": "1270200338",
    "name": "特別養護老人ホーム　桐花園",
    "kana": "トクベツヨウゴロウジンホーム　トウカエン",
    "address": "千葉市花見川区幕張町3-2362-2",
    "lat": 35.6739258,
    "lng": 140.0579343,
    "tel": "043-213-3881",
    "url": "http://www.toukaen.or.jp",
    "pref": "千葉県",
    "city": "千葉市花見川区",
    "category": "tokuyou",
    "serviceType": "介護老人福祉施設",
    "capacity": 0,
    "openDays": [],
    "openDaysNote": ""
  },
  {
    "id": "1270202458",
    "name": "特別養護老人ホームゆうゆう苑",
    "kana": "トクベツヨウゴロウジンホームユウユウエン",
    "address": "千葉県千葉市花見川区犢橋町10番地",
    "lat": 35.6710797,
    "lng": 140.1124183,
    "tel": "043-215-5530",
    "url": "http://houyukai.or.jp",
    "pref": "千葉県",
    "city": "千葉市花見川区",
    "category": "tokuyou",
    "serviceType": "介護老人福祉施設",
    "capacity": 80,
    "openDays": [],
    "openDaysNote": ""
  },
  {
    "id": "1270200130",
    "name": "特別養護老人ホーム一倫荘",
    "kana": "トクベツヨウゴロウジンホームイチリンソウ",
    "address": "千葉市花見川区大日町１４９２－２",
    "lat": 35.6796853,
    "lng": 140.135211,
    "tel": "043-257-7000",
    "url": "http://www.ichirin.or.jp/",
    "pref": "千葉県",
    "city": "千葉市花見川区",
    "category": "tokuyou",
    "serviceType": "介護老人福祉施設",
    "capacity": 0,
    "openDays": [],
    "openDaysNote": ""
  },
  {
    "id": "1270203175",
    "name": "特別養護老人ホーム花見川フェニックス",
    "kana": "トクベツヨウゴロウジンホーム　ハナミガワフェニックス",
    "address": "千葉県千葉市花見川区畑町591番地1",
    "lat": 35.6600276,
    "lng": 140.0914539,
    "tel": "043-213-7711",
    "url": "http://www.shafuku-doujinkai.or.jp/",
    "pref": "千葉県",
    "city": "千葉市花見川区",
    "category": "tokuyou",
    "serviceType": "介護老人福祉施設",
    "capacity": 110,
    "openDays": [],
    "openDaysNote": ""
  },
  {
    "id": "1270200163",
    "name": "特別養護老人ホーム晴山苑",
    "kana": "トクベツヨウゴロウジンホームセイザンエン",
    "address": "千葉市花見川区花島町149-1",
    "lat": 35.6803673,
    "lng": 140.0985053,
    "tel": "043-250-7351",
    "url": "https://seizan-kai.or.jp/",
    "pref": "千葉県",
    "city": "千葉市花見川区",
    "category": "tokuyou",
    "serviceType": "介護老人福祉施設",
    "capacity": 100,
    "openDays": [],
    "openDaysNote": ""
  },
  {
    "id": "1270402660",
    "name": "ユニット型特別養護老人ホームサンライズビラ",
    "kana": "ユニットガタトクベツヨウゴロウジンホーム　サンライズビラ",
    "address": "千葉県千葉市若葉区大宮町2107番地",
    "lat": 35.5871643,
    "lng": 140.1827458,
    "tel": "043-266-2111",
    "url": "http://www.sunrisevilla.net",
    "pref": "千葉県",
    "city": "千葉市若葉区",
    "category": "tokuyou",
    "serviceType": "介護老人福祉施設",
    "capacity": 0,
    "openDays": [],
    "openDaysNote": ""
  },
  {
    "id": "1270402728",
    "name": "ユニット型特別養護老人ホーム恵光園",
    "kana": "ユニットガタ　トクベツヨウゴロウジンホーム　ケイコウエン",
    "address": "千葉県千葉市若葉区大広町２５２－４",
    "lat": 35.5716739,
    "lng": 140.2091145,
    "tel": "０４３－２９２－２５２６",
    "url": "http://www.keikouen.or.jp/",
    "pref": "千葉県",
    "city": "千葉市若葉区",
    "category": "tokuyou",
    "serviceType": "介護老人福祉施設",
    "capacity": 30,
    "openDays": [],
    "openDaysNote": ""
  },
  {
    "id": "1270400474",
    "name": "特別養護老人ホーム　いずみ苑",
    "kana": "トクベツヨウゴロウジンホーム　イズミエン",
    "address": "千葉市若葉区中田町１０４４－５５",
    "lat": 35.5937297,
    "lng": 140.2237957,
    "tel": "043-228-5900",
    "url": "http://senjyu-kai.com/izumien/",
    "pref": "千葉県",
    "city": "千葉市若葉区",
    "category": "tokuyou",
    "serviceType": "介護老人福祉施設",
    "capacity": 50,
    "openDays": [],
    "openDaysNote": ""
  },
  {
    "id": "1270400425",
    "name": "特別養護老人ホーム　サンライズビラ",
    "kana": "トクベツヨウゴロウジンホーム　サンライズビラ",
    "address": "千葉県千葉市若葉区大宮町2107番地",
    "lat": 35.5871643,
    "lng": 140.1827458,
    "tel": "043-266-2111",
    "url": "http://www.sunrisevilla.net",
    "pref": "千葉県",
    "city": "千葉市若葉区",
    "category": "tokuyou",
    "serviceType": "介護老人福祉施設",
    "capacity": 0,
    "openDays": [],
    "openDaysNote": ""
  },
  {
    "id": "1270403726",
    "name": "特別養護老人ホーム　バウムあすみの丘",
    "kana": "トクベツヨウゴロウジンホーム　バウムアスミノオカ",
    "address": "千葉県千葉市若葉区若松町88-1",
    "lat": 35.6444488398195,
    "lng": 140.178492794304,
    "tel": "043-312-8880",
    "url": "http://www.asuminooka.or.jp/",
    "pref": "千葉県",
    "city": "千葉市若葉区",
    "category": "tokuyou",
    "serviceType": "介護老人福祉施設",
    "capacity": 80,
    "openDays": [],
    "openDaysNote": ""
  },
  {
    "id": "1270400466",
    "name": "特別養護老人ホーム　恵光園",
    "kana": "トクベツヨウゴロウジンホーム　ケイコウエン",
    "address": "千葉市若葉区大広町252-4",
    "lat": 35.5716989,
    "lng": 140.2090951,
    "tel": "043-292-2526",
    "url": "http://www.keikouen.or.jp/",
    "pref": "千葉県",
    "city": "千葉市若葉区",
    "category": "tokuyou",
    "serviceType": "介護老人福祉施設",
    "capacity": 50,
    "openDays": [],
    "openDaysNote": ""
  },
  {
    "id": "1270400409",
    "name": "特別養護老人ホーム　更科ホーム",
    "kana": "トクベツヨウゴロウジンホーム　サラシナホーム",
    "address": "千葉市若葉区更科町2593-2",
    "lat": 35.6212607,
    "lng": 140.2193327,
    "tel": "043-239-0221",
    "url": "https://www.jishinkai.info/",
    "pref": "千葉県",
    "city": "千葉市若葉区",
    "category": "tokuyou",
    "serviceType": "介護老人福祉施設",
    "capacity": 90,
    "openDays": [],
    "openDaysNote": ""
  },
  {
    "id": "1270400102",
    "name": "特別養護老人ホーム　菜の花園",
    "kana": "トクベツヨウゴロウジンホーム　ナノハナエン",
    "address": "千葉県千葉市若葉区大宮町1621番地",
    "lat": 35.5925195,
    "lng": 140.1701769,
    "tel": "043-209-9235",
    "url": "https://youjyukai.com",
    "pref": "千葉県",
    "city": "千葉市若葉区",
    "category": "tokuyou",
    "serviceType": "介護老人福祉施設",
    "capacity": null,
    "openDays": [],
    "openDaysNote": ""
  },
  {
    "id": "1270403932",
    "name": "特別養護老人ホーム　若葉いこいの里",
    "kana": "トクベツヨウゴロウジンホーム　ワカバイコイノサト",
    "address": "千葉県千葉市若葉区若松町531-156",
    "lat": 35.6510577,
    "lng": 140.1475134,
    "tel": "043-308-9387",
    "url": "http://www.kiramekikai.jp/",
    "pref": "千葉県",
    "city": "千葉市若葉区",
    "category": "tokuyou",
    "serviceType": "介護老人福祉施設",
    "capacity": 0,
    "openDays": [],
    "openDaysNote": ""
  },
  {
    "id": "1270401514",
    "name": "特別養護老人ホーム　小倉町いずみ苑",
    "kana": "トクベツヨウゴロウジンホーム　オグラチョウイズミエン",
    "address": "千葉市若葉区小倉町1325-1",
    "lat": 35.6319884,
    "lng": 140.1855019,
    "tel": "043-232-2601",
    "url": "http://senjyu-kai.com/ogura-izumien/",
    "pref": "千葉県",
    "city": "千葉市若葉区",
    "category": "tokuyou",
    "serviceType": "介護老人福祉施設",
    "capacity": 0,
    "openDays": [],
    "openDaysNote": ""
  },
  {
    "id": "1270403015",
    "name": "特別養護老人ホーム　第2いずみ苑",
    "kana": "トクベツヨウゴロウジンホーム　ダイ２イズミエン",
    "address": "千葉市若葉区中田町１０４４－３２",
    "lat": 35.5936974,
    "lng": 140.2249506,
    "tel": "043-312-1700",
    "url": "http://senjyu-kai.com/izumien2/",
    "pref": "千葉県",
    "city": "千葉市若葉区",
    "category": "tokuyou",
    "serviceType": "介護老人福祉施設",
    "capacity": 80,
    "openDays": [],
    "openDaysNote": ""
  },
  {
    "id": "1270400441",
    "name": "特別養護老人ホームセイワ若松",
    "kana": "トクベツヨウゴロウジンホーム　セイワワカマツ",
    "address": "千葉市若葉区若松町７９２－１",
    "lat": 35.6537255,
    "lng": 140.1439165,
    "tel": "043-424-5211",
    "url": "http://www.seiwaen.com/",
    "pref": "千葉県",
    "city": "千葉市若葉区",
    "category": "tokuyou",
    "serviceType": "介護老人福祉施設",
    "capacity": 0,
    "openDays": [],
    "openDaysNote": ""
  },
  {
    "id": "1270400458",
    "name": "特別養護老人ホームちば美香苑",
    "kana": "トクベツヨウゴロウジンホームチバビコウエン",
    "address": "千葉県千葉市若葉区佐和町322-88",
    "lat": 35.5820231,
    "lng": 140.2058863,
    "tel": "043-228-3848",
    "url": "https://www.bikou.net/",
    "pref": "千葉県",
    "city": "千葉市若葉区",
    "category": "tokuyou",
    "serviceType": "介護老人福祉施設",
    "capacity": 0,
    "openDays": [],
    "openDaysNote": ""
  },
  {
    "id": "1270404096",
    "name": "特別養護老人ホーム御殿町",
    "kana": "トクベツヨウゴロウジンホームゴテンチョウ",
    "address": "千葉県千葉市若葉区御殿町699-23",
    "lat": 35.6152411796239,
    "lng": 140.211386276206,
    "tel": "043-228-5555",
    "url": "eiwa.or.jp",
    "pref": "千葉県",
    "city": "千葉市若葉区",
    "category": "tokuyou",
    "serviceType": "介護老人福祉施設",
    "capacity": null,
    "openDays": [],
    "openDaysNote": ""
  },
  {
    "id": "1270404104",
    "name": "特別養護老人ホーム御殿町(ユニット型)",
    "kana": "トクベツヨウゴロウジンホームゴテンチョウ(ユニットガタ)",
    "address": "千葉県千葉市若葉区御殿町699-23",
    "lat": 35.6152859783928,
    "lng": 140.211357511917,
    "tel": "043-228-5555",
    "url": "eiwa.or.jp",
    "pref": "千葉県",
    "city": "千葉市若葉区",
    "category": "tokuyou",
    "serviceType": "介護老人福祉施設",
    "capacity": null,
    "openDays": [],
    "openDaysNote": ""
  },
  {
    "id": "1270402710",
    "name": "特別養護老人ホーム菜の花園（ユニット型）",
    "kana": "トクベツヨウゴロウジンホーム　ナノハナエン（ユニットガタ）",
    "address": "千葉県千葉市若葉区大宮町１６２１番地",
    "lat": 35.5925195,
    "lng": 140.1701769,
    "tel": "043-209-9235",
    "url": "https://youjyukai.com",
    "pref": "千葉県",
    "city": "千葉市若葉区",
    "category": "tokuyou",
    "serviceType": "介護老人福祉施設",
    "capacity": 30,
    "openDays": [],
    "openDaysNote": ""
  },
  {
    "id": "1270400417",
    "name": "特別養護老人ホーム昌晴園",
    "kana": "トクベツヨウゴロウジンホームショウセイエン",
    "address": "千葉市若葉区野呂町736番地1号",
    "lat": 35.5845651,
    "lng": 140.2364553,
    "tel": "043-228-1711",
    "url": "http://shouseien.bz-service.net/",
    "pref": "千葉県",
    "city": "千葉市若葉区",
    "category": "tokuyou",
    "serviceType": "介護老人福祉施設",
    "capacity": 0,
    "openDays": [],
    "openDaysNote": ""
  },
  {
    "id": "1270400094",
    "name": "特別養護老人ホーム清和園",
    "kana": "トクベツヨウゴロウジンホームセイワエン",
    "address": "千葉市若葉区多部田町１４６８",
    "lat": 35.5988876,
    "lng": 140.2018132,
    "tel": "043-228-3771",
    "url": "http://www.seiwaen.com/",
    "pref": "千葉県",
    "city": "千葉市若葉区",
    "category": "tokuyou",
    "serviceType": "介護老人福祉施設",
    "capacity": null,
    "openDays": [],
    "openDaysNote": ""
  },
  {
    "id": "1270402702",
    "name": "特別養護老人ホーム清和園（ユニット型）",
    "kana": "トクベツヨウゴロウジンホームセイワエン（ユニットガタ）",
    "address": "千葉県千葉市若葉区多部田町１４６８",
    "lat": 35.5990524237286,
    "lng": 140.201860908598,
    "tel": "043-228-3771",
    "url": "http;//seiwaen.com",
    "pref": "千葉県",
    "city": "千葉市若葉区",
    "category": "tokuyou",
    "serviceType": "介護老人福祉施設",
    "capacity": null,
    "openDays": [],
    "openDaysNote": ""
  },
  {
    "id": "1270400433",
    "name": "特別養護老人ホーム中野園",
    "kana": "トクベツヨウゴロウジンホームナカノエン",
    "address": "千葉市若葉区中野町２１４８番地６",
    "lat": 35.5914597,
    "lng": 140.2506643,
    "tel": "043-228-3555",
    "url": "https://www.nakano-en.jp",
    "pref": "千葉県",
    "city": "千葉市若葉区",
    "category": "tokuyou",
    "serviceType": "介護老人福祉施設",
    "capacity": 0,
    "openDays": [],
    "openDaysNote": ""
  },
  {
    "id": "1270402744",
    "name": "特別養護老人ホーム和陽園",
    "kana": "トクベツヨウゴロウジンホーム　ワヨウエン",
    "address": "千葉県千葉市若葉区千城台南4-13-1",
    "lat": 35.6141784,
    "lng": 140.190913,
    "tel": "043-237-0157",
    "url": "http://www.shafuku-chiba.jp/wayoen.html",
    "pref": "千葉県",
    "city": "千葉市若葉区",
    "category": "tokuyou",
    "serviceType": "介護老人福祉施設",
    "capacity": 0,
    "openDays": [],
    "openDaysNote": ""
  },
  {
    "id": "1270403106",
    "name": "特別養護老人ホーム和陽園（ユニット型）",
    "kana": "トクベツヨウゴ　ロウジンホーム　ワヨウエン（ユニットガタ）",
    "address": "千葉県千葉市若葉区千城台南4-13-1",
    "lat": 35.6141784,
    "lng": 140.190913,
    "tel": "043-237-0157",
    "url": "http://www.shafuku-chiba.jp/wayoen.html",
    "pref": "千葉県",
    "city": "千葉市若葉区",
    "category": "tokuyou",
    "serviceType": "介護老人福祉施設",
    "capacity": 0,
    "openDays": [],
    "openDaysNote": ""
  },
  {
    "id": "1270101882",
    "name": "介護老人福祉施設　ピアポート千壽苑",
    "kana": "カイゴロウジンフクシシセツ　ピアポートセンジュエン",
    "address": "千葉県千葉市中央区問屋町６－４",
    "lat": 35.6006459,
    "lng": 140.1112545,
    "tel": "043-204-8400",
    "url": "http://www.yuuwakai.jp/",
    "pref": "千葉県",
    "city": "千葉市中央区",
    "category": "tokuyou",
    "serviceType": "介護老人福祉施設",
    "capacity": null,
    "openDays": [],
    "openDaysNote": ""
  },
  {
    "id": "1270102195",
    "name": "淑徳共生苑",
    "kana": "シュクトクキョウセイエン",
    "address": "千葉市中央区生実町2407-1",
    "lat": 35.567108,
    "lng": 140.1538239,
    "tel": "043-265-5526",
    "url": "https://www.kyoseien.jp/",
    "pref": "千葉県",
    "city": "千葉市中央区",
    "category": "tokuyou",
    "serviceType": "介護老人福祉施設",
    "capacity": 0,
    "openDays": [],
    "openDaysNote": ""
  },
  {
    "id": "1270105008",
    "name": "特別養護老人ホーム　恵光園シャイニー中央",
    "kana": "トクベツヨウゴロウジンホーム　ケイコウエンシャイニーチュウオウ",
    "address": "千葉県千葉市中央区星久喜町36番恵光園シャイニー中央 恵光園シャイニー中央",
    "lat": 35.5996123836264,
    "lng": 140.155662144489,
    "tel": "043-308-4812",
    "url": "http://www.keikouen.or.jp/shiny/",
    "pref": "千葉県",
    "city": "千葉市中央区",
    "category": "tokuyou",
    "serviceType": "介護老人福祉施設",
    "capacity": 80,
    "openDays": [],
    "openDaysNote": ""
  },
  {
    "id": "1270102583",
    "name": "特別養護老人ホーム　星久喜白山荘",
    "kana": "トクベツヨウゴロウジンホーム　ホシクキハクサンソウ",
    "address": "千葉市中央区星久喜町152-2",
    "lat": 35.6039994,
    "lng": 140.1493264,
    "tel": "043-209-1500",
    "url": "http://www.hakusanso.jp",
    "pref": "千葉県",
    "city": "千葉市中央区",
    "category": "tokuyou",
    "serviceType": "介護老人福祉施設",
    "capacity": 50,
    "openDays": [],
    "openDaysNote": ""
  },
  {
    "id": "1270101114",
    "name": "特別養護老人ホームあかいの郷",
    "kana": "トクベツヨウゴロウジンホームアカイノサト",
    "address": "千葉市中央区赤井町２８４番地",
    "lat": 35.5689806,
    "lng": 140.1549752,
    "tel": "043-209-1511",
    "url": "http://www.akainosato.jp",
    "pref": "千葉県",
    "city": "千葉市中央区",
    "category": "tokuyou",
    "serviceType": "介護老人福祉施設",
    "capacity": 50,
    "openDays": [],
    "openDaysNote": ""
  },
  {
    "id": "1270105529",
    "name": "特別養護老人ホームかなめ一倫荘",
    "kana": "トクベツヨウゴロウジンホームカナメイチリンソウ",
    "address": "千葉県千葉市中央区要町1-2",
    "lat": 35.6159052133121,
    "lng": 140.12094702422,
    "tel": "043-445-8610",
    "url": "www.ichirin.or.jp/",
    "pref": "千葉県",
    "city": "千葉市中央区",
    "category": "tokuyou",
    "serviceType": "介護老人福祉施設",
    "capacity": 0,
    "openDays": [],
    "openDaysNote": ""
  },
  {
    "id": "1270100728",
    "name": "特別養護老人ホームローゼンヴィラはま野",
    "kana": "トクベツヨウゴロウジンホーム　ローゼンウ゛ィラハマノ",
    "address": "千葉県千葉市中央区南生実町461-2",
    "lat": 35.5543259,
    "lng": 140.1428018,
    "tel": "043-305-0100",
    "url": "http://www.engokai.or.jp",
    "pref": "千葉県",
    "city": "千葉市中央区",
    "category": "tokuyou",
    "serviceType": "介護老人福祉施設",
    "capacity": 0,
    "openDays": [],
    "openDaysNote": ""
  },
  {
    "id": "1270103060",
    "name": "特別養護老人ホーム新千葉一倫荘",
    "kana": "トクベツヨウゴロウジンホームシンチバイチリンソウ",
    "address": "千葉県千葉市中央区新千葉３－１０－２０",
    "lat": 35.6146183,
    "lng": 140.1058625,
    "tel": "043-243-0888",
    "url": "http://www.ichirin.or.jp/",
    "pref": "千葉県",
    "city": "千葉市中央区",
    "category": "tokuyou",
    "serviceType": "介護老人福祉施設",
    "capacity": 0,
    "openDays": [],
    "openDaysNote": ""
  },
  {
    "id": "1270100330",
    "name": "特別養護老人ホーム都苑",
    "kana": "トクベツヨウゴロウジンホームミヤコエン",
    "address": "千葉県千葉市中央区川戸町２番地",
    "lat": 35.5927034,
    "lng": 140.165103,
    "tel": "043-208-3850",
    "url": "http://www.miyakoen.server-shared.com",
    "pref": "千葉県",
    "city": "千葉市中央区",
    "category": "tokuyou",
    "serviceType": "介護老人福祉施設",
    "capacity": 50,
    "openDays": [],
    "openDaysNote": ""
  },
  {
    "id": "1270601154",
    "name": "コスタリゾン千壽苑",
    "kana": "コスタリゾンセンジュエン",
    "address": "千葉県千葉市美浜区真砂2-3-3",
    "lat": 35.6402766807683,
    "lng": 140.070210723418,
    "tel": "043-270-5000",
    "url": "http://www.yuuwakai.jp/",
    "pref": "千葉県",
    "city": "千葉市美浜区",
    "category": "tokuyou",
    "serviceType": "介護老人福祉施設",
    "capacity": 0,
    "openDays": [],
    "openDaysNote": ""
  },
  {
    "id": "1270600875",
    "name": "しょうじゅ美浜",
    "kana": "ショウジュミハマ",
    "address": "千葉県千葉市美浜区幸町２－１２－２",
    "lat": 35.621344,
    "lng": 140.0922272,
    "tel": "043-243-8890",
    "url": "http://www.akaedakai.com/mihama/index.php",
    "pref": "千葉県",
    "city": "千葉市美浜区",
    "category": "tokuyou",
    "serviceType": "介護老人福祉施設",
    "capacity": 80,
    "openDays": [],
    "openDaysNote": ""
  },
  {
    "id": "1270600321",
    "name": "セイワ美浜介護老人福祉施設",
    "kana": "セイワミハマカイゴロウジンフクシシセツ",
    "address": "千葉市美浜区磯辺2-21-2",
    "lat": 35.6263893,
    "lng": 140.061389,
    "tel": "043-270-0311",
    "url": "http://seiwaen.org/seiwa_mihama",
    "pref": "千葉県",
    "city": "千葉市美浜区",
    "category": "tokuyou",
    "serviceType": "介護老人福祉施設",
    "capacity": 0,
    "openDays": [],
    "openDaysNote": ""
  },
  {
    "id": "1270601014",
    "name": "特別養護老人ホームアルマ美浜",
    "kana": "トクベツヨウゴロウジンホームアルマミハマ",
    "address": "千葉県千葉市美浜区稲毛海岸5-22-1",
    "lat": 35.63743,
    "lng": 140.0753374,
    "tel": "043-216-4004",
    "url": "",
    "pref": "千葉県",
    "city": "千葉市美浜区",
    "category": "tokuyou",
    "serviceType": "介護老人福祉施設",
    "capacity": 0,
    "openDays": [],
    "openDaysNote": ""
  },
  {
    "id": "1270600065",
    "name": "特別養護老人ホームみはま苑",
    "kana": "トクベツヨウゴロウジンホーム　ミハマエン",
    "address": "千葉市美浜区高洲3-3-12",
    "lat": 35.6262167,
    "lng": 140.0733303,
    "tel": "043-278-2031",
    "url": "https://mihamaen.jp/",
    "pref": "千葉県",
    "city": "千葉市美浜区",
    "category": "tokuyou",
    "serviceType": "介護老人福祉施設",
    "capacity": 0,
    "openDays": [],
    "openDaysNote": ""
  },
  {
    "id": "1270501396",
    "name": "特別養護老人ホーム　フローラユーワ",
    "kana": "トクベツヨウゴロウジンホーム　フローラユーワ",
    "address": "千葉市緑区高田町1083番地25",
    "lat": 35.5496675,
    "lng": 140.2221544,
    "tel": "043-300-0211",
    "url": "http://www.onjukai.com/",
    "pref": "千葉県",
    "city": "千葉市緑区",
    "category": "tokuyou",
    "serviceType": "介護老人福祉施設",
    "capacity": 80,
    "openDays": [],
    "openDaysNote": ""
  },
  {
    "id": "1270501545",
    "name": "特別養護老人ホーム　ロイヤル千葉グリーンホーム",
    "kana": "トクベツヨウゴロウジンホーム　ロイヤルチバグリーンホーム",
    "address": "千葉県千葉市緑区あすみが丘東2-21-1",
    "lat": 35.5242952,
    "lng": 140.2776324,
    "tel": "043-497-5505",
    "url": "",
    "pref": "千葉県",
    "city": "千葉市緑区",
    "category": "tokuyou",
    "serviceType": "介護老人福祉施設",
    "capacity": null,
    "openDays": [],
    "openDaysNote": ""
  },
  {
    "id": "1270501982",
    "name": "特別養護老人ホーム　緑苑",
    "kana": "トクベツヨウゴロウジンホーム　ミドリエン",
    "address": "千葉県千葉市緑区平山町2008-1",
    "lat": 35.5732847,
    "lng": 140.1816988,
    "tel": "043-497-5001",
    "url": "http://www.jishinkai.info/",
    "pref": "千葉県",
    "city": "千葉市緑区",
    "category": "tokuyou",
    "serviceType": "介護老人福祉施設",
    "capacity": 80,
    "openDays": [],
    "openDaysNote": ""
  },
  {
    "id": "1270502329",
    "name": "特別養護老人ホームアーバンライフ・ネクステ",
    "kana": "トクベツヨウゴロウジンホームアーバンライフ・ネクステ",
    "address": "千葉県千葉市緑区古市場町461-1",
    "lat": 35.5461077339494,
    "lng": 140.150116934918,
    "tel": "043-261-7077",
    "url": "http://yamanokami-fukushikai.com/",
    "pref": "千葉県",
    "city": "千葉市緑区",
    "category": "tokuyou",
    "serviceType": "介護老人福祉施設",
    "capacity": 100,
    "openDays": [],
    "openDaysNote": ""
  },
  {
    "id": "1270500539",
    "name": "特別養護老人ホームけやき園",
    "kana": "トクベツヨウゴロウジンホームケヤキエン",
    "address": "千葉県千葉市緑区鎌取町75-1",
    "lat": 35.5649252,
    "lng": 140.1793886,
    "tel": "043-300-2111",
    "url": "http://keyakien.org",
    "pref": "千葉県",
    "city": "千葉市緑区",
    "category": "tokuyou",
    "serviceType": "介護老人福祉施設",
    "capacity": 70,
    "openDays": [],
    "openDaysNote": ""
  },
  {
    "id": "1270500166",
    "name": "特別養護老人ホームときわ園",
    "kana": "トクベツヨウゴロウジンホームトキワエン",
    "address": "千葉県千葉市緑区平川町１７３１",
    "lat": 35.55609,
    "lng": 140.2388115,
    "tel": "043-291-2788",
    "url": "http://www.tokiwa-en.or.jp",
    "pref": "千葉県",
    "city": "千葉市緑区",
    "category": "tokuyou",
    "serviceType": "介護老人福祉施設",
    "capacity": 0,
    "openDays": [],
    "openDaysNote": ""
  },
  {
    "id": "1270501727",
    "name": "特別養護老人ホームときわ園(ユニット型)",
    "kana": "トクベツヨウゴロウジンホームトキワエン（ユニットガタ）",
    "address": "千葉県千葉市緑区平川町１７３１",
    "lat": 35.55609,
    "lng": 140.2388115,
    "tel": "043-291-2788",
    "url": "https://www.tokiwa-en.or.jp",
    "pref": "千葉県",
    "city": "千葉市緑区",
    "category": "tokuyou",
    "serviceType": "介護老人福祉施設",
    "capacity": 0,
    "openDays": [],
    "openDaysNote": ""
  },
  {
    "id": "1270500174",
    "name": "特別養護老人ホーム千寿苑",
    "kana": "トクベツヨウゴロウジンホームセンジュエン",
    "address": "千葉県千葉市緑区大木戸町1200－73",
    "lat": 35.5092543,
    "lng": 140.2335735,
    "tel": "043-294-6161",
    "url": "http://www.yuuwakai.jp/",
    "pref": "千葉県",
    "city": "千葉市緑区",
    "category": "tokuyou",
    "serviceType": "介護老人福祉施設",
    "capacity": 0,
    "openDays": [],
    "openDaysNote": ""
  },
  {
    "id": "1270500182",
    "name": "特別養護老人ホーム裕和園",
    "kana": "トクベツヨウゴロウジンホームユウワエン",
    "address": "千葉県千葉市緑区高田町1084番地",
    "lat": 35.5519723694635,
    "lng": 140.224527136246,
    "tel": "043-291-8595",
    "url": "http://www.onjukai.com/",
    "pref": "千葉県",
    "city": "千葉市緑区",
    "category": "tokuyou",
    "serviceType": "介護老人福祉施設",
    "capacity": 155,
    "openDays": [],
    "openDaysNote": ""
  },
  {
    "id": "1270500190",
    "name": "特別養護老人ホーム誉田園",
    "kana": "トクベツヨウゴロウジンホーム　ホンダエン",
    "address": "千葉県千葉市緑区高田町1790－1",
    "lat": 35.5665346,
    "lng": 140.2253261,
    "tel": "043-291-2524",
    "url": "http://www.uguisukai.chiba.me",
    "pref": "千葉県",
    "city": "千葉市緑区",
    "category": "tokuyou",
    "serviceType": "介護老人福祉施設",
    "capacity": 0,
    "openDays": [],
    "openDaysNote": ""
  },
  {
    "id": "1270908617",
    "name": "介護老人福祉施設　ケアホーム船橋",
    "kana": "カイゴロウジンフクシシセツ　ケアホームフナバシ",
    "address": "千葉県船橋市馬込町899-2",
    "lat": 35.7410673,
    "lng": 139.9996953,
    "tel": "047-406-6200",
    "url": "https://funabashi.tokuyou.jp/",
    "pref": "千葉県",
    "city": "船橋市",
    "category": "tokuyou",
    "serviceType": "介護老人福祉施設",
    "capacity": 0,
    "openDays": [],
    "openDaysNote": ""
  },
  {
    "id": "1270908625",
    "name": "介護老人福祉施設　ケアホーム船橋（ユニット型）",
    "kana": "カイゴロウジンフクシシセツ　ケアホームフナバシ（ユニットガタ）",
    "address": "千葉県船橋市馬込町899-2",
    "lat": 35.7410673,
    "lng": 139.9996953,
    "tel": "047-406-6200",
    "url": "https://funabashi.tokuyou.jp",
    "pref": "千葉県",
    "city": "船橋市",
    "category": "tokuyou",
    "serviceType": "介護老人福祉施設",
    "capacity": 0,
    "openDays": [],
    "openDaysNote": ""
  },
  {
    "id": "1270902131",
    "name": "介護老人福祉施設船橋健恒会ケアセンター",
    "kana": "カイゴロウジンフクシシセツフナバシケンコウカイケアセンター",
    "address": "千葉県船橋市金杉町141-2",
    "lat": 35.719189,
    "lng": 139.9994936,
    "tel": "047-429-4165",
    "url": "https://kenkohkai.org",
    "pref": "千葉県",
    "city": "船橋市",
    "category": "tokuyou",
    "serviceType": "介護老人福祉施設",
    "capacity": 0,
    "openDays": [],
    "openDaysNote": ""
  },
  {
    "id": "1270907205",
    "name": "船橋健恒会ケアセンター南館",
    "kana": "フナバシケンコウカイケアセンターミナミカン",
    "address": "千葉県船橋市金杉町139-2",
    "lat": 35.7190658523675,
    "lng": 139.999029117444,
    "tel": "047-430-8765",
    "url": "http://www.kenkohkai.com",
    "pref": "千葉県",
    "city": "船橋市",
    "category": "tokuyou",
    "serviceType": "介護老人福祉施設",
    "capacity": 0,
    "openDays": [],
    "openDaysNote": ""
  },
  {
    "id": "1270905670",
    "name": "船橋市特別養護老人ホーム朋松苑",
    "kana": "フナバシシトクベツヨウゴロウジンホームホウショウエン",
    "address": "千葉県船橋市西船2-21-12",
    "lat": 35.7129706,
    "lng": 139.969285,
    "tel": "047-410-0117",
    "url": "https://www.bikou.net",
    "pref": "千葉県",
    "city": "船橋市",
    "category": "tokuyou",
    "serviceType": "介護老人福祉施設",
    "capacity": 100,
    "openDays": [],
    "openDaysNote": ""
  },
  {
    "id": "1270907080",
    "name": "特別養護法人ホームみやぎ台南生苑",
    "kana": "トクベツヨウゴロウジンホームミヤギダイナンセイエン",
    "address": "千葉県船橋市みやぎ台4-18-1特別養護老人ホームみやぎ台南生苑 特別養護老人ホームみやぎ台南生苑",
    "lat": 35.7623672117847,
    "lng": 140.041822128836,
    "tel": "047-447-5800",
    "url": "http://www.nanseikai.or.jp",
    "pref": "千葉県",
    "city": "船橋市",
    "category": "tokuyou",
    "serviceType": "介護老人福祉施設",
    "capacity": 80,
    "openDays": [],
    "openDaysNote": ""
  },
  {
    "id": "1270900622",
    "name": "特別養護老人ホーム　さわやか苑",
    "kana": "トクベツヨウゴロウジンホーム　サワヤカエン",
    "address": "船橋市米ケ崎町６９１-１",
    "lat": 35.7104317,
    "lng": 140.0080625,
    "tel": "047-460-1200",
    "url": "http://www.sawayakaen.com/",
    "pref": "千葉県",
    "city": "船橋市",
    "category": "tokuyou",
    "serviceType": "介護老人福祉施設",
    "capacity": null,
    "openDays": [],
    "openDaysNote": ""
  },
  {
    "id": "1270906835",
    "name": "特別養護老人ホーム　さわやか苑（ユニット型）",
    "kana": "トクベツヨウゴロウジンホーム　サワヤカエン　（ユニットガタ）",
    "address": "千葉県船橋市米ヶ崎町691番地1特別養護老人ホームさわやか苑 特別養護老人ホームさわやか苑",
    "lat": 35.7104317,
    "lng": 140.0080625,
    "tel": "047-460-1200",
    "url": "http://www.sawayakaen.com/",
    "pref": "千葉県",
    "city": "船橋市",
    "category": "tokuyou",
    "serviceType": "介護老人福祉施設",
    "capacity": 0,
    "openDays": [],
    "openDaysNote": ""
  },
  {
    "id": "1270905324",
    "name": "特別養護老人ホーム　プレーゲ船橋",
    "kana": "トクベツヨウゴロウジンホーム　プレーゲフナバシ",
    "address": "千葉県船橋市金堀町195",
    "lat": 35.751201,
    "lng": 140.0636156,
    "tel": "047-410-8611",
    "url": "http://www.rikushinkai.com/",
    "pref": "千葉県",
    "city": "船橋市",
    "category": "tokuyou",
    "serviceType": "介護老人福祉施設",
    "capacity": 0,
    "openDays": [],
    "openDaysNote": ""
  },
  {
    "id": "1270906843",
    "name": "特別養護老人ホーム　ローゼンヴィラ藤原（ユニット型）",
    "kana": "トクベツヨウゴロウジンホーム　ローゼンウ゛ィラフジワラ　ユニットガタ",
    "address": "千葉県船橋市藤原８丁目17番3号",
    "lat": 35.7496411,
    "lng": 139.9823939,
    "tel": "047-430-7922",
    "url": "https://engokai.or.jp/",
    "pref": "千葉県",
    "city": "船橋市",
    "category": "tokuyou",
    "serviceType": "介護老人福祉施設",
    "capacity": 60,
    "openDays": [],
    "openDaysNote": ""
  },
  {
    "id": "1270902891",
    "name": "特別養護老人ホーム　習志野台みゆき苑",
    "kana": "トクベツヨウゴロウジンホーム　ナラシノダイミユキエン",
    "address": "千葉県船橋市習志野台4-46-7",
    "lat": 35.716615,
    "lng": 140.0460559,
    "tel": "047-461-3294",
    "url": "http://www.washu-miyukien.jp/",
    "pref": "千葉県",
    "city": "船橋市",
    "category": "tokuyou",
    "serviceType": "介護老人福祉施設",
    "capacity": 70,
    "openDays": [],
    "openDaysNote": ""
  },
  {
    "id": "1270900614",
    "name": "特別養護老人ホーム　船橋あさひ苑",
    "kana": "トクベツヨウゴロウジンホーム　フナバシアサヒエン",
    "address": "千葉県船橋市旭町４－９－１",
    "lat": 35.7332428,
    "lng": 139.9920494,
    "tel": "047-430-7781",
    "url": "http://www.jiseikai.sakura.ne.jp/",
    "pref": "千葉県",
    "city": "船橋市",
    "category": "tokuyou",
    "serviceType": "介護老人福祉施設",
    "capacity": 0,
    "openDays": [],
    "openDaysNote": ""
  },
  {
    "id": "1270910076",
    "name": "特別養護老人ホーム　船橋グリーンてらす",
    "kana": "トクベツヨウゴロウジンホーム　フナバシグリーンテラス",
    "address": "千葉県船橋市古和釜町８７１番地２",
    "lat": 35.744077,
    "lng": 140.0525155,
    "tel": "０４７－４５７－７５８６",
    "url": "https://ryokuzankai.jp/grp/funabashi/",
    "pref": "千葉県",
    "city": "船橋市",
    "category": "tokuyou",
    "serviceType": "介護老人福祉施設",
    "capacity": 0,
    "openDays": [],
    "openDaysNote": ""
  },
  {
    "id": "1270900606",
    "name": "特別養護老人ホーム　船橋百寿苑",
    "kana": "トクベツヨウゴロウジンホーム　フナバシヒャクジュエン",
    "address": "千葉県船橋市古和釜町791番地1特別養護老人ホーム　船橋百寿苑 特別養護老人ホーム　船橋百寿苑",
    "lat": 35.7409541542226,
    "lng": 140.052026588373,
    "tel": "047-469-0100",
    "url": "http://shuokai.org/",
    "pref": "千葉県",
    "city": "船橋市",
    "category": "tokuyou",
    "serviceType": "介護老人福祉施設",
    "capacity": 80,
    "openDays": [],
    "openDaysNote": ""
  },
  {
    "id": "1270900580",
    "name": "特別養護老人ホーム　船橋梨香園",
    "kana": "トクベツヨウゴロウジンホーム　フナバシリコウエン",
    "address": "千葉県船橋市車方町５４１－２",
    "lat": 35.7746081,
    "lng": 140.0768842,
    "tel": "047-457-2818",
    "url": "https://soumeikai.org/service/rikoen/",
    "pref": "千葉県",
    "city": "船橋市",
    "category": "tokuyou",
    "serviceType": "介護老人福祉施設",
    "capacity": 0,
    "openDays": [],
    "openDaysNote": ""
  },
  {
    "id": "1270909144",
    "name": "特別養護老人ホーム　太陽と緑の家藤原（ユニット型）",
    "kana": "トクベツヨウゴロウジンホーム　タイヨウトミドリノイエフジワラ（ユニットガタ）",
    "address": "千葉県船橋市藤原5-27-20",
    "lat": 35.7428879,
    "lng": 139.9807595,
    "tel": "047-436-8528",
    "url": "https://syoutoukai.jp/fujiwara/",
    "pref": "千葉県",
    "city": "船橋市",
    "category": "tokuyou",
    "serviceType": "介護老人福祉施設",
    "capacity": 40,
    "openDays": [],
    "openDaysNote": ""
  },
  {
    "id": "1270900127",
    "name": "特別養護老人ホーム　第２ワールドナーシングホーム",
    "kana": "トクベツヨウゴロウジンホーム　ダイニワールドナーシングホーム",
    "address": "千葉県船橋市飯山満町２丁目５１８番地１",
    "lat": 35.7057239,
    "lng": 140.0223837,
    "tel": "047-461-9111",
    "url": "https://www.wana.or.jp/",
    "pref": "千葉県",
    "city": "船橋市",
    "category": "tokuyou",
    "serviceType": "介護老人福祉施設",
    "capacity": 0,
    "openDays": [],
    "openDaysNote": ""
  },
  {
    "id": "1270907403",
    "name": "特別養護老人ホームアグリ・ケアホームいこいの森",
    "kana": "トクベツヨウゴロウジンホーム　アグリ・ケアホームイコイノモリ",
    "address": "千葉県船橋市大神保町７００－5アグリ・ケアホームいこいの森 アグリ・ケアホームいこいの森",
    "lat": 35.7699379723367,
    "lng": 140.055406610745,
    "tel": "047-457-3700",
    "url": "http://www.h-ikoinomori.jp/",
    "pref": "千葉県",
    "city": "船橋市",
    "category": "tokuyou",
    "serviceType": "介護老人福祉施設",
    "capacity": 0,
    "openDays": [],
    "openDaysNote": ""
  },
  {
    "id": "1270901000",
    "name": "特別養護老人ホームオレンジガーデン",
    "kana": "トクベツヨウゴロウジンホームオレンジガーデン",
    "address": "千葉県船橋市芝山7-41-2",
    "lat": 35.7169757,
    "lng": 140.0273575,
    "tel": "047-461-5356",
    "url": "http://kowakai-orange.or.jp/",
    "pref": "千葉県",
    "city": "船橋市",
    "category": "tokuyou",
    "serviceType": "介護老人福祉施設",
    "capacity": null,
    "openDays": [],
    "openDaysNote": ""
  },
  {
    "id": "1270903857",
    "name": "特別養護老人ホームさくら館",
    "kana": "トクベツヨウゴロウジンホームサクラカン",
    "address": "千葉県船橋市習志野台8-55-1",
    "lat": 35.7188453772524,
    "lng": 140.064018333168,
    "tel": "047-496-0270",
    "url": "http://naebafukushikai.com",
    "pref": "千葉県",
    "city": "船橋市",
    "category": "tokuyou",
    "serviceType": "介護老人福祉施設",
    "capacity": 0,
    "openDays": [],
    "openDaysNote": ""
  },
  {
    "id": "1270909821",
    "name": "特別養護老人ホームタムスさくらの杜船橋",
    "kana": "トクベツヨウゴロウジンホーム　タムスサクラノモリフナバシ",
    "address": "千葉県船橋市上山町３丁目672-1特別養護老人ホーム　タムスさくらの杜船橋 特別養護老人ホーム　タムスさくらの杜船橋",
    "lat": 35.737617,
    "lng": 139.991341,
    "tel": "047-401-9412",
    "url": "https://funabashi-sakuranomori.tums.jp/",
    "pref": "千葉県",
    "city": "船橋市",
    "category": "tokuyou",
    "serviceType": "介護老人福祉施設",
    "capacity": 0,
    "openDays": [],
    "openDaysNote": ""
  },
  {
    "id": "1270905688",
    "name": "特別養護老人ホームつぼい愛の郷",
    "kana": "トクベツヨウゴロウジンホームツボイアイノサト",
    "address": "千葉県船橋市坪井町１４６番地１",
    "lat": 35.7346994,
    "lng": 140.0645892,
    "tel": "047-404-4862",
    "url": "https://shushinkai.or.jp",
    "pref": "千葉県",
    "city": "船橋市",
    "category": "tokuyou",
    "serviceType": "介護老人福祉施設",
    "capacity": 0,
    "openDays": [],
    "openDaysNote": ""
  },
  {
    "id": "1270909987",
    "name": "特別養護老人ホームノテ船橋",
    "kana": "トクベツヨウゴロウジンホームノテフナバシ",
    "address": "千葉県船橋市高根町1665-2",
    "lat": 35.7216333364746,
    "lng": 140.00460759412,
    "tel": "047-404-1684",
    "url": "https://www.note.or.jp/facilities/shisetsu/tokuyou/tokuyou-note-funabashi/",
    "pref": "千葉県",
    "city": "船橋市",
    "category": "tokuyou",
    "serviceType": "介護老人福祉施設",
    "capacity": 40,
    "openDays": [],
    "openDaysNote": ""
  },
  {
    "id": "1270909995",
    "name": "特別養護老人ホームノテ船橋（ユニット型）",
    "kana": "トクベツヨウゴロウジンホームノテフナバシ（ユニットガタ）",
    "address": "千葉県船橋市高根町1665-2",
    "lat": 35.7218015728954,
    "lng": 140.004498501123,
    "tel": "047-404-1684",
    "url": "https://www.note.or.jp/facilities/shisetsu/tokuyou/tokuyou-note-funabashi/",
    "pref": "千葉県",
    "city": "船橋市",
    "category": "tokuyou",
    "serviceType": "介護老人福祉施設",
    "capacity": 40,
    "openDays": [],
    "openDaysNote": ""
  },
  {
    "id": "1270910688",
    "name": "特別養護老人ホームノテ南船橋（ユニット型）",
    "kana": "トクベツヨウゴロウジンホームノテミナミフナバシ（ユニット方ガタ）",
    "address": "千葉県船橋市若松２丁目３番５１号",
    "lat": 35.679877918443,
    "lng": 139.997499738098,
    "tel": "047-402-2400",
    "url": "https://www.talent-clip.jp/note-minamifunabashi",
    "pref": "千葉県",
    "city": "船橋市",
    "category": "tokuyou",
    "serviceType": "介護老人福祉施設",
    "capacity": null,
    "openDays": [],
    "openDaysNote": ""
  },
  {
    "id": "1270903717",
    "name": "特別養護老人ホームひかりの郷",
    "kana": "トクベツヨウゴロウジンホ-ムヒカリノサト",
    "address": "千葉県船橋市二和西6－3－20",
    "lat": 35.7483113,
    "lng": 140.0093993,
    "tel": "047-440-4165",
    "url": "",
    "pref": "千葉県",
    "city": "船橋市",
    "category": "tokuyou",
    "serviceType": "介護老人福祉施設",
    "capacity": 90,
    "openDays": [],
    "openDaysNote": ""
  },
  {
    "id": "1270907544",
    "name": "特別養護老人ホームふなばし翔裕園",
    "kana": "トクベツヨウゴロウジンホーム　フナバシ　ショウユウエン",
    "address": "千葉県船橋市旭町4丁目19番30号",
    "lat": 35.7353545659654,
    "lng": 139.995248414573,
    "tel": "047-439-1138",
    "url": "http://www.cyoujyunosato.jp/funabashi/",
    "pref": "千葉県",
    "city": "船橋市",
    "category": "tokuyou",
    "serviceType": "介護老人福祉施設",
    "capacity": 0,
    "openDays": [],
    "openDaysNote": ""
  },
  {
    "id": "1270900457",
    "name": "特別養護老人ホームローゼンヴィラ藤原",
    "kana": "トクベツヨウゴロウジンホームローゼンウ゛ィラフジワラ",
    "address": "千葉県船橋市藤原８丁目１７番３号",
    "lat": 35.7496411,
    "lng": 139.9823939,
    "tel": "047-430-7922",
    "url": "https://engokai.or.jp/",
    "pref": "千葉県",
    "city": "船橋市",
    "category": "tokuyou",
    "serviceType": "介護老人福祉施設",
    "capacity": 20,
    "openDays": [],
    "openDaysNote": ""
  },
  {
    "id": "1270900119",
    "name": "特別養護老人ホームワールドナーシングホーム",
    "kana": "トクベツヨウゴロウジンホームワールドナーシングホーム",
    "address": "千葉県船橋市飯山満町2-681",
    "lat": 35.7094013,
    "lng": 140.0213808,
    "tel": "047-467-6111",
    "url": "http://www.wana.or.jp",
    "pref": "千葉県",
    "city": "船橋市",
    "category": "tokuyou",
    "serviceType": "介護老人福祉施設",
    "capacity": 0,
    "openDays": [],
    "openDaysNote": ""
  },
  {
    "id": "1270909755",
    "name": "特別養護老人ホーム船橋こひつじ園",
    "kana": "トクベツヨウゴロウジンホームフナバシコヒツジエン",
    "address": "千葉県船橋市高根台3丁目15番1号",
    "lat": 35.7327337,
    "lng": 140.0368947,
    "tel": "047-407-1115",
    "url": "https://kohitsujikai.or.jp",
    "pref": "千葉県",
    "city": "船橋市",
    "category": "tokuyou",
    "serviceType": "介護老人福祉施設",
    "capacity": 0,
    "openDays": [],
    "openDaysNote": ""
  },
  {
    "id": "1270909680",
    "name": "特別養護老人ホーム船橋こひつじ園（ユニット型）",
    "kana": "トクベツヨウゴロウジンホームフナバシコヒツジエン（ユニットガタ）",
    "address": "千葉県船橋市高根台三丁目15番1号",
    "lat": 35.7327337,
    "lng": 140.0368947,
    "tel": "047-407-1115",
    "url": "http://www.kohitsujikai.jp/funabashikohitsuji/",
    "pref": "千葉県",
    "city": "船橋市",
    "category": "tokuyou",
    "serviceType": "介護老人福祉施設",
    "capacity": 0,
    "openDays": [],
    "openDaysNote": ""
  },
  {
    "id": "1270907304",
    "name": "特別養護老人ホーム船橋愛弘園",
    "kana": "トクベツヨウゴロウジンホーム　フナバシアイコウエン",
    "address": "千葉県船橋市高根台3丁目10-1",
    "lat": 35.7316728421434,
    "lng": 140.034321079099,
    "tel": "047-466-6377",
    "url": "http://www.aikoukai.com",
    "pref": "千葉県",
    "city": "船橋市",
    "category": "tokuyou",
    "serviceType": "介護老人福祉施設",
    "capacity": 80,
    "openDays": [],
    "openDaysNote": ""
  },
  {
    "id": "1270909151",
    "name": "特別養護老人ホーム太陽と緑の家藤原",
    "kana": "トクベツヨウゴロウジンホーム　タイヨウトミドリノイエ　フジワラ",
    "address": "千葉県船橋市藤原5-27-20",
    "lat": 35.7428879,
    "lng": 139.9807595,
    "tel": "474368528",
    "url": "https://syoutoukai.jp/",
    "pref": "千葉県",
    "city": "船橋市",
    "category": "tokuyou",
    "serviceType": "介護老人福祉施設",
    "capacity": 40,
    "openDays": [],
    "openDaysNote": ""
  },
  {
    "id": "1270905662",
    "name": "特別養護老人ホーム南三咲",
    "kana": "トクベツヨウゴロウジンホーム　ミナミミサキ",
    "address": "千葉県船橋市南三咲３－２７－１",
    "lat": 35.7388876,
    "lng": 140.0284756,
    "tel": "047－401－3666",
    "url": "https://kawachikoseikai.com/facility/minamimisaki/minamimisaki-top.html",
    "pref": "千葉県",
    "city": "船橋市",
    "category": "tokuyou",
    "serviceType": "介護老人福祉施設",
    "capacity": 80,
    "openDays": [],
    "openDaysNote": ""
  },
  {
    "id": "1270900598",
    "name": "特別養護老人ホーム南生苑",
    "kana": "トクベツヨウゴロウジンホーム　ナンセイエン",
    "address": "千葉県船橋市古和釜町４３０－１",
    "lat": 35.7434459,
    "lng": 140.061797,
    "tel": "047-457-8660",
    "url": "http://www.nanseikai.or.jp",
    "pref": "千葉県",
    "city": "船橋市",
    "category": "tokuyou",
    "serviceType": "介護老人福祉施設",
    "capacity": 0,
    "openDays": [],
    "openDaysNote": ""
  },
  {
    "id": "1278700289",
    "name": "九十九里ホーム飯倉駅前特別養護老人ホームシオン",
    "kana": "クジュウクリホームイイグラエキマエトクベツヨウゴロウジンホームシオン",
    "address": "千葉県匝瑳市飯倉95番地1",
    "lat": 35.6851136020211,
    "lng": 140.520668604399,
    "tel": "0479-85-8810",
    "url": "https://www.99-home.com/",
    "pref": "千葉県",
    "city": "匝瑳市",
    "category": "tokuyou",
    "serviceType": "介護老人福祉施設",
    "capacity": 0,
    "openDays": [],
    "openDaysNote": ""
  },
  {
    "id": "1278700297",
    "name": "九十九里ホーム飯倉駅前特別養護老人ホームユニットケアシオン",
    "kana": "クジュウクリホームイイグラエキマエトクベツヨウゴロウジンホームユニットケアシオン",
    "address": "千葉県匝瑳市飯倉95-1",
    "lat": 35.6853706745593,
    "lng": 140.521502771403,
    "tel": "0479-85-8810",
    "url": "https://www.99-home.com/",
    "pref": "千葉県",
    "city": "匝瑳市",
    "category": "tokuyou",
    "serviceType": "介護老人福祉施設",
    "capacity": 40,
    "openDays": [],
    "openDaysNote": ""
  },
  {
    "id": "1278700248",
    "name": "特別養護老人ホームユニットケア松丘園",
    "kana": "トクベツヨウゴロウジンホームユニットケアショウキュウエン",
    "address": "千葉県匝瑳市飯倉17番地1",
    "lat": 35.6872605,
    "lng": 140.5247664,
    "tel": "0479-73-2115",
    "url": "https://www.99-home.com/shoukyuen/service/shoukyuen/",
    "pref": "千葉県",
    "city": "匝瑳市",
    "category": "tokuyou",
    "serviceType": "介護老人福祉施設",
    "capacity": 0,
    "openDays": [],
    "openDaysNote": ""
  },
  {
    "id": "1275700068",
    "name": "特別養護老人ホーム花園",
    "kana": "トクベツヨウゴロウジンホームハナゾノ",
    "address": "千葉県匝瑳市野手１９８６番地１",
    "lat": 35.6628422,
    "lng": 140.5859954,
    "tel": "0479-67-2111",
    "url": "http://www.syouyoukai.or.jp",
    "pref": "千葉県",
    "city": "匝瑳市",
    "category": "tokuyou",
    "serviceType": "介護老人福祉施設",
    "capacity": 70,
    "openDays": [],
    "openDaysNote": ""
  },
  {
    "id": "1271900118",
    "name": "特別養護老人ホーム松丘園",
    "kana": "トクベツヨウゴロウジンホーム　ショウキュウエン",
    "address": "千葉県匝瑳市飯倉１７番地の１",
    "lat": 35.6872605,
    "lng": 140.5247664,
    "tel": "0479-73-2115",
    "url": "https://www.99-home.com/",
    "pref": "千葉県",
    "city": "匝瑳市",
    "category": "tokuyou",
    "serviceType": "介護老人福祉施設",
    "capacity": 0,
    "openDays": [],
    "openDaysNote": ""
  },
  {
    "id": "1278700412",
    "name": "特別養護老人ホーム太陽の家",
    "kana": "トクベツヨウゴロウジンホームタイヨウノイエ",
    "address": "千葉県匝瑳市春海6387",
    "lat": 35.7334218,
    "lng": 140.5860092,
    "tel": "0479-72-2041",
    "url": "https://www.99-home.com/",
    "pref": "千葉県",
    "city": "匝瑳市",
    "category": "tokuyou",
    "serviceType": "介護老人福祉施設",
    "capacity": 0,
    "openDays": [],
    "openDaysNote": ""
  },
  {
    "id": "1273400497",
    "name": "袖ケ浦瑞穂特別養護老人ホーム",
    "kana": "ソデガウラミズホトクベツヨウゴロウジンホーム",
    "address": "千葉県袖ケ浦市野里1452-4",
    "lat": 35.401805,
    "lng": 140.0511706,
    "tel": "0438-60-5566",
    "url": "http://care-net.biz/12/mizuho/",
    "pref": "千葉県",
    "city": "袖ケ浦市",
    "category": "tokuyou",
    "serviceType": "介護老人福祉施設",
    "capacity": 50,
    "openDays": [],
    "openDaysNote": ""
  },
  {
    "id": "1273400158",
    "name": "特別養護老人ホームサニーヒル",
    "kana": "トクベツヨウゴロウジンホーム　サニーヒル",
    "address": "千葉県袖ケ浦市久保田857-9",
    "lat": 35.4449489,
    "lng": 140.0096633,
    "tel": "0438-63-0032",
    "url": "https://www.sunny-hill.or.jp/",
    "pref": "千葉県",
    "city": "袖ケ浦市",
    "category": "tokuyou",
    "serviceType": "介護老人福祉施設",
    "capacity": 0,
    "openDays": [],
    "openDaysNote": ""
  },
  {
    "id": "1273400745",
    "name": "特別養護老人ホームサニーヒルユニット",
    "kana": "トクベツヨウゴロウジンホームサニーヒル　ユニット",
    "address": "千葉県袖ケ浦市久保田857番地9",
    "lat": 35.4449489,
    "lng": 140.0096633,
    "tel": "0438-63-0032",
    "url": "https://www.sunny-hill.or.jp/",
    "pref": "千葉県",
    "city": "袖ケ浦市",
    "category": "tokuyou",
    "serviceType": "介護老人福祉施設",
    "capacity": 0,
    "openDays": [],
    "openDaysNote": ""
  },
  {
    "id": "1273400927",
    "name": "特別養護老人ホーム蔵波",
    "kana": "トクベツヨウゴロウジンホームクラナミ",
    "address": "千葉県袖ケ浦市蔵波3037-1",
    "lat": 35.4361038,
    "lng": 140.011066,
    "tel": "0438-38-5551",
    "url": "https://eiwa.or.jp/",
    "pref": "千葉県",
    "city": "袖ケ浦市",
    "category": "tokuyou",
    "serviceType": "介護老人福祉施設",
    "capacity": 0,
    "openDays": [],
    "openDaysNote": ""
  },
  {
    "id": "1273400166",
    "name": "特別養護老人ホーム袖ケ浦菜の花苑",
    "kana": "トクベツヨウゴロウジンホームソデガウラナノハナエン",
    "address": "千葉県袖ケ浦市神納4181番20",
    "lat": 35.4378321,
    "lng": 139.9902177,
    "tel": "0438-62-6151",
    "url": "http://s-satsukikai.or.jp/nanohana/index.html",
    "pref": "千葉県",
    "city": "袖ケ浦市",
    "category": "tokuyou",
    "serviceType": "介護老人福祉施設",
    "capacity": 73,
    "openDays": [],
    "openDaysNote": ""
  },
  {
    "id": "1275100012",
    "name": "多古特別養護老人ホーム",
    "kana": "タコトクベツヨウゴロウジンホーム",
    "address": "千葉県香取郡多古町南玉造４６０－３６",
    "lat": 35.7556606,
    "lng": 140.520536,
    "tel": "0479-76-8181",
    "url": "http://hakkousou.or.jp/",
    "pref": "千葉県",
    "city": "多古町",
    "category": "tokuyou",
    "serviceType": "介護老人福祉施設",
    "capacity": 0,
    "openDays": [],
    "openDaysNote": ""
  },
  {
    "id": "1275800041",
    "name": "特別養護老人ホームおおあみ緑の里",
    "kana": "トクベツヨウゴロウジンホーム　オオアミミドリノサト",
    "address": "千葉県大網白里市柿餅268-2",
    "lat": 35.516721,
    "lng": 140.3510155,
    "tel": "0475-73-3146",
    "url": "http://www.midorinosato.org",
    "pref": "千葉県",
    "city": "大網白里市",
    "category": "tokuyou",
    "serviceType": "介護老人福祉施設",
    "capacity": null,
    "openDays": [],
    "openDaysNote": ""
  },
  {
    "id": "1279200164",
    "name": "特別養護老人ホームなのはな（ユニット型）",
    "kana": "トクベツヨウゴロウジンホームナノハナ（ユニットガタ）",
    "address": "千葉県大網白里市南横川1748-4",
    "lat": 35.5029322,
    "lng": 140.3263911,
    "tel": "0475-71-3335",
    "url": "http://hiyoshikai.com/nanohana/",
    "pref": "千葉県",
    "city": "大網白里市",
    "category": "tokuyou",
    "serviceType": "介護老人福祉施設",
    "capacity": 0,
    "openDays": [],
    "openDaysNote": ""
  },
  {
    "id": "1279200156",
    "name": "特別養護老人ホームなのはな（従来型）",
    "kana": "トクベツヨウゴロウジンホームナノハナ（ジュウライガタ）",
    "address": "千葉県大網白里市南横川1748-4",
    "lat": 35.5029322,
    "lng": 140.3263911,
    "tel": "0475-71-3335",
    "url": "http://hiyoshikai.com/nanohana/",
    "pref": "千葉県",
    "city": "大網白里市",
    "category": "tokuyou",
    "serviceType": "介護老人福祉施設",
    "capacity": 30,
    "openDays": [],
    "openDaysNote": ""
  },
  {
    "id": "1279200388",
    "name": "特別養護老人ホーム季美の森（ユニット型）",
    "kana": "トクベツヨウゴロウジンホーム　キミノモリ　ユニットガタ",
    "address": "千葉県大網白里市季美の森南1-30-8",
    "lat": 35.5515218,
    "lng": 140.2933717,
    "tel": "0475-71-2202",
    "url": "https://www.seikikai.net/",
    "pref": "千葉県",
    "city": "大網白里市",
    "category": "tokuyou",
    "serviceType": "介護老人福祉施設",
    "capacity": 0,
    "openDays": [],
    "openDaysNote": ""
  },
  {
    "id": "1279200370",
    "name": "特別養護老人ホーム季美の森（従来型）",
    "kana": "トクベツヨウゴロウジンホーム　キミノモリ　ジュウライガタ",
    "address": "千葉県大網白里市季美の森南1-30-8",
    "lat": 35.5535076015183,
    "lng": 140.292540215205,
    "tel": "0475-71-2202",
    "url": "https://www.seikikai.net/",
    "pref": "千葉県",
    "city": "大網白里市",
    "category": "tokuyou",
    "serviceType": "介護老人福祉施設",
    "capacity": 0,
    "openDays": [],
    "openDaysNote": ""
  },
  {
    "id": "1275800454",
    "name": "特別養護老人ホーム杜の街",
    "kana": "トクベツヨウゴロウジンホームモリノマチ",
    "address": "千葉県大網白里市南飯塚404-14",
    "lat": 35.5020196,
    "lng": 140.3465998,
    "tel": "0475-73-7755",
    "url": "https://huku-hokuto.jp/",
    "pref": "千葉県",
    "city": "大網白里市",
    "category": "tokuyou",
    "serviceType": "介護老人福祉施設",
    "capacity": 0,
    "openDays": [],
    "openDaysNote": ""
  },
  {
    "id": "1270701053",
    "name": "個室ユニット型特別養護老人ホーム松籟の丘",
    "kana": "コシツユニットガタトクベツヨウゴロウジンホウムショウライノオカ",
    "address": "千葉県銚子市野尻町1472番地の1",
    "lat": 35.7601015,
    "lng": 140.7482453,
    "tel": "0479-30-1010",
    "url": "https://www.choshi-jigyoudan.or.jp/shisetsu_jigyosho/shorainoka/",
    "pref": "千葉県",
    "city": "銚子市",
    "category": "tokuyou",
    "serviceType": "介護老人福祉施設",
    "capacity": 0,
    "openDays": [],
    "openDaysNote": ""
  },
  {
    "id": "1270700139",
    "name": "特別養護老人ホームさざんか園",
    "kana": "トクベツヨウゴロウジンホーム　サザンカエン",
    "address": "千葉県銚子市新町959番地4",
    "lat": 35.7314324,
    "lng": 140.7555128,
    "tel": "0479-23-8050",
    "url": "https://www.sazankaen.jp",
    "pref": "千葉県",
    "city": "銚子市",
    "category": "tokuyou",
    "serviceType": "介護老人福祉施設",
    "capacity": 0,
    "openDays": [],
    "openDaysNote": ""
  },
  {
    "id": "1270701012",
    "name": "特別養護老人ホームシオン銚子",
    "kana": "トクベツヨウゴロウジンホーム　シオンチョウシ",
    "address": "千葉県銚子市豊里台1-1044-745",
    "lat": 35.7887396,
    "lng": 140.7123812,
    "tel": "0479-33-2801",
    "url": "https://www.seiei-kai.jp/",
    "pref": "千葉県",
    "city": "銚子市",
    "category": "tokuyou",
    "serviceType": "介護老人福祉施設",
    "capacity": 0,
    "openDays": [],
    "openDaysNote": ""
  },
  {
    "id": "1270700998",
    "name": "特別養護老人ホーム松籟の丘",
    "kana": "トクベツヨウゴロウジンホームショウライノオカ",
    "address": "千葉県銚子市野尻町1472番地の1",
    "lat": 35.7599678109648,
    "lng": 140.748238269389,
    "tel": "0479-30-1010",
    "url": "https://www.choshi-jigyoudan.or.jp/shisetsu_jigyosho/shorainoka/",
    "pref": "千葉県",
    "city": "銚子市",
    "category": "tokuyou",
    "serviceType": "介護老人福祉施設",
    "capacity": 0,
    "openDays": [],
    "openDaysNote": ""
  },
  {
    "id": "1276800099",
    "name": "特別養護老人ホーム　まきの木苑",
    "kana": "トクベツヨウゴロウジンホーム　マキノキエン",
    "address": "千葉県長生郡長生村七井土下田台1789-1",
    "lat": 35.391862,
    "lng": 140.337343,
    "tel": "0475-30-0707",
    "url": "http://www.makinokien.com/",
    "pref": "千葉県",
    "city": "長生村",
    "category": "tokuyou",
    "serviceType": "介護老人福祉施設",
    "capacity": 0,
    "openDays": [],
    "openDaysNote": ""
  },
  {
    "id": "1276800198",
    "name": "特別養護老人ホーム長生き邑",
    "kana": "トクベツヨウゴロウジンホーム　ナガイキムラ",
    "address": "千葉県長生郡長生村金田２１３３番地",
    "lat": 35.3948540224428,
    "lng": 140.349318428695,
    "tel": "０４７５－３２－２５８７",
    "url": "http://www.ainotomo.or.jp",
    "pref": "千葉県",
    "city": "長生村",
    "category": "tokuyou",
    "serviceType": "介護老人福祉施設",
    "capacity": 0,
    "openDays": [],
    "openDaysNote": ""
  },
  {
    "id": "1277100036",
    "name": "特別養護老人ホーム　ザイクスヒル長南",
    "kana": "トクベツヨウゴロウジンホーム　ザイクスヒルチョウナン",
    "address": "千葉県長生郡長南町芝原3050番地",
    "lat": 35.3662618,
    "lng": 140.3021076,
    "tel": "0475-47-1313",
    "url": "http://zyx-hill.jp",
    "pref": "千葉県",
    "city": "長南町",
    "category": "tokuyou",
    "serviceType": "介護老人福祉施設",
    "capacity": 0,
    "openDays": [],
    "openDaysNote": ""
  },
  {
    "id": "1277100218",
    "name": "特別養護老人ホーム　豊栄の里",
    "kana": "トクベツヨウゴロウジンホーム　ホウエイノサト",
    "address": "千葉県長生郡長南町須田６－１",
    "lat": 35.4173284,
    "lng": 140.2600652,
    "tel": "0475-46-4488",
    "url": "http://zyx-hill.jp",
    "pref": "千葉県",
    "city": "長南町",
    "category": "tokuyou",
    "serviceType": "介護老人福祉施設",
    "capacity": 0,
    "openDays": [],
    "openDaysNote": ""
  },
  {
    "id": "1277100275",
    "name": "特別養護老人ホームほしの郷・長南（ユニット型）",
    "kana": "トクベツヨウゴロウジンホームホシノサト・チョウナン（ユニットガタ）",
    "address": "千葉県長生郡長南町茗荷沢67番地ほしの郷・長南 ほしの郷・長南",
    "lat": 35.3734449,
    "lng": 140.2333842,
    "tel": "0475-46-1010",
    "url": "http://shafuku-kyouseikai.or.jp/",
    "pref": "千葉県",
    "city": "長南町",
    "category": "tokuyou",
    "serviceType": "介護老人福祉施設",
    "capacity": null,
    "openDays": [],
    "openDaysNote": ""
  },
  {
    "id": "1277100267",
    "name": "特別養護老人ホームほしの郷・長南（従来型）",
    "kana": "トクベツヨウゴロウジンホームホシノサト・チョウナン（ジュウライガタ）",
    "address": "千葉県長生郡長南町茗荷沢67番地",
    "lat": 35.3734449,
    "lng": 140.2333842,
    "tel": "0475-46-1010",
    "url": "http://www.shafuku-kyouseikai.or.jp",
    "pref": "千葉県",
    "city": "長南町",
    "category": "tokuyou",
    "serviceType": "介護老人福祉施設",
    "capacity": null,
    "openDays": [],
    "openDaysNote": ""
  },
  {
    "id": "1277000111",
    "name": "特別養護老人ホーム　ほしの郷",
    "kana": "トクベツヨウゴロウジンホーム　ホシノサト",
    "address": "千葉県長生郡長柄町鴇谷９８２番地",
    "lat": 35.4271782,
    "lng": 140.2231455,
    "tel": "0475-35-0505",
    "url": "http://www.shafuku-kyouseikai.or.jp/",
    "pref": "千葉県",
    "city": "長柄町",
    "category": "tokuyou",
    "serviceType": "介護老人福祉施設",
    "capacity": 0,
    "openDays": [],
    "openDaysNote": ""
  },
  {
    "id": "1277000152",
    "name": "特別養護老人ホーム長柄園ユニット型",
    "kana": "トクベツヨウゴロウジンホームナガラエンユニットガタ",
    "address": "千葉県長生郡長柄町徳増659-1",
    "lat": 35.4283769,
    "lng": 140.2373209,
    "tel": "0475-36-3377",
    "url": "https://keiyou-kai.jp/",
    "pref": "千葉県",
    "city": "長柄町",
    "category": "tokuyou",
    "serviceType": "介護老人福祉施設",
    "capacity": 0,
    "openDays": [],
    "openDaysNote": ""
  },
  {
    "id": "1277000145",
    "name": "特別養護老人ホーム長柄園従来型",
    "kana": "トクベツヨウゴロウジンホームナガラエンジュウライガタ",
    "address": "千葉県長生郡長柄町徳増659-1",
    "lat": 35.4283769,
    "lng": 140.2373209,
    "tel": "0475-36-3377",
    "url": "https://keiyou-kai.jp/",
    "pref": "千葉県",
    "city": "長柄町",
    "category": "tokuyou",
    "serviceType": "介護老人福祉施設",
    "capacity": 0,
    "openDays": [],
    "openDaysNote": ""
  },
  {
    "id": "1271801076",
    "name": "介護老人福祉施設両総",
    "kana": "カイゴロウジンフクシシセツリョウソウ",
    "address": "千葉県東金市南上宿8-2",
    "lat": 35.5541314590837,
    "lng": 140.362632984795,
    "tel": "0475-55-2700",
    "url": "http://midorimi.starfree.jp/",
    "pref": "千葉県",
    "city": "東金市",
    "category": "tokuyou",
    "serviceType": "介護老人福祉施設",
    "capacity": null,
    "openDays": [],
    "openDaysNote": ""
  },
  {
    "id": "1271801522",
    "name": "特別養護老人ホームひまわり（ユニット型）",
    "kana": "トクベツヨウゴロウジンホームヒマワリ（ユニットガタ）",
    "address": "千葉県東金市砂古瀬316-1",
    "lat": 35.5167493,
    "lng": 140.3830305,
    "tel": "0475-86-6635",
    "url": "https://www.hiyoshikai.com/",
    "pref": "千葉県",
    "city": "東金市",
    "category": "tokuyou",
    "serviceType": "介護老人福祉施設",
    "capacity": 0,
    "openDays": [],
    "openDaysNote": ""
  },
  {
    "id": "1271801514",
    "name": "特別養護老人ホームひまわり（従来型）",
    "kana": "トクベツヨウゴロウジンホームヒマワリ（ジュウライガタ）",
    "address": "千葉県東金市砂古瀬316-1",
    "lat": 35.5167493,
    "lng": 140.3830305,
    "tel": "0475-86-6635",
    "url": "https://www.hiyoshikai.com/",
    "pref": "千葉県",
    "city": "東金市",
    "category": "tokuyou",
    "serviceType": "介護老人福祉施設",
    "capacity": 0,
    "openDays": [],
    "openDaysNote": ""
  },
  {
    "id": "1271800086",
    "name": "特別養護老人ホームゆりの木苑",
    "kana": "トクベツヨウゴロウジンホームユリノキエン",
    "address": "千葉県東金市家徳７５６－２",
    "lat": 35.5510455,
    "lng": 140.4014575,
    "tel": "0475-50-8111",
    "url": "https://asai-healthcare-group.jp/yurinoki/",
    "pref": "千葉県",
    "city": "東金市",
    "category": "tokuyou",
    "serviceType": "介護老人福祉施設",
    "capacity": 0,
    "openDays": [],
    "openDaysNote": ""
  },
  {
    "id": "1271801217",
    "name": "特別養護老人ホームゆりの木苑",
    "kana": "トクベツヨウゴロウジンホームユリノキエン",
    "address": "千葉県東金市家徳756-2",
    "lat": 35.5510455,
    "lng": 140.4014575,
    "tel": "0475-50-8111",
    "url": "https://asai-healthcare-group.jp/yurinoki/",
    "pref": "千葉県",
    "city": "東金市",
    "category": "tokuyou",
    "serviceType": "介護老人福祉施設",
    "capacity": 0,
    "openDays": [],
    "openDaysNote": ""
  },
  {
    "id": "1271800185",
    "name": "特別養護老人ホーム芙蓉荘",
    "kana": "トクベツヨウゴロウジンホームフヨウソウ",
    "address": "千葉県東金市家之子２０１０－３",
    "lat": 35.598881,
    "lng": 140.3766034,
    "tel": "0475-55-5700",
    "url": "http://www.seikikai.net/",
    "pref": "千葉県",
    "city": "東金市",
    "category": "tokuyou",
    "serviceType": "介護老人福祉施設",
    "capacity": 0,
    "openDays": [],
    "openDaysNote": ""
  },
  {
    "id": "1271801423",
    "name": "特別養護老人ホーム福岡福福の里",
    "kana": "トクベツヨウゴロウジンホーム　フクオカフクフクノサト",
    "address": "千葉県東金市東中島97番1",
    "lat": 35.5160303,
    "lng": 140.375285,
    "tel": "0475-71-2211",
    "url": "https://fukufuku-kai.com/",
    "pref": "千葉県",
    "city": "東金市",
    "category": "tokuyou",
    "serviceType": "介護老人福祉施設",
    "capacity": 0,
    "openDays": [],
    "openDaysNote": ""
  },
  {
    "id": "1271800961",
    "name": "特別養護老人ホーム福福の里",
    "kana": "トクベツヨウゴロウジンホーム　フクフクノサト",
    "address": "千葉県東金市極楽寺字松山１６３番１",
    "lat": 35.6268376142842,
    "lng": 140.326995319696,
    "tel": "0475-50-5511",
    "url": "https://fukufuku-kai.com/",
    "pref": "千葉県",
    "city": "東金市",
    "category": "tokuyou",
    "serviceType": "介護老人福祉施設",
    "capacity": 60,
    "openDays": [],
    "openDaysNote": ""
  },
  {
    "id": "1275300208",
    "name": "特別養護老人ホームささがわ",
    "kana": "トクベツヨウゴロウジンホームササガワ",
    "address": "千葉県香取郡東庄町笹川い4714番地188",
    "lat": 35.8410328782196,
    "lng": 140.670297338762,
    "tel": "0478-79-5800",
    "url": "https://tokuyo-sasagawa.jp/",
    "pref": "千葉県",
    "city": "東庄町",
    "category": "tokuyou",
    "serviceType": "介護老人福祉施設",
    "capacity": 60,
    "openDays": [],
    "openDaysNote": ""
  },
  {
    "id": "1275300042",
    "name": "特別養護老人ホーム藹藹",
    "kana": "トクベツヨウゴロウジンホームアイアイ",
    "address": "千葉県香取郡東庄町羽計2189番地13",
    "lat": 35.824136,
    "lng": 140.6898791,
    "tel": "0478-86-4719",
    "url": "http://yuuai-fukushi.or.jp/",
    "pref": "千葉県",
    "city": "東庄町",
    "category": "tokuyou",
    "serviceType": "介護老人福祉施設",
    "capacity": 0,
    "openDays": [],
    "openDaysNote": ""
  },
  {
    "id": "1278100027",
    "name": "特別養護老人ホーム　おもいやりの郷",
    "kana": "トクベツヨウゴロウジンホーム　オモイヤリノサト",
    "address": "千葉県南房総市白浜町滝口7216-8",
    "lat": 34.904328,
    "lng": 139.8801441,
    "tel": "0470-30-5353",
    "url": "https://omoiyarinosato.com/",
    "pref": "千葉県",
    "city": "南房総市",
    "category": "tokuyou",
    "serviceType": "介護老人福祉施設",
    "capacity": 0,
    "openDays": [],
    "openDaysNote": ""
  },
  {
    "id": "1278300072",
    "name": "特別養護老人ホーム　リブ丸山",
    "kana": "トクベツヨウゴロウジンホーム　リブマルヤマ",
    "address": "千葉県南房総市川谷302-5",
    "lat": 35.0583842,
    "lng": 139.9591797,
    "tel": "0470-46-4766",
    "url": "http://www.live-yuzu.ne.jp",
    "pref": "千葉県",
    "city": "南房総市",
    "category": "tokuyou",
    "serviceType": "介護老人福祉施設",
    "capacity": 0,
    "openDays": [],
    "openDaysNote": ""
  },
  {
    "id": "1278200124",
    "name": "特別養護老人ホーム　千倉苑",
    "kana": "トクベツヨウゴロウジンホーム　チクラエン",
    "address": "千葉県南房総市千倉町瀬戸字浜田2712番地24",
    "lat": 34.9706424,
    "lng": 139.959752,
    "tel": "0470-40-1811",
    "url": "https://www3.hp-ez.com/hp/chikuraen/page1",
    "pref": "千葉県",
    "city": "南房総市",
    "category": "tokuyou",
    "serviceType": "介護老人福祉施設",
    "capacity": null,
    "openDays": [],
    "openDaysNote": ""
  },
  {
    "id": "1277800072",
    "name": "特別養護老人ホーム「伏姫の郷」",
    "kana": "トクベツヨウゴロウジンホーム　フセヒメノサト",
    "address": "千葉県南房総市平久里下字宮崎１１２９－２",
    "lat": 35.0964917,
    "lng": 139.9135656,
    "tel": "0470-58-2011",
    "url": "https://www.freshbreeze.jp/",
    "pref": "千葉県",
    "city": "南房総市",
    "category": "tokuyou",
    "serviceType": "介護老人福祉施設",
    "capacity": 58,
    "openDays": [],
    "openDaysNote": ""
  },
  {
    "id": "1277700033",
    "name": "特別養護老人ホームアイリスの里",
    "kana": "トクベツヨウゴロウジンホームアイリスノサト",
    "address": "千葉県南房総市富浦町深名1170-1",
    "lat": 35.0532338,
    "lng": 139.8516126,
    "tel": "0470-20-4060",
    "url": "http://www.8910.or.jp",
    "pref": "千葉県",
    "city": "南房総市",
    "category": "tokuyou",
    "serviceType": "介護老人福祉施設",
    "capacity": 0,
    "openDays": [],
    "openDaysNote": ""
  },
  {
    "id": "1278400054",
    "name": "特別養護老人ホーム花の里",
    "kana": "トクベツヨウゴロウジンホームハナノサト",
    "address": "千葉県南房総市和田町松田８０８",
    "lat": 35.0265199427295,
    "lng": 139.989089065607,
    "tel": "0470-47-5193",
    "url": "http://www.ikumikai.org",
    "pref": "千葉県",
    "city": "南房総市",
    "category": "tokuyou",
    "serviceType": "介護老人福祉施設",
    "capacity": 0,
    "openDays": [],
    "openDaysNote": ""
  },
  {
    "id": "1278000060",
    "name": "特別養護老人ホーム三芳光陽園",
    "kana": "トクベツヨウゴロウジンホームミヨシコウヨウエン",
    "address": "千葉県南房総市上堀２８０",
    "lat": 35.0302178,
    "lng": 139.8890517,
    "tel": "0470-36-3211",
    "url": "http://hakukou-kai.or.jp/",
    "pref": "千葉県",
    "city": "南房総市",
    "category": "tokuyou",
    "serviceType": "介護老人福祉施設",
    "capacity": 57,
    "openDays": [],
    "openDaysNote": ""
  },
  {
    "id": "1272205335",
    "name": "特別養護老人ホームあおいの里・柏",
    "kana": "トクベツヨウゴロウジンホーム　アオイノサト・カシワ",
    "address": "千葉県柏市９８８番地１",
    "lat": 35.8480552431853,
    "lng": 139.994779803241,
    "tel": "04-7190-4001",
    "url": "http://www.aoikai.jp",
    "pref": "千葉県",
    "city": "柏市",
    "category": "tokuyou",
    "serviceType": "介護老人福祉施設",
    "capacity": 0,
    "openDays": [],
    "openDaysNote": ""
  },
  {
    "id": "1273800043",
    "name": "特別養護老人ホームアネシス",
    "kana": "トクベツヨウゴロウジンホーム　アネシス",
    "address": "千葉県柏市手賀1682番地",
    "lat": 35.8327392,
    "lng": 140.0802848,
    "tel": "04-7191-9777",
    "url": "http://anecis.nadogaya.com/",
    "pref": "千葉県",
    "city": "柏市",
    "category": "tokuyou",
    "serviceType": "介護老人福祉施設",
    "capacity": 0,
    "openDays": [],
    "openDaysNote": ""
  },
  {
    "id": "1272205186",
    "name": "特別養護老人ホームかしわ安心館",
    "kana": "トクベツヨウゴロウジンホーム　カシワアンシンカン",
    "address": "千葉県柏市藤ケ谷810番地2",
    "lat": 35.8140544,
    "lng": 140.0316741,
    "tel": "04-7190-3377",
    "url": "http://tensenkai.jp/kashiwa_anshinkan/#gsc.tab=0",
    "pref": "千葉県",
    "city": "柏市",
    "category": "tokuyou",
    "serviceType": "介護老人福祉施設",
    "capacity": 0,
    "openDays": [],
    "openDaysNote": ""
  },
  {
    "id": "1272201169",
    "name": "特別養護老人ホームハートかしわ",
    "kana": "トクベツヨウゴロウジンホーム　ハートカシワ",
    "address": "千葉県柏市高田1032番地1ハートかしわ ハートかしわ",
    "lat": 35.8766549,
    "lng": 139.9561546,
    "tel": "04-7142-8800",
    "url": "https://heart-kashiwa.jp/",
    "pref": "千葉県",
    "city": "柏市",
    "category": "tokuyou",
    "serviceType": "介護老人福祉施設",
    "capacity": 0,
    "openDays": [],
    "openDaysNote": ""
  },
  {
    "id": "1272200542",
    "name": "特別養護老人ホームひかり隣保館",
    "kana": "トクベツヨウゴロウジンホームヒカリリンポカン",
    "address": "千葉県柏市十余二175-42",
    "lat": 35.8882025,
    "lng": 139.9404972,
    "tel": "04-7131-2914",
    "url": "https://www.rinpokan.jp/",
    "pref": "千葉県",
    "city": "柏市",
    "category": "tokuyou",
    "serviceType": "介護老人福祉施設",
    "capacity": 0,
    "openDays": [],
    "openDaysNote": ""
  },
  {
    "id": "1272200997",
    "name": "特別養護老人ホームマーガレットヒル",
    "kana": "トクベツヨウゴロウジンホームマーガレットヒル",
    "address": "千葉県柏市中新宿1-8-6",
    "lat": 35.8348447,
    "lng": 139.9435739,
    "tel": "04-7171-7500",
    "url": "http://s-sanseikai.or.jp",
    "pref": "千葉県",
    "city": "柏市",
    "category": "tokuyou",
    "serviceType": "介護老人福祉施設",
    "capacity": 0,
    "openDays": [],
    "openDaysNote": ""
  },
  {
    "id": "1272201516",
    "name": "特別養護老人ホームマザーズガーデン",
    "kana": "トクベツヨウゴロウジンホームマザーズガーデン",
    "address": "千葉県柏市布施1113-2",
    "lat": 35.8870545,
    "lng": 140.0034498,
    "tel": "04-7135-1551",
    "url": "https://www.mothersgarden.jp",
    "pref": "千葉県",
    "city": "柏市",
    "category": "tokuyou",
    "serviceType": "介護老人福祉施設",
    "capacity": 0,
    "openDays": [],
    "openDaysNote": ""
  },
  {
    "id": "1272207828",
    "name": "特別養護老人ホーム温雅荘（ユニット型）",
    "kana": "トクベツヨウゴロウジンホームオンガソウ（ユニットガタ）",
    "address": "千葉県柏市十余二156番地1",
    "lat": 35.886297,
    "lng": 139.935078,
    "tel": "04-7197-6780",
    "url": "https://asukafukushikai.com/center_welfare/ongasou/",
    "pref": "千葉県",
    "city": "柏市",
    "category": "tokuyou",
    "serviceType": "介護老人福祉施設",
    "capacity": 0,
    "openDays": [],
    "openDaysNote": ""
  },
  {
    "id": "1272207810",
    "name": "特別養護老人ホーム温雅荘（従来型）",
    "kana": "トクベツヨウゴロウジンホームオンガソウ（ジュウライガタ）",
    "address": "千葉県柏市十余二156番地1",
    "lat": 35.886297,
    "lng": 139.935078,
    "tel": "04-7197-6780",
    "url": "https://asukafukushikai.com/center_welfare/ongasou/",
    "pref": "千葉県",
    "city": "柏市",
    "category": "tokuyou",
    "serviceType": "介護老人福祉施設",
    "capacity": 0,
    "openDays": [],
    "openDaysNote": ""
  },
  {
    "id": "1272200559",
    "name": "特別養護老人ホーム輝陽園",
    "kana": "トクベツヨウゴロウジンホーム　キヨウエン",
    "address": "千葉県柏市酒井根４５－１",
    "lat": 35.8213332,
    "lng": 139.9621978,
    "tel": "04-7171-0611",
    "url": "https://www.minorikai.org/",
    "pref": "千葉県",
    "city": "柏市",
    "category": "tokuyou",
    "serviceType": "介護老人福祉施設",
    "capacity": 0,
    "openDays": [],
    "openDaysNote": ""
  },
  {
    "id": "1272204825",
    "name": "特別養護老人ホーム四季の里（ユニット型）",
    "kana": "トクベツヨウゴロウジンホームシキノサト（ユニットガタ）",
    "address": "千葉県柏市松ヶ崎899番地1",
    "lat": 35.8766194,
    "lng": 139.975578,
    "tel": "04-7135-2255",
    "url": "https://www.aoikai.jp/shikinosato/",
    "pref": "千葉県",
    "city": "柏市",
    "category": "tokuyou",
    "serviceType": "介護老人福祉施設",
    "capacity": 0,
    "openDays": [],
    "openDaysNote": ""
  },
  {
    "id": "1272200567",
    "name": "特別養護老人ホーム四季の里（従来型）",
    "kana": "トクベツヨウゴロウジンホームシキノサト（ジュウライガタ）",
    "address": "千葉県柏市松ヶ崎８９９番地１",
    "lat": 35.8766194,
    "lng": 139.975578,
    "tel": "04-7135-2255",
    "url": "http://www.aoikai.jp/",
    "pref": "千葉県",
    "city": "柏市",
    "category": "tokuyou",
    "serviceType": "介護老人福祉施設",
    "capacity": 50,
    "openDays": [],
    "openDaysNote": ""
  },
  {
    "id": "1273800076",
    "name": "特別養護老人ホーム沼風苑",
    "kana": "トクベツヨウゴロウジンホーム　ショウフウエン",
    "address": "千葉県柏市箕輪５８５番地",
    "lat": 35.8538042,
    "lng": 140.0193822,
    "tel": "04-7160-6800",
    "url": "",
    "pref": "千葉県",
    "city": "柏市",
    "category": "tokuyou",
    "serviceType": "介護老人福祉施設",
    "capacity": 0,
    "openDays": [],
    "openDaysNote": ""
  },
  {
    "id": "1272204791",
    "name": "特別養護老人ホーム沼風苑新館",
    "kana": "トクベツヨウゴロウジンホウムショウフウエンシンカン",
    "address": "千葉県柏市箕輪５８５番地",
    "lat": 35.8542563841303,
    "lng": 140.019983014819,
    "tel": "04-7160-6800",
    "url": "",
    "pref": "千葉県",
    "city": "柏市",
    "category": "tokuyou",
    "serviceType": "介護老人福祉施設",
    "capacity": 0,
    "openDays": [],
    "openDaysNote": ""
  },
  {
    "id": "1272202415",
    "name": "特別養護老人ホーム新柏ヴィヴァンホーム",
    "kana": "トクベツヨウゴロウジンホームシンカシワウ゛ィウ゛ァンホーム",
    "address": "千葉県柏市中原1815番5",
    "lat": 35.8369118,
    "lng": 139.9720652,
    "tel": "04-7168-5001",
    "url": "https://www.vivant-home.jp",
    "pref": "千葉県",
    "city": "柏市",
    "category": "tokuyou",
    "serviceType": "介護老人福祉施設",
    "capacity": 100,
    "openDays": [],
    "openDaysNote": ""
  },
  {
    "id": "1272200534",
    "name": "特別養護老人ホーム藤心八幡苑",
    "kana": "トクベツヨウゴロウジンホーム　フジゴコロヤワタエン",
    "address": "千葉県柏市藤心293-2",
    "lat": 35.8243498,
    "lng": 139.9959549,
    "tel": "04-7175-8181",
    "url": "https://www.houjukai.or.jp/",
    "pref": "千葉県",
    "city": "柏市",
    "category": "tokuyou",
    "serviceType": "介護老人福祉施設",
    "capacity": null,
    "openDays": [],
    "openDaysNote": ""
  },
  {
    "id": "1272201755",
    "name": "特別養護老人ホーム柏きらりの風",
    "kana": "トクベツヨウゴロウジンホーム　カシワキラリノカゼ",
    "address": "千葉県柏市西原2-9-1",
    "lat": 35.8975221,
    "lng": 139.9204268,
    "tel": "04-7154-5201",
    "url": "https://ryofukai-kashiwa.jimdofree.com",
    "pref": "千葉県",
    "city": "柏市",
    "category": "tokuyou",
    "serviceType": "介護老人福祉施設",
    "capacity": 72,
    "openDays": [],
    "openDaysNote": ""
  },
  {
    "id": "1272203587",
    "name": "特別養護老人ホーム柏こひつじ園",
    "kana": "トクベツヨウゴロウジンホームカシワコヒツジエン",
    "address": "千葉県柏市豊四季台三丁目１番４号",
    "lat": 35.8628599,
    "lng": 139.9574386,
    "tel": "04-7141-0010",
    "url": "http://kohitsujikai.jp",
    "pref": "千葉県",
    "city": "柏市",
    "category": "tokuyou",
    "serviceType": "介護老人福祉施設",
    "capacity": 90,
    "openDays": [],
    "openDaysNote": ""
  },
  {
    "id": "1272207976",
    "name": "特別養護老人ホーム柏陽光園（ユニット型）",
    "kana": "トクベツヨウゴロウジンホームカシワヨウコウエン（ユニットガタ）",
    "address": "千葉県柏市酒井根393-1",
    "lat": 35.8260712,
    "lng": 139.9499739,
    "tel": "04-7197-2125",
    "url": "https://www.hakuju-kai.com/",
    "pref": "千葉県",
    "city": "柏市",
    "category": "tokuyou",
    "serviceType": "介護老人福祉施設",
    "capacity": null,
    "openDays": [],
    "openDaysNote": ""
  },
  {
    "id": "1272207984",
    "name": "特別養護老人ホーム柏陽光園（従来型）",
    "kana": "トクベツヨウゴロウジンホームカシワヨウコウエン（ジュウライガタ）",
    "address": "千葉県柏市酒井根393-1",
    "lat": 35.8260712,
    "lng": 139.9499739,
    "tel": "04-7197-2125",
    "url": "https://www.hakuju-kai.com/",
    "pref": "千葉県",
    "city": "柏市",
    "category": "tokuyou",
    "serviceType": "介護老人福祉施設",
    "capacity": null,
    "openDays": [],
    "openDaysNote": ""
  },
  {
    "id": "1272200526",
    "name": "特別養護老人ホーム八幡苑",
    "kana": "トクベツヨウゴロウジンホーム　ヤワタエン",
    "address": "千葉県柏市篠籠田１３９０",
    "lat": 35.8691585,
    "lng": 139.9470308,
    "tel": "04-7143-1011",
    "url": "https://www.houjukai.or.jp/",
    "pref": "千葉県",
    "city": "柏市",
    "category": "tokuyou",
    "serviceType": "介護老人福祉施設",
    "capacity": 100,
    "openDays": [],
    "openDaysNote": ""
  },
  {
    "id": "1272207505",
    "name": "特別養護老人ホーム八幡苑然然（ユニット型）",
    "kana": "トクベツヨウゴロウジンホームヤワタエンササ（ユニットガタ）",
    "address": "千葉県柏市篠籠田1386-12",
    "lat": 35.869714947017,
    "lng": 139.947656382803,
    "tel": "04-7197-3161",
    "url": "https://www.houjukai.or.jp/",
    "pref": "千葉県",
    "city": "柏市",
    "category": "tokuyou",
    "serviceType": "介護老人福祉施設",
    "capacity": 0,
    "openDays": [],
    "openDaysNote": ""
  },
  {
    "id": "1272207471",
    "name": "特別養護老人ホーム八幡苑然然（従来型）",
    "kana": "トクベツヨウゴロウジンホームヤワタエンササ（ジュウライガタ）",
    "address": "千葉県柏市篠籠田1386-12",
    "lat": 35.8697192940808,
    "lng": 139.947667111639,
    "tel": "04-7197-3161",
    "url": "https://www.houjukai.or.jp/",
    "pref": "千葉県",
    "city": "柏市",
    "category": "tokuyou",
    "serviceType": "介護老人福祉施設",
    "capacity": 0,
    "openDays": [],
    "openDaysNote": ""
  },
  {
    "id": "1272200377",
    "name": "特別養護老人ホーム望陽荘",
    "kana": "トクベツヨウゴロウジンホームボウヨウソウ",
    "address": "千葉県柏市みどり台１丁目３番１号",
    "lat": 35.9009104,
    "lng": 139.9201268,
    "tel": "04-7137-0333",
    "url": "http://www.bouyoukai.or.jp",
    "pref": "千葉県",
    "city": "柏市",
    "category": "tokuyou",
    "serviceType": "介護老人福祉施設",
    "capacity": 0,
    "openDays": [],
    "openDaysNote": ""
  },
  {
    "id": "1274200680",
    "name": "特別養護老人ホーム　さつきの里",
    "kana": "トクベツヨウゴロウジンホーム　サツキノサト",
    "address": "千葉県白井市笹塚3-25-1",
    "lat": 35.7905080904315,
    "lng": 140.053971490738,
    "tel": "047-492-1100",
    "url": "http://www.koujinkai-satsukinosato.com/",
    "pref": "千葉県",
    "city": "白井市",
    "category": "tokuyou",
    "serviceType": "介護老人福祉施設",
    "capacity": null,
    "openDays": [],
    "openDaysNote": ""
  },
  {
    "id": "1274200698",
    "name": "特別養護老人ホーム　さつきの里（ユニット型）",
    "kana": "トクベツヨウゴロウジンホーム　サツキノサト（ユニットガタ）",
    "address": "千葉県白井市笹塚3-25-1",
    "lat": 35.789925,
    "lng": 140.054347,
    "tel": "047-492-1100",
    "url": "http://kojk.jp",
    "pref": "千葉県",
    "city": "白井市",
    "category": "tokuyou",
    "serviceType": "介護老人福祉施設",
    "capacity": 0,
    "openDays": [],
    "openDaysNote": ""
  },
  {
    "id": "1274200557",
    "name": "特別養護老人ホームアンスリール",
    "kana": "トクベツヨウゴロウジンホーム　アンスリール",
    "address": "千葉県白井市神々廻１８８９－２",
    "lat": 35.8077515,
    "lng": 140.0878791,
    "tel": "047-404-6700",
    "url": "http://www.kikaen.or.jp",
    "pref": "千葉県",
    "city": "白井市",
    "category": "tokuyou",
    "serviceType": "介護老人福祉施設",
    "capacity": 0,
    "openDays": [],
    "openDaysNote": ""
  },
  {
    "id": "1274200086",
    "name": "特別養護老人ホーム菊華園",
    "kana": "トクベツヨウゴロウジンホームキッカエン",
    "address": "千葉県白井市神々廻１０３０",
    "lat": 35.8000301,
    "lng": 140.0788163,
    "tel": "047-492-8111",
    "url": "http://www.kikaen.or.jp/",
    "pref": "千葉県",
    "city": "白井市",
    "category": "tokuyou",
    "serviceType": "介護老人福祉施設",
    "capacity": 0,
    "openDays": [],
    "openDaysNote": ""
  },
  {
    "id": "1274200599",
    "name": "特別養護老人ホーム菊華園（ユニット型）",
    "kana": "トクベツヨウゴロウジンホーム　キッカエン　（ユニットガタ）",
    "address": "千葉県白井市神々廻１０３０",
    "lat": 35.8000301,
    "lng": 140.0788163,
    "tel": "047-492-8111",
    "url": "http://www.kikaen.or.jp",
    "pref": "千葉県",
    "city": "白井市",
    "category": "tokuyou",
    "serviceType": "介護老人福祉施設",
    "capacity": 0,
    "openDays": [],
    "openDaysNote": ""
  },
  {
    "id": "1276900030",
    "name": "特別養護老人ホーム　はまひるがお",
    "kana": "トクベツヨウゴロウジンホームハマヒルガオ",
    "address": "千葉県長生郡白子町古所５４２１－１",
    "lat": 35.4468796,
    "lng": 140.3839181,
    "tel": "0475-30-2755",
    "url": "https://www.hamahirugao.com/",
    "pref": "千葉県",
    "city": "白子町",
    "category": "tokuyou",
    "serviceType": "介護老人福祉施設",
    "capacity": 56,
    "openDays": [],
    "openDaysNote": ""
  },
  {
    "id": "1273500148",
    "name": "生活クラブ風の村特養ホーム八街",
    "kana": "セイカツクラブカゼノムラトクヨウホームヤチマタ",
    "address": "千葉県八街市東吉田912番地８",
    "lat": 35.6389048,
    "lng": 140.2925488,
    "tel": "043-440-0301",
    "url": "https://kazenomura.jp/",
    "pref": "千葉県",
    "city": "八街市",
    "category": "tokuyou",
    "serviceType": "介護老人福祉施設",
    "capacity": 0,
    "openDays": [],
    "openDaysNote": ""
  },
  {
    "id": "1273500130",
    "name": "特別養護老人ホームコート・エミナース",
    "kana": "トクベツヨウゴロウジンホーム　コート・エミナース",
    "address": "千葉県八街市滝台739-2",
    "lat": 35.5983826,
    "lng": 140.3177428,
    "tel": "043-445-6315",
    "url": "https://www.juyoukai.jp/",
    "pref": "千葉県",
    "city": "八街市",
    "category": "tokuyou",
    "serviceType": "介護老人福祉施設",
    "capacity": 0,
    "openDays": [],
    "openDaysNote": ""
  },
  {
    "id": "1273501070",
    "name": "特別養護老人ホームコート・エミナース（ユニット型）",
    "kana": "トクベツヨウゴロウジンホーム　コート・エミナース（ユニットガタ）",
    "address": "千葉県八街市滝台７３９－２",
    "lat": 35.5983826,
    "lng": 140.3177428,
    "tel": "043-445-6315",
    "url": "https://www.juyoukai.jp/",
    "pref": "千葉県",
    "city": "八街市",
    "category": "tokuyou",
    "serviceType": "介護老人福祉施設",
    "capacity": 0,
    "openDays": [],
    "openDaysNote": ""
  },
  {
    "id": "1273501336",
    "name": "特別養護老人ホームハーモニー",
    "kana": "トクベツヨウゴロウジンホームハーモニー",
    "address": "千葉県八街市文違73番地2",
    "lat": 35.6837348,
    "lng": 140.3198981,
    "tel": "043-442-3911",
    "url": "https://y-kaitaku.or.jp/",
    "pref": "千葉県",
    "city": "八街市",
    "category": "tokuyou",
    "serviceType": "介護老人福祉施設",
    "capacity": 47,
    "openDays": [],
    "openDaysNote": ""
  },
  {
    "id": "1273501401",
    "name": "特別養護老人ホームひだまりの里",
    "kana": "トクベツヨウゴロウジンホーム　ヒダマリノサト",
    "address": "千葉県八街市八街は2-339",
    "lat": 35.6982181,
    "lng": 140.2944392,
    "tel": "043-442-5500",
    "url": "https://www.taitokai.jp/",
    "pref": "千葉県",
    "city": "八街市",
    "category": "tokuyou",
    "serviceType": "介護老人福祉施設",
    "capacity": 90,
    "openDays": [],
    "openDaysNote": ""
  },
  {
    "id": "1273501211",
    "name": "特別養護老人ホームゆかり八街西林",
    "kana": "トクベツヨウゴロウジンホームユカリヤチマタニシバヤシ",
    "address": "千葉県八街市八街ろ113番地3",
    "lat": 35.6603474,
    "lng": 140.281858,
    "tel": "043-308-6355",
    "url": "https://rinseikai.or.jp/nishibayashi/",
    "pref": "千葉県",
    "city": "八街市",
    "category": "tokuyou",
    "serviceType": "介護老人福祉施設",
    "capacity": 0,
    "openDays": [],
    "openDaysNote": ""
  },
  {
    "id": "1273500965",
    "name": "特別養護老人ホーム空（ユニット型）",
    "kana": "トクベツヨウゴロウジンホーム　ソラ　（ユニットガタ）",
    "address": "千葉県八街市八街ほ208-23",
    "lat": 35.6699899123516,
    "lng": 140.307293900664,
    "tel": "043-440-3965",
    "url": "https://www.juyoukai.jp/",
    "pref": "千葉県",
    "city": "八街市",
    "category": "tokuyou",
    "serviceType": "介護老人福祉施設",
    "capacity": 0,
    "openDays": [],
    "openDaysNote": ""
  },
  {
    "id": "1273500957",
    "name": "特別養護老人ホーム空（従来型）",
    "kana": "トクベツヨウゴロウジンホーム　ソラ　（ジュウライガタ）",
    "address": "千葉県八街市八街ほ208-23",
    "lat": 35.6700160603147,
    "lng": 140.307175883467,
    "tel": "043-440-3965",
    "url": "https://www.juyoukai.jp/",
    "pref": "千葉県",
    "city": "八街市",
    "category": "tokuyou",
    "serviceType": "介護老人福祉施設",
    "capacity": 0,
    "openDays": [],
    "openDaysNote": ""
  },
  {
    "id": "1272602143",
    "name": "ユニット型　特別養護老人ホーム　はなみずき",
    "kana": "ユニットガタ　トクベツヨウゴロウジンホーム　ハナミズキ",
    "address": "千葉県八千代市島田台９９８－４",
    "lat": 35.7702923,
    "lng": 140.0980151,
    "tel": "０４７－４８０－５０５０",
    "url": "http://seimeikai-hanamizuki.com/",
    "pref": "千葉県",
    "city": "八千代市",
    "category": "tokuyou",
    "serviceType": "介護老人福祉施設",
    "capacity": null,
    "openDays": [],
    "openDaysNote": ""
  },
  {
    "id": "1272602085",
    "name": "ユニット型特別養護老人ホーム八千代城",
    "kana": "ユニットガタトクベツヨウゴロウジンホームヤチヨジョウ",
    "address": "千葉県八千代市保品2070-5",
    "lat": 35.7641762,
    "lng": 140.1330343,
    "tel": "047-488-8349",
    "url": "http://park3.wakwak.com/~yachiyojou/",
    "pref": "千葉県",
    "city": "八千代市",
    "category": "tokuyou",
    "serviceType": "介護老人福祉施設",
    "capacity": 0,
    "openDays": [],
    "openDaysNote": ""
  },
  {
    "id": "1272600212",
    "name": "特別養護老人ホーム　はなみずき",
    "kana": "トクベツヨウゴロウジンホーム　ハナミズキ",
    "address": "千葉県八千代市島田台９９８－４",
    "lat": 35.7702923,
    "lng": 140.0980151,
    "tel": "047-480-5050",
    "url": "http://seimeikai-hanamizuki.com/",
    "pref": "千葉県",
    "city": "八千代市",
    "category": "tokuyou",
    "serviceType": "介護老人福祉施設",
    "capacity": null,
    "openDays": [],
    "openDaysNote": ""
  },
  {
    "id": "1272600303",
    "name": "特別養護老人ホーム　八千代城",
    "kana": "トクベツヨウゴロウジンホーム　ヤチヨジョウ",
    "address": "千葉県八千代市保品2070－5",
    "lat": 35.7641762,
    "lng": 140.1330343,
    "tel": "047-488-8349",
    "url": "http://park3.wakwak.com/~yachiyojou/",
    "pref": "千葉県",
    "city": "八千代市",
    "category": "tokuyou",
    "serviceType": "介護老人福祉施設",
    "capacity": 0,
    "openDays": [],
    "openDaysNote": ""
  },
  {
    "id": "1272603729",
    "name": "特別養護老人ホームカーサ・八千代",
    "kana": "トクベツヨウゴロウジンホームカーサ・ヤチヨ",
    "address": "千葉県八千代市吉橋2700-1カーサ・八千代 カーサ・八千代",
    "lat": 35.7446664,
    "lng": 140.0736792,
    "tel": "047-450-5161",
    "url": "https://www.casa-minano.com/info/yachiyo.html",
    "pref": "千葉県",
    "city": "八千代市",
    "category": "tokuyou",
    "serviceType": "介護老人福祉施設",
    "capacity": 0,
    "openDays": [],
    "openDaysNote": ""
  },
  {
    "id": "1272600287",
    "name": "特別養護老人ホームグリーンヒル",
    "kana": "トクベツヨウゴロウジンホームグリーンヒル",
    "address": "千葉県八千代市上高野２０５８－５",
    "lat": 35.7372204,
    "lng": 140.1273064,
    "tel": "047-484-6111",
    "url": "http://www.greenhill.or.jp",
    "pref": "千葉県",
    "city": "八千代市",
    "category": "tokuyou",
    "serviceType": "介護老人福祉施設",
    "capacity": 0,
    "openDays": [],
    "openDaysNote": ""
  },
  {
    "id": "1272601806",
    "name": "特別養護老人ホームほうゆうの里",
    "kana": "トクベツヨウゴロウジンホームホウユウノサト",
    "address": "千葉県八千代市上高野157",
    "lat": 35.7446531,
    "lng": 140.1278002,
    "tel": "047-409-5100",
    "url": "https://houyukai.or.jp/",
    "pref": "千葉県",
    "city": "八千代市",
    "category": "tokuyou",
    "serviceType": "介護老人福祉施設",
    "capacity": 0,
    "openDays": [],
    "openDaysNote": ""
  },
  {
    "id": "1272602986",
    "name": "特別養護老人ホームほうゆうの里（従来型）",
    "kana": "トクベツヨウゴロウジンホームホウユウノサト（ジュウライガタ）",
    "address": "千葉県八千代市上高野157",
    "lat": 35.7445366,
    "lng": 140.1279096,
    "tel": "047-409-5100",
    "url": "http://houyukai.or.jp",
    "pref": "千葉県",
    "city": "八千代市",
    "category": "tokuyou",
    "serviceType": "介護老人福祉施設",
    "capacity": 0,
    "openDays": [],
    "openDaysNote": ""
  },
  {
    "id": "1272600295",
    "name": "特別養護老人ホーム愛生苑",
    "kana": "トクベツヨウゴロウジンホーム　アイセイエン",
    "address": "千葉県八千代市吉橋１０５９－１７",
    "lat": 35.7324944,
    "lng": 140.0753967,
    "tel": "047-459-8887",
    "url": "http://www.aiseien.or.jp",
    "pref": "千葉県",
    "city": "八千代市",
    "category": "tokuyou",
    "serviceType": "介護老人福祉施設",
    "capacity": 64,
    "openDays": [],
    "openDaysNote": ""
  },
  {
    "id": "1272600022",
    "name": "特別養護老人ホーム美香苑",
    "kana": "トクベツヨウゴロウジンホームビコウエン",
    "address": "千葉県八千代市村上６４１",
    "lat": 35.7426503,
    "lng": 140.119379,
    "tel": "047-482-8670",
    "url": "https://www.bikou.net/",
    "pref": "千葉県",
    "city": "八千代市",
    "category": "tokuyou",
    "serviceType": "介護老人福祉施設",
    "capacity": 65,
    "openDays": [],
    "openDaysNote": ""
  },
  {
    "id": "1272603596",
    "name": "特別養護老人ホーム緑が丘美香苑（ユニット型）",
    "kana": "トクベツヨウゴロウジンホームミドリガオカビコウエン（ユニットガタ）",
    "address": "千葉県八千代市緑が丘西7-13-3",
    "lat": 35.7423195982943,
    "lng": 140.073083636771,
    "tel": "047-411-8961",
    "url": "https://www.bikou.net",
    "pref": "千葉県",
    "city": "八千代市",
    "category": "tokuyou",
    "serviceType": "介護老人福祉施設",
    "capacity": 0,
    "openDays": [],
    "openDaysNote": ""
  },
  {
    "id": "1272603604",
    "name": "特別養護老人ホーム緑が丘美香苑（従来型）",
    "kana": "トクベツヨウゴロウジンホームミドリガオカビコウエン（ジュウライガタ）",
    "address": "千葉県八千代市緑が丘西7-13-3",
    "lat": 35.7413051,
    "lng": 140.0733304,
    "tel": "047－411－8961",
    "url": "https://www.bikou.net",
    "pref": "千葉県",
    "city": "八千代市",
    "category": "tokuyou",
    "serviceType": "介護老人福祉施設",
    "capacity": 0,
    "openDays": [],
    "openDaysNote": ""
  },
  {
    "id": "1273100790",
    "name": "ユニット型特別養護老人ホームつつじ苑",
    "kana": "ユニットガタトクベツヨウゴロウジンホームツツジエン",
    "address": "千葉県富津市上飯野１４２６番３",
    "lat": 35.3150188,
    "lng": 139.8673419,
    "tel": "０４３９－８７－６１０１",
    "url": "http://s-satsukikai.or.jp/tsutsuji/",
    "pref": "千葉県",
    "city": "富津市",
    "category": "tokuyou",
    "serviceType": "介護老人福祉施設",
    "capacity": 40,
    "openDays": [],
    "openDaysNote": ""
  },
  {
    "id": "1273100493",
    "name": "特別養護老人ホーム　やまぶき苑",
    "kana": "トクベツヨウゴロウジンホーム　ヤマブキエン",
    "address": "千葉県富津市豊岡１７６８番地",
    "lat": 35.1881934,
    "lng": 139.9565169,
    "tel": "0439-80-8220",
    "url": "https://www.atagokai.com/",
    "pref": "千葉県",
    "city": "富津市",
    "category": "tokuyou",
    "serviceType": "介護老人福祉施設",
    "capacity": 0,
    "openDays": [],
    "openDaysNote": ""
  },
  {
    "id": "1273100832",
    "name": "特別養護老人ホーム　望みの門富士見の里（ユニット型）",
    "kana": "トクベツヨウゴロウジンホームノゾミノモンフジミノサト（ユニットガタ）",
    "address": "千葉県富津市上総湊701",
    "lat": 35.2195906,
    "lng": 139.8775774,
    "tel": "0439-70-6500",
    "url": "https://nozominomon.or.jp",
    "pref": "千葉県",
    "city": "富津市",
    "category": "tokuyou",
    "serviceType": "介護老人福祉施設",
    "capacity": 30,
    "openDays": [],
    "openDaysNote": ""
  },
  {
    "id": "1273100154",
    "name": "特別養護老人ホームつつじ苑",
    "kana": "トクベツヨウゴロウジンホームツツジエン",
    "address": "千葉県富津市上飯野1426番3",
    "lat": 35.315016,
    "lng": 139.8673003,
    "tel": "0439-87-6101",
    "url": "http://s-satsukikai.or.jp/tsutsuji/",
    "pref": "千葉県",
    "city": "富津市",
    "category": "tokuyou",
    "serviceType": "介護老人福祉施設",
    "capacity": 50,
    "openDays": [],
    "openDaysNote": ""
  },
  {
    "id": "1273100162",
    "name": "特別養護老人ホーム金谷の里",
    "kana": "トクベツヨウゴロウジンホームキンコクノサト",
    "address": "富津市金谷1912番地2",
    "lat": 35.1759468,
    "lng": 139.8241653,
    "tel": "0439-69-8400",
    "url": "http://onseikai.com/",
    "pref": "千葉県",
    "city": "富津市",
    "category": "tokuyou",
    "serviceType": "介護老人福祉施設",
    "capacity": 0,
    "openDays": [],
    "openDaysNote": ""
  },
  {
    "id": "1273101186",
    "name": "特別養護老人ホーム玄々堂亀田の郷",
    "kana": "トクベツヨウゴロウジンホームゲンゲンドウカメダノサト",
    "address": "千葉県富津市亀田445-1",
    "lat": 35.2611491521148,
    "lng": 139.877914513375,
    "tel": "0439-27-0850",
    "url": "https://gengendo-sanukikai.jp/",
    "pref": "千葉県",
    "city": "富津市",
    "category": "tokuyou",
    "serviceType": "介護老人福祉施設",
    "capacity": 0,
    "openDays": [],
    "openDaysNote": ""
  },
  {
    "id": "1273100147",
    "name": "特別養護老人ホーム望みの門紫苑荘",
    "kana": "トクベツヨウゴロウジンホームノゾミノモンシオンソウ",
    "address": "千葉県富津市富津617-14",
    "lat": 35.3077288,
    "lng": 139.8258565,
    "tel": "0439-87-5077",
    "url": "https://www.nozominomon.or.jp/",
    "pref": "千葉県",
    "city": "富津市",
    "category": "tokuyou",
    "serviceType": "介護老人福祉施設",
    "capacity": 50,
    "openDays": [],
    "openDaysNote": ""
  },
  {
    "id": "1273100816",
    "name": "特別養護老人ホーム望みの門富士見の里（従来型多床室）",
    "kana": "トクベツヨウゴロウジンホームノゾミノモンフジミノサト（ジュウライガタタショウシツ）",
    "address": "千葉県富津市湊701",
    "lat": 35.2214384,
    "lng": 139.8743183,
    "tel": "0439-70-6500",
    "url": "https://nozominomon.or.jp/",
    "pref": "千葉県",
    "city": "富津市",
    "category": "tokuyou",
    "serviceType": "介護老人福祉施設",
    "capacity": 0,
    "openDays": [],
    "openDaysNote": ""
  },
  {
    "id": "1274000056",
    "name": "特別養護老人ホーム九十九荘",
    "kana": "トクベツヨウゴロウジンホーム　ツクモソウ",
    "address": "千葉県富里市立沢新田192-16",
    "lat": 35.7164319,
    "lng": 140.3411196,
    "tel": "0476-91-1231",
    "url": "http://www.kiyosatokai.or.jp/",
    "pref": "千葉県",
    "city": "富里市",
    "category": "tokuyou",
    "serviceType": "介護老人福祉施設",
    "capacity": 0,
    "openDays": [],
    "openDaysNote": ""
  },
  {
    "id": "1276700026",
    "name": "特別養護老人ホーム　睦沢園",
    "kana": "トクベツヨウゴロウジンホーム　ムツザワエン",
    "address": "千葉県長生郡睦沢町川島1458番地1",
    "lat": 35.3872485,
    "lng": 140.3344933,
    "tel": "0475-44-2525",
    "url": "https://keiyou-kai.jp",
    "pref": "千葉県",
    "city": "睦沢町",
    "category": "tokuyou",
    "serviceType": "介護老人福祉施設",
    "capacity": 0,
    "openDays": [],
    "openDaysNote": ""
  },
  {
    "id": "1276700133",
    "name": "特別養護老人ホームせせらぎ",
    "kana": "トクベツヨウゴロウジンホームセセラギ",
    "address": "千葉県長生郡睦沢町北山田724番地1",
    "lat": 35.3779271382704,
    "lng": 140.314935716533,
    "tel": "0475-40-3001",
    "url": "http://seseragi.chiba.jp",
    "pref": "千葉県",
    "city": "睦沢町",
    "category": "tokuyou",
    "serviceType": "介護老人福祉施設",
    "capacity": 50,
    "openDays": [],
    "openDaysNote": ""
  },
  {
    "id": "1271500280",
    "name": "特別養護老人ホーム　長生苑",
    "kana": "トクベツヨウゴロウジンホーム　チョウセイエン",
    "address": "千葉県茂原市南吉田4061-1",
    "lat": 35.470317,
    "lng": 140.3312591,
    "tel": "0475-30-9777",
    "url": "http://www.choseien.or.jp/",
    "pref": "千葉県",
    "city": "茂原市",
    "category": "tokuyou",
    "serviceType": "介護老人福祉施設",
    "capacity": 0,
    "openDays": [],
    "openDaysNote": ""
  },
  {
    "id": "1271500132",
    "name": "特別養護老人ホーム光風荘",
    "kana": "トクベツヨウゴロウジンホームコウフウソウ",
    "address": "千葉県茂原市御蔵芝３９番地1",
    "lat": 35.4749817,
    "lng": 140.3666293,
    "tel": "0475-34-9100",
    "url": "http://kofuso-to.com/",
    "pref": "千葉県",
    "city": "茂原市",
    "category": "tokuyou",
    "serviceType": "介護老人福祉施設",
    "capacity": 60,
    "openDays": [],
    "openDaysNote": ""
  },
  {
    "id": "1271500207",
    "name": "特別養護老人ホーム実恵園",
    "kana": "トクベツヨウゴロウジンホウムジッケイエン",
    "address": "千葉県茂原市法目２６７２番地１",
    "lat": 35.494697,
    "lng": 140.3255361,
    "tel": "0475-34-5808",
    "url": "http://www.jikkeien.com",
    "pref": "千葉県",
    "city": "茂原市",
    "category": "tokuyou",
    "serviceType": "介護老人福祉施設",
    "capacity": null,
    "openDays": [],
    "openDaysNote": ""
  },
  {
    "id": "1271500496",
    "name": "特別養護老人ホーム真名実恵園",
    "kana": "トクベツヨウゴロウジンホームマンナジッケイエン",
    "address": "千葉県茂原市真名675番地2",
    "lat": 35.4590028,
    "lng": 140.2540254,
    "tel": "0475-27-3356",
    "url": "http://www.jikkeien.com/",
    "pref": "千葉県",
    "city": "茂原市",
    "category": "tokuyou",
    "serviceType": "介護老人福祉施設",
    "capacity": 50,
    "openDays": [],
    "openDaysNote": ""
  },
  {
    "id": "1271500066",
    "name": "特別養護老人ホーム長生共楽園",
    "kana": "トクベツヨウゴロウジンホームチョウセイキョウラクエン",
    "address": "千葉県茂原市下永吉２８１２番地",
    "lat": 35.4000276651231,
    "lng": 140.302304007139,
    "tel": "0475-22-1888",
    "url": "http://www.choseikyorakuen.com/",
    "pref": "千葉県",
    "city": "茂原市",
    "category": "tokuyou",
    "serviceType": "介護老人福祉施設",
    "capacity": 0,
    "openDays": [],
    "openDaysNote": ""
  },
  {
    "id": "1271101832",
    "name": "ユニット型特別養護老人ホームかもめの森",
    "kana": "ユニットガタトクベツヨウゴロウジンホームカモメノモリ",
    "address": "千葉県木更津市伊豆島671番地",
    "lat": 35.3685534,
    "lng": 139.9781397,
    "tel": "0438-97-1811",
    "url": "https://mori.kisarazu-kamome.com/",
    "pref": "千葉県",
    "city": "木更津市",
    "category": "tokuyou",
    "serviceType": "介護老人福祉施設",
    "capacity": 30,
    "openDays": [],
    "openDaysNote": ""
  },
  {
    "id": "1271100255",
    "name": "特別養護老人ホーム　木更津南清苑",
    "kana": "トクベツヨウゴロウジンホーム　キサラヅナンセイエン",
    "address": "千葉県木更津市中尾623-1",
    "lat": 35.3765439,
    "lng": 139.9717036,
    "tel": "0438-30-9611",
    "url": "https://jishinkai.info/",
    "pref": "千葉県",
    "city": "木更津市",
    "category": "tokuyou",
    "serviceType": "介護老人福祉施設",
    "capacity": 0,
    "openDays": [],
    "openDaysNote": ""
  },
  {
    "id": "1271101642",
    "name": "特別養護老人ホーム　矢那梅の香園",
    "kana": "トクベツヨウゴロウジンホーム　ヤナウメノカエン",
    "address": "千葉県木更津市矢那字天神前3731番地2",
    "lat": 35.3559331,
    "lng": 139.961238,
    "tel": "0438-52-3222",
    "url": "https://www.baikokai.or.jp/",
    "pref": "千葉県",
    "city": "木更津市",
    "category": "tokuyou",
    "serviceType": "介護老人福祉施設",
    "capacity": 0,
    "openDays": [],
    "openDaysNote": ""
  },
  {
    "id": "1271101824",
    "name": "特別養護老人ホームかもめの森",
    "kana": "トクベツヨウゴロウジンホーム　カモメノモリ",
    "address": "千葉県木更津市伊豆島671番地",
    "lat": 35.3685534,
    "lng": 139.9781397,
    "tel": "0438-97-1811",
    "url": "https://mori.kisarazu-kamome.com/",
    "pref": "千葉県",
    "city": "木更津市",
    "category": "tokuyou",
    "serviceType": "介護老人福祉施設",
    "capacity": 0,
    "openDays": [],
    "openDaysNote": ""
  },
  {
    "id": "1271100727",
    "name": "特別養護老人ホームさつき園",
    "kana": "トクベツヨウゴロウジンホームサツキエン",
    "address": "千葉県木更津市長須賀1219番地",
    "lat": 35.3984662214944,
    "lng": 139.934204685458,
    "tel": "0438-23-2555",
    "url": "http://houwakai.jp",
    "pref": "千葉県",
    "city": "木更津市",
    "category": "tokuyou",
    "serviceType": "介護老人福祉施設",
    "capacity": 0,
    "openDays": [],
    "openDaysNote": ""
  },
  {
    "id": "1271102160",
    "name": "特別養護老人ホームさつき園",
    "kana": "トクベツヨウゴロウジンホームサツキエン",
    "address": "千葉県木更津市長須賀1219番地特別養護老人ホームさつき園 特別養護老人ホームさつき園",
    "lat": 35.3984628,
    "lng": 139.9341177,
    "tel": "0438-23-2555",
    "url": "http://houwakai.jp",
    "pref": "千葉県",
    "city": "木更津市",
    "category": "tokuyou",
    "serviceType": "介護老人福祉施設",
    "capacity": 0,
    "openDays": [],
    "openDaysNote": ""
  },
  {
    "id": "1271102772",
    "name": "特別養護老人ホームしおかぜ南",
    "kana": "トクベツヨウゴロウジンホームシオカゼミナミ",
    "address": "千葉県木更津市岩根2-2-2",
    "lat": 35.4090444,
    "lng": 139.9291817,
    "tel": "0438‐53‐8705",
    "url": "http://www.dojinkai-psy.jp/fukushihoujin_dojinkai/shiokaze%20minami/",
    "pref": "千葉県",
    "city": "木更津市",
    "category": "tokuyou",
    "serviceType": "介護老人福祉施設",
    "capacity": 50,
    "openDays": [],
    "openDaysNote": ""
  },
  {
    "id": "1271102087",
    "name": "特別養護老人ホーム中郷記念館（個室型）",
    "kana": "トクベツヨウゴロウジンホームナカゴウキネンカン（コシツガタ）",
    "address": "千葉県木更津市井尻951",
    "lat": 35.4049653699223,
    "lng": 139.974898749074,
    "tel": "0438-97-2721",
    "url": "https://nakago.or.jp/",
    "pref": "千葉県",
    "city": "木更津市",
    "category": "tokuyou",
    "serviceType": "介護老人福祉施設",
    "capacity": 54,
    "openDays": [],
    "openDaysNote": ""
  },
  {
    "id": "1271100248",
    "name": "特別養護老人ホーム中郷記念館多床室型",
    "kana": "トクベツヨウゴロウジンホームナカゴウキネンカンタショウシツガタ",
    "address": "千葉県木更津市井尻951",
    "lat": 35.4053757,
    "lng": 139.9750558,
    "tel": "0438-97-2721",
    "url": "https://nakago.or.jp/",
    "pref": "千葉県",
    "city": "木更津市",
    "category": "tokuyou",
    "serviceType": "介護老人福祉施設",
    "capacity": 0,
    "openDays": [],
    "openDaysNote": ""
  },
  {
    "id": "1271100230",
    "name": "特別養護老人ホーム波岡の家",
    "kana": "トクベツヨウゴロウジンホーム　ナミオカノイエ",
    "address": "木更津市畑沢南3-16-76",
    "lat": 35.3413724693093,
    "lng": 139.90867053692,
    "tel": "0438-36-4193",
    "url": "http://www.ikumikai.org/",
    "pref": "千葉県",
    "city": "木更津市",
    "category": "tokuyou",
    "serviceType": "介護老人福祉施設",
    "capacity": 0,
    "openDays": [],
    "openDaysNote": ""
  },
  {
    "id": "1271102921",
    "name": "特別養護老人ホーム波岡の家（ユニット型）",
    "kana": "トクベツヨウゴロウジンホームナミオカノイエ　ユニットガタ",
    "address": "千葉県木更津市畑沢南3-16-76",
    "lat": 35.3413523138668,
    "lng": 139.908679894968,
    "tel": "0438-36-4193",
    "url": "http://ikumikai.org/",
    "pref": "千葉県",
    "city": "木更津市",
    "category": "tokuyou",
    "serviceType": "介護老人福祉施設",
    "capacity": 0,
    "openDays": [],
    "openDaysNote": ""
  },
  {
    "id": "1271102095",
    "name": "特別養護老人ホーム木更津南清苑弐号館",
    "kana": "トクベツヨウゴロウジンホーム　キサラヅナンセイエンニゴウカン",
    "address": "千葉県木更津市中尾623-1",
    "lat": 35.3765439,
    "lng": 139.9717036,
    "tel": "0438-30-9611",
    "url": "https://jishinkai.info/",
    "pref": "千葉県",
    "city": "木更津市",
    "category": "tokuyou",
    "serviceType": "介護老人福祉施設",
    "capacity": 0,
    "openDays": [],
    "openDaysNote": ""
  },
  {
    "id": "1271301978",
    "name": "特別養護老人ホームいきいきタウンのだ",
    "kana": "トクベツヨウゴロウジンホームイキイキタウンノダ",
    "address": "千葉県野田市中根193-12",
    "lat": 35.9403474371881,
    "lng": 139.879065618385,
    "tel": "04-7157-0211",
    "url": "http://www.shafuku-pal.or.jp/",
    "pref": "千葉県",
    "city": "野田市",
    "category": "tokuyou",
    "serviceType": "介護老人福祉施設",
    "capacity": 0,
    "openDays": [],
    "openDaysNote": ""
  },
  {
    "id": "1271300673",
    "name": "特別養護老人ホームすばる",
    "kana": "トクベツヨウゴロウジンホーム　スバル",
    "address": "千葉県野田市上三ヶ尾382",
    "lat": 35.9245076,
    "lng": 139.9245222,
    "tel": "04-7138-1382",
    "url": "http://www.care-subaru.jp/",
    "pref": "千葉県",
    "city": "野田市",
    "category": "tokuyou",
    "serviceType": "介護老人福祉施設",
    "capacity": 0,
    "openDays": [],
    "openDaysNote": ""
  },
  {
    "id": "1271302125",
    "name": "特別養護老人ホームふれあいの里",
    "kana": "トクベツヨウゴロウジンホームフレアイノサト",
    "address": "千葉県野田市野田1307-1",
    "lat": 35.9523720801856,
    "lng": 139.864416271097,
    "tel": "04-7197-7272",
    "url": "http://www.housikai.or.jp/fureainosato/",
    "pref": "千葉県",
    "city": "野田市",
    "category": "tokuyou",
    "serviceType": "介護老人福祉施設",
    "capacity": 70,
    "openDays": [],
    "openDaysNote": ""
  },
  {
    "id": "1271300483",
    "name": "特別養護老人ホームほまれの家",
    "kana": "トクベツヨウゴロウジンホーム　ホマレノイエ",
    "address": "千葉県野田市目吹字二ツ塚1511-3",
    "lat": 35.9632165,
    "lng": 139.8901397,
    "tel": "04-7120-1033",
    "url": "http://shofukukai.com/",
    "pref": "千葉県",
    "city": "野田市",
    "category": "tokuyou",
    "serviceType": "介護老人福祉施設",
    "capacity": 0,
    "openDays": [],
    "openDaysNote": ""
  },
  {
    "id": "1273700045",
    "name": "特別養護老人ホーム関宿ナーシングビレッジ",
    "kana": "トクベツヨウゴロウジンホームセキヤドナーシングビレッジ",
    "address": "千葉県野田市桐ヶ作666番地",
    "lat": 36.0551717,
    "lng": 139.8117265,
    "tel": "04-7196-5588",
    "url": "http://www.hakuwakai.net/",
    "pref": "千葉県",
    "city": "野田市",
    "category": "tokuyou",
    "serviceType": "介護老人福祉施設",
    "capacity": 0,
    "openDays": [],
    "openDaysNote": ""
  },
  {
    "id": "1271301044",
    "name": "特別養護老人ホーム松葉園",
    "kana": "トクベツヨウゴロウジンホームマツバエン",
    "address": "千葉県野田市中里４３番３",
    "lat": 35.9907821,
    "lng": 139.8426151,
    "tel": "04-7128-0111",
    "url": "http://matsubaen.or.jp/",
    "pref": "千葉県",
    "city": "野田市",
    "category": "tokuyou",
    "serviceType": "介護老人福祉施設",
    "capacity": 0,
    "openDays": [],
    "openDaysNote": ""
  },
  {
    "id": "1271302042",
    "name": "特別養護老人ホーム船形サルビア荘",
    "kana": "トクベツヨウゴロウジンホームフナカタサルビアソウ",
    "address": "千葉県野田市船形297番2",
    "lat": 35.9780443828833,
    "lng": 139.866818237048,
    "tel": "04-7170-0355",
    "url": "http://enyuukai.jp/",
    "pref": "千葉県",
    "city": "野田市",
    "category": "tokuyou",
    "serviceType": "介護老人福祉施設",
    "capacity": 0,
    "openDays": [],
    "openDaysNote": ""
  },
  {
    "id": "1271301606",
    "name": "特別養護老人ホーム椿寿の里",
    "kana": "トクベツヨウゴロウジンホームチンジュノサト",
    "address": "千葉県野田市山崎2723-3",
    "lat": 35.9260457,
    "lng": 139.901202,
    "tel": "04-7123-1166",
    "url": "http://www.housikai.or.jp/chinju/index.html",
    "pref": "千葉県",
    "city": "野田市",
    "category": "tokuyou",
    "serviceType": "介護老人福祉施設",
    "capacity": 70,
    "openDays": [],
    "openDaysNote": ""
  },
  {
    "id": "1271301861",
    "name": "特別養護老人ホーム鶴寿園（ユニット型）",
    "kana": "トクベツヨウゴロウジンホームカクジュエン（ユニットガタ）",
    "address": "千葉県野田市鶴奉２８０番地",
    "lat": 35.9604806,
    "lng": 139.8839237,
    "tel": "04-7124-4613",
    "url": "http://nodamidorikai.jp/",
    "pref": "千葉県",
    "city": "野田市",
    "category": "tokuyou",
    "serviceType": "介護老人福祉施設",
    "capacity": 0,
    "openDays": [],
    "openDaysNote": ""
  },
  {
    "id": "1271300194",
    "name": "特別養護老人ホーム鶴寿園（従来型）",
    "kana": "トクベツヨウゴロウジンホームカクジュエン（ジュウライガタ）",
    "address": "千葉県野田市鶴奉２７０番地の５",
    "lat": 35.9600834,
    "lng": 139.884707,
    "tel": "04-7124-4613",
    "url": "http://nodamidorikai.jp/",
    "pref": "千葉県",
    "city": "野田市",
    "category": "tokuyou",
    "serviceType": "介護老人福祉施設",
    "capacity": 0,
    "openDays": [],
    "openDaysNote": ""
  },
  {
    "id": "1271300160",
    "name": "特別養護老人ホーム福寿園",
    "kana": "トクベツヨウゴロウジンホームフクジュエン",
    "address": "千葉県野田市金杉2325番地１",
    "lat": 35.963133,
    "lng": 139.8796628,
    "tel": "04-7125-8871",
    "url": "http://www.fukujuen.org/",
    "pref": "千葉県",
    "city": "野田市",
    "category": "tokuyou",
    "serviceType": "介護老人福祉施設",
    "capacity": 83,
    "openDays": [],
    "openDaysNote": ""
  },
  {
    "id": "1272500321",
    "name": "特別養護老人ホームあざみ苑",
    "kana": "トクベツヨウゴロウジンホームアザミエン",
    "address": "千葉県流山市野々下2丁目488番地5",
    "lat": 35.8586487,
    "lng": 139.932463,
    "tel": "04-7141-2200",
    "url": "http://www.nagareyamaakebonokai.or.jp/azamien/top.html",
    "pref": "千葉県",
    "city": "流山市",
    "category": "tokuyou",
    "serviceType": "介護老人福祉施設",
    "capacity": 0,
    "openDays": [],
    "openDaysNote": ""
  },
  {
    "id": "1272502434",
    "name": "特別養護老人ホームでいご",
    "kana": "トクベツヨウゴロウジンホームデイゴ",
    "address": "千葉県流山市こうのす台634-1",
    "lat": 35.9102873915096,
    "lng": 139.918969294618,
    "tel": "04-7153-3377",
    "url": "http://www.nagareyamaakebonokai.or.jp/deigo/top.html",
    "pref": "千葉県",
    "city": "流山市",
    "category": "tokuyou",
    "serviceType": "介護老人福祉施設",
    "capacity": 0,
    "openDays": [],
    "openDaysNote": ""
  },
  {
    "id": "1272501022",
    "name": "特別養護老人ホームはまなす苑",
    "kana": "トクベツヨウゴロウジンホームハマナスエン",
    "address": "千葉県流山市こうのす台269番地1",
    "lat": 35.9090482,
    "lng": 139.9191792,
    "tel": "04-7155-2222",
    "url": "http://www.nagareyamaakebonokai.or.jp/hamanasuen/top.html",
    "pref": "千葉県",
    "city": "流山市",
    "category": "tokuyou",
    "serviceType": "介護老人福祉施設",
    "capacity": 0,
    "openDays": [],
    "openDaysNote": ""
  },
  {
    "id": "1272500313",
    "name": "特別養護老人ホームリバーパレス流山",
    "kana": "トクベツヨウゴロウジンホーム　リバーパレスナガレヤマ",
    "address": "千葉県流山市西深井１４２",
    "lat": 35.9075843,
    "lng": 139.8934733,
    "tel": "04-7152-1211",
    "url": "http://kyokuyukai.or.jp/",
    "pref": "千葉県",
    "city": "流山市",
    "category": "tokuyou",
    "serviceType": "介護老人福祉施設",
    "capacity": 100,
    "openDays": [],
    "openDaysNote": ""
  },
  {
    "id": "1272502681",
    "name": "特別養護老人ホーム花のいろ",
    "kana": "トクベツヨウゴロウジンホームハナノイロ",
    "address": "千葉県流山市中野久木421",
    "lat": 35.8940103426882,
    "lng": 139.899202940028,
    "tel": "04-7197-1237",
    "url": "http://www.akagimanyo.com/",
    "pref": "千葉県",
    "city": "流山市",
    "category": "tokuyou",
    "serviceType": "介護老人福祉施設",
    "capacity": 0,
    "openDays": [],
    "openDaysNote": ""
  },
  {
    "id": "1272502913",
    "name": "特別養護老人ホーム慶櫻美原の森（ユニット型）",
    "kana": "トクベツヨウゴロウジンホームケイオウミハラノモリ（ユニットガタ）",
    "address": "千葉県流山市美原3-46",
    "lat": 35.9022081,
    "lng": 139.9015076,
    "tel": "04-7170-0802",
    "url": "https://www.shakaihukusihoujinnmusashinokai.com/",
    "pref": "千葉県",
    "city": "流山市",
    "category": "tokuyou",
    "serviceType": "介護老人福祉施設",
    "capacity": 60,
    "openDays": [],
    "openDaysNote": ""
  },
  {
    "id": "1272502939",
    "name": "特別養護老人ホーム慶櫻美原の森（従来型）",
    "kana": "トクベツヨウゴロウジンホームケイオウミハラノモリ（ジュウライガタ）",
    "address": "千葉県流山市美原3-46",
    "lat": 35.9022081,
    "lng": 139.9015076,
    "tel": "04-7170-0802",
    "url": "https://www.shakaihukusihoujinnmusashinokai.com/",
    "pref": "千葉県",
    "city": "流山市",
    "category": "tokuyou",
    "serviceType": "介護老人福祉施設",
    "capacity": 40,
    "openDays": [],
    "openDaysNote": ""
  },
  {
    "id": "1272501824",
    "name": "特別養護老人ホーム月の船",
    "kana": "トクベツヨウゴロウジンホームツキノフネ",
    "address": "千葉県流山市野々下1-292",
    "lat": 35.8615174,
    "lng": 139.9253664,
    "tel": "04-7197-2122",
    "url": "http://www.akagimanyo.com/",
    "pref": "千葉県",
    "city": "流山市",
    "category": "tokuyou",
    "serviceType": "介護老人福祉施設",
    "capacity": 0,
    "openDays": [],
    "openDaysNote": ""
  },
  {
    "id": "1272503507",
    "name": "特別養護老人ホーム時の花",
    "kana": "トクベツヨウゴロウジンホームトキノハナ",
    "address": "千葉県流山市流山9-500-31",
    "lat": 35.8480914,
    "lng": 139.9014476,
    "tel": "04-7128-6585",
    "url": "http://www.akagimanyo.com./",
    "pref": "千葉県",
    "city": "流山市",
    "category": "tokuyou",
    "serviceType": "介護老人福祉施設",
    "capacity": 0,
    "openDays": [],
    "openDaysNote": ""
  },
  {
    "id": "1272503051",
    "name": "特別養護老人ホーム太陽の里おおたかの森（ユニット型）",
    "kana": "トクベツヨウゴロウジンホームタイヨウノサトオオタカノモリ（ユニットガタ）",
    "address": "千葉県流山市西初石4丁目368番3",
    "lat": 35.8787326480113,
    "lng": 139.913389897484,
    "tel": "04-7197-3553",
    "url": "https://www.taiyonosato.net",
    "pref": "千葉県",
    "city": "流山市",
    "category": "tokuyou",
    "serviceType": "介護老人福祉施設",
    "capacity": 0,
    "openDays": [],
    "openDaysNote": ""
  },
  {
    "id": "1272503044",
    "name": "特別養護老人ホーム太陽の里おおたかの森（従来型）",
    "kana": "トクベツヨウゴロウジンホームタイヨウノサトオオタカノモリ（ジュウライガタ）",
    "address": "千葉県流山市西初石4-368-3",
    "lat": 35.8792977,
    "lng": 139.9137815,
    "tel": "04-7197-3553",
    "url": "https://www.taiyonosato.net",
    "pref": "千葉県",
    "city": "流山市",
    "category": "tokuyou",
    "serviceType": "介護老人福祉施設",
    "capacity": 0,
    "openDays": [],
    "openDaysNote": ""
  },
  {
    "id": "1272502228",
    "name": "特別養護老人ホーム美晴らしの里",
    "kana": "トクベツヨウゴロウジンホーム　ミハラシノサト",
    "address": "千葉県流山市名都借１１２６番地",
    "lat": 35.8495979,
    "lng": 139.9442317,
    "tel": "04-7141-8822",
    "url": "https://www.miharashinosato.jp/",
    "pref": "千葉県",
    "city": "流山市",
    "category": "tokuyou",
    "serviceType": "介護老人福祉施設",
    "capacity": 0,
    "openDays": [],
    "openDaysNote": ""
  },
  {
    "id": "1272501543",
    "name": "特別養護老人ホーム流山こまぎ安心館",
    "kana": "トクベツヨウゴロウジンホーム　ナガレヤマコマギアンシンカン",
    "address": "千葉県流山市駒木649番地の3",
    "lat": 35.8852971,
    "lng": 139.9345035,
    "tel": "04-7178-5556",
    "url": "http://www.tensenkai.jp/komagi_anshinkan/",
    "pref": "千葉県",
    "city": "流山市",
    "category": "tokuyou",
    "serviceType": "介護老人福祉施設",
    "capacity": 0,
    "openDays": [],
    "openDaysNote": ""
  },
  {
    "id": "1272501535",
    "name": "特別養護老人ホーム流山こまぎ安心館Ⅱ",
    "kana": "トクベツヨウゴロウジンホーム　ナガレヤマコマギアンシンカン　ツー",
    "address": "千葉県流山市駒木649番地の3",
    "lat": 35.8852971,
    "lng": 139.9345035,
    "tel": "04-7178-5556",
    "url": "http://www.tensenkai.jp/komagi_anshinkan/",
    "pref": "千葉県",
    "city": "流山市",
    "category": "tokuyou",
    "serviceType": "介護老人福祉施設",
    "capacity": 0,
    "openDays": [],
    "openDaysNote": ""
  }
]