[
  {
    "id": "3071300911",
    "name": "介護老人福祉施設やまぼうし",
    "kana": "カイゴロウジンフクシシセツヤマボウシ",
    "address": "和歌山県伊都郡かつらぎ町丁ノ町2385-1",
    "lat": 53.41291,
    "lng": -8.24388999999996,
    "tel": "0736-22-2020",
    "url": "https://kiwayamaboushi.jimdo.com/",
    "pref": "和歌山県",
    "city": "かつらぎ町",
    "category": "tokuyou",
    "serviceType": "介護老人福祉施設",
    "capacity": 100,
    "openDays": [],
    "openDaysNote": ""
  },
  {
    "id": "3071300085",
    "name": "特別養護老人ホーム　愛光園",
    "kana": "トクベツヨウゴロウジンホーム　アイコウエン",
    "address": "和歌山県伊都郡かつらぎ町佐野１４０１－２",
    "lat": 34.2866657,
    "lng": 135.4849548,
    "tel": "0736-22-6057",
    "url": "http://aiko-en.or.jp/",
    "pref": "和歌山県",
    "city": "かつらぎ町",
    "category": "tokuyou",
    "serviceType": "介護老人福祉施設",
    "capacity": 0,
    "openDays": [],
    "openDaysNote": ""
  },
  {
    "id": "3071300903",
    "name": "特別養護老人ホームあさひ",
    "kana": "トクベツヨウゴロウジンホームアサヒ",
    "address": "和歌山県伊都郡かつらぎ町大字西飯降字白田谷461番6",
    "lat": 34.3179114040994,
    "lng": 135.52572397918,
    "tel": "0736-23-3010",
    "url": "http://asahi.or.jp/index.html",
    "pref": "和歌山県",
    "city": "かつらぎ町",
    "category": "tokuyou",
    "serviceType": "介護老人福祉施設",
    "capacity": 0,
    "openDays": [],
    "openDaysNote": ""
  },
  {
    "id": "3071300762",
    "name": "特別養護老人ホーム第2愛光園",
    "kana": "トクベツヨウゴロウジンホームダイ２アイコウエン",
    "address": "和歌山県伊都郡かつらぎ町佐野955-1",
    "lat": 34.2872239,
    "lng": 135.4839354,
    "tel": "0736-26-7366",
    "url": "https://www.aiko-en.or.jp/",
    "pref": "和歌山県",
    "city": "かつらぎ町",
    "category": "tokuyou",
    "serviceType": "介護老人福祉施設",
    "capacity": 80,
    "openDays": [],
    "openDaysNote": ""
  },
  {
    "id": "3072400082",
    "name": "特別養護老人ホーム　はまゆう園",
    "kana": "トクベツヨウゴロウジンホーム　ハマユウエン",
    "address": "和歌山県西牟婁郡すさみ町周参見２３６２－１",
    "lat": 33.5555532,
    "lng": 135.4959235,
    "tel": "0739-55-3484",
    "url": "http://care-net.biz/30/hamayuen/",
    "pref": "和歌山県",
    "city": "すさみ町",
    "category": "tokuyou",
    "serviceType": "介護老人福祉施設",
    "capacity": 50,
    "openDays": [],
    "openDaysNote": ""
  },
  {
    "id": "3072100625",
    "name": "介護老人福祉施設　虹",
    "kana": "カイゴロウジンフクシシセツ　ニジ",
    "address": "和歌山県日高郡みなべ町埴田1450番地1",
    "lat": 33.7514575,
    "lng": 135.327853,
    "tel": "0739-84-2551",
    "url": "http://www.seieikai.or.jp",
    "pref": "和歌山県",
    "city": "みなべ町",
    "category": "tokuyou",
    "serviceType": "介護老人福祉施設",
    "capacity": 50,
    "openDays": [],
    "openDaysNote": ""
  },
  {
    "id": "3072100146",
    "name": "特別養護老人ホームときわ寮梅の里",
    "kana": "トクベツヨウゴロウジンホウムトキワリョウウメノサト",
    "address": "和歌山県日高郡みなべ町滝４３７番地",
    "lat": 33.841553,
    "lng": 135.3493814,
    "tel": "0739-75-2618",
    "url": "http://www.tokiwa-roujin.jp/",
    "pref": "和歌山県",
    "city": "みなべ町",
    "category": "tokuyou",
    "serviceType": "介護老人福祉施設",
    "capacity": 0,
    "openDays": [],
    "openDaysNote": ""
  },
  {
    "id": "3072100203",
    "name": "特別養護老人ホーム　カルフール・ド・ルポ印南",
    "kana": "トクベツヨウゴロウジンホーム　カルフール・ド・ルポイナミ",
    "address": "和歌山県日高郡印南町山口150番地1",
    "lat": 33.8219697,
    "lng": 135.2215916,
    "tel": "0738-42-8100",
    "url": "http://carrefour-inami.jp/",
    "pref": "和歌山県",
    "city": "印南町",
    "category": "tokuyou",
    "serviceType": "介護老人福祉施設",
    "capacity": 0,
    "openDays": [],
    "openDaysNote": ""
  },
  {
    "id": "3072100807",
    "name": "特別養護老人ホーム　カルフール・ド・ルポ印南　ヌーヴォ",
    "kana": "トクベツヨウゴロウジンホーム　カルフール・ド・ルポイナミ　ヌーゔォ",
    "address": "和歌山県日高郡印南町山口150番地1",
    "lat": 33.8219697,
    "lng": 135.2215916,
    "tel": "0738-42-8200",
    "url": "http://carrefour-inami.jp/index.html",
    "pref": "和歌山県",
    "city": "印南町",
    "category": "tokuyou",
    "serviceType": "介護老人福祉施設",
    "capacity": 0,
    "openDays": [],
    "openDaysNote": ""
  },
  {
    "id": "3071400588",
    "name": "介護老人福祉施設　緑風苑",
    "kana": "カイゴロウジンフクシシセツ　リョクフウエン",
    "address": "海南市孟子字波免709-1",
    "lat": 34.1903697657019,
    "lng": 135.299867699506,
    "tel": "073-486-0788",
    "url": "http://ryoku.tokuyou.jp/",
    "pref": "和歌山県",
    "city": "海南市",
    "category": "tokuyou",
    "serviceType": "介護老人福祉施設",
    "capacity": 100,
    "openDays": [],
    "openDaysNote": ""
  },
  {
    "id": "3071100121",
    "name": "特別養護老人ホーム　かぐのみ苑",
    "kana": "トクベツヨウゴロウジンホーム　カグノミエン",
    "address": "和歌山県海南市下津町丸田１１１１－１",
    "lat": 34.1340373,
    "lng": 135.1573522,
    "tel": "073-492-5800",
    "url": "",
    "pref": "和歌山県",
    "city": "海南市",
    "category": "tokuyou",
    "serviceType": "介護老人福祉施設",
    "capacity": 0,
    "openDays": [],
    "openDaysNote": ""
  },
  {
    "id": "3071400075",
    "name": "特別養護老人ホーム天美苑",
    "kana": "トクベツヨウゴロウジンホーム　テンビエン",
    "address": "海南市七山９６４－１",
    "lat": 34.1961325,
    "lng": 135.3088888,
    "tel": "073-486-0114",
    "url": "http://www.tenbien.jp/",
    "pref": "和歌山県",
    "city": "海南市",
    "category": "tokuyou",
    "serviceType": "介護老人福祉施設",
    "capacity": 0,
    "openDays": [],
    "openDaysNote": ""
  },
  {
    "id": "3071401123",
    "name": "特別養護老人ホーム天美苑",
    "kana": "トクベツヨウゴロウジンホーム　テンビエン",
    "address": "和歌山県海南市七山964-1",
    "lat": 34.196443090091,
    "lng": 135.309344775533,
    "tel": "073-486-0114",
    "url": "http://www.tenbien.jp/",
    "pref": "和歌山県",
    "city": "海南市",
    "category": "tokuyou",
    "serviceType": "介護老人福祉施設",
    "capacity": 0,
    "openDays": [],
    "openDaysNote": ""
  },
  {
    "id": "3071500734",
    "name": "特別養護老人ホーム南風園",
    "kana": "トクベツヨウゴロウジンホームナンプウエン",
    "address": "和歌山県海南市木津２３３番地４０",
    "lat": 34.1548732,
    "lng": 135.2758452,
    "tel": "073-487-3616",
    "url": "https://www.wfj.or.jp",
    "pref": "和歌山県",
    "city": "海南市",
    "category": "tokuyou",
    "serviceType": "介護老人福祉施設",
    "capacity": 50,
    "openDays": [],
    "openDaysNote": ""
  },
  {
    "id": "3071200244",
    "name": "特別養護老人ホーム皆楽園",
    "kana": "トクベツヨウゴロウジンホームカイラクエン",
    "address": "和歌山県岩出市西国分668番地",
    "lat": 34.2651772,
    "lng": 135.330754,
    "tel": "0736-63-0250",
    "url": "https://kairakuen.or.jp/",
    "pref": "和歌山県",
    "city": "岩出市",
    "category": "tokuyou",
    "serviceType": "介護老人福祉施設",
    "capacity": 90,
    "openDays": [],
    "openDaysNote": ""
  },
  {
    "id": "3071800308",
    "name": "特別養護老人ホーム岩出憩い園",
    "kana": "トクベツヨウゴロウジンホームイワデイコイエン",
    "address": "和歌山県岩出市溝川22番地",
    "lat": 34.2550532,
    "lng": 135.3257381,
    "tel": "0736-67-2012",
    "url": "http://www.ikoien.com/",
    "pref": "和歌山県",
    "city": "岩出市",
    "category": "tokuyou",
    "serviceType": "介護老人福祉施設",
    "capacity": 70,
    "openDays": [],
    "openDaysNote": ""
  },
  {
    "id": "3071700243",
    "name": "特別養護老人ホーム　ヴィラももの里",
    "kana": "トクベツヨウゴロウジンホーム　ウ゛ィラモモノサト",
    "address": "和歌山県紀の川市桃山町最上８７３",
    "lat": 34.2218519,
    "lng": 135.3506587,
    "tel": "0736-67-7777",
    "url": "https://shokyukai.jp/",
    "pref": "和歌山県",
    "city": "紀の川市",
    "category": "tokuyou",
    "serviceType": "介護老人福祉施設",
    "capacity": 0,
    "openDays": [],
    "openDaysNote": ""
  },
  {
    "id": "3071700532",
    "name": "特別養護老人ホーム　きしがわ園",
    "kana": "トクベツヨウゴロウジンホーム　キシガワエン",
    "address": "紀の川市貴志川町尼寺359",
    "lat": 34.2260942657422,
    "lng": 135.312040613939,
    "tel": "0736-65-1111",
    "url": "https://seianna.jp",
    "pref": "和歌山県",
    "city": "紀の川市",
    "category": "tokuyou",
    "serviceType": "介護老人福祉施設",
    "capacity": 0,
    "openDays": [],
    "openDaysNote": ""
  },
  {
    "id": "3071200327",
    "name": "特別養護老人ホーム　栄寿苑",
    "kana": "トクベツヨウゴロウジンホーム　エイジュエン",
    "address": "和歌山県紀の川市麻生津中字飯盛1279番地",
    "lat": 34.248245,
    "lng": 135.4621488,
    "tel": "0736-75-6888",
    "url": "http://koueikai-nate.com/",
    "pref": "和歌山県",
    "city": "紀の川市",
    "category": "tokuyou",
    "serviceType": "介護老人福祉施設",
    "capacity": 50,
    "openDays": [],
    "openDaysNote": ""
  },
  {
    "id": "3071200236",
    "name": "特別養護老人ホーム　貴志川聖アンナの家",
    "kana": "トクベツヨウゴロウジンホーム　キシガワセイアンナノイエ",
    "address": "和歌山県紀の川市貴志川町上野山字鍛屋垣内302番地1",
    "lat": 34.2156771,
    "lng": 135.3103938,
    "tel": "0736-64-7460",
    "url": "http://www.seianna.sakura.ne.jp",
    "pref": "和歌山県",
    "city": "紀の川市",
    "category": "tokuyou",
    "serviceType": "介護老人福祉施設",
    "capacity": 0,
    "openDays": [],
    "openDaysNote": ""
  },
  {
    "id": "3071700805",
    "name": "特別養護老人ホーム　白水園",
    "kana": "トクベツヨウゴロウジンホーム　ハクスイエン",
    "address": "紀の川市上田井1229－1",
    "lat": 34.2610624722471,
    "lng": 135.387824177624,
    "tel": "0736－73－2210",
    "url": "http://koueikai-nate.com/",
    "pref": "和歌山県",
    "city": "紀の川市",
    "category": "tokuyou",
    "serviceType": "介護老人福祉施設",
    "capacity": 80,
    "openDays": [],
    "openDaysNote": ""
  },
  {
    "id": "3071200210",
    "name": "特別養護老人ホーム　髙陽園",
    "kana": "トクベツヨウゴロウジンホーム　コウヨウエン",
    "address": "和歌山県紀の川市東大井11-3",
    "lat": 34.2714402343711,
    "lng": 135.370278466232,
    "tel": "0736-78-2202",
    "url": "http://www.koyokai.or.jp",
    "pref": "和歌山県",
    "city": "紀の川市",
    "category": "tokuyou",
    "serviceType": "介護老人福祉施設",
    "capacity": 100,
    "openDays": [],
    "openDaysNote": ""
  },
  {
    "id": "3071200228",
    "name": "特別養護老人ホームももの里",
    "kana": "トクベツヨウゴロウジンホームモモノサト",
    "address": "紀の川市桃山町最上1254-1",
    "lat": 34.2197716,
    "lng": 135.3504671,
    "tel": "0736-66-3741",
    "url": "https://shokyukai.jp",
    "pref": "和歌山県",
    "city": "紀の川市",
    "category": "tokuyou",
    "serviceType": "介護老人福祉施設",
    "capacity": 0,
    "openDays": [],
    "openDaysNote": ""
  },
  {
    "id": "3071200921",
    "name": "特別養護老人ホーム打田皆楽園",
    "kana": "トクベツヨウゴロウジンホーム　ウチタカイラクエン",
    "address": "和歌山県紀の川市畑野上２５９番地",
    "lat": 34.2644663,
    "lng": 135.3472165,
    "tel": "0736-77-1700",
    "url": "https://kairakuen.or.jp/",
    "pref": "和歌山県",
    "city": "紀の川市",
    "category": "tokuyou",
    "serviceType": "介護老人福祉施設",
    "capacity": 60,
    "openDays": [],
    "openDaysNote": ""
  },
  {
    "id": "3071100139",
    "name": "特別養護老人ホームやすらぎ園",
    "kana": "トクベツヨウゴロウジンホームヤスラギエン",
    "address": "和歌山県海草郡紀美野町下佐々1408-7",
    "lat": 34.1519019,
    "lng": 135.3113024,
    "tel": "073-489-3631",
    "url": "http://www.yasuragien.com/",
    "pref": "和歌山県",
    "city": "紀美野町",
    "category": "tokuyou",
    "serviceType": "介護老人福祉施設",
    "capacity": 80,
    "openDays": [],
    "openDaysNote": ""
  },
  {
    "id": "3071100147",
    "name": "特別養護老人ホーム美里園",
    "kana": "トクベツヨウゴロウジンホームミサトエン",
    "address": "和歌山県海草郡紀美野町安井６－１",
    "lat": 34.1490559,
    "lng": 135.3466156,
    "tel": "073-495-3216",
    "url": "http://seiwa-sws.or.jp/",
    "pref": "和歌山県",
    "city": "紀美野町",
    "category": "tokuyou",
    "serviceType": "介護老人福祉施設",
    "capacity": 0,
    "openDays": [],
    "openDaysNote": ""
  },
  {
    "id": "3071300549",
    "name": "特別養護老人ホーム　さくら苑",
    "kana": "トクベツヨウゴロウジンホーム　サクラエン",
    "address": "和歌山県橋本市高野口町大野１８４４－１３３",
    "lat": 34.3231456,
    "lng": 135.5593115,
    "tel": "0736-44-1189",
    "url": "https://sakuraenn.com",
    "pref": "和歌山県",
    "city": "橋本市",
    "category": "tokuyou",
    "serviceType": "介護老人福祉施設",
    "capacity": 140,
    "openDays": [],
    "openDaysNote": ""
  },
  {
    "id": "3071000073",
    "name": "特別養護老人ホーム　ひかり苑",
    "kana": "トクベツヨウゴロウジンホーム　ヒカリエン",
    "address": "和歌山県橋本市隅田町中島1058-56",
    "lat": 34.3381198,
    "lng": 135.6371707,
    "tel": "0736-37-3000",
    "url": "care-net.biz/30/kouseikai/",
    "pref": "和歌山県",
    "city": "橋本市",
    "category": "tokuyou",
    "serviceType": "介護老人福祉施設",
    "capacity": 0,
    "openDays": [],
    "openDaysNote": ""
  },
  {
    "id": "3071000529",
    "name": "特別養護老人ホーム　天　佳　苑",
    "kana": "トクベツヨウゴロウジンホーム　テンカエン",
    "address": "和歌山県　橋本市　隅田町　霜草　７９７－３１",
    "lat": 34.3386947,
    "lng": 135.6374318,
    "tel": "0736-37-5000",
    "url": "http://care-net.biz/30/tenka-en/",
    "pref": "和歌山県",
    "city": "橋本市",
    "category": "tokuyou",
    "serviceType": "介護老人福祉施設",
    "capacity": 90,
    "openDays": [],
    "openDaysNote": ""
  },
  {
    "id": "3071000065",
    "name": "特別養護老人ホーム国城寮",
    "kana": "トクベツヨウゴロウジンホームクニキリョウ",
    "address": "橋本市隅田町河瀬905-2",
    "lat": 34.3250436,
    "lng": 135.6251552,
    "tel": "0736-32-8765",
    "url": "http://kuniki.info.sakura.ne.jp/",
    "pref": "和歌山県",
    "city": "橋本市",
    "category": "tokuyou",
    "serviceType": "介護老人福祉施設",
    "capacity": 0,
    "openDays": [],
    "openDaysNote": ""
  },
  {
    "id": "3071301059",
    "name": "伊都郡町村及び橋本市老人福祉施設事務組合　特別養護老人ホーム国城寮",
    "kana": "イトグンチョウソンオヨビハシモトシロウジンフクシシセツジムクミアイ　トクベツヨウゴロウジンホームクニギリョウ",
    "address": "和歌山県伊都郡九度山町九度山1265-1",
    "lat": 34.2849912,
    "lng": 135.5589175,
    "tel": "0736-26-7706",
    "url": "https://kuniki.sakura.ne.jp",
    "pref": "和歌山県",
    "city": "九度山町",
    "category": "tokuyou",
    "serviceType": "介護老人福祉施設",
    "capacity": null,
    "openDays": [],
    "openDaysNote": ""
  },
  {
    "id": "3071300291",
    "name": "社会福祉法人萩原会特別養護老人ホーム友愛苑",
    "kana": "シャカイフクシホウジンハギハラカイトクベツヨウゴロウジンホームユウアイエン",
    "address": "和歌山県伊都郡九度山町大字河根807番地の64",
    "lat": 34.2813617,
    "lng": 135.5819712,
    "tel": "0736-54-9080",
    "url": "care-net.biz/30/yuaien/",
    "pref": "和歌山県",
    "city": "九度山町",
    "category": "tokuyou",
    "serviceType": "介護老人福祉施設",
    "capacity": 0,
    "openDays": [],
    "openDaysNote": ""
  },
  {
    "id": "3072400223",
    "name": "特別養護老人ホームにしき園",
    "kana": "トクベツヨウゴロウジンホームニシキエン",
    "address": "和歌山県東牟婁郡串本町二色１６０",
    "lat": 33.489038,
    "lng": 135.7688606,
    "tel": "0735-72-5165",
    "url": "http://www.nishikien.ne.jp/",
    "pref": "和歌山県",
    "city": "串本町",
    "category": "tokuyou",
    "serviceType": "介護老人福祉施設",
    "capacity": 0,
    "openDays": [],
    "openDaysNote": ""
  },
  {
    "id": "3072500139",
    "name": "特別養護老人ホーム古座川園",
    "kana": "トクベツヨウゴロウジンホームコザガワエン",
    "address": "和歌山県東牟婁郡古座川町高瀬353番地",
    "lat": 33.535302,
    "lng": 135.778202,
    "tel": "0735-72-3355",
    "url": "https://takasekai.or.jp/",
    "pref": "和歌山県",
    "city": "古座川町",
    "category": "tokuyou",
    "serviceType": "介護老人福祉施設",
    "capacity": 50,
    "openDays": [],
    "openDaysNote": ""
  },
  {
    "id": "3072000528",
    "name": "特別養護老人ホーム　ごぼうの郷",
    "kana": "トクベツヨウゴロウジンホーム　ゴボウノサト",
    "address": "熊野44‐4",
    "lat": 33.8897505019423,
    "lng": 135.176446115344,
    "tel": "0738‐22‐5500",
    "url": "http://gobo310.sakura.ne.jp/gb310/",
    "pref": "和歌山県",
    "city": "御坊市",
    "category": "tokuyou",
    "serviceType": "介護老人福祉施設",
    "capacity": 50,
    "openDays": [],
    "openDaysNote": ""
  },
  {
    "id": "3072000080",
    "name": "特別養護老人ホーム日高博愛園",
    "kana": "トクベツヨウゴロウジンホームヒダカハクアイエン",
    "address": "和歌山県御坊市名田町野島１番地9",
    "lat": 33.8328175,
    "lng": 135.1789003,
    "tel": "0738-29-3181",
    "url": "hakuaikai.net",
    "pref": "和歌山県",
    "city": "御坊市",
    "category": "tokuyou",
    "serviceType": "介護老人福祉施設",
    "capacity": 0,
    "openDays": [],
    "openDaysNote": ""
  },
  {
    "id": "3071600534",
    "name": "介護老人福祉施設広川苑",
    "kana": "カイゴロウジンフクシシセツヒロガワエン",
    "address": "有田郡広川町和田18",
    "lat": 34.0253103,
    "lng": 135.1640741,
    "tel": "0737-65-0555",
    "url": "",
    "pref": "和歌山県",
    "city": "広川町",
    "category": "tokuyou",
    "serviceType": "介護老人福祉施設",
    "capacity": 0,
    "openDays": [],
    "openDaysNote": ""
  },
  {
    "id": "3071600948",
    "name": "特別養護老人ホームなつあけの里ささゆり苑",
    "kana": "トクベツヨウゴロウジンホームナツアケノサトササユリエン",
    "address": "和歌山県有田郡広川町上津木字夏明1464番地の4",
    "lat": 33.962317,
    "lng": 135.2009362,
    "tel": "0737-67-9150",
    "url": "http://www.kitabakai.jp/",
    "pref": "和歌山県",
    "city": "広川町",
    "category": "tokuyou",
    "serviceType": "介護老人福祉施設",
    "capacity": 80,
    "openDays": [],
    "openDaysNote": ""
  },
  {
    "id": "3071300093",
    "name": "特別養護老人ホーム南山苑",
    "kana": "トクベツヨウゴロウジンホームナンザンエン",
    "address": "和歌山県伊都郡高野町高野山44-22",
    "lat": 34.2206737,
    "lng": 135.5926271,
    "tel": "0736-56-4990",
    "url": "https://seiaikai.jimdofree.com/",
    "pref": "和歌山県",
    "city": "高野町",
    "category": "tokuyou",
    "serviceType": "介護老人福祉施設",
    "capacity": 0,
    "openDays": [],
    "openDaysNote": ""
  },
  {
    "id": "3072400215",
    "name": "特別養護老人ホーム愛の園",
    "kana": "トクベツヨウゴロウジンホームアイノソノ",
    "address": "和歌山県西牟婁郡上富田町生馬316-56",
    "lat": 33.7185325,
    "lng": 135.4276857,
    "tel": "0739-47-1234",
    "url": "http://www.shinai.or.jp",
    "pref": "和歌山県",
    "city": "上富田町",
    "category": "tokuyou",
    "serviceType": "介護老人福祉施設",
    "capacity": 100,
    "openDays": [],
    "openDaysNote": ""
  },
  {
    "id": "3072300084",
    "name": "特別養護老人ホーム温泉ハウスくまの",
    "kana": "トクベツヨウゴロウジンホームオンセンハウスクマノ",
    "address": "新宮市蜂伏１４番１９号",
    "lat": 33.6866428,
    "lng": 135.9623139,
    "tel": "0735-31-8520",
    "url": "https://www.kaigokensaku.mhlw.go.jp/houkoku/30/index.php",
    "pref": "和歌山県",
    "city": "新宮市",
    "category": "tokuyou",
    "serviceType": "介護老人福祉施設",
    "capacity": 50,
    "openDays": [],
    "openDaysNote": ""
  },
  {
    "id": "3072500048",
    "name": "特別養護老人ホーム熊野川園",
    "kana": "トクベツヨウゴロウジンホームクマノガワエン",
    "address": "和歌山県新宮市熊野川町西204番地1",
    "lat": 33.7581293,
    "lng": 135.8398511,
    "tel": "0735-45-8001",
    "url": "",
    "pref": "和歌山県",
    "city": "新宮市",
    "category": "tokuyou",
    "serviceType": "介護老人福祉施設",
    "capacity": 0,
    "openDays": [],
    "openDaysNote": ""
  },
  {
    "id": "3072300076",
    "name": "特別養護老人ホーム黒潮園",
    "kana": "トクベツヨウゴロウジンホームクロシオエン",
    "address": "和歌山県新宮市三輪崎2471-1",
    "lat": 33.6983081,
    "lng": 135.9863419,
    "tel": "0735-22-5689",
    "url": "https://www.kuroshioen.or.jp",
    "pref": "和歌山県",
    "city": "新宮市",
    "category": "tokuyou",
    "serviceType": "介護老人福祉施設",
    "capacity": 0,
    "openDays": [],
    "openDaysNote": ""
  },
  {
    "id": "3072500121",
    "name": "特別養護老人ホーム南紀園",
    "kana": "トクベツヨウゴロウジンホームナンキエン",
    "address": "和歌山県東牟婁郡太地町大字太地1770番15",
    "lat": 33.5803643957135,
    "lng": 135.954499402013,
    "tel": "0735-59-2467",
    "url": "",
    "pref": "和歌山県",
    "city": "太地町",
    "category": "tokuyou",
    "serviceType": "介護老人福祉施設",
    "capacity": 0,
    "openDays": [],
    "openDaysNote": ""
  },
  {
    "id": "3072500881",
    "name": "特別養護老人ホーム南紀園",
    "kana": "トクベツヨウゴロウジンホームナンキエン",
    "address": "和歌山県東牟婁郡太地町大字太地1770番15",
    "lat": 33.589701,
    "lng": 135.9462867,
    "tel": "0735-59-2467",
    "url": "",
    "pref": "和歌山県",
    "city": "太地町",
    "category": "tokuyou",
    "serviceType": "介護老人福祉施設",
    "capacity": 0,
    "openDays": [],
    "openDaysNote": ""
  },
  {
    "id": "3072500055",
    "name": "特別養護老人ホーム　熊野本宮園",
    "kana": "トクベツヨウゴロウジンホーム　クマノホングウエン",
    "address": "和歌山県田辺市本宮町上大野字田平９７番地の１",
    "lat": 33.8046616,
    "lng": 135.7550384,
    "tel": "0735-42-1556",
    "url": "http://kumanofukushikai.or.jp/",
    "pref": "和歌山県",
    "city": "田辺市",
    "category": "tokuyou",
    "serviceType": "介護老人福祉施設",
    "capacity": 0,
    "openDays": [],
    "openDaysNote": ""
  },
  {
    "id": "3072200060",
    "name": "特別養護老人ホーム　真寿苑",
    "kana": "トクベツヨウゴロウジンホーム　シンジュエン",
    "address": "和歌山県田辺市神島台６番１号",
    "lat": 33.7070892,
    "lng": 135.4034296,
    "tel": "0739-22-3639",
    "url": "http://www.sjk-tanabe.or.jp/",
    "pref": "和歌山県",
    "city": "田辺市",
    "category": "tokuyou",
    "serviceType": "介護老人福祉施設",
    "capacity": 0,
    "openDays": [],
    "openDaysNote": ""
  },
  {
    "id": "3072200078",
    "name": "特別養護老人ホーム　第二真寿苑",
    "kana": "トクベツヨウゴロウジンホーム　ダイニシンジュエン",
    "address": "和歌山県田辺市神島台６番１号",
    "lat": 33.7067366553471,
    "lng": 135.403687092065,
    "tel": "0739-81-2212",
    "url": "http://www.sjk-tanabe.or.jp/",
    "pref": "和歌山県",
    "city": "田辺市",
    "category": "tokuyou",
    "serviceType": "介護老人福祉施設",
    "capacity": null,
    "openDays": [],
    "openDaysNote": ""
  },
  {
    "id": "3072201175",
    "name": "特別養護老人ホーム　田辺の郷",
    "kana": "トクベツヨウゴロウジンホーム　タナベノサト",
    "address": "田辺市芳養松原1丁目31番10号",
    "lat": 33.7442952,
    "lng": 135.3545756,
    "tel": "0739-26-3210",
    "url": "特別養護老人ホーム　田辺の郷",
    "pref": "和歌山県",
    "city": "田辺市",
    "category": "tokuyou",
    "serviceType": "介護老人福祉施設",
    "capacity": 0,
    "openDays": [],
    "openDaysNote": ""
  },
  {
    "id": "3072400199",
    "name": "特別養護老人ホーム　白百合ホーム",
    "kana": "トクベツヨウゴロージンホームシラユリホーム",
    "address": "和歌山県田辺市中辺路町川合1800",
    "lat": 33.8004563,
    "lng": 135.5219846,
    "tel": "0739-64-1213",
    "url": "http://shirayurihome.org",
    "pref": "和歌山県",
    "city": "田辺市",
    "category": "tokuyou",
    "serviceType": "介護老人福祉施設",
    "capacity": 0,
    "openDays": [],
    "openDaysNote": ""
  },
  {
    "id": "3072400207",
    "name": "特別養護老人ホーム鮎川園",
    "kana": "トクベツヨウゴロウジンホームアユカワエン",
    "address": "和歌山県田辺市鮎川字向越1313番地",
    "lat": 33.7403659426405,
    "lng": 135.49966532387,
    "tel": "0739-49-0808",
    "url": "https://care-net.biz/30/kisei/",
    "pref": "和歌山県",
    "city": "田辺市",
    "category": "tokuyou",
    "serviceType": "介護老人福祉施設",
    "capacity": 53,
    "openDays": [],
    "openDaysNote": ""
  },
  {
    "id": "3072100369",
    "name": "特別養護老人ホーム龍トピア",
    "kana": "トクベツヨウゴロウジンホームリュウトピア",
    "address": "和歌山県田辺市龍神村柳瀬530番地",
    "lat": 33.8792885,
    "lng": 135.4544737,
    "tel": "0739-77-0071",
    "url": "https://care-net.biz/30/kisei",
    "pref": "和歌山県",
    "city": "田辺市",
    "category": "tokuyou",
    "serviceType": "介護老人福祉施設",
    "capacity": 0,
    "openDays": [],
    "openDaysNote": ""
  },
  {
    "id": "3071600088",
    "name": "特別養護老人ホーム　潮光園（従来型）",
    "kana": "トクベツヨウゴロウジンホーム　チョウコウエン（ジュウライガタ）",
    "address": "和歌山県有田郡湯浅町湯浅2343番地1",
    "lat": 34.040893713774,
    "lng": 135.189089728156,
    "tel": "0737-63-3381",
    "url": "https://www.tyokoen.jp",
    "pref": "和歌山県",
    "city": "湯浅町",
    "category": "tokuyou",
    "serviceType": "介護老人福祉施設",
    "capacity": 54,
    "openDays": [],
    "openDaysNote": ""
  },
  {
    "id": "3071601532",
    "name": "特別養護老人ホーム潮光園（ユニット型）",
    "kana": "トクベツヨウゴロウジンホームチョウコウエン（ユニットガタ）",
    "address": "和歌山県有田郡湯浅町湯浅２３４３－１",
    "lat": 34.0404640731786,
    "lng": 135.189335889382,
    "tel": "0737-63-3381",
    "url": "https://www.tyokoen.jp",
    "pref": "和歌山県",
    "city": "湯浅町",
    "category": "tokuyou",
    "serviceType": "介護老人福祉施設",
    "capacity": 36,
    "openDays": [],
    "openDaysNote": ""
  },
  {
    "id": "3072500113",
    "name": "特別養護老人ホーム日好荘那智園",
    "kana": "トクベツヨウゴロウジンホームニッコウソウナチエン",
    "address": "東牟婁郡那智勝浦町大字浜ノ宮８５０番地1",
    "lat": 33.6473109,
    "lng": 135.9424383,
    "tel": "0735-52-5534",
    "url": "http://care-net.biz/30/nikkosonachien/",
    "pref": "和歌山県",
    "city": "那智勝浦町",
    "category": "tokuyou",
    "serviceType": "介護老人福祉施設",
    "capacity": 0,
    "openDays": [],
    "openDaysNote": ""
  },
  {
    "id": "3072100922",
    "name": "介護老人福祉施設　白寿苑別館",
    "kana": "カイゴロウジンフクシシセツ　ハクジュエンベッカン",
    "address": "和歌山県日高郡日高川町船津字岩ノ谷1664番地",
    "lat": 33.9582033,
    "lng": 135.2687083,
    "tel": "0738－54－0071",
    "url": "http://www.keiaikai-w.ne.jp",
    "pref": "和歌山県",
    "city": "日高川町",
    "category": "tokuyou",
    "serviceType": "介護老人福祉施設",
    "capacity": 0,
    "openDays": [],
    "openDaysNote": ""
  },
  {
    "id": "3072100179",
    "name": "特別養護老人ホーム　白寿苑",
    "kana": "トクベツヨウゴロウジンホーム　ハクジュエン",
    "address": "和歌山県日高郡日高川町大字船津1664番地",
    "lat": 33.9582033,
    "lng": 135.2687083,
    "tel": "0738-54-0071",
    "url": "http://www.zc.ztv.ne.jp/mcxdnjyx/index.html",
    "pref": "和歌山県",
    "city": "日高川町",
    "category": "tokuyou",
    "serviceType": "介護老人福祉施設",
    "capacity": 0,
    "openDays": [],
    "openDaysNote": ""
  },
  {
    "id": "3072100120",
    "name": "特別養護老人ホームときわ寮川辺園",
    "kana": "トクベツヨウゴロウジンホームトキワリョウカワベエン",
    "address": "和歌山県日高郡日高川町大字和佐２０８１番地の１０",
    "lat": 33.8978265,
    "lng": 135.2124164,
    "tel": "0738-53-0909",
    "url": "http://www.tokiwa-roujin.jp/",
    "pref": "和歌山県",
    "city": "日高川町",
    "category": "tokuyou",
    "serviceType": "介護老人福祉施設",
    "capacity": 0,
    "openDays": [],
    "openDaysNote": ""
  },
  {
    "id": "3072100773",
    "name": "特別養護老人ホーム美山の里",
    "kana": "トクベツヨウゴロウジンホームミヤマノサト",
    "address": "和歌山県日高郡日高川町大字初湯川213番地1",
    "lat": 33.9574872910769,
    "lng": 135.382091319777,
    "tel": "0738-57-0320",
    "url": "http://care-net.biz/30/kisei/company.php",
    "pref": "和歌山県",
    "city": "日高川町",
    "category": "tokuyou",
    "serviceType": "介護老人福祉施設",
    "capacity": 0,
    "openDays": [],
    "openDaysNote": ""
  },
  {
    "id": "3072100500",
    "name": "特別養護老人ホームひだか博愛園みちしお",
    "kana": "トクベツヨウゴロウジンホームヒダカハクアイエンミチシオ",
    "address": "和歌山県日高郡日高町阿尾646",
    "lat": 33.9037765,
    "lng": 135.0716309,
    "tel": "0738-64-8008",
    "url": "https://www.hakuaikai.net",
    "pref": "和歌山県",
    "city": "日高町",
    "category": "tokuyou",
    "serviceType": "介護老人福祉施設",
    "capacity": 50,
    "openDays": [],
    "openDaysNote": ""
  },
  {
    "id": "3072400173",
    "name": "特別養護老人ホーム　成樹園",
    "kana": "トクベツヨウゴロウジンホーム　セイジュエン",
    "address": "和歌山県西牟婁郡白浜町富田１７０３",
    "lat": 33.6379835,
    "lng": 135.3981856,
    "tel": "0739-45-2222",
    "url": "https://www.nankishirahama-fukushikai.or.jp/",
    "pref": "和歌山県",
    "city": "白浜町",
    "category": "tokuyou",
    "serviceType": "介護老人福祉施設",
    "capacity": 50,
    "openDays": [],
    "openDaysNote": ""
  },
  {
    "id": "3072400736",
    "name": "特別養護老人ホーム　白浜日置の郷",
    "kana": "トクベツヨウゴロウジンホーム　シラハマヒキノサト",
    "address": "和歌山県西牟婁郡白浜町日置2037",
    "lat": 33.5723337,
    "lng": 135.4304327,
    "tel": "0739-87-2222",
    "url": "http:/www.sanyofukushikai.com/",
    "pref": "和歌山県",
    "city": "白浜町",
    "category": "tokuyou",
    "serviceType": "介護老人福祉施設",
    "capacity": 0,
    "openDays": [],
    "openDaysNote": ""
  },
  {
    "id": "3072400181",
    "name": "特別養護老人ホーム成実園",
    "kana": "トクベツヨウゴロウジンホームセイジツエン",
    "address": "和歌山県西牟婁郡白浜町富田１３７１－１",
    "lat": 33.6380196,
    "lng": 135.3985883,
    "tel": "0739-45-2790",
    "url": "https://www.nankishirahama-fukushikai.or.jp/",
    "pref": "和歌山県",
    "city": "白浜町",
    "category": "tokuyou",
    "serviceType": "介護老人福祉施設",
    "capacity": 0,
    "openDays": [],
    "openDaysNote": ""
  },
  {
    "id": "3072400165",
    "name": "特別養護老人ホーム百々千園",
    "kana": "トクベツヨウゴロウジンホームモモチエン",
    "address": "和歌山県西牟婁郡白浜町中1652",
    "lat": 33.6487985,
    "lng": 135.3878004,
    "tel": "0739-45-0335",
    "url": "https://care-net.biz/30/kirou/",
    "pref": "和歌山県",
    "city": "白浜町",
    "category": "tokuyou",
    "serviceType": "介護老人福祉施設",
    "capacity": 50,
    "openDays": [],
    "openDaysNote": ""
  },
  {
    "id": "3072100161",
    "name": "特別養護老人ホームときわ寮",
    "kana": "トクベツヨウゴロウジンホームトキワリョウ",
    "address": "和歌山県日高郡美浜町大字三尾９番地",
    "lat": 33.8899778,
    "lng": 135.0844,
    "tel": "0738-22-1251",
    "url": "http://www.tokiwami-roujin.jp/",
    "pref": "和歌山県",
    "city": "美浜町",
    "category": "tokuyou",
    "serviceType": "介護老人福祉施設",
    "capacity": 0,
    "openDays": [],
    "openDaysNote": ""
  },
  {
    "id": "3071500601",
    "name": "特別養護老人ホームありだ橘苑",
    "kana": "トクベツヨウゴロウジンホームアリダタチバナエン",
    "address": "和歌山県有田市野639-2",
    "lat": 34.0761794148425,
    "lng": 135.135224849768,
    "tel": "0737-83-6255",
    "url": "http://shukohkai.or.jp/",
    "pref": "和歌山県",
    "city": "有田市",
    "category": "tokuyou",
    "serviceType": "介護老人福祉施設",
    "capacity": 0,
    "openDays": [],
    "openDaysNote": ""
  },
  {
    "id": "3071500387",
    "name": "特別養護老人ホーム愛宕苑",
    "kana": "トクベツヨウゴロウジンホームアタゴエン",
    "address": "有田市港町９－１",
    "lat": 34.0892137,
    "lng": 135.1142861,
    "tel": "0737-82-0600",
    "url": "http://shukohkai.or.jp/",
    "pref": "和歌山県",
    "city": "有田市",
    "category": "tokuyou",
    "serviceType": "介護老人福祉施設",
    "capacity": 0,
    "openDays": [],
    "openDaysNote": ""
  },
  {
    "id": "3071500056",
    "name": "特別養護老人ホーム田鶴苑",
    "kana": "トクベツヨウゴロウジンホームタヅエン",
    "address": "和歌山県有田市宮崎町841番地1",
    "lat": 34.075466439554,
    "lng": 135.112843920238,
    "tel": "0737-82-6644",
    "url": "http://www.shukohkai.or.jp/",
    "pref": "和歌山県",
    "city": "有田市",
    "category": "tokuyou",
    "serviceType": "介護老人福祉施設",
    "capacity": 0,
    "openDays": [],
    "openDaysNote": ""
  },
  {
    "id": "3071600922",
    "name": "特別養護老人ホーム　しみず園",
    "kana": "トクベツヨウゴロウジンホーム　シミズエン",
    "address": "和歌山県有田郡有田川町大字粟生710番地4",
    "lat": 34.061558154966,
    "lng": 135.355804830038,
    "tel": "0737-23-0839",
    "url": "https://kibien.com/",
    "pref": "和歌山県",
    "city": "有田川町",
    "category": "tokuyou",
    "serviceType": "介護老人福祉施設",
    "capacity": 50,
    "openDays": [],
    "openDaysNote": ""
  },
  {
    "id": "3071601250",
    "name": "特別養護老人ホーム　吉備苑",
    "kana": "トクベツヨウゴロウジンホーム　キビエン",
    "address": "和歌山県有田郡有田川町大字奥２２２－１",
    "lat": 34.0484421,
    "lng": 135.2097666,
    "tel": "0737-53-2251",
    "url": "http://www.kibien.com/",
    "pref": "和歌山県",
    "city": "有田川町",
    "category": "tokuyou",
    "serviceType": "介護老人福祉施設",
    "capacity": 30,
    "openDays": [],
    "openDaysNote": ""
  },
  {
    "id": "3071600450",
    "name": "特別養護老人ホーム吉備苑",
    "kana": "トクベツヨウゴロウジンホームキビエン",
    "address": "和歌山県有田郡有田川町大字奥222-1",
    "lat": 34.0484421,
    "lng": 135.2097666,
    "tel": "0737-53-2251",
    "url": "http://www.kibien.com/",
    "pref": "和歌山県",
    "city": "有田川町",
    "category": "tokuyou",
    "serviceType": "介護老人福祉施設",
    "capacity": 0,
    "openDays": [],
    "openDaysNote": ""
  },
  {
    "id": "3071600096",
    "name": "特別養護老人ホーム寿楽園",
    "kana": "トクベツヨウゴロウジンホームジュラクエン",
    "address": "和歌山県有田郡有田川町大字小川字矢本992番地",
    "lat": 34.0653217,
    "lng": 135.2544316,
    "tel": "0737-32-3221",
    "url": "https://ikkeikai.recruitment.jp",
    "pref": "和歌山県",
    "city": "有田川町",
    "category": "tokuyou",
    "serviceType": "介護老人福祉施設",
    "capacity": 0,
    "openDays": [],
    "openDaysNote": ""
  },
  {
    "id": "3072100401",
    "name": "特別養護老人ホームゆら博愛園",
    "kana": "トクベツヨウゴロウジンホームユラハクアイエン",
    "address": "和歌山県日高郡由良町大字吹井910番地の1",
    "lat": 33.9699191,
    "lng": 135.1061829,
    "tel": "0738-35-2500",
    "url": "http://www.hakuaikai.net/",
    "pref": "和歌山県",
    "city": "由良町",
    "category": "tokuyou",
    "serviceType": "介護老人福祉施設",
    "capacity": 0,
    "openDays": [],
    "openDaysNote": ""
  },
  {
    "id": "3070106905",
    "name": "特別養護老人ホーム　すこやか",
    "kana": "トクベツヨウゴロウジンホーム　スコヤカ",
    "address": "和歌山市和田５８３－１",
    "lat": 34.2044372,
    "lng": 135.2120804,
    "tel": "073-475-5500",
    "url": "http://www.santa-sukoyaka.or.jp/",
    "pref": "和歌山県",
    "city": "和歌山市",
    "category": "tokuyou",
    "serviceType": "介護老人福祉施設",
    "capacity": 0,
    "openDays": [],
    "openDaysNote": ""
  },
  {
    "id": "3070102631",
    "name": "特別養護老人ホーム　ソンリッサきみさと",
    "kana": "トクベツヨウゴロウジンホーム　ソンリッサキミサト",
    "address": "和歌山市つつじが丘５丁目３番地２",
    "lat": 34.265976,
    "lng": 135.1014751,
    "tel": "073-480-5888",
    "url": "http://www.medi-wel.jp/",
    "pref": "和歌山県",
    "city": "和歌山市",
    "category": "tokuyou",
    "serviceType": "介護老人福祉施設",
    "capacity": 0,
    "openDays": [],
    "openDaysNote": ""
  },
  {
    "id": "3070100783",
    "name": "特別養護老人ホーム　わかうら園",
    "kana": "トクベツヨウゴロウジンホーム　ワカウラエン",
    "address": "和歌山市田野175番地社会福祉法人　わかうら会 社会福祉法人　わかうら会",
    "lat": 34.1856602,
    "lng": 135.1502133,
    "tel": "073-445-0808",
    "url": "https://wakaurakai.or.jp/",
    "pref": "和歌山県",
    "city": "和歌山市",
    "category": "tokuyou",
    "serviceType": "介護老人福祉施設",
    "capacity": 50,
    "openDays": [],
    "openDaysNote": ""
  },
  {
    "id": "3070100767",
    "name": "特別養護老人ホーム　紀伊てまり苑",
    "kana": "トクベツヨウゴロウジンホーム　キイテマリエン",
    "address": "和歌山市西田井２２４番地",
    "lat": 34.2574743,
    "lng": 135.2329527,
    "tel": "073-462-6020",
    "url": "https://www.kii-fukushikai.or.jp",
    "pref": "和歌山県",
    "city": "和歌山市",
    "category": "tokuyou",
    "serviceType": "介護老人福祉施設",
    "capacity": 50,
    "openDays": [],
    "openDaysNote": ""
  },
  {
    "id": "3070100676",
    "name": "特別養護老人ホーム　紀伊松風苑",
    "kana": "トクベツヨウゴロウジンホーム　キイショウフウエン",
    "address": "和歌山市園部1668番地の1",
    "lat": 34.2717885,
    "lng": 135.18885,
    "tel": "073-455-3676",
    "url": "http://www.kii-shoufuuen.jp/",
    "pref": "和歌山県",
    "city": "和歌山市",
    "category": "tokuyou",
    "serviceType": "介護老人福祉施設",
    "capacity": 135,
    "openDays": [],
    "openDaysNote": ""
  },
  {
    "id": "3070110253",
    "name": "特別養護老人ホーム　山口葵園ホーリーユニット",
    "kana": "トクベツヨウゴロウジンホーム　ヤマグチアオイエンホーリーユニット",
    "address": "和歌山県和歌山市藤田２５－１",
    "lat": 34.2644495949843,
    "lng": 135.263528477385,
    "tel": "073-461-5757",
    "url": "http://www.y-aoikai.or.jp",
    "pref": "和歌山県",
    "city": "和歌山市",
    "category": "tokuyou",
    "serviceType": "介護老人福祉施設",
    "capacity": 30,
    "openDays": [],
    "openDaysNote": ""
  },
  {
    "id": "3070100700",
    "name": "特別養護老人ホーム　第二親和園",
    "kana": "トクベツヨウゴロウジンホーム　ダイニシンワエン",
    "address": "和歌山市杭ノ瀬462番地の2特別養護老人ホーム第二親和園 特別養護老人ホーム第二親和園",
    "lat": 34.2021291,
    "lng": 135.1897102,
    "tel": "073-474-1300",
    "url": "http://shinwaen.jp",
    "pref": "和歌山県",
    "city": "和歌山市",
    "category": "tokuyou",
    "serviceType": "介護老人福祉施設",
    "capacity": 56,
    "openDays": [],
    "openDaysNote": ""
  },
  {
    "id": "3070100817",
    "name": "特別養護老人ホーム　竹の里園",
    "kana": "トクベツヨウゴロウジンホーム　タケノサトエン",
    "address": "和歌山市明王寺３－１",
    "lat": 34.2133121,
    "lng": 135.2541912,
    "tel": "073-466-2233",
    "url": "https://www.takenosatoen.jp",
    "pref": "和歌山県",
    "city": "和歌山市",
    "category": "tokuyou",
    "serviceType": "介護老人福祉施設",
    "capacity": 0,
    "openDays": [],
    "openDaysNote": ""
  },
  {
    "id": "3070100759",
    "name": "特別養護老人ホームアンシアナトー",
    "kana": "トクベツヨウゴロウジンホームアンシアナトー",
    "address": "和歌山市松江東1丁目７－２５",
    "lat": 34.2438399,
    "lng": 135.1345461,
    "tel": "073-454-8900",
    "url": "https://www.ancianatio.com/",
    "pref": "和歌山県",
    "city": "和歌山市",
    "category": "tokuyou",
    "serviceType": "介護老人福祉施設",
    "capacity": 0,
    "openDays": [],
    "openDaysNote": ""
  },
  {
    "id": "3070104793",
    "name": "特別養護老人ホームあんず苑",
    "kana": "トクベツヨウゴロウジンホームアンズエン",
    "address": "和歌山市東田中３０７番地",
    "lat": 34.2371267,
    "lng": 135.2819436,
    "tel": "073-465-4165",
    "url": "anzu-en.com",
    "pref": "和歌山県",
    "city": "和歌山市",
    "category": "tokuyou",
    "serviceType": "介護老人福祉施設",
    "capacity": 0,
    "openDays": [],
    "openDaysNote": ""
  },
  {
    "id": "3070100809",
    "name": "特別養護老人ホームグランリーフ",
    "kana": "トクベツヨウゴロウジンホームグランリーフ",
    "address": "和歌山市南片原２丁目１２番地",
    "lat": 34.2238236,
    "lng": 135.1843267,
    "tel": "073-436-6363",
    "url": "asibe-so＠crocus.ocn.ne.jp",
    "pref": "和歌山県",
    "city": "和歌山市",
    "category": "tokuyou",
    "serviceType": "介護老人福祉施設",
    "capacity": 60,
    "openDays": [],
    "openDaysNote": ""
  },
  {
    "id": "3070106426",
    "name": "特別養護老人ホームほうらい苑",
    "kana": "トクベツヨウゴロウジンホームホウライエン",
    "address": "和歌山市新和歌浦２番９号",
    "lat": 34.1856963,
    "lng": 135.1567572,
    "tel": "073-448-3333",
    "url": "http://www.horai-en.com",
    "pref": "和歌山県",
    "city": "和歌山市",
    "category": "tokuyou",
    "serviceType": "介護老人福祉施設",
    "capacity": 0,
    "openDays": [],
    "openDaysNote": ""
  },
  {
    "id": "3070100726",
    "name": "特別養護老人ホームみどりが丘ホーム",
    "kana": "トクベツヨウゴロウジンホームミドリガオカホーム",
    "address": "和歌山県和歌山市和佐中213番の１",
    "lat": 34.234679,
    "lng": 135.2377999,
    "tel": "073-477-4374",
    "url": "https://www.w-midori.jp",
    "pref": "和歌山県",
    "city": "和歌山市",
    "category": "tokuyou",
    "serviceType": "介護老人福祉施設",
    "capacity": 110,
    "openDays": [],
    "openDaysNote": ""
  },
  {
    "id": "3070100684",
    "name": "特別養護老人ホーム喜成会",
    "kana": "トクベツヨウゴロウジンホームキセイカイ",
    "address": "和歌山市北野128番地",
    "lat": 34.2651340981622,
    "lng": 135.24961972209,
    "tel": "073-462-3033",
    "url": "http://www.kiseikai-w.or.jp/",
    "pref": "和歌山県",
    "city": "和歌山市",
    "category": "tokuyou",
    "serviceType": "介護老人福祉施設",
    "capacity": 0,
    "openDays": [],
    "openDaysNote": ""
  },
  {
    "id": "3070100791",
    "name": "特別養護老人ホーム紀三井寺苑",
    "kana": "トクベツヨウゴロウジンホームキミイデラエン",
    "address": "和歌山県和歌山市紀三井寺560－2",
    "lat": 34.1813398,
    "lng": 135.1847245,
    "tel": "073-448-2255",
    "url": "https://www.kisan.or.jp",
    "pref": "和歌山県",
    "city": "和歌山市",
    "category": "tokuyou",
    "serviceType": "介護老人福祉施設",
    "capacity": 50,
    "openDays": [],
    "openDaysNote": ""
  },
  {
    "id": "3070110295",
    "name": "特別養護老人ホーム紀三井寺苑",
    "kana": "トクベツヨウゴロウジンホームキミイデラエン",
    "address": "和歌山県和歌山市紀三井寺560-2",
    "lat": 34.1813398,
    "lng": 135.1847245,
    "tel": "073-448-2255",
    "url": "https://www.kisan.or.jp",
    "pref": "和歌山県",
    "city": "和歌山市",
    "category": "tokuyou",
    "serviceType": "介護老人福祉施設",
    "capacity": 30,
    "openDays": [],
    "openDaysNote": ""
  },
  {
    "id": "3070100742",
    "name": "特別養護老人ホーム君里苑",
    "kana": "トクベツヨウゴロウジンホームキミサトエン",
    "address": "和歌山市木ノ本１８３７番地の１",
    "lat": 34.2653346,
    "lng": 135.1300071,
    "tel": "073-454-9820",
    "url": "http:/www.medi-wel.jp/",
    "pref": "和歌山県",
    "city": "和歌山市",
    "category": "tokuyou",
    "serviceType": "介護老人福祉施設",
    "capacity": 50,
    "openDays": [],
    "openDaysNote": ""
  },
  {
    "id": "3070100734",
    "name": "特別養護老人ホーム山口葵園",
    "kana": "トクベツヨウゴロウジンホームヤマグチアオイエン",
    "address": "和歌山市藤田２５－１",
    "lat": 34.2647688,
    "lng": 135.2629974,
    "tel": "073-461-5757",
    "url": "https://y-aoikai.or.jp",
    "pref": "和歌山県",
    "city": "和歌山市",
    "category": "tokuyou",
    "serviceType": "介護老人福祉施設",
    "capacity": 80,
    "openDays": [],
    "openDaysNote": ""
  },
  {
    "id": "3070100692",
    "name": "特別養護老人ホーム親和園",
    "kana": "トクベツヨウゴロウジンホームシンワエン",
    "address": "和歌山市杭ノ瀬255番地の2",
    "lat": 34.2110836,
    "lng": 135.1893878,
    "tel": "073-471-6235",
    "url": "http://shinwaen.jp",
    "pref": "和歌山県",
    "city": "和歌山市",
    "category": "tokuyou",
    "serviceType": "介護老人福祉施設",
    "capacity": 0,
    "openDays": [],
    "openDaysNote": ""
  },
  {
    "id": "3070100775",
    "name": "特別養護老人ホーム西庄園",
    "kana": "トクベツヨウゴロウジンホーム　セイショウエン",
    "address": "和歌山市西庄1133-2",
    "lat": 34.2642096,
    "lng": 135.1128914,
    "tel": "073-452-8856",
    "url": "http://seisyoen-minori.jp/",
    "pref": "和歌山県",
    "city": "和歌山市",
    "category": "tokuyou",
    "serviceType": "介護老人福祉施設",
    "capacity": 0,
    "openDays": [],
    "openDaysNote": ""
  },
  {
    "id": "3070100718",
    "name": "特別養護老人ホーム大日山荘",
    "kana": "トクベツヨウゴロウジンホームダイニチサンソウ",
    "address": "和歌山市平尾2番地1",
    "lat": 34.2069183806543,
    "lng": 135.244849725131,
    "tel": "073-478-3437",
    "url": "http://www.jukeikai.jp/",
    "pref": "和歌山県",
    "city": "和歌山市",
    "category": "tokuyou",
    "serviceType": "介護老人福祉施設",
    "capacity": 110,
    "openDays": [],
    "openDaysNote": ""
  },
  {
    "id": "3070113653",
    "name": "特別養護老人ホーム第2あんず苑",
    "kana": "トクベツヨウゴロウジンホームダイニアンズエン",
    "address": "和歌山県和歌山市東田中307番地",
    "lat": 34.2370085,
    "lng": 135.2819485,
    "tel": "073-465-4165",
    "url": "http://anzu-en.com/",
    "pref": "和歌山県",
    "city": "和歌山市",
    "category": "tokuyou",
    "serviceType": "介護老人福祉施設",
    "capacity": 0,
    "openDays": [],
    "openDaysNote": ""
  }
]