[
  {
    "id": "1176511382",
    "name": "浦和ふれあいの里",
    "kana": "ウラワフレアイノ里",
    "address": "さいたま市浦和区領家6-10-7",
    "lat": 35.8803269,
    "lng": 139.6480647,
    "tel": "048-834-7680",
    "url": "www.anshin.or.jp",
    "pref": "埼玉県",
    "city": "さいたま市浦和区",
    "category": "tokuyou",
    "serviceType": "介護老人福祉施設",
    "capacity": 0,
    "openDays": [],
    "openDaysNote": ""
  },
  {
    "id": "1176518155",
    "name": "特別養護老人ホームたいようの杜",
    "kana": "トクベツヨウゴロウジンホームタイヨウノモリ",
    "address": "埼玉県さいたま市浦和区常盤8-17-9",
    "lat": 35.8638987,
    "lng": 139.6416226,
    "tel": "048-825-0007",
    "url": "https://taiyounomori.marehoikuen.com/",
    "pref": "埼玉県",
    "city": "さいたま市浦和区",
    "category": "tokuyou",
    "serviceType": "介護老人福祉施設",
    "capacity": 0,
    "openDays": [],
    "openDaysNote": ""
  },
  {
    "id": "1176517447",
    "name": "特別養護老人ホームフォレスト浦和",
    "kana": "トクベツヨウゴロウジンホームフォレストウラワ",
    "address": "埼玉県さいたま市浦和区常盤8-15-9",
    "lat": 35.864015,
    "lng": 139.642238,
    "tel": "048-822-0100",
    "url": "http://fullhope.jp",
    "pref": "埼玉県",
    "city": "さいたま市浦和区",
    "category": "tokuyou",
    "serviceType": "介護老人福祉施設",
    "capacity": 0,
    "openDays": [],
    "openDaysNote": ""
  },
  {
    "id": "1176506739",
    "name": "ケアセンター岩槻名栗園",
    "kana": "ケアセンターイワツキナグリエン",
    "address": "さいたま市岩槻区諏訪三丁目2-2",
    "lat": 35.9675975,
    "lng": 139.7078502,
    "tel": "048-793-0300",
    "url": "http://www.nagurien.or.jp",
    "pref": "埼玉県",
    "city": "さいたま市岩槻区",
    "category": "tokuyou",
    "serviceType": "介護老人福祉施設",
    "capacity": 100,
    "openDays": [],
    "openDaysNote": ""
  },
  {
    "id": "1176509162",
    "name": "介護老人福祉施設　さいたましあわせの里",
    "kana": "カイゴロウジンフクシシセツ　サイタマシアワセノサト",
    "address": "さいたま市岩槻区裏慈恩寺１１５３－１",
    "lat": 35.9884609,
    "lng": 139.7130569,
    "tel": "048-793-1000",
    "url": "http://www.kenjyukai.or.jp",
    "pref": "埼玉県",
    "city": "さいたま市岩槻区",
    "category": "tokuyou",
    "serviceType": "介護老人福祉施設",
    "capacity": 100,
    "openDays": [],
    "openDaysNote": ""
  },
  {
    "id": "1176508206",
    "name": "介護老人福祉施設　さいたまほほえみの里",
    "kana": "カイゴロウジンフクシシセツ　サイタマホホエミノサト",
    "address": "さいたま市岩槻区大字長宮１５１２－１",
    "lat": 35.954699,
    "lng": 139.7316148,
    "tel": "048-792-1120",
    "url": "http://www.anshin.or.jp",
    "pref": "埼玉県",
    "city": "さいたま市岩槻区",
    "category": "tokuyou",
    "serviceType": "介護老人福祉施設",
    "capacity": 0,
    "openDays": [],
    "openDaysNote": ""
  },
  {
    "id": "1176507463",
    "name": "介護老人福祉施設　ひなの杜",
    "kana": "カイゴロウジンフクシシセツ　ヒナノモリ",
    "address": "さいたま市岩槻区裏慈恩寺51-1",
    "lat": 35.9789262,
    "lng": 139.7014057,
    "tel": "048-795-3711",
    "url": "http://www.harunoki.or.jp/mori/",
    "pref": "埼玉県",
    "city": "さいたま市岩槻区",
    "category": "tokuyou",
    "serviceType": "介護老人福祉施設",
    "capacity": 100,
    "openDays": [],
    "openDaysNote": ""
  },
  {
    "id": "1170700700",
    "name": "岩槻まきば園",
    "kana": "イワツキマキバエン",
    "address": "さいたま市岩槻区横根１３７５",
    "lat": 35.921523,
    "lng": 139.7065938,
    "tel": "048-797-2202",
    "url": "http://www.makibaen.com",
    "pref": "埼玉県",
    "city": "さいたま市岩槻区",
    "category": "tokuyou",
    "serviceType": "介護老人福祉施設",
    "capacity": 80,
    "openDays": [],
    "openDaysNote": ""
  },
  {
    "id": "1170700205",
    "name": "松鶴園",
    "kana": "ショウカクエン",
    "address": "さいたま市岩槻区大字古ヶ場１１番地",
    "lat": 35.9781041,
    "lng": 139.6900318,
    "tel": "048-795-2201",
    "url": "https://syoukakuen.jp/",
    "pref": "埼玉県",
    "city": "さいたま市岩槻区",
    "category": "tokuyou",
    "serviceType": "介護老人福祉施設",
    "capacity": 0,
    "openDays": [],
    "openDaysNote": ""
  },
  {
    "id": "1176509279",
    "name": "特別養護老人ホーム　しらさぎ",
    "kana": "トクベツヨウゴロウジンホーム　シラサギ",
    "address": "さいたま市岩槻区南下新井１５３８－７",
    "lat": 35.9341662,
    "lng": 139.7150757,
    "tel": "048-791-2528",
    "url": "http://www.shirasagi-care.com",
    "pref": "埼玉県",
    "city": "さいたま市岩槻区",
    "category": "tokuyou",
    "serviceType": "介護老人福祉施設",
    "capacity": 80,
    "openDays": [],
    "openDaysNote": ""
  },
  {
    "id": "1176514790",
    "name": "特別養護老人ホーム　フレシール岩槻",
    "kana": "トクベツヨウゴロウジンホーム　フレシールイワツキ",
    "address": "埼玉県さいたま市岩槻区大字加倉字坂下１９０番",
    "lat": 35.9382862,
    "lng": 139.684876,
    "tel": "048‐790‐2601",
    "url": "http://www.watarisuzuranen.jp/iwatsuki",
    "pref": "埼玉県",
    "city": "さいたま市岩槻区",
    "category": "tokuyou",
    "serviceType": "介護老人福祉施設",
    "capacity": 96,
    "openDays": [],
    "openDaysNote": ""
  },
  {
    "id": "1170700213",
    "name": "特別養護老人ホーム　やまぶきの里",
    "kana": "トクベツヨウゴロウジンホーム　ヤマブキノサト",
    "address": "埼玉県さいたま市岩槻区東岩槻２－２－２０",
    "lat": 35.9645313,
    "lng": 139.7095974,
    "tel": "048-794-7766",
    "url": "http://yamabuki.imwg.jp/yamabuki/",
    "pref": "埼玉県",
    "city": "さいたま市岩槻区",
    "category": "tokuyou",
    "serviceType": "介護老人福祉施設",
    "capacity": 50,
    "openDays": [],
    "openDaysNote": ""
  },
  {
    "id": "1176508214",
    "name": "特別養護老人ホーム　彩幸の杜",
    "kana": "トクベツヨウゴロウジンホーム　サイコウノモリ",
    "address": "埼玉県さいたま市岩槻区増長378番地1",
    "lat": 35.9484988190902,
    "lng": 139.745076884871,
    "tel": "048-792-1111",
    "url": "http://www.taikoukai.or.jp",
    "pref": "埼玉県",
    "city": "さいたま市岩槻区",
    "category": "tokuyou",
    "serviceType": "介護老人福祉施設",
    "capacity": 110,
    "openDays": [],
    "openDaysNote": ""
  },
  {
    "id": "1176515748",
    "name": "特別養護老人ホーム　千年の里",
    "kana": "トクベツヨウゴロウジンホーム　センネンノサト",
    "address": "埼玉県さいたま市岩槻区宮町1丁目10番12号",
    "lat": 35.9575643941989,
    "lng": 139.699532034393,
    "tel": "048-758-0200",
    "url": "http://www.sennen-sato.jp/",
    "pref": "埼玉県",
    "city": "さいたま市岩槻区",
    "category": "tokuyou",
    "serviceType": "介護老人福祉施設",
    "capacity": null,
    "openDays": [],
    "openDaysNote": ""
  },
  {
    "id": "1176510285",
    "name": "特別養護老人ホームまごめ遊美園",
    "kana": "トクベツヨウゴロウジンホームマゴメユウビエン",
    "address": "埼玉県さいたま市岩槻区大字馬込1318-1",
    "lat": 35.9712795,
    "lng": 139.6604245,
    "tel": "048-797-6100",
    "url": "https://magome.secure.idchosting.jp/yuukoukai/magome/index.html",
    "pref": "埼玉県",
    "city": "さいたま市岩槻区",
    "category": "tokuyou",
    "serviceType": "介護老人福祉施設",
    "capacity": 144,
    "openDays": [],
    "openDaysNote": ""
  },
  {
    "id": "1176516456",
    "name": "特別養護老人ホームゆいの杜",
    "kana": "トクベツヨウゴロウジンホームユイノモリ",
    "address": "埼玉県さいたま市岩槻区加倉4-15-6",
    "lat": 35.9416202,
    "lng": 139.6932252,
    "tel": "048-797-6505",
    "url": "http://yuinomori.jp/",
    "pref": "埼玉県",
    "city": "さいたま市岩槻区",
    "category": "tokuyou",
    "serviceType": "介護老人福祉施設",
    "capacity": 0,
    "openDays": [],
    "openDaysNote": ""
  },
  {
    "id": "1170700197",
    "name": "特別養護老人ホーム白鶴ホーム",
    "kana": "トクベツヨウゴロウジンホームハクツルホーム",
    "address": "さいたま市岩槻区宮町１丁目５番１２号",
    "lat": 35.9586181,
    "lng": 139.6983654,
    "tel": "048-758-0034",
    "url": "http://www.hakutsuru.or.jp/",
    "pref": "埼玉県",
    "city": "さいたま市岩槻区",
    "category": "tokuyou",
    "serviceType": "介護老人福祉施設",
    "capacity": 0,
    "openDays": [],
    "openDaysNote": ""
  },
  {
    "id": "1176502613",
    "name": "さいたまやすらぎの里",
    "kana": "サイタマヤスラギノサト",
    "address": "埼玉県さいたま市見沼区卸町2－21－1",
    "lat": 35.951438,
    "lng": 139.6781596,
    "tel": "048-680-3288",
    "url": "https://anshinkai-gr.jp/anshinkai/saitamayasuraginosato",
    "pref": "埼玉県",
    "city": "さいたま市見沼区",
    "category": "tokuyou",
    "serviceType": "介護老人福祉施設",
    "capacity": 0,
    "openDays": [],
    "openDaysNote": ""
  },
  {
    "id": "1176510095",
    "name": "さいたまやすらぎの里新館",
    "kana": "サイタマヤスラギノサトシンカン",
    "address": "埼玉県さいたま市見沼区卸町2－24",
    "lat": 35.950377,
    "lng": 139.6780208,
    "tel": "048－680－3288",
    "url": "http://www.anshin.or.jp",
    "pref": "埼玉県",
    "city": "さいたま市見沼区",
    "category": "tokuyou",
    "serviceType": "介護老人福祉施設",
    "capacity": 80,
    "openDays": [],
    "openDaysNote": ""
  },
  {
    "id": "1176510277",
    "name": "タムスさくらの杜見沼",
    "kana": "タムスサクラノモリミヌマ",
    "address": "さいたま市見沼区東宮下883-1",
    "lat": 35.9376897,
    "lng": 139.6789047,
    "tel": "048-872-6581",
    "url": "http://sakuranomori.or.jp/minuma.php",
    "pref": "埼玉県",
    "city": "さいたま市見沼区",
    "category": "tokuyou",
    "serviceType": "介護老人福祉施設",
    "capacity": 139,
    "openDays": [],
    "openDaysNote": ""
  },
  {
    "id": "1176507380",
    "name": "介護老人福祉施設　さいたまかがやきの里",
    "kana": "カイゴロウジンフクシシセツ　サイタマカガヤキノサト",
    "address": "埼玉県さいたま市見沼区染谷3－190－1さいたまかがやきの里 さいたまかがやきの里",
    "lat": 35.9098876,
    "lng": 139.6822997,
    "tel": "048-682-1151",
    "url": "http://www.kenjyukai.or.jp",
    "pref": "埼玉県",
    "city": "さいたま市見沼区",
    "category": "tokuyou",
    "serviceType": "介護老人福祉施設",
    "capacity": 100,
    "openDays": [],
    "openDaysNote": ""
  },
  {
    "id": "1170300659",
    "name": "高齢者総合福祉施設敬寿園",
    "kana": "コウレイシャソウゴウフクシシセツケイジュエン",
    "address": "さいたま市見沼区大字片柳１２９８番地",
    "lat": 35.8978199,
    "lng": 139.694096,
    "tel": "048-686-2611",
    "url": "https://www.keijuen.info/",
    "pref": "埼玉県",
    "city": "さいたま市見沼区",
    "category": "tokuyou",
    "serviceType": "介護老人福祉施設",
    "capacity": 0,
    "openDays": [],
    "openDaysNote": ""
  },
  {
    "id": "1176504015",
    "name": "特別養護老人ホーム　あおぞら",
    "kana": "トクベツヨウゴロウジンホーム　アオゾラ",
    "address": "埼玉県さいたま市見沼区御蔵１０６４－１",
    "lat": 35.9006773,
    "lng": 139.6714287,
    "tel": "048-684-6511",
    "url": "http://www.urawanosato.com",
    "pref": "埼玉県",
    "city": "さいたま市見沼区",
    "category": "tokuyou",
    "serviceType": "介護老人福祉施設",
    "capacity": 0,
    "openDays": [],
    "openDaysNote": ""
  },
  {
    "id": "1176506754",
    "name": "特別養護老人ホーム　恵の里",
    "kana": "トクベツヨウゴロウジンホーム　メグミノサト",
    "address": "埼玉県さいたま市見沼区東宮下１丁目１３－１",
    "lat": 35.9279243,
    "lng": 139.6839212,
    "tel": "048-680-1011",
    "url": "https://megumino-sato.com",
    "pref": "埼玉県",
    "city": "さいたま市見沼区",
    "category": "tokuyou",
    "serviceType": "介護老人福祉施設",
    "capacity": 0,
    "openDays": [],
    "openDaysNote": ""
  },
  {
    "id": "1170300626",
    "name": "特別養護老人ホーム　見沼緑水苑",
    "kana": "トクベツヨウゴロウジンホーム　ミヌマリョクスイエン",
    "address": "さいたま市見沼区大和田町２－３３６",
    "lat": 35.9289758,
    "lng": 139.6427054,
    "tel": "048-680-3711",
    "url": "http://www.goyoukai.or.jp",
    "pref": "埼玉県",
    "city": "さいたま市見沼区",
    "category": "tokuyou",
    "serviceType": "介護老人福祉施設",
    "capacity": 53,
    "openDays": [],
    "openDaysNote": ""
  },
  {
    "id": "1170300295",
    "name": "特別養護老人ホーム　諏訪の苑",
    "kana": "トクベツヨウゴロウジンホーム　スワノエン",
    "address": "埼玉県さいたま市見沼区南中野２９番地",
    "lat": 35.9048340183229,
    "lng": 139.660737831877,
    "tel": "048-688-8700",
    "url": "https://suwanoen.jp",
    "pref": "埼玉県",
    "city": "さいたま市見沼区",
    "category": "tokuyou",
    "serviceType": "介護老人福祉施設",
    "capacity": 0,
    "openDays": [],
    "openDaysNote": ""
  },
  {
    "id": "1176515755",
    "name": "特別養護老人ホーム　島町花の郷",
    "kana": "トクベツヨウゴロウジンホ－ム　シマチョウハナノサト",
    "address": "埼玉県さいたま市見沼区島町305",
    "lat": 35.9440395081156,
    "lng": 139.65248460619,
    "tel": "048-682-1165",
    "url": "http://www.s-hananosato.com/",
    "pref": "埼玉県",
    "city": "さいたま市見沼区",
    "category": "tokuyou",
    "serviceType": "介護老人福祉施設",
    "capacity": 144,
    "openDays": [],
    "openDaysNote": ""
  },
  {
    "id": "1176513537",
    "name": "特別養護老人ホーム敬寿園七里ホーム",
    "kana": "トクベツヨウゴロウジンホームケイジュエンナナサトホーム",
    "address": "埼玉県さいたま市見沼区大谷2022-1",
    "lat": 35.9257490179832,
    "lng": 139.674711588144,
    "tel": "048-681-7310",
    "url": "https://www.keijuen.info/nanasato",
    "pref": "埼玉県",
    "city": "さいたま市見沼区",
    "category": "tokuyou",
    "serviceType": "介護老人福祉施設",
    "capacity": null,
    "openDays": [],
    "openDaysNote": ""
  },
  {
    "id": "1176514782",
    "name": "介護老人福祉施設ブエナビスタ",
    "kana": "カイゴロウジンフクシシセツブエナビスタ",
    "address": "西堀4-8-24",
    "lat": 35.8522243,
    "lng": 139.6261842,
    "tel": "048-872-0311",
    "url": "http://www.sawarabikai.net/",
    "pref": "埼玉県",
    "city": "さいたま市桜区",
    "category": "tokuyou",
    "serviceType": "介護老人福祉施設",
    "capacity": 0,
    "openDays": [],
    "openDaysNote": ""
  },
  {
    "id": "1176506069",
    "name": "特別養護老人ホーム　さいたまロイヤルの園",
    "kana": "トクベツヨウゴロウジンホーム　サイタマロイヤルノソノ",
    "address": "埼玉県さいたま市桜区大字五関３９６番地２",
    "lat": 35.8663717,
    "lng": 139.5955421,
    "tel": "048-859-7166",
    "url": "http://www.wam-town.jp/saitama/",
    "pref": "埼玉県",
    "city": "さいたま市桜区",
    "category": "tokuyou",
    "serviceType": "介護老人福祉施設",
    "capacity": 0,
    "openDays": [],
    "openDaysNote": ""
  },
  {
    "id": "1170100646",
    "name": "特別養護老人ホーム彩寿苑",
    "kana": "トクベツヨウゴロウジンホームサイジュエン",
    "address": "さいたま市桜区宿４００番地",
    "lat": 35.8742179,
    "lng": 139.5929392,
    "tel": "048-857-6517",
    "url": "http://www.urawanosato.com",
    "pref": "埼玉県",
    "city": "さいたま市桜区",
    "category": "tokuyou",
    "serviceType": "介護老人福祉施設",
    "capacity": 0,
    "openDays": [],
    "openDaysNote": ""
  },
  {
    "id": "1176515730",
    "name": "特別養護老人ホーム夢眠さくら",
    "kana": "トクベツヨウゴロウジンホームムウミンサクラ",
    "address": "埼玉県さいたま市桜区町谷2-7-18",
    "lat": 35.85929,
    "lng": 139.6198013,
    "tel": "048-826-6336",
    "url": "http://www.kinkousya.jp/sakura/",
    "pref": "埼玉県",
    "city": "さいたま市桜区",
    "category": "tokuyou",
    "serviceType": "介護老人福祉施設",
    "capacity": 0,
    "openDays": [],
    "openDaysNote": ""
  },
  {
    "id": "1176501136",
    "name": "ゆめの園りあん中野林　特別養護老人ホーム",
    "kana": "ユメノエンリアンナカノハヤシ　トクベツヨウゴロウジンホーム",
    "address": "埼玉県さいたま市西区大字中野林字中郷650番1",
    "lat": 35.8913657,
    "lng": 139.5848166,
    "tel": "048-620-5700",
    "url": "http://www.happynet.or.jp",
    "pref": "埼玉県",
    "city": "さいたま市西区",
    "category": "tokuyou",
    "serviceType": "介護老人福祉施設",
    "capacity": 100,
    "openDays": [],
    "openDaysNote": ""
  },
  {
    "id": "1170300634",
    "name": "介護老人福祉施設　春陽苑",
    "kana": "カイゴロウジンフクシシセツ　シュンヨウエン",
    "address": "埼玉県さいたま市西区飯田新田91-1",
    "lat": 35.8880939,
    "lng": 139.5597743,
    "tel": "048-625-0707",
    "url": "http://www.mutsumikai.net",
    "pref": "埼玉県",
    "city": "さいたま市西区",
    "category": "tokuyou",
    "serviceType": "介護老人福祉施設",
    "capacity": 0,
    "openDays": [],
    "openDaysNote": ""
  },
  {
    "id": "1176506150",
    "name": "特別養護老人ホーム　ひかわ",
    "kana": "トクベツヨウゴロウジンホーム　ヒカワ",
    "address": "さいたま市西区高木892",
    "lat": 35.9319818,
    "lng": 139.5728555,
    "tel": "048-620-7533",
    "url": "http://www.sankeikai.org",
    "pref": "埼玉県",
    "city": "さいたま市西区",
    "category": "tokuyou",
    "serviceType": "介護老人福祉施設",
    "capacity": 110,
    "openDays": [],
    "openDaysNote": ""
  },
  {
    "id": "1176513925",
    "name": "特別養護老人ホーム　フォレスト指扇",
    "kana": "トクベツヨウゴロウジンホーム　フォレストサシオウギ",
    "address": "埼玉県さいたま市西区指扇1277-11",
    "lat": 35.9150652498147,
    "lng": 139.581771765807,
    "tel": "048-621-1600",
    "url": "http://www.fullhope.jp/",
    "pref": "埼玉県",
    "city": "さいたま市西区",
    "category": "tokuyou",
    "serviceType": "介護老人福祉施設",
    "capacity": 116,
    "openDays": [],
    "openDaysNote": ""
  },
  {
    "id": "1176503728",
    "name": "特別養護老人ホーム　敬寿園宝来ホーム",
    "kana": "トクベツヨウゴロウジンホーム　ケイジュエンホウライホーム",
    "address": "埼玉県さいたま市西区宝来86番地1",
    "lat": 35.9316795,
    "lng": 139.5540429,
    "tel": "048-620-0600",
    "url": "http://www.keijuen.info/",
    "pref": "埼玉県",
    "city": "さいたま市西区",
    "category": "tokuyou",
    "serviceType": "介護老人福祉施設",
    "capacity": 60,
    "openDays": [],
    "openDaysNote": ""
  },
  {
    "id": "1176515722",
    "name": "特別養護老人ホーム　敬寿園宝来ホームユニット型",
    "kana": "トクベツヨウゴロウジンホーム　ケイジュエンホウライホームユニットガタ",
    "address": "埼玉県さいたま市西区宝来86番地1",
    "lat": 35.9316545,
    "lng": 139.5540171,
    "tel": "048-620-0600",
    "url": "http://www.keijuen.info/",
    "pref": "埼玉県",
    "city": "さいたま市西区",
    "category": "tokuyou",
    "serviceType": "介護老人福祉施設",
    "capacity": 0,
    "openDays": [],
    "openDaysNote": ""
  },
  {
    "id": "1176517397",
    "name": "特別養護老人ホーム　三橋の里",
    "kana": "トクベツヨウゴロウジンホーム　ミハシノサト",
    "address": "埼玉県さいたま市西区三橋５－５６０－５",
    "lat": 35.9115012663296,
    "lng": 139.59448566305,
    "tel": "０４８（８７１）５６３０",
    "url": "http://www.kawatsuru-g.jp/",
    "pref": "埼玉県",
    "city": "さいたま市西区",
    "category": "tokuyou",
    "serviceType": "介護老人福祉施設",
    "capacity": null,
    "openDays": [],
    "openDaysNote": ""
  },
  {
    "id": "1176502654",
    "name": "特別養護老人ホーム　扇の森",
    "kana": "トクベツヨウゴロウジンホーム　オウギノモリ",
    "address": "埼玉県さいたま市西区高木602",
    "lat": 35.9268355,
    "lng": 139.5672504,
    "tel": "048-625-5000",
    "url": "http://www.oginomori.jp",
    "pref": "埼玉県",
    "city": "さいたま市西区",
    "category": "tokuyou",
    "serviceType": "介護老人福祉施設",
    "capacity": 0,
    "openDays": [],
    "openDaysNote": ""
  },
  {
    "id": "1176503991",
    "name": "特別養護老人ホーム　遊美園",
    "kana": "トクベツヨウゴロウジンホーム　ユウビエン",
    "address": "埼玉県さいたま市西区佐知川1522-1",
    "lat": 35.9051882,
    "lng": 139.5764554,
    "tel": "048-622-6455",
    "url": "http://www.yuubien.jp",
    "pref": "埼玉県",
    "city": "さいたま市西区",
    "category": "tokuyou",
    "serviceType": "介護老人福祉施設",
    "capacity": 0,
    "openDays": [],
    "openDaysNote": ""
  },
  {
    "id": "1176512737",
    "name": "特別養護老人ホーム　緑水苑指扇",
    "kana": "トクベツヨウゴロウジンホーム　リョクスイエンサシオウギ",
    "address": "指扇1570-2",
    "lat": 35.9159969298992,
    "lng": 139.58144055264,
    "tel": "048-620-7510",
    "url": "http://www.goyoukai.or.jp/",
    "pref": "埼玉県",
    "city": "さいたま市西区",
    "category": "tokuyou",
    "serviceType": "介護老人福祉施設",
    "capacity": 0,
    "openDays": [],
    "openDaysNote": ""
  },
  {
    "id": "1170300642",
    "name": "特別養護老人ホーム三恵苑",
    "kana": "トクベツヨウゴロウジンホームサンケイエン",
    "address": "埼玉県さいたま市西区中釘　2219-4",
    "lat": 35.9398443,
    "lng": 139.5729332,
    "tel": "048-622-6727",
    "url": "http://www.sankeikai.org",
    "pref": "埼玉県",
    "city": "さいたま市西区",
    "category": "tokuyou",
    "serviceType": "介護老人福祉施設",
    "capacity": 76,
    "openDays": [],
    "openDaysNote": ""
  },
  {
    "id": "1170300667",
    "name": "社会福祉法人育成会　白菊苑",
    "kana": "シャカイフクシホウジンイクセイカイ　シラギクエン",
    "address": "埼玉県さいたま市大宮区寿能町2-21-3",
    "lat": 35.9061427,
    "lng": 139.6391643,
    "tel": "048-648-5571",
    "url": "http://www.siragiku.or.jp/",
    "pref": "埼玉県",
    "city": "さいたま市大宮区",
    "category": "tokuyou",
    "serviceType": "介護老人福祉施設",
    "capacity": 50,
    "openDays": [],
    "openDaysNote": ""
  },
  {
    "id": "1176504817",
    "name": "特別養護老人ホーム　はるぱてお",
    "kana": "トクベツヨウゴロウジンホーム　ハルパテオ",
    "address": "さいたま市大宮区上小町１１８７番地",
    "lat": 35.896577,
    "lng": 139.6129777,
    "tel": "048-648-1010",
    "url": "www.harupateo.or.jp",
    "pref": "埼玉県",
    "city": "さいたま市大宮区",
    "category": "tokuyou",
    "serviceType": "介護老人福祉施設",
    "capacity": 80,
    "openDays": [],
    "openDaysNote": ""
  },
  {
    "id": "1176514808",
    "name": "特別養護老人ホーム　大宮諏訪の苑",
    "kana": "トクベツヨウゴロウジンホーム　オオミヤスワノエン",
    "address": "埼玉県さいたま市大宮区三橋4-875-2",
    "lat": 35.8908607,
    "lng": 139.6042566,
    "tel": "048-622-7300",
    "url": "http://suwanoen.jp",
    "pref": "埼玉県",
    "city": "さいたま市大宮区",
    "category": "tokuyou",
    "serviceType": "介護老人福祉施設",
    "capacity": 0,
    "openDays": [],
    "openDaysNote": ""
  },
  {
    "id": "1176520391",
    "name": "特別養護老人ホームはるぱてお大宮",
    "kana": "トクベツヨウゴロウジンホームハルパテオオオミヤ",
    "address": "埼玉県さいたま市大宮区上小町１１８０番地",
    "lat": 35.8971739422941,
    "lng": 139.613875028836,
    "tel": "048-645-1050",
    "url": "https://www.harupateo.or.jp",
    "pref": "埼玉県",
    "city": "さいたま市大宮区",
    "category": "tokuyou",
    "serviceType": "介護老人福祉施設",
    "capacity": 64,
    "openDays": [],
    "openDaysNote": ""
  },
  {
    "id": "1171500117",
    "name": "指定介護老人福祉施設　きりしき",
    "kana": "シテイカイゴロウジンフクシシセツ　キリシキ",
    "address": "さいたま市中央区新中里２－８－６",
    "lat": 35.8719196224973,
    "lng": 139.633929896295,
    "tel": "048-858-6655",
    "url": "https://kirishiki.org/",
    "pref": "埼玉県",
    "city": "さいたま市中央区",
    "category": "tokuyou",
    "serviceType": "介護老人福祉施設",
    "capacity": 64,
    "openDays": [],
    "openDaysNote": ""
  },
  {
    "id": "1176512588",
    "name": "指定介護老人福祉施設　ユニット型きりしき",
    "kana": "シテイカイゴロウジンフクシシセツ　ユニットガタキリシキ",
    "address": "埼玉県さいたま市中央区新中里2-8-6",
    "lat": 35.8719239694403,
    "lng": 139.633860158861,
    "tel": "048-858-6655",
    "url": "http://kirishiki.org/",
    "pref": "埼玉県",
    "city": "さいたま市中央区",
    "category": "tokuyou",
    "serviceType": "介護老人福祉施設",
    "capacity": 30,
    "openDays": [],
    "openDaysNote": ""
  },
  {
    "id": "1176509329",
    "name": "特別養護老人ホーム　ナーシングヴィラ与野",
    "kana": "トクベツヨウゴロウジンホーム　ナーシングウ゛ィラヨノ",
    "address": "さいたま市中央区本町東6-10-1",
    "lat": 35.8935552,
    "lng": 139.6175886,
    "tel": "048-857-8522",
    "url": "http://saitama-ni.com/villa/",
    "pref": "埼玉県",
    "city": "さいたま市中央区",
    "category": "tokuyou",
    "serviceType": "介護老人福祉施設",
    "capacity": 50,
    "openDays": [],
    "openDaysNote": ""
  },
  {
    "id": "1176505194",
    "name": "特別養護老人ホーム　緑水苑与野",
    "kana": "トクベツヨウゴロウジンホーム　リョクスイエンヨノ",
    "address": "埼玉県さいたま市中央区大戸１丁目３３番地１２号",
    "lat": 35.8617595,
    "lng": 139.6367191,
    "tel": "048-853-1600",
    "url": "http://www.goyoukai.or.jp",
    "pref": "埼玉県",
    "city": "さいたま市中央区",
    "category": "tokuyou",
    "serviceType": "介護老人福祉施設",
    "capacity": 0,
    "openDays": [],
    "openDaysNote": ""
  },
  {
    "id": "1176513917",
    "name": "特別養護老人ホーム　こもれびの丘",
    "kana": "トクベツヨウゴロウジンホーム　コモレビノオカ",
    "address": "埼玉県さいたま市南区広ヶ谷戸130－1",
    "lat": 35.8637683,
    "lng": 139.684562,
    "tel": "048－811－1720",
    "url": "http://junseikai.org/komorebi/",
    "pref": "埼玉県",
    "city": "さいたま市南区",
    "category": "tokuyou",
    "serviceType": "介護老人福祉施設",
    "capacity": 120,
    "openDays": [],
    "openDaysNote": ""
  },
  {
    "id": "1176512711",
    "name": "特別養護老人ホーム　みょうばなの杜",
    "kana": "トクベツヨウゴロウジンホーム　ミョウバナノモリ",
    "address": "埼玉県さいたま市南区大谷口2474番地3",
    "lat": 35.860405540449,
    "lng": 139.68940995815,
    "tel": "048-615-2525",
    "url": "http://www.niizafukushikai.com",
    "pref": "埼玉県",
    "city": "さいたま市南区",
    "category": "tokuyou",
    "serviceType": "介護老人福祉施設",
    "capacity": 168,
    "openDays": [],
    "openDaysNote": ""
  },
  {
    "id": "1176511424",
    "name": "特別養護老人ホーム　埼玉さくらんぼⅠ番館",
    "kana": "トクベツヨウゴロウジンホーム　サイタマサクランボイチバンカン",
    "address": "埼玉県さいたま市南区大字太田窪３５０４－３",
    "lat": 35.8562413,
    "lng": 139.6764657,
    "tel": "048-799-3066",
    "url": "http://www.keijuen.or.jp",
    "pref": "埼玉県",
    "city": "さいたま市南区",
    "category": "tokuyou",
    "serviceType": "介護老人福祉施設",
    "capacity": 0,
    "openDays": [],
    "openDaysNote": ""
  },
  {
    "id": "1176501334",
    "name": "特別養護老人ホームけやきホームズ",
    "kana": "トクベツヨウゴロウジンホームケヤキホームズ",
    "address": "埼玉県さいたま市南区鹿手袋７－１３－４",
    "lat": 35.8471,
    "lng": 139.6354113,
    "tel": "048-710-6888",
    "url": "http://www.koyuzinkai.com",
    "pref": "埼玉県",
    "city": "さいたま市南区",
    "category": "tokuyou",
    "serviceType": "介護老人福祉施設",
    "capacity": 0,
    "openDays": [],
    "openDaysNote": ""
  },
  {
    "id": "1176509212",
    "name": "ウエルガーデン大宮",
    "kana": "ウエルガーデンオオミヤ",
    "address": "埼玉県さいたま市北区今羽町660-1",
    "lat": 35.9510663,
    "lng": 139.6259507,
    "tel": "048-667-0038",
    "url": "http://www.welgarden.or.jp",
    "pref": "埼玉県",
    "city": "さいたま市北区",
    "category": "tokuyou",
    "serviceType": "介護老人福祉施設",
    "capacity": 100,
    "openDays": [],
    "openDaysNote": ""
  },
  {
    "id": "1176517363",
    "name": "社会福祉法人　心希会　特別養護老人ホーム　フルール宮原",
    "kana": "シャカイフクシホウジン　シンキカイ　トクベツヨウゴロウジンホーム　フルールミヤハラ",
    "address": "埼玉県さいたま市北区宮原町1-697-5フルール宮原 フルール宮原",
    "lat": 35.9395381,
    "lng": 139.6203149,
    "tel": "048-665-2666",
    "url": "https://www.fleur-miyahara.com/",
    "pref": "埼玉県",
    "city": "さいたま市北区",
    "category": "tokuyou",
    "serviceType": "介護老人福祉施設",
    "capacity": 0,
    "openDays": [],
    "openDaysNote": ""
  },
  {
    "id": "1176506135",
    "name": "社会福祉法人　大吉会　特別養護老人ホーム　白樺ホーム",
    "kana": "シャカイフクシホウジンオオヨシカイトクベツヨウゴロウジンホームシラカバホーム",
    "address": "さいたま市北区吉野町2-1331",
    "lat": 35.9644107,
    "lng": 139.6180094,
    "tel": "048-661-8850",
    "url": "http://www.ooyoshikai.jp",
    "pref": "埼玉県",
    "city": "さいたま市北区",
    "category": "tokuyou",
    "serviceType": "介護老人福祉施設",
    "capacity": 100,
    "openDays": [],
    "openDaysNote": ""
  },
  {
    "id": "1176504726",
    "name": "特別養護老人ホーム　なごみの里",
    "kana": "トクベツヨウゴロウジンホーム　ナゴミノサト",
    "address": "埼玉県さいたま市北区別所町８９２番地",
    "lat": 35.9605908,
    "lng": 139.5885455,
    "tel": "048-665-0753",
    "url": "https://nagominosato.net/",
    "pref": "埼玉県",
    "city": "さいたま市北区",
    "category": "tokuyou",
    "serviceType": "介護老人福祉施設",
    "capacity": 0,
    "openDays": [],
    "openDaysNote": ""
  },
  {
    "id": "1176518072",
    "name": "特別養護老人ホーム　みちみち大宮",
    "kana": "トクベツヨウゴロウジンホーム　ミチミチオオミヤ",
    "address": "埼玉県さいたま市北区植竹町２丁目６９番地７",
    "lat": 35.9326340212678,
    "lng": 139.628223103041,
    "tel": "048-788-2055",
    "url": "https://kousaikai-swc.jp/",
    "pref": "埼玉県",
    "city": "さいたま市北区",
    "category": "tokuyou",
    "serviceType": "介護老人福祉施設",
    "capacity": 0,
    "openDays": [],
    "openDaysNote": ""
  },
  {
    "id": "1176507414",
    "name": "特別養護老人ホーム　今羽の森",
    "kana": "トクベツヨウゴロウジンホーム　コンバノモリ",
    "address": "さいたま市北区今羽町６５０－１",
    "lat": 35.950919,
    "lng": 139.6252397,
    "tel": "048-778-7330",
    "url": "http://eijuso.com",
    "pref": "埼玉県",
    "city": "さいたま市北区",
    "category": "tokuyou",
    "serviceType": "介護老人福祉施設",
    "capacity": 100,
    "openDays": [],
    "openDaysNote": ""
  },
  {
    "id": "1170100596",
    "name": "浦和しぶや苑",
    "kana": "ウラワシブヤエン",
    "address": "埼玉県さいたま市緑区中尾925",
    "lat": 35.8748458,
    "lng": 139.6818957,
    "tel": "048-876-1811",
    "url": "https://www.urawashibuyaen.com/",
    "pref": "埼玉県",
    "city": "さいたま市緑区",
    "category": "tokuyou",
    "serviceType": "介護老人福祉施設",
    "capacity": 82,
    "openDays": [],
    "openDaysNote": ""
  },
  {
    "id": "1176512729",
    "name": "特別養護老人ホーム　あすなろの郷浦和",
    "kana": "トクベツヨウゴロウジンホーム　アスナロノサトウラワ",
    "address": "埼玉県さいたま市緑区大字三室3029-3",
    "lat": 35.891154055294,
    "lng": 139.690503175932,
    "tel": "048-810-5050",
    "url": "https://www.asunarokai.or.jp/",
    "pref": "埼玉県",
    "city": "さいたま市緑区",
    "category": "tokuyou",
    "serviceType": "介護老人福祉施設",
    "capacity": 100,
    "openDays": [],
    "openDaysNote": ""
  },
  {
    "id": "1170100620",
    "name": "特別養護老人ホーム　スマイルハウス",
    "kana": "トクベツヨウゴロウジンホーム　スマイルハウス",
    "address": "埼玉県さいたま市緑区大字大崎字北口2160番地",
    "lat": 35.8887045,
    "lng": 139.7057784,
    "tel": "048-878-2922",
    "url": "http://www.smile-house.or.jp/",
    "pref": "埼玉県",
    "city": "さいたま市緑区",
    "category": "tokuyou",
    "serviceType": "介護老人福祉施設",
    "capacity": 60,
    "openDays": [],
    "openDaysNote": ""
  },
  {
    "id": "1176516449",
    "name": "特別養護老人ホーム　浦和みやびの郷",
    "kana": "トクベルヨウゴロウジンホーム　ウラワミヤビノサト",
    "address": "埼玉県さいたま市緑区大字三室1712",
    "lat": 35.8837491,
    "lng": 139.680284,
    "tel": "048-712-1717",
    "url": "http://keiaikai-j.jp",
    "pref": "埼玉県",
    "city": "さいたま市緑区",
    "category": "tokuyou",
    "serviceType": "介護老人福祉施設",
    "capacity": 0,
    "openDays": [],
    "openDaysNote": ""
  },
  {
    "id": "1176516431",
    "name": "特別養護老人ホームあけみ苑",
    "kana": "トクベツヨウゴロウジンホームアケミエン",
    "address": "さいたま市緑区原山4丁目18番地9号",
    "lat": 35.8691849013034,
    "lng": 139.674583750262,
    "tel": "048-886-1111",
    "url": "http://www.hakukokai.jp/",
    "pref": "埼玉県",
    "city": "さいたま市緑区",
    "category": "tokuyou",
    "serviceType": "介護老人福祉施設",
    "capacity": 0,
    "openDays": [],
    "openDaysNote": ""
  },
  {
    "id": "1176520409",
    "name": "特別養護老人ホームみさき苑",
    "kana": "トクベツヨウゴロウジンホームミサキエン",
    "address": "埼玉県さいたま市緑区美園２－１６－１",
    "lat": 35.9006302,
    "lng": 139.7218872,
    "tel": "048-767-5000",
    "url": "https://www.bikokai.com",
    "pref": "埼玉県",
    "city": "さいたま市緑区",
    "category": "tokuyou",
    "serviceType": "介護老人福祉施設",
    "capacity": 0,
    "openDays": [],
    "openDaysNote": ""
  },
  {
    "id": "1170100612",
    "name": "特別養護老人ホームリバティハウス",
    "kana": "トクベツヨウゴロウジンホームリバティハウス",
    "address": "埼玉県さいたま市緑区松木３－２９－５",
    "lat": 35.8836631,
    "lng": 139.6903803,
    "tel": "048-875-3111",
    "url": "www.liberty-swc.or.jp",
    "pref": "埼玉県",
    "city": "さいたま市緑区",
    "category": "tokuyou",
    "serviceType": "介護老人福祉施設",
    "capacity": 0,
    "openDays": [],
    "openDaysNote": ""
  },
  {
    "id": "1176512703",
    "name": "特別養護老人ホームリバティハウス新館",
    "kana": "トクベウヨウゴロウジンホームリバティハウスシンカン",
    "address": "埼玉県さいたま市緑区松木３－２９－５",
    "lat": 35.8836631,
    "lng": 139.6903803,
    "tel": "０４８－８７５－３１１１",
    "url": "www.liberty-swc.or.jp",
    "pref": "埼玉県",
    "city": "さいたま市緑区",
    "category": "tokuyou",
    "serviceType": "介護老人福祉施設",
    "capacity": 0,
    "openDays": [],
    "openDaysNote": ""
  },
  {
    "id": "1170100638",
    "name": "特別養護老人ホーム尚和園",
    "kana": "トクベツヨウゴロウジンホームショウワエン",
    "address": "埼玉県さいたま市緑区原山３丁目１５番３１号",
    "lat": 35.8722395,
    "lng": 139.6754264,
    "tel": "048-882-3013",
    "url": "http://saitamakenkyousaikai.jp/",
    "pref": "埼玉県",
    "city": "さいたま市緑区",
    "category": "tokuyou",
    "serviceType": "介護老人福祉施設",
    "capacity": 0,
    "openDays": [],
    "openDaysNote": ""
  },
  {
    "id": "1170100604",
    "name": "白寿園",
    "kana": "ハクジュエン",
    "address": "埼玉県さいたま市緑区寺山１５７番地",
    "lat": 35.9045752,
    "lng": 139.7106716,
    "tel": "048-878-1800",
    "url": "http://www.hakujuen1800.jp/",
    "pref": "埼玉県",
    "city": "さいたま市緑区",
    "category": "tokuyou",
    "serviceType": "介護老人福祉施設",
    "capacity": 0,
    "openDays": [],
    "openDaysNote": ""
  },
  {
    "id": "1173201169",
    "name": "美しい自然と暮らす馬場館",
    "kana": "ウツクシイシゼントクラスバンバカン",
    "address": "埼玉県比企郡ときがわ町大字馬場256-2",
    "lat": 35.99744,
    "lng": 139.2818759,
    "tel": "0493-66-0070",
    "url": "http://www.yosinosato.com",
    "pref": "埼玉県",
    "city": "ときがわ町",
    "category": "tokuyou",
    "serviceType": "介護老人福祉施設",
    "capacity": 0,
    "openDays": [],
    "openDaysNote": ""
  },
  {
    "id": "1173200617",
    "name": "雰囲気はわが家と同じよし乃郷",
    "kana": "フンイキハワガヤトオナジヨシノサト",
    "address": "埼玉県比企郡ときがわ町五明1449-2",
    "lat": 36.0226984,
    "lng": 139.2700288,
    "tel": "0493-66-0150",
    "url": "http//www.yosinosato.com",
    "pref": "埼玉県",
    "city": "ときがわ町",
    "category": "tokuyou",
    "serviceType": "介護老人福祉施設",
    "capacity": 0,
    "openDays": [],
    "openDaysNote": ""
  },
  {
    "id": "1173000033",
    "name": "指定介護老人福祉施設　秋桜の里「かみふくおか」",
    "kana": "シテイカイゴロウジンフクシシセツ　コスモスノサト「カミフクオカ」",
    "address": "埼玉県ふじみ野市駒林1145-1秋桜の里　かみふくおか 秋桜の里　かみふくおか",
    "lat": 35.8701292,
    "lng": 139.5483508,
    "tel": "049-269-3081",
    "url": "http://www.kosumosuen.or.jp",
    "pref": "埼玉県",
    "city": "ふじみ野市",
    "category": "tokuyou",
    "serviceType": "介護老人福祉施設",
    "capacity": 104,
    "openDays": [],
    "openDaysNote": ""
  },
  {
    "id": "1172400150",
    "name": "特別養護老人ホーム　マザーアース",
    "kana": "トクベツヨウゴロウジンホーム　マザーアース",
    "address": "埼玉県ふじみ野市大井６２１－１",
    "lat": 35.8497504,
    "lng": 139.5259341,
    "tel": "049-261-0700",
    "url": "https://mother-earth.or.jp",
    "pref": "埼玉県",
    "city": "ふじみ野市",
    "category": "tokuyou",
    "serviceType": "介護老人福祉施設",
    "capacity": 0,
    "openDays": [],
    "openDaysNote": ""
  },
  {
    "id": "1173000421",
    "name": "特別養護老人ホーム　大井苑",
    "kana": "トクベツヨウゴロウジンホーム　オオイエン",
    "address": "埼玉県ふじみ野市大井武蔵野1277－1",
    "lat": 35.8542851,
    "lng": 139.4951422,
    "tel": "049-262-8686",
    "url": "http://www5.ocn.ne.jp/^itukikai/",
    "pref": "埼玉県",
    "city": "ふじみ野市",
    "category": "tokuyou",
    "serviceType": "介護老人福祉施設",
    "capacity": 0,
    "openDays": [],
    "openDaysNote": ""
  },
  {
    "id": "1171300112",
    "name": "伊奈の里",
    "kana": "イナノサト",
    "address": "埼玉県北足立郡伊奈町中央１－９３",
    "lat": 35.9976758246919,
    "lng": 139.615681471689,
    "tel": "048-723-1122",
    "url": "http://www.taijukai.com",
    "pref": "埼玉県",
    "city": "伊奈町",
    "category": "tokuyou",
    "serviceType": "介護老人福祉施設",
    "capacity": 0,
    "openDays": [],
    "openDaysNote": ""
  },
  {
    "id": "1171300575",
    "name": "特別養護老人ホーム　こころの杜",
    "kana": "トクベツヨウゴロウジンホーム　ココロノモリ",
    "address": "埼玉県北足立郡伊奈町小室5047－5",
    "lat": 35.9937673291512,
    "lng": 139.617561815114,
    "tel": "048－872－6016",
    "url": "http://shinsyukai.or.jp/",
    "pref": "埼玉県",
    "city": "伊奈町",
    "category": "tokuyou",
    "serviceType": "介護老人福祉施設",
    "capacity": 100,
    "openDays": [],
    "openDaysNote": ""
  },
  {
    "id": "1171300492",
    "name": "特別養護老人ホーム　みちみち伊奈中央",
    "kana": "トクベツヨウゴロウジンホームミチミチイナチュウオウ",
    "address": "北足立郡伊奈町大字小室9544-3特別養護老人ホーム　みちみち伊奈中央 特別養護老人ホーム　みちみち伊奈中央",
    "lat": 36.0022216797507,
    "lng": 139.625227568478,
    "tel": "048-723-5300",
    "url": "https://kousaikai-swc.jp/mitimiti-inac/",
    "pref": "埼玉県",
    "city": "伊奈町",
    "category": "tokuyou",
    "serviceType": "介護老人福祉施設",
    "capacity": 119,
    "openDays": [],
    "openDaysNote": ""
  },
  {
    "id": "1171300542",
    "name": "特別養護老人ホームみちみち伊奈北",
    "kana": "トクベツヨウゴロウジンホームミチミチイナキタ",
    "address": "埼玉県北足立郡伊奈町大字小針新宿368－1特別養護老人ホームみちみち伊奈北 特別養護老人ホームみちみち伊奈北",
    "lat": 36.0121468,
    "lng": 139.5944589,
    "tel": "048-729-2311",
    "url": "https://kousaikai-swc.jp/mitimiti-inakita/",
    "pref": "埼玉県",
    "city": "伊奈町",
    "category": "tokuyou",
    "serviceType": "介護老人福祉施設",
    "capacity": 110,
    "openDays": [],
    "openDaysNote": ""
  },
  {
    "id": "1173900182",
    "name": "清輝苑指定介護老人福祉施設",
    "kana": "セイキエンシテイカイゴロウジンフクシシセツ",
    "address": "埼玉県羽生市下村君1169番地",
    "lat": 36.1925859,
    "lng": 139.5873578,
    "tel": "048-565-1165",
    "url": "https://sw-kouwakai.or.jp/",
    "pref": "埼玉県",
    "city": "羽生市",
    "category": "tokuyou",
    "serviceType": "介護老人福祉施設",
    "capacity": null,
    "openDays": [],
    "openDaysNote": ""
  },
  {
    "id": "1173900083",
    "name": "特別養護老人ホーム　くわの実",
    "kana": "トクベツヨウゴロウジンホーム　クワノミ",
    "address": "羽生市大字下新郷660",
    "lat": 36.1442648,
    "lng": 139.5242518,
    "tel": "048-563-5088",
    "url": "http://www.kuwanomi.jp",
    "pref": "埼玉県",
    "city": "羽生市",
    "category": "tokuyou",
    "serviceType": "介護老人福祉施設",
    "capacity": null,
    "openDays": [],
    "openDaysNote": ""
  },
  {
    "id": "1173900562",
    "name": "特別養護老人ホーム　薫藤園（ユニット型）",
    "kana": "トクベツヨウゴロウジンホーム　クントウエン（ユニットガタ）",
    "address": "埼玉県羽生市大字秀安351",
    "lat": 36.1604914,
    "lng": 139.5512568,
    "tel": "048-563-0910",
    "url": "http://www.sakitamakai.jp/kuntouen/",
    "pref": "埼玉県",
    "city": "羽生市",
    "category": "tokuyou",
    "serviceType": "介護老人福祉施設",
    "capacity": 0,
    "openDays": [],
    "openDaysNote": ""
  },
  {
    "id": "1173900075",
    "name": "特別養護老人ホーム薫藤園",
    "kana": "トクベツヨウゴロウジンホームクントウエン",
    "address": "大字秀安351",
    "lat": 36.1605273968965,
    "lng": 139.551007472353,
    "tel": "048-563-0910",
    "url": "http://www.sakitamakai.jp/kuntouen/",
    "pref": "埼玉県",
    "city": "羽生市",
    "category": "tokuyou",
    "serviceType": "介護老人福祉施設",
    "capacity": 0,
    "openDays": [],
    "openDaysNote": ""
  },
  {
    "id": "1173900703",
    "name": "木犀館",
    "kana": "モクセイカン",
    "address": "埼玉県羽生市下川崎1406-4",
    "lat": 36.1396216,
    "lng": 139.5484861,
    "tel": "048-577-5603",
    "url": "www.kyoaikai.jp",
    "pref": "埼玉県",
    "city": "羽生市",
    "category": "tokuyou",
    "serviceType": "介護老人福祉施設",
    "capacity": 5,
    "openDays": [],
    "openDaysNote": ""
  },
  {
    "id": "1172401554",
    "name": "特別養護老人ホーム　四季の郷　越生",
    "kana": "トクベツヨウゴロウジンホーム　シキノサト　オゴセ",
    "address": "埼玉県入間郡越生町大字鹿下623-1",
    "lat": 35.9813712,
    "lng": 139.2853312,
    "tel": "049-298-7828",
    "url": "https://towa-kai.or.jp/ogose",
    "pref": "埼玉県",
    "city": "越生町",
    "category": "tokuyou",
    "serviceType": "介護老人福祉施設",
    "capacity": 100,
    "openDays": [],
    "openDaysNote": ""
  },
  {
    "id": "1172400119",
    "name": "特別養護老人ホーム光の丘",
    "kana": "トクベツヨウゴロウジンホームヒカリノオカ",
    "address": "埼玉県入間郡越生町大字上野3078-5",
    "lat": 35.9465271,
    "lng": 139.2958859,
    "tel": "049-292-5700",
    "url": "http://www.hikari-ogose.com/",
    "pref": "埼玉県",
    "city": "越生町",
    "category": "tokuyou",
    "serviceType": "介護老人福祉施設",
    "capacity": 70,
    "openDays": [],
    "openDaysNote": ""
  },
  {
    "id": "1170800625",
    "name": "キャンベルホーム",
    "kana": "キャンベルホーム",
    "address": "越谷市大吉552-1",
    "lat": 35.9177503668899,
    "lng": 139.802986176057,
    "tel": "048-970-3330",
    "url": "http://www.ooyoshikai.jp",
    "pref": "埼玉県",
    "city": "越谷市",
    "category": "tokuyou",
    "serviceType": "介護老人福祉施設",
    "capacity": 80,
    "openDays": [],
    "openDaysNote": ""
  },
  {
    "id": "1170803868",
    "name": "クローバーホーム",
    "kana": "クローバーホーム",
    "address": "埼玉県越谷市大字増林5445-1",
    "lat": 35.8957957,
    "lng": 139.8119174,
    "tel": "048-967-0500",
    "url": "http://www.ooyoshikai.jp/clover/",
    "pref": "埼玉県",
    "city": "越谷市",
    "category": "tokuyou",
    "serviceType": "介護老人福祉施設",
    "capacity": 100,
    "openDays": [],
    "openDaysNote": ""
  },
  {
    "id": "1170800245",
    "name": "越谷なごみの郷",
    "kana": "コシガヤナゴミノサト",
    "address": "埼玉県越谷市川柳町3丁目60番１",
    "lat": 35.8639797,
    "lng": 139.8131282,
    "tel": "048-987-0753",
    "url": "http://www.k-nagomi.or.jp",
    "pref": "埼玉県",
    "city": "越谷市",
    "category": "tokuyou",
    "serviceType": "介護老人福祉施設",
    "capacity": 0,
    "openDays": [],
    "openDaysNote": ""
  },
  {
    "id": "1170804387",
    "name": "越谷よさこいホーム",
    "kana": "コシガヤヨサコイホーム",
    "address": "埼玉県越谷市大字恩間新田５３番地１",
    "lat": 35.9404467,
    "lng": 139.7544441,
    "tel": "048-999-6262",
    "url": "https://koshigaya-yosakoi.com/index.html",
    "pref": "埼玉県",
    "city": "越谷市",
    "category": "tokuyou",
    "serviceType": "介護老人福祉施設",
    "capacity": null,
    "openDays": [],
    "openDaysNote": ""
  },
  {
    "id": "1170800252",
    "name": "介護老人福祉施設　越谷ホーム",
    "kana": "カイゴロウジンフクシシセツ　コシガヤホーム",
    "address": "越谷市大字南荻島１９８７番地２",
    "lat": 35.9029342,
    "lng": 139.7601873,
    "tel": "048-978-5500",
    "url": "http://www.koshigaya-home.or.jp",
    "pref": "埼玉県",
    "city": "越谷市",
    "category": "tokuyou",
    "serviceType": "介護老人福祉施設",
    "capacity": 0,
    "openDays": [],
    "openDaysNote": ""
  },
  {
    "id": "1170800260",
    "name": "介護老人福祉施設　嘉祥園",
    "kana": "カイゴロウジンフクシシセツ　カショウエン",
    "address": "越谷市谷中町４丁目２９番地",
    "lat": 35.8903195,
    "lng": 139.7699757,
    "tel": "048-966-7337",
    "url": "www.kashouen.biz/",
    "pref": "埼玉県",
    "city": "越谷市",
    "category": "tokuyou",
    "serviceType": "介護老人福祉施設",
    "capacity": 0,
    "openDays": [],
    "openDaysNote": ""
  },
  {
    "id": "1170800237",
    "name": "指定介護老人福祉施設憩いの里",
    "kana": "シテイカイゴロウジンフクシシセツイコイノサト",
    "address": "埼玉県越谷市増森1-85",
    "lat": 35.899959196913,
    "lng": 139.820972690213,
    "tel": "048-963-5151",
    "url": "http://www.kishinkai.or.jp/",
    "pref": "埼玉県",
    "city": "越谷市",
    "category": "tokuyou",
    "serviceType": "介護老人福祉施設",
    "capacity": 0,
    "openDays": [],
    "openDaysNote": ""
  },
  {
    "id": "1170802563",
    "name": "社会福祉法人桐和会　タムスさくらの杜越谷",
    "kana": "シャカイフクシホウジントウワカイ　タムスサクラノモリコシガヤ",
    "address": "埼玉県越谷市新川町2-247",
    "lat": 35.8799232,
    "lng": 139.7583398,
    "tel": "048-940-6110",
    "url": "http://sakuranomori.or.jp/koshigaya.php",
    "pref": "埼玉県",
    "city": "越谷市",
    "category": "tokuyou",
    "serviceType": "介護老人福祉施設",
    "capacity": 120,
    "openDays": [],
    "openDaysNote": ""
  },
  {
    "id": "1170803173",
    "name": "特別養護老人ホーム　えくぼ",
    "kana": "トクベツヨウゴロウジンホーム　エクボ",
    "address": "埼玉県越谷市七左町六丁目191番地1",
    "lat": 35.8731838082258,
    "lng": 139.774216001135,
    "tel": "048-987-4787",
    "url": "https://7793ekubo.jp",
    "pref": "埼玉県",
    "city": "越谷市",
    "category": "tokuyou",
    "serviceType": "介護老人福祉施設",
    "capacity": 100,
    "openDays": [],
    "openDaysNote": ""
  },
  {
    "id": "1170801748",
    "name": "特別養護老人ホーム　みちみち越谷",
    "kana": "トクベツヨウゴロウジンホーム　ミチミチコシガヤ",
    "address": "埼玉県越谷市大字船渡２０４６",
    "lat": 35.9413348,
    "lng": 139.7999455,
    "tel": "048-979-5381",
    "url": "http://www.mitimiti.jp/",
    "pref": "埼玉県",
    "city": "越谷市",
    "category": "tokuyou",
    "serviceType": "介護老人福祉施設",
    "capacity": 100,
    "openDays": [],
    "openDaysNote": ""
  },
  {
    "id": "1170804379",
    "name": "特別養護老人ホーム　越谷れんげの杜",
    "kana": "トクベツヨウゴロウジンホーム　コシガヤレンゲノモリ",
    "address": "埼玉県越谷市相模町2丁目277番１",
    "lat": 35.8864055576731,
    "lng": 139.807353673711,
    "tel": "048-989-0222",
    "url": "http://rengesou.or.jp",
    "pref": "埼玉県",
    "city": "越谷市",
    "category": "tokuyou",
    "serviceType": "介護老人福祉施設",
    "capacity": 100,
    "openDays": [],
    "openDaysNote": ""
  },
  {
    "id": "1170801680",
    "name": "特別養護老人ホーム　桃の里",
    "kana": "トクベツヨウゴロウジンホーム　モモノサト",
    "address": "埼玉県越谷市大字船渡４３番地",
    "lat": 35.9393657,
    "lng": 139.7941016,
    "tel": "048-974-2006",
    "url": "https://koukou.or.jp",
    "pref": "埼玉県",
    "city": "越谷市",
    "category": "tokuyou",
    "serviceType": "介護老人福祉施設",
    "capacity": 0,
    "openDays": [],
    "openDaysNote": ""
  },
  {
    "id": "1170803215",
    "name": "特別養護老人ホームグレースガーデン越谷",
    "kana": "トクベツヨウゴロウジンホームグレースガーデンコシガヤ",
    "address": "砂原125番地1",
    "lat": 35.9127980779391,
    "lng": 139.756642387712,
    "tel": "048-940-3915",
    "url": "http://gracegarden.or.jp/",
    "pref": "埼玉県",
    "city": "越谷市",
    "category": "tokuyou",
    "serviceType": "介護老人福祉施設",
    "capacity": 0,
    "openDays": [],
    "openDaysNote": ""
  },
  {
    "id": "1170803892",
    "name": "特別養護老人ホームさち",
    "kana": "トクベツヨウゴロウジンホームサチ",
    "address": "埼玉県越谷市神明町3丁目18番地",
    "lat": 35.8917531576372,
    "lng": 139.768914419487,
    "tel": "048-966-2525",
    "url": "https://koukou.or.jp",
    "pref": "埼玉県",
    "city": "越谷市",
    "category": "tokuyou",
    "serviceType": "介護老人福祉施設",
    "capacity": 100,
    "openDays": [],
    "openDaysNote": ""
  },
  {
    "id": "1170805103",
    "name": "特別養護老人ホームレイクタウンの杜",
    "kana": "トクベツヨウゴロウジンホームレイクタウンノモリ",
    "address": "埼玉県越谷市東町三丁目４３９番地１",
    "lat": 35.8799484865821,
    "lng": 139.836653863368,
    "tel": "048-972-5064",
    "url": "https://www.seijyukai-smile.or.jp/pages/46/",
    "pref": "埼玉県",
    "city": "越谷市",
    "category": "tokuyou",
    "serviceType": "介護老人福祉施設",
    "capacity": 0,
    "openDays": [],
    "openDaysNote": ""
  },
  {
    "id": "1174800266",
    "name": "ウエルハイム・ヨコゼ",
    "kana": "ウエルハイム・ヨコゼ",
    "address": "埼玉県秩父郡横瀬町大字横瀬5806-1",
    "lat": 36.0054178,
    "lng": 139.1101385,
    "tel": "0494-25-0120",
    "url": "http://wellhaim.or.jp/",
    "pref": "埼玉県",
    "city": "横瀬町",
    "category": "tokuyou",
    "serviceType": "介護老人福祉施設",
    "capacity": 90,
    "openDays": [],
    "openDaysNote": ""
  },
  {
    "id": "1175200078",
    "name": "べに花の郷",
    "kana": "ベニバナノサト",
    "address": "埼玉県桶川市坂田字原５１６番地１",
    "lat": 36.0136295206157,
    "lng": 139.579692568833,
    "tel": "048-729-1177",
    "url": "http://s-meiwakai.jp",
    "pref": "埼玉県",
    "city": "桶川市",
    "category": "tokuyou",
    "serviceType": "介護老人福祉施設",
    "capacity": 56,
    "openDays": [],
    "openDaysNote": ""
  },
  {
    "id": "1175201092",
    "name": "特別養護老人ホーム　ナーシングコート",
    "kana": "トクベツヨウゴロウジンホーム　ナーシングコート",
    "address": "埼玉県桶川市川田谷6238",
    "lat": 36.0121076754321,
    "lng": 139.5318192,
    "tel": "048-786-7777",
    "url": "https://aishinkai.net/nursingcoart.html",
    "pref": "埼玉県",
    "city": "桶川市",
    "category": "tokuyou",
    "serviceType": "介護老人福祉施設",
    "capacity": 100,
    "openDays": [],
    "openDaysNote": ""
  },
  {
    "id": "1175201373",
    "name": "特別養護老人ホーム　ベテラン館ヴィラ桶川",
    "kana": "トクベツヨウゴロウジンホーム　ベテランカンウ”ィラオケガワ",
    "address": "加納818-1",
    "lat": null,
    "lng": null,
    "tel": "048-871-9723",
    "url": "http://www.kouyoujukai.or.jp",
    "pref": "埼玉県",
    "city": "桶川市",
    "category": "tokuyou",
    "serviceType": "介護老人福祉施設",
    "capacity": 0,
    "openDays": [],
    "openDaysNote": ""
  },
  {
    "id": "1175200557",
    "name": "特別養護老人ホーム　花ノ木の郷",
    "kana": "トクベツヨウゴロウジンホーム　ハナノキノサト",
    "address": "埼玉県桶川市加納1824-1",
    "lat": 36.0315414,
    "lng": 139.5616558,
    "tel": "048-729-2222",
    "url": "http://www.ryokufu-kai.or.jp",
    "pref": "埼玉県",
    "city": "桶川市",
    "category": "tokuyou",
    "serviceType": "介護老人福祉施設",
    "capacity": 90,
    "openDays": [],
    "openDaysNote": ""
  },
  {
    "id": "1175200854",
    "name": "特別養護老人ホームクイーンズビラ桶川",
    "kana": "トクベツヨウゴロウジンホーム　クイーンズビラオケガワ",
    "address": "埼玉県桶川市坂田845-1",
    "lat": 36.0222647622851,
    "lng": 139.578485912519,
    "tel": "048-728-8887",
    "url": "okegawa@queensvilla.com",
    "pref": "埼玉県",
    "city": "桶川市",
    "category": "tokuyou",
    "serviceType": "介護老人福祉施設",
    "capacity": 100,
    "openDays": [],
    "openDaysNote": ""
  },
  {
    "id": "1175200086",
    "name": "特別養護老人ホームはにわの里",
    "kana": "トクベツヨウゴロウジンホームハニワノサト",
    "address": "埼玉県桶川市川田谷7141番地の１",
    "lat": 35.9988342,
    "lng": 139.5098785,
    "tel": "048-786-2323",
    "url": "http://www.anseifukushikai.or.jp/home.htm",
    "pref": "埼玉県",
    "city": "桶川市",
    "category": "tokuyou",
    "serviceType": "介護老人福祉施設",
    "capacity": 0,
    "openDays": [],
    "openDaysNote": ""
  },
  {
    "id": "1173600089",
    "name": "ふれ愛の郷",
    "kana": "フレアイノサト",
    "address": "埼玉県加須市新川通１７９－１",
    "lat": 36.1592668,
    "lng": 139.6705902,
    "tel": "0480-72-1590",
    "url": "http://keiaikai-j.jp",
    "pref": "埼玉県",
    "city": "加須市",
    "category": "tokuyou",
    "serviceType": "介護老人福祉施設",
    "capacity": 0,
    "openDays": [],
    "openDaysNote": ""
  },
  {
    "id": "1173600303",
    "name": "ライゼ清輝苑指定介護老人福祉施設",
    "kana": "ライゼセイキエンシテイカイゴロウジンフクシシセツ",
    "address": "埼玉県加須市陽光台2丁目８８３－７５",
    "lat": 36.1909886,
    "lng": 139.6803185,
    "tel": "0280-61-2120",
    "url": "https://sw-kouwakai.or.jp/",
    "pref": "埼玉県",
    "city": "加須市",
    "category": "tokuyou",
    "serviceType": "介護老人福祉施設",
    "capacity": 50,
    "openDays": [],
    "openDaysNote": ""
  },
  {
    "id": "1173801018",
    "name": "加須清輝苑　指定介護老人福祉施設",
    "kana": "カゾセイキエン　シテイカイゴロウジンフクシシセツ",
    "address": "埼玉県加須市陽光台2丁目883番地78",
    "lat": 36.1905240818585,
    "lng": 139.680152705418,
    "tel": "0280-23-1112",
    "url": "https://sw-kouwakai.or.jp/",
    "pref": "埼玉県",
    "city": "加須市",
    "category": "tokuyou",
    "serviceType": "介護老人福祉施設",
    "capacity": 0,
    "openDays": [],
    "openDaysNote": ""
  },
  {
    "id": "1173801323",
    "name": "介護老人福祉施設　ことよりテラス",
    "kana": "カイゴロウジンフクシシセツ　コトヨリテラス",
    "address": "埼玉県加須市琴寄270-3",
    "lat": 36.1268414514985,
    "lng": 139.67849699697,
    "tel": "0480(53)6759",
    "url": "http://www.shojinkai-g.or.jp/",
    "pref": "埼玉県",
    "city": "加須市",
    "category": "tokuyou",
    "serviceType": "介護老人福祉施設",
    "capacity": 100,
    "openDays": [],
    "openDaysNote": ""
  },
  {
    "id": "1173800465",
    "name": "介護老人福祉施設　久下けやきハウス",
    "kana": "カイゴロウジンフクシシセツ　クゲケヤキハウス",
    "address": "埼玉県加須市久下３－６－１",
    "lat": 36.1222923,
    "lng": 139.6136267,
    "tel": "0480-67-0014",
    "url": "https://heimat-kuge.or.jp/",
    "pref": "埼玉県",
    "city": "加須市",
    "category": "tokuyou",
    "serviceType": "介護老人福祉施設",
    "capacity": 60,
    "openDays": [],
    "openDaysNote": ""
  },
  {
    "id": "1173801703",
    "name": "介護老人福祉施設　特養騎西",
    "kana": "カイゴロウジンフクシシセツ　トクヨウキサイ",
    "address": "埼玉県加須市日出安1268番",
    "lat": 36.1123235,
    "lng": 139.5806454,
    "tel": "0480-70-1070",
    "url": "https://www.kisai-tokuyou.or.jp/",
    "pref": "埼玉県",
    "city": "加須市",
    "category": "tokuyou",
    "serviceType": "介護老人福祉施設",
    "capacity": null,
    "openDays": [],
    "openDaysNote": ""
  },
  {
    "id": "1173800952",
    "name": "介護老人福祉施設　利根いこいの里",
    "kana": "カイゴロウジンフクシシセツ　トネイコイノサト",
    "address": "埼玉県加須市大越1933介護福祉老人施設　利根いこいの里 介護福祉老人施設　利根いこいの里",
    "lat": 36.1778718,
    "lng": 139.6205886,
    "tel": "0480-69-1530",
    "url": "https://junseikai.org/index",
    "pref": "埼玉県",
    "city": "加須市",
    "category": "tokuyou",
    "serviceType": "介護老人福祉施設",
    "capacity": 40,
    "openDays": [],
    "openDaysNote": ""
  },
  {
    "id": "1173800168",
    "name": "介護老人福祉施設　利根いこいの里",
    "kana": "カイゴロウジンフクシシセツ　トネイコイノサト",
    "address": "埼玉県加須市大越1933",
    "lat": 36.1778718,
    "lng": 139.6205886,
    "tel": "0480-69-1530",
    "url": "www.junseikai.org/toneikoi/indextoneikoi.html",
    "pref": "埼玉県",
    "city": "加須市",
    "category": "tokuyou",
    "serviceType": "介護老人福祉施設",
    "capacity": 0,
    "openDays": [],
    "openDaysNote": ""
  },
  {
    "id": "1173800176",
    "name": "特別養護老人ホーム　みずほの里",
    "kana": "トクベツヨウゴロウジンホームミズホノサト",
    "address": "埼玉県加須市平永142",
    "lat": 36.1259989,
    "lng": 139.5695537,
    "tel": "0480-61-2228",
    "url": "http://www.sakitamakai.jp/",
    "pref": "埼玉県",
    "city": "加須市",
    "category": "tokuyou",
    "serviceType": "介護老人福祉施設",
    "capacity": 0,
    "openDays": [],
    "openDaysNote": ""
  },
  {
    "id": "1173800150",
    "name": "特別養護老人ホーム　愛泉苑",
    "kana": "トクベツヨウゴロウジンホーム　アイセンエン",
    "address": "埼玉県加須市水深８６９－1",
    "lat": 36.0954012301487,
    "lng": 139.637091753071,
    "tel": "0480-65-4122",
    "url": "http://www.ainoizumi.com",
    "pref": "埼玉県",
    "city": "加須市",
    "category": "tokuyou",
    "serviceType": "介護老人福祉施設",
    "capacity": 0,
    "openDays": [],
    "openDaysNote": ""
  },
  {
    "id": "1173600410",
    "name": "特別養護老人ホーム　万葉の郷",
    "kana": "トクベツヨウゴロウジンホーム　マンヨウノサト",
    "address": "埼玉県加須市新川通１０５番地１",
    "lat": 36.159725,
    "lng": 139.6706847,
    "tel": "0480-72-1165",
    "url": "https://keiaikai-j.jp/",
    "pref": "埼玉県",
    "city": "加須市",
    "category": "tokuyou",
    "serviceType": "介護老人福祉施設",
    "capacity": 70,
    "openDays": [],
    "openDaysNote": ""
  },
  {
    "id": "1173801026",
    "name": "特別養護老人ホームみずほの里（ユニット型）",
    "kana": "トクベツヨウゴロウジンホームミズホノサト（ユニットガタ）",
    "address": "埼玉県加須市平永142",
    "lat": 36.1259989,
    "lng": 139.5695537,
    "tel": "0480-61-2228",
    "url": "http://www.sakitamakai.jp/main/mi",
    "pref": "埼玉県",
    "city": "加須市",
    "category": "tokuyou",
    "serviceType": "介護老人福祉施設",
    "capacity": 40,
    "openDays": [],
    "openDaysNote": ""
  },
  {
    "id": "1173600071",
    "name": "特別養護老人ホーム多賀谷寿光園",
    "kana": "トクベツヨウゴロウジンホームタガヤジュコウエン",
    "address": "埼玉県加須市上崎2037-1",
    "lat": 36.1110474,
    "lng": 139.5465289,
    "tel": "0480-73-3161",
    "url": "http://www.jukouen.or.jp/",
    "pref": "埼玉県",
    "city": "加須市",
    "category": "tokuyou",
    "serviceType": "介護老人福祉施設",
    "capacity": 50,
    "openDays": [],
    "openDaysNote": ""
  },
  {
    "id": "1174800233",
    "name": "特別養護老人ホーム　悠う湯ホーム",
    "kana": "トクベツヨウゴロウジンホーム　ユウユウホーム",
    "address": "秩父郡皆野町下日野沢３９０６－３",
    "lat": 36.0818156,
    "lng": 139.0707462,
    "tel": "0494-26-5043",
    "url": "https://minano-fukushikai.jp/",
    "pref": "埼玉県",
    "city": "皆野町",
    "category": "tokuyou",
    "serviceType": "介護老人福祉施設",
    "capacity": 78,
    "openDays": [],
    "openDaysNote": ""
  },
  {
    "id": "1173200138",
    "name": "特別養護老人ホーム　森林園",
    "kana": "トクベツヨウゴロウジンホーム　シンリンエン",
    "address": "埼玉県比企郡滑川町大字羽尾4738-2",
    "lat": 36.0551382,
    "lng": 139.3634282,
    "tel": "0493-56-5636",
    "url": "https://www.shinrinen.or.jp/",
    "pref": "埼玉県",
    "city": "滑川町",
    "category": "tokuyou",
    "serviceType": "介護老人福祉施設",
    "capacity": null,
    "openDays": [],
    "openDaysNote": ""
  },
  {
    "id": "1174500320",
    "name": "特別養護老人ホーム　あきやま苑",
    "kana": "トクベツヨウゴロウジンホーム　アキヤマエン",
    "address": "埼玉県大里郡寄居町大字秋山721",
    "lat": 36.0971318,
    "lng": 139.1684626,
    "tel": "048-581-8710",
    "url": "http://eijyukai-akiyamaen.jp",
    "pref": "埼玉県",
    "city": "寄居町",
    "category": "tokuyou",
    "serviceType": "介護老人福祉施設",
    "capacity": 0,
    "openDays": [],
    "openDaysNote": ""
  },
  {
    "id": "1174501831",
    "name": "特別養護老人ホームよりい",
    "kana": "トクベツヨウゴロウジンホームヨリイ",
    "address": "埼玉県大里郡寄居町大字用土133番地1特別養護老人ホームよりい 特別養護老人ホームよりい",
    "lat": 36.1423203522923,
    "lng": 139.192543313261,
    "tel": "048-578-5058",
    "url": "https://www.shunjin.or.jp/tokuyou/",
    "pref": "埼玉県",
    "city": "寄居町",
    "category": "tokuyou",
    "serviceType": "介護老人福祉施設",
    "capacity": 80,
    "openDays": [],
    "openDaysNote": ""
  },
  {
    "id": "1174501294",
    "name": "特別養護老人ホーム花ぞの",
    "kana": "トクベツヨウゴロウジンホームハナゾノ",
    "address": "埼玉県大里郡寄居町大字用土2440番地5",
    "lat": 36.1553909,
    "lng": 139.2019775,
    "tel": "048-584-7187",
    "url": "http://hana-zono.or.jp",
    "pref": "埼玉県",
    "city": "寄居町",
    "category": "tokuyou",
    "serviceType": "介護老人福祉施設",
    "capacity": 0,
    "openDays": [],
    "openDaysNote": ""
  },
  {
    "id": "1173200310",
    "name": "介護老人福祉施設　常磐苑",
    "kana": "カイゴロウジンフクシシセツ　トキワエン",
    "address": "埼玉県比企郡吉見町大字北吉見350",
    "lat": 36.0401353,
    "lng": 139.4202259,
    "tel": "0493-54-1333",
    "url": "http://tokiwafukushikai.jp",
    "pref": "埼玉県",
    "city": "吉見町",
    "category": "tokuyou",
    "serviceType": "介護老人福祉施設",
    "capacity": 0,
    "openDays": [],
    "openDaysNote": ""
  },
  {
    "id": "1176400107",
    "name": "吉川平成園",
    "kana": "ヨシカワヘイセイエン",
    "address": "埼玉県吉川市大字加藤字中道１８７－１",
    "lat": 35.8885738909425,
    "lng": 139.881304721426,
    "tel": "048-981-8811",
    "url": "http://www.y-heiseien.or.jp",
    "pref": "埼玉県",
    "city": "吉川市",
    "category": "tokuyou",
    "serviceType": "介護老人福祉施設",
    "capacity": 0,
    "openDays": [],
    "openDaysNote": ""
  },
  {
    "id": "1176400099",
    "name": "社会福祉法人　楽栄会　特別養護老人ホーム　ききょう苑",
    "kana": "シャカイフクシホウジン　ラクエイカイ　トクベツヨウゴロウジンホーム　キキョウエン",
    "address": "吉川市大字飯島274番地",
    "lat": 35.8801282,
    "lng": 139.8813808,
    "tel": "048-984-1603",
    "url": "https://kikyouen-rakueikai.jimdofree.com/",
    "pref": "埼玉県",
    "city": "吉川市",
    "category": "tokuyou",
    "serviceType": "介護老人福祉施設",
    "capacity": 0,
    "openDays": [],
    "openDaysNote": ""
  },
  {
    "id": "1176400750",
    "name": "特別養護老人ホーム　みなみの苑",
    "kana": "トクベツヨウゴロウジンホーム　ミナミノソノ",
    "address": "埼玉県吉川市中曽根1559-2",
    "lat": 35.864122,
    "lng": 139.8452371,
    "tel": "048-984-0373",
    "url": "https://www.tangokai.jp/minaminosono/",
    "pref": "埼玉県",
    "city": "吉川市",
    "category": "tokuyou",
    "serviceType": "介護老人福祉施設",
    "capacity": 0,
    "openDays": [],
    "openDaysNote": ""
  },
  {
    "id": "1170901308",
    "name": "介護老人福祉施設　喜びの里鷲宮",
    "kana": "カイゴロウジンフクシシセツ　ヨロコビノサトワシノミヤ",
    "address": "埼玉県久喜市鷲宮3055番地1",
    "lat": 36.1029909594686,
    "lng": 139.669209541725,
    "tel": "0480-98-2100",
    "url": "http://www.kukinosato.jp/yorokobinosato/",
    "pref": "埼玉県",
    "city": "久喜市",
    "category": "tokuyou",
    "serviceType": "介護老人福祉施設",
    "capacity": 100,
    "openDays": [],
    "openDaysNote": ""
  },
  {
    "id": "1171100256",
    "name": "介護老人福祉施設　栗橋翔裕園",
    "kana": "カイゴロウジンフクシシセツ　クリハシショウユウエン",
    "address": "埼玉県久喜市栗橋３１０－１",
    "lat": 36.1257159,
    "lng": 139.7035549,
    "tel": "0480-52-6611",
    "url": "http://www.genkimuragroup.jp/genkimura/kurihashi/",
    "pref": "埼玉県",
    "city": "久喜市",
    "category": "tokuyou",
    "serviceType": "介護老人福祉施設",
    "capacity": 0,
    "openDays": [],
    "openDaysNote": ""
  },
  {
    "id": "1170901100",
    "name": "介護老人福祉施設　陽日館　（ユニット型）",
    "kana": "カイゴロウジンフクシシセツ　ユイカン　ユニットガタ",
    "address": "久喜市下早見1728番地1",
    "lat": 36.0508524472813,
    "lng": 139.653766661377,
    "tel": "0480-25-2100",
    "url": "ｈｔｔｐ：//ｗｗｗ．ｋｕｋｉｎｏｓａｔｏ．ｊｐ/",
    "pref": "埼玉県",
    "city": "久喜市",
    "category": "tokuyou",
    "serviceType": "介護老人福祉施設",
    "capacity": 0,
    "openDays": [],
    "openDaysNote": ""
  },
  {
    "id": "1170500134",
    "name": "介護老人福祉施設しょうぶの里",
    "kana": "カイゴロウジンフクシシセツショウブノサト",
    "address": "埼玉県久喜市菖蒲町下栢間２８１５番地１",
    "lat": 36.0369052,
    "lng": 139.5743512,
    "tel": "0480-85-6688",
    "url": "http://www.syoubunosato.jp",
    "pref": "埼玉県",
    "city": "久喜市",
    "category": "tokuyou",
    "serviceType": "介護老人福祉施設",
    "capacity": 0,
    "openDays": [],
    "openDaysNote": ""
  },
  {
    "id": "1170900136",
    "name": "介護老人福祉施設久喜の里（従来型）",
    "kana": "カイゴロウジンフクシシセツ　クキノサト（ジュウライガタ）",
    "address": "久喜市下早見1728番地1",
    "lat": 36.0506355917269,
    "lng": 139.653954416008,
    "tel": "0480-25-2100",
    "url": "http://www.kukinosato.jp/",
    "pref": "埼玉県",
    "city": "久喜市",
    "category": "tokuyou",
    "serviceType": "介護老人福祉施設",
    "capacity": 0,
    "openDays": [],
    "openDaysNote": ""
  },
  {
    "id": "1170900144",
    "name": "鶴寿荘介護老人福祉施設",
    "kana": "カクジュソウカイゴロウジンフクシシセツ",
    "address": "埼玉県久喜市北青柳1364",
    "lat": 36.0518941,
    "lng": 139.6614861,
    "tel": "0480-23-6288",
    "url": "http://www.kakuju.saitama.jp/",
    "pref": "埼玉県",
    "city": "久喜市",
    "category": "tokuyou",
    "serviceType": "介護老人福祉施設",
    "capacity": 129,
    "openDays": [],
    "openDaysNote": ""
  },
  {
    "id": "1170901266",
    "name": "特別養護老人ホーム　ローレル高柳",
    "kana": "トクベツヨウゴロウジンホーム　ローレルタカヤナギ",
    "address": "久喜市高柳字神取前2261特別養護老人ホームローレル高柳 特別養護老人ホームローレル高柳",
    "lat": 36.1194687426446,
    "lng": 139.676216088113,
    "tel": "0480-55-1171",
    "url": "http://www.growring.jp/",
    "pref": "埼玉県",
    "city": "久喜市",
    "category": "tokuyou",
    "serviceType": "介護老人福祉施設",
    "capacity": 100,
    "openDays": [],
    "openDaysNote": ""
  },
  {
    "id": "1170901647",
    "name": "特別養護老人ホーム　久喜ことぶき苑",
    "kana": "トクベツヨウゴロウジンホーム　クキコトブキエン",
    "address": "上内1378番11",
    "lat": 36.0924025911169,
    "lng": 139.660226461377,
    "tel": "0480-59-2910",
    "url": "http://www.fussakotobukien.or,jp",
    "pref": "埼玉県",
    "city": "久喜市",
    "category": "tokuyou",
    "serviceType": "介護老人福祉施設",
    "capacity": 40,
    "openDays": [],
    "openDaysNote": ""
  },
  {
    "id": "1170901662",
    "name": "特別養護老人ホーム　久喜ことぶき苑",
    "kana": "トクベツヨウゴロウジンホーム　クキコトブキエン",
    "address": "上内1378番11",
    "lat": 36.0922703280115,
    "lng": 139.660239326154,
    "tel": "0480-59-2910",
    "url": "http://www.fussakotobukien.or,jp",
    "pref": "埼玉県",
    "city": "久喜市",
    "category": "tokuyou",
    "serviceType": "介護老人福祉施設",
    "capacity": 0,
    "openDays": [],
    "openDaysNote": ""
  },
  {
    "id": "1171100231",
    "name": "特別養護老人ホーム　鷲宮苑",
    "kana": "トクベツヨウゴロウジンホーム　ワシミヤエン",
    "address": "久喜市上川崎607番地",
    "lat": 36.0805459,
    "lng": 139.6923241,
    "tel": "0480-58-7762",
    "url": "https://taijukai.com",
    "pref": "埼玉県",
    "city": "久喜市",
    "category": "tokuyou",
    "serviceType": "介護老人福祉施設",
    "capacity": 80,
    "openDays": [],
    "openDaysNote": ""
  },
  {
    "id": "1170901548",
    "name": "特別養護老人ホームしょうぶ翔裕園",
    "kana": "トクベツヨウゴロウジンホームショウブショウユウエン",
    "address": "埼玉県久喜市菖蒲町菖蒲5205番",
    "lat": 36.0651249,
    "lng": 139.6027358,
    "tel": "0480-87-0011",
    "url": "https://www.genkimuragroup.jp/genkimura/shobu/",
    "pref": "埼玉県",
    "city": "久喜市",
    "category": "tokuyou",
    "serviceType": "介護老人福祉施設",
    "capacity": 0,
    "openDays": [],
    "openDaysNote": ""
  },
  {
    "id": "1171100249",
    "name": "特別養護老人ホーム恒寿苑",
    "kana": "トクベツヨウゴロウジンホームコウジュエン",
    "address": "埼玉県久喜市中妻902-1",
    "lat": 36.0886193,
    "lng": 139.6451746,
    "tel": "0480-58-7577",
    "url": "http://www.koujuen.com",
    "pref": "埼玉県",
    "city": "久喜市",
    "category": "tokuyou",
    "serviceType": "介護老人福祉施設",
    "capacity": 82,
    "openDays": [],
    "openDaysNote": ""
  },
  {
    "id": "1170501082",
    "name": "特別養護老人ホームひだまりの郷",
    "kana": "トクベツヨウゴロウジンホーム　ヒダマリノサト",
    "address": "埼玉県南埼玉郡宮代町字姫宮１６５－１",
    "lat": 36.006521,
    "lng": 139.735995,
    "tel": "０４８０－３７－３８０１",
    "url": "http://magokoro-kai.jp",
    "pref": "埼玉県",
    "city": "宮代町",
    "category": "tokuyou",
    "serviceType": "介護老人福祉施設",
    "capacity": 100,
    "openDays": [],
    "openDaysNote": ""
  },
  {
    "id": "1170500126",
    "name": "特別養護老人ホームみどりの森",
    "kana": "トクベツヨウゴロウジンホームミドリノモリ",
    "address": "埼玉県南埼玉郡宮代町和戸１７８０－１特別養護老人ホームみどりの森 特別養護老人ホームみどりの森",
    "lat": 36.055188,
    "lng": 139.695075,
    "tel": "0480-34-8881",
    "url": "http://mitsunami.or.jp/",
    "pref": "埼玉県",
    "city": "宮代町",
    "category": "tokuyou",
    "serviceType": "介護老人福祉施設",
    "capacity": 80,
    "openDays": [],
    "openDaysNote": ""
  },
  {
    "id": "1170500852",
    "name": "特別養護老人ホームもみの木",
    "kana": "トクベツヨウゴロウジンホームモミノキ",
    "address": "埼玉県南埼玉郡宮代町金原５６７",
    "lat": 36.0085024,
    "lng": 139.7118643,
    "tel": "0480-33-5580",
    "url": "http://www.shinzenkai.net/",
    "pref": "埼玉県",
    "city": "宮代町",
    "category": "tokuyou",
    "serviceType": "介護老人福祉施設",
    "capacity": 120,
    "openDays": [],
    "openDaysNote": ""
  },
  {
    "id": "1172700187",
    "name": "むさしの園",
    "kana": "ムサシノエン",
    "address": "埼玉県狭山市大字南入曽１０４４－１特別養護老人ホーム　むさしの園 特別養護老人ホーム　むさしの園",
    "lat": 35.8225488,
    "lng": 139.4330289,
    "tel": "04-2956-7770",
    "url": "http://www.e-musashinoen.com",
    "pref": "埼玉県",
    "city": "狭山市",
    "category": "tokuyou",
    "serviceType": "介護老人福祉施設",
    "capacity": 90,
    "openDays": [],
    "openDaysNote": ""
  },
  {
    "id": "1172700914",
    "name": "介護老人福祉施設　ジョアン宮地の里",
    "kana": "カイゴロウジンフクシシセツ　ジョアンミヤヂノサト",
    "address": "埼玉県狭山市大字笹井1568-2",
    "lat": 35.8553045,
    "lng": 139.3724305,
    "tel": "04-2900-3600",
    "url": "http://www.sakaekai.or.jp",
    "pref": "埼玉県",
    "city": "狭山市",
    "category": "tokuyou",
    "serviceType": "介護老人福祉施設",
    "capacity": 0,
    "openDays": [],
    "openDaysNote": ""
  },
  {
    "id": "1172700195",
    "name": "特別養護老人ホーム　さやま苑",
    "kana": "トクベツヨウゴロウジンホウム　サヤマエン",
    "address": "埼玉県　狭山市　柏原758-4",
    "lat": 35.8908258,
    "lng": 139.398524,
    "tel": "04-2954-8855",
    "url": "https://www.sayamaen.net",
    "pref": "埼玉県",
    "city": "狭山市",
    "category": "tokuyou",
    "serviceType": "介護老人福祉施設",
    "capacity": 54,
    "openDays": [],
    "openDaysNote": ""
  },
  {
    "id": "1172701730",
    "name": "特別養護老人ホーム　むさしの園わかば",
    "kana": "トクベツヨウゴロウジンホーム　ムサシノエンワカバ",
    "address": "埼玉狭山市大字南入曽1048-2",
    "lat": 35.822529145066,
    "lng": 139.432440611115,
    "tel": "04-2956-7760",
    "url": "www.e-musashinoen.com",
    "pref": "埼玉県",
    "city": "狭山市",
    "category": "tokuyou",
    "serviceType": "介護老人福祉施設",
    "capacity": 100,
    "openDays": [],
    "openDaysNote": ""
  },
  {
    "id": "1172701722",
    "name": "特別養護老人ホームオリーブ　月見乃館",
    "kana": "トクベツヨウゴロウジンホームオリーブ　ツキミノカン",
    "address": "埼玉県狭山市大字上赤坂290番地1",
    "lat": 35.8530842,
    "lng": 139.4599565,
    "tel": "04-2950-5000",
    "url": "http://sayama-olive.jp/",
    "pref": "埼玉県",
    "city": "狭山市",
    "category": "tokuyou",
    "serviceType": "介護老人福祉施設",
    "capacity": 50,
    "openDays": [],
    "openDaysNote": ""
  },
  {
    "id": "1172700401",
    "name": "特別養護老人ホームオリーブ　富士見の館",
    "kana": "トクベツヨウゴロウジンホームオリーブ　フジミノカン",
    "address": "埼玉県狭山市大字上赤坂２９０番地１",
    "lat": 35.8530842,
    "lng": 139.4599565,
    "tel": "04-2950-2400",
    "url": "http:/www.sayama-olive.jp/",
    "pref": "埼玉県",
    "city": "狭山市",
    "category": "tokuyou",
    "serviceType": "介護老人福祉施設",
    "capacity": 54,
    "openDays": [],
    "openDaysNote": ""
  },
  {
    "id": "1172700609",
    "name": "特別養護老人ホームさくら",
    "kana": "トクベツヨウゴロウジンホームサクラ",
    "address": "埼玉県狭山市大字加佐志字普門寺１０４番",
    "lat": 35.8529421,
    "lng": 139.4122129,
    "tel": "04-2950-0606",
    "url": "http://www.sakura-toku.com/",
    "pref": "埼玉県",
    "city": "狭山市",
    "category": "tokuyou",
    "serviceType": "介護老人福祉施設",
    "capacity": 100,
    "openDays": [],
    "openDaysNote": ""
  },
  {
    "id": "1172700203",
    "name": "特別養護老人ホームつつじの園",
    "kana": "トクベツヨウゴロウジンホームツツジノエン",
    "address": "狭山市柏原１１８５－６",
    "lat": 35.8765277,
    "lng": 139.4023382,
    "tel": "04-2955-2300",
    "url": "http://www.tutujinoen.com",
    "pref": "埼玉県",
    "city": "狭山市",
    "category": "tokuyou",
    "serviceType": "介護老人福祉施設",
    "capacity": 0,
    "openDays": [],
    "openDaysNote": ""
  },
  {
    "id": "1172701409",
    "name": "特別養護老人ホームつつじの園　新館",
    "kana": "トクベツヨウゴロウジンホームツツジノエン　シンカン",
    "address": "埼玉県狭山市柏原1185-6",
    "lat": 35.8765277,
    "lng": 139.4023382,
    "tel": "04-2955-2300",
    "url": "http://www.tutujinoen.jp",
    "pref": "埼玉県",
    "city": "狭山市",
    "category": "tokuyou",
    "serviceType": "介護老人福祉施設",
    "capacity": 0,
    "openDays": [],
    "openDaysNote": ""
  },
  {
    "id": "1172701987",
    "name": "特別養護老人ホームひろせの杜",
    "kana": "トクベツヨウゴロウジンホームヒロセノモリ",
    "address": "埼玉県狭山市大字上広瀬字霞ヶ丘939番1",
    "lat": 35.8642500506678,
    "lng": 139.387910497376,
    "tel": "04-2936-8244",
    "url": "http://sskojyukai.com",
    "pref": "埼玉県",
    "city": "狭山市",
    "category": "tokuyou",
    "serviceType": "介護老人福祉施設",
    "capacity": 110,
    "openDays": [],
    "openDaysNote": ""
  },
  {
    "id": "1172702001",
    "name": "特別養護老人ホーム福寿の里",
    "kana": "トクベツヨウゴロウジンホームフクジュノサト",
    "address": "埼玉県狭山市大字北入曽字南入間野1502番1",
    "lat": 35.8300116009872,
    "lng": 139.442175206282,
    "tel": "04-2957-1163",
    "url": "http://www.syojukai.or.jp/syoeikai/fukuju/",
    "pref": "埼玉県",
    "city": "狭山市",
    "category": "tokuyou",
    "serviceType": "介護老人福祉施設",
    "capacity": 0,
    "openDays": [],
    "openDaysNote": ""
  },
  {
    "id": "1173102441",
    "name": "いずみ熊谷",
    "kana": "イズミクマガヤ",
    "address": "埼玉県熊谷市平戸212-1",
    "lat": 36.1439857,
    "lng": 139.4124113,
    "tel": "048-598-5470",
    "url": "http://www.oh-izumi.or.jp/kumagaya/",
    "pref": "埼玉県",
    "city": "熊谷市",
    "category": "tokuyou",
    "serviceType": "介護老人福祉施設",
    "capacity": 0,
    "openDays": [],
    "openDaysNote": ""
  },
  {
    "id": "1173101773",
    "name": "介護老人福祉施設熊谷ホーム",
    "kana": "カイゴロウジンフクシシセツクマガヤホーム",
    "address": "埼玉県熊谷市新堀1140番地",
    "lat": 36.1744413,
    "lng": 139.3198001,
    "tel": "048-532-2800",
    "url": "http://www.shouninkai.com",
    "pref": "埼玉県",
    "city": "熊谷市",
    "category": "tokuyou",
    "serviceType": "介護老人福祉施設",
    "capacity": 0,
    "openDays": [],
    "openDaysNote": ""
  },
  {
    "id": "1174500312",
    "name": "特別養護老人ホーム　サンヴィレッジ",
    "kana": "トクベツヨウゴロウジンホーム　サンウ゛ィレッジ",
    "address": "埼玉県熊谷市津田１５６０－１",
    "lat": 36.0952205,
    "lng": 139.4256542,
    "tel": "0493-39-3711",
    "url": "http://www.seifu-kai.or.jp",
    "pref": "埼玉県",
    "city": "熊谷市",
    "category": "tokuyou",
    "serviceType": "介護老人福祉施設",
    "capacity": 0,
    "openDays": [],
    "openDaysNote": ""
  },
  {
    "id": "1173101468",
    "name": "特別養護老人ホーム　のぞみの里",
    "kana": "トクベツヨウゴロウジンホーム　ノゾミノサト",
    "address": "埼玉県熊谷市拾六間２９９－１",
    "lat": 36.1668283,
    "lng": 139.3236862,
    "tel": "048-531-2941",
    "url": "https://www.nozomi99.com/",
    "pref": "埼玉県",
    "city": "熊谷市",
    "category": "tokuyou",
    "serviceType": "介護老人福祉施設",
    "capacity": 60,
    "openDays": [],
    "openDaysNote": ""
  },
  {
    "id": "1173103035",
    "name": "特別養護老人ホーム　まごころの里",
    "kana": "トクベツヨウゴロウジンホーム　マゴコロノサト",
    "address": "埼玉県熊谷市村岡50番地",
    "lat": 36.1196656258825,
    "lng": 139.376487336999,
    "tel": "048-536-8125",
    "url": "http://www.banshokai.com",
    "pref": "埼玉県",
    "city": "熊谷市",
    "category": "tokuyou",
    "serviceType": "介護老人福祉施設",
    "capacity": 0,
    "openDays": [],
    "openDaysNote": ""
  },
  {
    "id": "1174500361",
    "name": "特別養護老人ホーム　愛心園",
    "kana": "トクベツヨウゴロウジンホーム　アイシンエン",
    "address": "埼玉県熊谷市上根２６８番地",
    "lat": 36.2138411,
    "lng": 139.3815913,
    "tel": "048-588-9511",
    "url": "http://aisinen.com/",
    "pref": "埼玉県",
    "city": "熊谷市",
    "category": "tokuyou",
    "serviceType": "介護老人福祉施設",
    "capacity": 70,
    "openDays": [],
    "openDaysNote": ""
  },
  {
    "id": "1173100205",
    "name": "特別養護老人ホーム　玉の緒",
    "kana": "トクベツヨウゴロウジンホーム　タマノオ",
    "address": "埼玉県熊谷市大塚１７９番地２",
    "lat": 36.167431,
    "lng": 139.4197499,
    "tel": "048-527-3555",
    "url": "http://www.tamanoo.jp",
    "pref": "埼玉県",
    "city": "熊谷市",
    "category": "tokuyou",
    "serviceType": "介護老人福祉施設",
    "capacity": 80,
    "openDays": [],
    "openDaysNote": ""
  },
  {
    "id": "1173103548",
    "name": "特別養護老人ホーム　熊谷めぬまの郷",
    "kana": "トクベツヨウゴロウジンホーム　クマガヤメヌマノサト",
    "address": "埼玉県熊谷市飯塚1398-1",
    "lat": 36.21739,
    "lng": 139.350689,
    "tel": "[紅梅館]048-579-",
    "url": "http://umenosato.org/",
    "pref": "埼玉県",
    "city": "熊谷市",
    "category": "tokuyou",
    "serviceType": "介護老人福祉施設",
    "capacity": null,
    "openDays": [],
    "openDaysNote": ""
  },
  {
    "id": "1174500379",
    "name": "特別養護老人ホーム　虹の郷",
    "kana": "トクベツヨウゴロウジンホーム　ニジノサト",
    "address": "埼玉県熊谷市野原461-3",
    "lat": 36.1018982,
    "lng": 139.3603621,
    "tel": "048-536-3491",
    "url": "http://www.totinomikai.or.jp/",
    "pref": "埼玉県",
    "city": "熊谷市",
    "category": "tokuyou",
    "serviceType": "介護老人福祉施設",
    "capacity": 50,
    "openDays": [],
    "openDaysNote": ""
  },
  {
    "id": "1173100221",
    "name": "特別養護老人ホームはなぶさ苑",
    "kana": "トクベツヨウゴロウジンホームハナブサエン",
    "address": "埼玉県熊谷市玉井３４６番地１",
    "lat": 36.1706997625964,
    "lng": 139.353007330187,
    "tel": "048-533-2700",
    "url": "http://hanabusaen.com",
    "pref": "埼玉県",
    "city": "熊谷市",
    "category": "tokuyou",
    "serviceType": "介護老人福祉施設",
    "capacity": 0,
    "openDays": [],
    "openDaysNote": ""
  },
  {
    "id": "1173138700",
    "name": "特別養護老人ホームはなぶさ苑（ユニット型）",
    "kana": "トクベツヨウゴロウジンホームハナブサエン　ユニットガタ",
    "address": "埼玉県熊谷市玉井346番地1",
    "lat": 36.1706974947284,
    "lng": 139.35298529587,
    "tel": "048-533-2700",
    "url": "http://hanabusaen.com",
    "pref": "埼玉県",
    "city": "熊谷市",
    "category": "tokuyou",
    "serviceType": "介護老人福祉施設",
    "capacity": 0,
    "openDays": [],
    "openDaysNote": ""
  },
  {
    "id": "1173102417",
    "name": "特別養護老人ホームルーエ",
    "kana": "トクベツヨウゴロウジンホームルーエ",
    "address": "埼玉県熊谷市川原明戸471-3",
    "lat": 36.141906,
    "lng": 139.3157294,
    "tel": "048-531-3010",
    "url": "https://asanohakai.or.jp",
    "pref": "埼玉県",
    "city": "熊谷市",
    "category": "tokuyou",
    "serviceType": "介護老人福祉施設",
    "capacity": 90,
    "openDays": [],
    "openDaysNote": ""
  },
  {
    "id": "1173100213",
    "name": "特別養護老人ホーム永寿苑",
    "kana": "トクベツヨウゴロウジンホームエイジュエン",
    "address": "熊谷市西別府１５９９－５",
    "lat": 36.1915871,
    "lng": 139.3316739,
    "tel": "048-533-1313",
    "url": "http://www.eijuen.jp/",
    "pref": "埼玉県",
    "city": "熊谷市",
    "category": "tokuyou",
    "serviceType": "介護老人福祉施設",
    "capacity": 80,
    "openDays": [],
    "openDaysNote": ""
  },
  {
    "id": "1173100981",
    "name": "日本赤十字社埼玉県支部特別養護老人ホーム彩華園",
    "kana": "ニッポンセキジュウジシャサイタマケンシブトクベツヨウゴロウジンホームサイカエン",
    "address": "埼玉県熊谷市上川上２６６",
    "lat": 36.166706,
    "lng": 139.4149368,
    "tel": "048-524-1391",
    "url": "http://park16.wakwak.com/~saikaen/",
    "pref": "埼玉県",
    "city": "熊谷市",
    "category": "tokuyou",
    "serviceType": "介護老人福祉施設",
    "capacity": 0,
    "openDays": [],
    "openDaysNote": ""
  },
  {
    "id": "1173100197",
    "name": "立正たちばなホーム",
    "kana": "リッショウタチバナホーム",
    "address": "熊谷市万吉１７５６－１３０",
    "lat": 36.1116996,
    "lng": 139.3659171,
    "tel": "048-539-3200",
    "url": "https://www.risshotachibana.or.jp",
    "pref": "埼玉県",
    "city": "熊谷市",
    "category": "tokuyou",
    "serviceType": "介護老人福祉施設",
    "capacity": 0,
    "openDays": [],
    "openDaysNote": ""
  },
  {
    "id": "1171900549",
    "name": "いきいきタウンとだ",
    "kana": "イキイキタウントダ",
    "address": "埼玉県戸田市喜沢南2丁目5番23号",
    "lat": 35.8070316,
    "lng": 139.6913075,
    "tel": "048-432-1500",
    "url": "http://www.shafuku-pal.or.jp/",
    "pref": "埼玉県",
    "city": "戸田市",
    "category": "tokuyou",
    "serviceType": "介護老人福祉施設",
    "capacity": 90,
    "openDays": [],
    "openDaysNote": ""
  },
  {
    "id": "1171900861",
    "name": "指定介護老人福祉施設戸田ほほえみの郷",
    "kana": "シテイカイゴロウジンフクシシセツトダホホエミノサト",
    "address": "埼玉県戸田市大字上戸田５番地の４",
    "lat": 35.8213547076214,
    "lng": 139.673083827509,
    "tel": "048-432-9811",
    "url": "https://www.toda-fukushinomori.or.jp",
    "pref": "埼玉県",
    "city": "戸田市",
    "category": "tokuyou",
    "serviceType": "介護老人福祉施設",
    "capacity": null,
    "openDays": [],
    "openDaysNote": ""
  },
  {
    "id": "1171901281",
    "name": "社会福祉法人優美会　特別養護老人ホームとだ優和の杜（ユニット型）",
    "kana": "シャカイフクシホウジンユウビカイ　トクベツヨウゴロウジンホームトダユウワノモリ（ユニットガタ）",
    "address": "埼玉県戸田市新曽南4-2-35",
    "lat": 35.8064697,
    "lng": 139.6631267,
    "tel": "048-499-3010",
    "url": "http://www.toda-yuuwanomori.jp/",
    "pref": "埼玉県",
    "city": "戸田市",
    "category": "tokuyou",
    "serviceType": "介護老人福祉施設",
    "capacity": 0,
    "openDays": [],
    "openDaysNote": ""
  },
  {
    "id": "1171901273",
    "name": "社会福祉法人優美会　特別養護老人ホームとだ優和の杜（従来型）",
    "kana": "シャカイフクシホウジンユウビカイ　トクベツヨウゴロウジンホームトダユウワノモリ",
    "address": "埼玉県戸田市新曽南4-2-35",
    "lat": 35.8064697,
    "lng": 139.6631267,
    "tel": "048-499-3010",
    "url": "http://www.toda-yuuwanomori.jp/",
    "pref": "埼玉県",
    "city": "戸田市",
    "category": "tokuyou",
    "serviceType": "介護老人福祉施設",
    "capacity": 0,
    "openDays": [],
    "openDaysNote": ""
  },
  {
    "id": "1171901190",
    "name": "特別養護老人ホームレーベンホーム戸田（ユニット型）",
    "kana": "トクベツヨウゴロウジンホームレーベンホームトダ（ユニットガタ）",
    "address": "埼玉県戸田市中町1-29-5特別養護老人ホームレーベンホーム戸田 特別養護老人ホームレーベンホーム戸田",
    "lat": 35.8135556,
    "lng": 139.6893047,
    "tel": "048-430-1020（",
    "url": "http://www.ikeikai.net/",
    "pref": "埼玉県",
    "city": "戸田市",
    "category": "tokuyou",
    "serviceType": "介護老人福祉施設",
    "capacity": 42,
    "openDays": [],
    "openDaysNote": ""
  },
  {
    "id": "1171901182",
    "name": "特別養護老人ホームレーベンホーム戸田（従来型）",
    "kana": "トクベツヨウゴロウジンホームレーベンホームトダ（ジュウライガタ）",
    "address": "埼玉県戸田市中町1-29-5特別養護老人ホームレーベンホーム戸田 特別養護老人ホームレーベンホーム戸田",
    "lat": 35.8135754,
    "lng": 139.6893028,
    "tel": "048-430-1020（",
    "url": "http://www.ikeikai.net/",
    "pref": "埼玉県",
    "city": "戸田市",
    "category": "tokuyou",
    "serviceType": "介護老人福祉施設",
    "capacity": 50,
    "openDays": [],
    "openDaysNote": ""
  },
  {
    "id": "1176100053",
    "name": "介護老人福祉施設　桜楓苑",
    "kana": "カイゴロウジンフクシシセツ　オウフウエン",
    "address": "幸手市平須賀２丁目２２５番地",
    "lat": 36.0531672,
    "lng": 139.7347666,
    "tel": "0480-47-1200",
    "url": "http://kouwakai-saitama.jp/index.php",
    "pref": "埼玉県",
    "city": "幸手市",
    "category": "tokuyou",
    "serviceType": "介護老人福祉施設",
    "capacity": 0,
    "openDays": [],
    "openDaysNote": ""
  },
  {
    "id": "1176100061",
    "name": "介護老人福祉施設しらさぎ苑",
    "kana": "カイゴロウジンフクシシセツシラサギエン",
    "address": "埼玉県幸手市大字下吉羽1250-1",
    "lat": 36.0706827228593,
    "lng": 139.759176969775,
    "tel": "0480-48-6699",
    "url": "http://www.kowakai-saitama.jp/",
    "pref": "埼玉県",
    "city": "幸手市",
    "category": "tokuyou",
    "serviceType": "介護老人福祉施設",
    "capacity": 60,
    "openDays": [],
    "openDaysNote": ""
  },
  {
    "id": "1176100467",
    "name": "介護老人福祉施設ひらすかの郷",
    "kana": "カイゴロウジンフクシシセツヒラスカノサト",
    "address": "埼玉県幸手市平須賀2-224",
    "lat": 36.0526097,
    "lng": 139.7343243,
    "tel": "0480-47-3500",
    "url": "https://kouwakai-saitama.jp/",
    "pref": "埼玉県",
    "city": "幸手市",
    "category": "tokuyou",
    "serviceType": "介護老人福祉施設",
    "capacity": 0,
    "openDays": [],
    "openDaysNote": ""
  },
  {
    "id": "1176100806",
    "name": "特別養護老人ホームさっての里【ユニット型】",
    "kana": "トクベツヨウゴロウジンホームサッテノサト【ユニットガタ】",
    "address": "埼玉県幸手市松石西６番1",
    "lat": 36.0969960017062,
    "lng": 139.708940130286,
    "tel": "0480-43-5111",
    "url": "http://miyukikai.sun.bindcloud.jp/",
    "pref": "埼玉県",
    "city": "幸手市",
    "category": "tokuyou",
    "serviceType": "介護老人福祉施設",
    "capacity": 0,
    "openDays": [],
    "openDaysNote": ""
  },
  {
    "id": "1176100830",
    "name": "特別養護老人ホームさっての里【従来型】",
    "kana": "トクベツヨウゴロウジンホームサッテノサト【ジュウライガタ】",
    "address": "埼玉県幸手市松石西６番1",
    "lat": 36.0969960017048,
    "lng": 139.708902579359,
    "tel": "0480-43-5111",
    "url": "http://miyukikai.sun.bindcloud.jp/",
    "pref": "埼玉県",
    "city": "幸手市",
    "category": "tokuyou",
    "serviceType": "介護老人福祉施設",
    "capacity": 0,
    "openDays": [],
    "openDaysNote": ""
  },
  {
    "id": "1173700129",
    "name": "まきば園",
    "kana": "マキバエン",
    "address": "埼玉県行田市白川戸２７５",
    "lat": 36.1624025,
    "lng": 139.4681989,
    "tel": "048-555-2202",
    "url": "https://makibaen.com/",
    "pref": "埼玉県",
    "city": "行田市",
    "category": "tokuyou",
    "serviceType": "介護老人福祉施設",
    "capacity": 0,
    "openDays": [],
    "openDaysNote": ""
  },
  {
    "id": "1173700442",
    "name": "介護老人福祉施設ふぁみぃゆ行田",
    "kana": "カイゴロウジンフクシシセツファミィユギョウダ",
    "address": "埼玉県行田市大字下須戸75番地",
    "lat": 36.1392122,
    "lng": 139.509701,
    "tel": "048-559-4165",
    "url": "http://famille-gyoda.com/",
    "pref": "埼玉県",
    "city": "行田市",
    "category": "tokuyou",
    "serviceType": "介護老人福祉施設",
    "capacity": 90,
    "openDays": [],
    "openDaysNote": ""
  },
  {
    "id": "1173600097",
    "name": "特別養護老人ホーム　おきな",
    "kana": "トクベツヨウゴロウジンホーム　オキナ",
    "address": "埼玉県行田市大字馬見塚６９３",
    "lat": 36.1686454,
    "lng": 139.4393457,
    "tel": "048-557-3521",
    "url": "http://www.hirakataryoiku-med.or.jp/okina.htm",
    "pref": "埼玉県",
    "city": "行田市",
    "category": "tokuyou",
    "serviceType": "介護老人福祉施設",
    "capacity": 100,
    "openDays": [],
    "openDaysNote": ""
  },
  {
    "id": "1173701010",
    "name": "特別養護老人ホーム　行田さくらそう",
    "kana": "トクベツヨウゴロウジンホーム　ギョウダサクラソウ",
    "address": "埼玉県行田市大字藤間352番地１",
    "lat": 36.1375819,
    "lng": 139.5127702,
    "tel": "048-559-3030",
    "url": "http://www.ohkoukai.net/index.html",
    "pref": "埼玉県",
    "city": "行田市",
    "category": "tokuyou",
    "serviceType": "介護老人福祉施設",
    "capacity": 0,
    "openDays": [],
    "openDaysNote": ""
  },
  {
    "id": "1173700947",
    "name": "特別養護老人ホーム雅",
    "kana": "トクベツヨウゴロウジンホームミヤビ",
    "address": "埼玉県行田市持田2424",
    "lat": 36.1307796,
    "lng": 139.434579,
    "tel": "048-545-1100",
    "url": "https://s-miyabi.or.jp",
    "pref": "埼玉県",
    "city": "行田市",
    "category": "tokuyou",
    "serviceType": "介護老人福祉施設",
    "capacity": 0,
    "openDays": [],
    "openDaysNote": ""
  },
  {
    "id": "1173700111",
    "name": "特別養護老人ホーム緑風苑",
    "kana": "トクベツヨウゴロウジンホームリョクフウエン",
    "address": "埼玉県行田市須加1529",
    "lat": 36.1847617,
    "lng": 139.4887286,
    "tel": "048-557-3115",
    "url": "http://www.seikoukai.com",
    "pref": "埼玉県",
    "city": "行田市",
    "category": "tokuyou",
    "serviceType": "介護老人福祉施設",
    "capacity": 0,
    "openDays": [],
    "openDaysNote": ""
  },
  {
    "id": "1171701152",
    "name": "ユニット型特別養護老人ホーム吹上苑",
    "kana": "ユニットガタトクベツヨウゴロウジンホームフキアゲエン",
    "address": "埼玉県鴻巣市下忍4461",
    "lat": 36.1029542,
    "lng": 139.4679326,
    "tel": "048-548-8801",
    "url": "http://www.egarite.or.jp",
    "pref": "埼玉県",
    "city": "鴻巣市",
    "category": "tokuyou",
    "serviceType": "介護老人福祉施設",
    "capacity": 0,
    "openDays": [],
    "openDaysNote": ""
  },
  {
    "id": "1171700550",
    "name": "介護老人福祉施設　こうのすタンポポ翔裕園",
    "kana": "カイゴロウジンフクシシセツコウノスタンポポショウユウエン",
    "address": "埼玉県鴻巣市郷地１７４６－１",
    "lat": 36.0734828,
    "lng": 139.5307959,
    "tel": "048-540-6699",
    "url": "http://www.genkimuragroup.jp/genkimura/k_tanpopo/",
    "pref": "埼玉県",
    "city": "鴻巣市",
    "category": "tokuyou",
    "serviceType": "介護老人福祉施設",
    "capacity": 100,
    "openDays": [],
    "openDaysNote": ""
  },
  {
    "id": "1171700378",
    "name": "介護老人福祉施設　馬室たんぽぽ翔裕園",
    "kana": "カイゴロウジンフクシシセツ　マムロタンポポショウユウエン",
    "address": "埼玉県鴻巣市原馬室字後3335",
    "lat": 36.036910754516,
    "lng": 139.512850877338,
    "tel": "048-541-4148",
    "url": "http://www.genki-mura.com/genkimura/m_tanpopo/",
    "pref": "埼玉県",
    "city": "鴻巣市",
    "category": "tokuyou",
    "serviceType": "介護老人福祉施設",
    "capacity": 40,
    "openDays": [],
    "openDaysNote": ""
  },
  {
    "id": "1171701061",
    "name": "介護老人福祉施設　馬室たんぽぽ翔裕園",
    "kana": "カイゴロウジンフクシシセツ　マムロタンポポショウユウエン",
    "address": "埼玉県鴻巣市原馬室3335番",
    "lat": 36.0368274,
    "lng": 139.5129096,
    "tel": "048-541-4148",
    "url": "http://www.genkimuragroup.jp/genkimura/m_tanpopo/",
    "pref": "埼玉県",
    "city": "鴻巣市",
    "category": "tokuyou",
    "serviceType": "介護老人福祉施設",
    "capacity": 60,
    "openDays": [],
    "openDaysNote": ""
  },
  {
    "id": "1171700634",
    "name": "鴻巣まきば園",
    "kana": "コウノスマキバエン",
    "address": "埼玉県鴻巣市前砂５１７－１",
    "lat": 36.093583,
    "lng": 139.4631669,
    "tel": "048-547-2202",
    "url": "https://makibaen.com/",
    "pref": "埼玉県",
    "city": "鴻巣市",
    "category": "tokuyou",
    "serviceType": "介護老人福祉施設",
    "capacity": 0,
    "openDays": [],
    "openDaysNote": ""
  },
  {
    "id": "1171701160",
    "name": "特別養護老人ホーム　川里苑デメテル・ヴィラ",
    "kana": "トクベツヨウゴロウジンホーム　カワサトエンデメテル・ビィラ",
    "address": "埼玉県鴻巣市屈巣5158番",
    "lat": 36.0822259,
    "lng": 139.5209299,
    "tel": "048－569－1001",
    "url": "http://www.kawasatoen.info",
    "pref": "埼玉県",
    "city": "鴻巣市",
    "category": "tokuyou",
    "serviceType": "介護老人福祉施設",
    "capacity": 48,
    "openDays": [],
    "openDaysNote": ""
  },
  {
    "id": "1171701269",
    "name": "特別養護老人ホームてねる",
    "kana": "トクベツヨウゴロウジンホームテネル",
    "address": "埼玉県鴻巣市前砂字頭殿1003-1",
    "lat": 36.0888831194292,
    "lng": 139.468425608629,
    "tel": "048-547-2477",
    "url": "http://tener.or.jp/",
    "pref": "埼玉県",
    "city": "鴻巣市",
    "category": "tokuyou",
    "serviceType": "介護老人福祉施設",
    "capacity": 0,
    "openDays": [],
    "openDaysNote": ""
  },
  {
    "id": "1171300013",
    "name": "特別養護老人ホーム吹上苑",
    "kana": "トクベツヨウゴロウジンホームフキアゲエン",
    "address": "埼玉県鴻巣市下忍4461",
    "lat": 36.1029542,
    "lng": 139.4679326,
    "tel": "048-548-8801",
    "url": "http://www.egarite.or.jp",
    "pref": "埼玉県",
    "city": "鴻巣市",
    "category": "tokuyou",
    "serviceType": "介護老人福祉施設",
    "capacity": 98,
    "openDays": [],
    "openDaysNote": ""
  },
  {
    "id": "1173600048",
    "name": "特別養護老人ホーム川里苑デメテル・ヴィラ",
    "kana": "トクベツヨウゴロウジンホームカワサトエンデメテル・ビィラ",
    "address": "埼玉県鴻巣市屈巣５１５８番",
    "lat": 36.0822259,
    "lng": 139.5209299,
    "tel": "048-569-1001",
    "url": "http://www.kawasatoen.info",
    "pref": "埼玉県",
    "city": "鴻巣市",
    "category": "tokuyou",
    "serviceType": "介護老人福祉施設",
    "capacity": 52,
    "openDays": [],
    "openDaysNote": ""
  },
  {
    "id": "1171700162",
    "name": "特別養護老人ホーム翔裕園",
    "kana": "トクベツヨウゴロウジンホームショウユウエン",
    "address": "埼玉県鴻巣市上谷687-1",
    "lat": 36.0604265,
    "lng": 139.5467918,
    "tel": "048-541-8585",
    "url": "http://www.genkimuragroup.jp/genkimura/shoyouen",
    "pref": "埼玉県",
    "city": "鴻巣市",
    "category": "tokuyou",
    "serviceType": "介護老人福祉施設",
    "capacity": 0,
    "openDays": [],
    "openDaysNote": ""
  },
  {
    "id": "1171701467",
    "name": "福冨の郷",
    "kana": "フクトミノサト",
    "address": "埼玉県鴻巣市鴻巣字沼田９６７番1福冨の郷 福冨の郷",
    "lat": 36.0690119610767,
    "lng": 139.517063633172,
    "tel": "048-577-7780",
    "url": "http://www.nonpi-fukushi.net/",
    "pref": "埼玉県",
    "city": "鴻巣市",
    "category": "tokuyou",
    "serviceType": "介護老人福祉施設",
    "capacity": 100,
    "openDays": [],
    "openDaysNote": ""
  },
  {
    "id": "1176000105",
    "name": "シャローム・ガーデン坂戸",
    "kana": "シャローム・ガーデンサカド",
    "address": "埼玉県坂戸市新堀１-１",
    "lat": 35.9621549,
    "lng": 139.3708482,
    "tel": "049-282-4590",
    "url": "https://www.shalom7h.or.jp",
    "pref": "埼玉県",
    "city": "坂戸市",
    "category": "tokuyou",
    "serviceType": "介護老人福祉施設",
    "capacity": 81,
    "openDays": [],
    "openDaysNote": ""
  },
  {
    "id": "1176000097",
    "name": "坂戸サークルホーム",
    "kana": "サカドサークルホーム",
    "address": "埼玉県坂戸市大字石井1684",
    "lat": 35.9747227,
    "lng": 139.4113237,
    "tel": "049-283-7851",
    "url": "http://circlehome.or.jp",
    "pref": "埼玉県",
    "city": "坂戸市",
    "category": "tokuyou",
    "serviceType": "介護老人福祉施設",
    "capacity": 0,
    "openDays": [],
    "openDaysNote": ""
  },
  {
    "id": "1176001293",
    "name": "小沼サークルホーム",
    "kana": "コヌマサークルホーム",
    "address": "埼玉県坂戸市小沼490-1",
    "lat": 35.971891,
    "lng": 139.442767,
    "tel": "049-284-3751",
    "url": "http://circlehome.or.jp/",
    "pref": "埼玉県",
    "city": "坂戸市",
    "category": "tokuyou",
    "serviceType": "介護老人福祉施設",
    "capacity": 0,
    "openDays": [],
    "openDaysNote": ""
  },
  {
    "id": "1176001053",
    "name": "特別養護老人ホーム　さかどロイヤルの園",
    "kana": "トクベツヨウゴロウジンホーム　サカドロイヤルノソノ",
    "address": "埼玉県坂戸市大字森戸７３９番地１",
    "lat": 35.9342001,
    "lng": 139.3588491,
    "tel": "０４９－２７９－１４００",
    "url": "http://www.wam-town.jp/sakado/",
    "pref": "埼玉県",
    "city": "坂戸市",
    "category": "tokuyou",
    "serviceType": "介護老人福祉施設",
    "capacity": 120,
    "openDays": [],
    "openDaysNote": ""
  },
  {
    "id": "1176001301",
    "name": "特別養護老人ホーム　好日の家",
    "kana": "トクベツヨウゴロウジンホーム　コウジツノイエ",
    "address": "埼玉県坂戸市浅羽1130番1",
    "lat": 35.9485346,
    "lng": 139.3765335,
    "tel": "049-298-3633",
    "url": "kyujukai.com",
    "pref": "埼玉県",
    "city": "坂戸市",
    "category": "tokuyou",
    "serviceType": "介護老人福祉施設",
    "capacity": null,
    "openDays": [],
    "openDaysNote": ""
  },
  {
    "id": "1171200239",
    "name": "介護老人福祉施設　しいの木の郷",
    "kana": "カイゴロウジンフクシシセツ　シイノキノサト",
    "address": "埼玉県三郷市番匠免1-314",
    "lat": 35.8342064,
    "lng": 139.8525931,
    "tel": "048-949-4123",
    "url": "http://www.ryokufu-kai.or.jp/shiinokinosato",
    "pref": "埼玉県",
    "city": "三郷市",
    "category": "tokuyou",
    "serviceType": "介護老人福祉施設",
    "capacity": 70,
    "openDays": [],
    "openDaysNote": ""
  },
  {
    "id": "1171201120",
    "name": "特別養護老人ホーム　あったかの家みさと",
    "kana": "トクベツヨウゴロウジンホーム　アッタカノイエミサト",
    "address": "埼玉県三郷市半田241-1",
    "lat": 35.8638853215563,
    "lng": 139.869259823409,
    "tel": "048-950-2240",
    "url": "http://attakanoie.com/",
    "pref": "埼玉県",
    "city": "三郷市",
    "category": "tokuyou",
    "serviceType": "介護老人福祉施設",
    "capacity": 100,
    "openDays": [],
    "openDaysNote": ""
  },
  {
    "id": "1171201542",
    "name": "特別養護老人ホーム　タムスさくらの杜三郷",
    "kana": "トクベツヨウゴロウジンホーム　タムスサクラノモリミサト",
    "address": "埼玉県三郷市栄4-381",
    "lat": 35.8166379960739,
    "lng": 139.87797184803,
    "tel": "048-951-5846",
    "url": "https://misato.sakuranomori.tums.jp/",
    "pref": "埼玉県",
    "city": "三郷市",
    "category": "tokuyou",
    "serviceType": "介護老人福祉施設",
    "capacity": 140,
    "openDays": [],
    "openDaysNote": ""
  },
  {
    "id": "1171201351",
    "name": "特別養護老人ホーム　みさとガーデン",
    "kana": "トクベツヨウゴロウジンホーム　ミサトガーデン",
    "address": "小谷堀475-1特別養護老人ホームみさとガーデン 特別養護老人ホームみさとガーデン",
    "lat": 35.8641665742427,
    "lng": 139.892343459894,
    "tel": "048-960-0351",
    "url": "http//www.swc-aisei.or.jp/",
    "pref": "埼玉県",
    "city": "三郷市",
    "category": "tokuyou",
    "serviceType": "介護老人福祉施設",
    "capacity": 100,
    "openDays": [],
    "openDaysNote": ""
  },
  {
    "id": "1171201781",
    "name": "特別養護老人ホームガジュマルの郷",
    "kana": "トクベツヨウゴロウジンホームガジュマルノサト",
    "address": "埼玉県三郷市南蓮沼330-1特別養護老人ホームガジュマルの郷 特別養護老人ホームガジュマルの郷",
    "lat": 35.8450052200078,
    "lng": 139.874510052779,
    "tel": "048-953-8300",
    "url": "https://www.akane-kai.net/",
    "pref": "埼玉県",
    "city": "三郷市",
    "category": "tokuyou",
    "serviceType": "介護老人福祉施設",
    "capacity": 100,
    "openDays": [],
    "openDaysNote": ""
  },
  {
    "id": "1171201682",
    "name": "特別養護老人ホーム三郷藤光苑",
    "kana": "トクベツヨウゴロウジンホームミサトトウコウエン",
    "address": "彦野１－２０２",
    "lat": 35.8414999,
    "lng": 139.8514429,
    "tel": "048-954-0294",
    "url": "http://www.misatotoukouen.or.jp",
    "pref": "埼玉県",
    "city": "三郷市",
    "category": "tokuyou",
    "serviceType": "介護老人福祉施設",
    "capacity": 80,
    "openDays": [],
    "openDaysNote": ""
  },
  {
    "id": "1171202110",
    "name": "特別養護老人ホーム小鳩園（ユニット型）",
    "kana": "トクベツヨウゴロウジンホームコバトエン（ユニットガタ）",
    "address": "埼玉県三郷市中央4-8-7",
    "lat": 35.800587,
    "lng": 139.8841393,
    "tel": "048-952-0316",
    "url": "https://kobato-kai.com/",
    "pref": "埼玉県",
    "city": "三郷市",
    "category": "tokuyou",
    "serviceType": "介護老人福祉施設",
    "capacity": null,
    "openDays": [],
    "openDaysNote": ""
  },
  {
    "id": "1171200254",
    "name": "特別養護老人ホーム小鳩園（従来型）",
    "kana": "トクベツヨウゴロウジンホームコバトエン（ジユウライガタ）",
    "address": "埼玉県三郷市中央四丁目８番地７",
    "lat": 35.800587,
    "lng": 139.8841393,
    "tel": "048-952-0316",
    "url": "https://kobato-kai.com",
    "pref": "埼玉県",
    "city": "三郷市",
    "category": "tokuyou",
    "serviceType": "介護老人福祉施設",
    "capacity": 55,
    "openDays": [],
    "openDaysNote": ""
  },
  {
    "id": "1172400143",
    "name": "特別養護老人ホーム　みずほ苑",
    "kana": "トクベツヨウゴロウジンホーム　ミズホエン",
    "address": "埼玉県入間郡三芳町大字竹間沢735-1",
    "lat": 35.8292508,
    "lng": 139.5476529,
    "tel": "049-258-9211",
    "url": "http://www.mizuhoen.com",
    "pref": "埼玉県",
    "city": "三芳町",
    "category": "tokuyou",
    "serviceType": "介護老人福祉施設",
    "capacity": 86,
    "openDays": [],
    "openDaysNote": ""
  },
  {
    "id": "1172400945",
    "name": "特別養護老人ホームこころ三芳",
    "kana": "トクベツヨウゴロウジンホームココロミヨシ",
    "address": "埼玉県入間郡三芳町大字北永井９４６－１",
    "lat": 35.8440007,
    "lng": 139.5133992,
    "tel": "049-259-6018",
    "url": "https//:houraikai.or.jp",
    "pref": "埼玉県",
    "city": "三芳町",
    "category": "tokuyou",
    "serviceType": "介護老人福祉施設",
    "capacity": 110,
    "openDays": [],
    "openDaysNote": ""
  },
  {
    "id": "1172400168",
    "name": "特別養護老人ホームみよし園",
    "kana": "トクベツヨウゴロウジンホームミヨシエン",
    "address": "埼玉県入間郡三芳町大字上富１７８４－８",
    "lat": 35.8416643,
    "lng": 139.49244,
    "tel": "049-259-1233",
    "url": "http://mkf.jp",
    "pref": "埼玉県",
    "city": "三芳町",
    "category": "tokuyou",
    "serviceType": "介護老人福祉施設",
    "capacity": 0,
    "openDays": [],
    "openDaysNote": ""
  },
  {
    "id": "1172400895",
    "name": "特別養護老人ホーム桜荘",
    "kana": "トクベツヨウゴロウジンホームサクラソウ",
    "address": "埼玉県入間郡三芳町大字北永井字桜並４１５－１特別養護老人ホーム桜荘 特別養護老人ホーム桜荘",
    "lat": 35.8253053,
    "lng": 139.521559,
    "tel": "０４９－２７４－７１１１",
    "url": "www.sakurasou.or.jp/intro.html",
    "pref": "埼玉県",
    "city": "三芳町",
    "category": "tokuyou",
    "serviceType": "介護老人福祉施設",
    "capacity": 90,
    "openDays": [],
    "openDaysNote": ""
  },
  {
    "id": "1172200600",
    "name": "志木瑞穂の森",
    "kana": "シキミズホノモリ",
    "address": "中宗岡3-16-53特別養護老人ホーム志木瑞穂の森 特別養護老人ホーム志木瑞穂の森",
    "lat": 35.8370423635058,
    "lng": 139.599653091402,
    "tel": "048-476-8324",
    "url": "http://sakura-mizuhokai.or.jp",
    "pref": "埼玉県",
    "city": "志木市",
    "category": "tokuyou",
    "serviceType": "介護老人福祉施設",
    "capacity": 100,
    "openDays": [],
    "openDaysNote": ""
  },
  {
    "id": "1172200329",
    "name": "特別養護老人ホーム　あったかの家",
    "kana": "トクベツヨウゴロウジンホーム　アッタカノイエ",
    "address": "埼玉県志木市下宗岡3-5-15",
    "lat": 35.8352394,
    "lng": 139.5962846,
    "tel": "048-485-0030",
    "url": "ａｔｔａｋａｎｏｉｅ．ｃｏｍ",
    "pref": "埼玉県",
    "city": "志木市",
    "category": "tokuyou",
    "serviceType": "介護老人福祉施設",
    "capacity": 100,
    "openDays": [],
    "openDaysNote": ""
  },
  {
    "id": "1172200063",
    "name": "特別養護老人ホーム　ブロン",
    "kana": "トクベツヨウゴロウジンホーム　ブロン",
    "address": "埼玉県志木市本町２－１０－５０",
    "lat": 35.8338699,
    "lng": 139.5821221,
    "tel": "048-473-3000",
    "url": "https://bron.or.jp",
    "pref": "埼玉県",
    "city": "志木市",
    "category": "tokuyou",
    "serviceType": "介護老人福祉施設",
    "capacity": 70,
    "openDays": [],
    "openDaysNote": ""
  },
  {
    "id": "1172200642",
    "name": "特別養護老人ホーム　志木の里",
    "kana": "トクベツヨウゴロウジンホーム　シキノサト",
    "address": "埼玉県志木市柏町1-6-73",
    "lat": 35.8356752,
    "lng": 139.5761531,
    "tel": "048-423-7281",
    "url": "http://www.kawatsuru-g.jp",
    "pref": "埼玉県",
    "city": "志木市",
    "category": "tokuyou",
    "serviceType": "介護老人福祉施設",
    "capacity": 110,
    "openDays": [],
    "openDaysNote": ""
  },
  {
    "id": "1170603508",
    "name": "ウエルガーデン春日部",
    "kana": "ウエルガーデンカスカベ",
    "address": "埼玉県春日部市内牧3701-8ウエルガーデン春日部 ウエルガーデン春日部",
    "lat": 36.001184,
    "lng": 139.7155864,
    "tel": "048-755-4165",
    "url": "http://welgarden.or.jp",
    "pref": "埼玉県",
    "city": "春日部市",
    "category": "tokuyou",
    "serviceType": "介護老人福祉施設",
    "capacity": null,
    "openDays": [],
    "openDaysNote": ""
  },
  {
    "id": "1171100876",
    "name": "しょうぶ苑",
    "kana": "ショウブエン",
    "address": "埼玉県春日部市米崎３８９",
    "lat": 35.9735135,
    "lng": 139.8018554,
    "tel": "048-746-5122",
    "url": "",
    "pref": "埼玉県",
    "city": "春日部市",
    "category": "tokuyou",
    "serviceType": "介護老人福祉施設",
    "capacity": 50,
    "openDays": [],
    "openDaysNote": ""
  },
  {
    "id": "1170601528",
    "name": "特別養護老人ホーム　あすなろの郷",
    "kana": "トクベツヨウゴロウジンホーム　アスナロノサト",
    "address": "埼玉県春日部市銚子口1133-1",
    "lat": 35.9619323,
    "lng": 139.7877468,
    "tel": "048ー734ー2828",
    "url": "https://www.asunarokai.or.jp/",
    "pref": "埼玉県",
    "city": "春日部市",
    "category": "tokuyou",
    "serviceType": "介護老人福祉施設",
    "capacity": 90,
    "openDays": [],
    "openDaysNote": ""
  },
  {
    "id": "1170603128",
    "name": "特別養護老人ホーム　おおまし",
    "kana": "トクベツヨウゴロウジンホームオオマシ",
    "address": "埼玉県春日部市下大増新田78-1",
    "lat": 35.9559759,
    "lng": 139.7418279,
    "tel": "048-739-3000",
    "url": "https://syunmeikai.com/oomashi/",
    "pref": "埼玉県",
    "city": "春日部市",
    "category": "tokuyou",
    "serviceType": "介護老人福祉施設",
    "capacity": 100,
    "openDays": [],
    "openDaysNote": ""
  },
  {
    "id": "1170600827",
    "name": "特別養護老人ホーム　フラワーヒル",
    "kana": "トクベツヨウゴロウジンホーム　フラワーヒル",
    "address": "埼玉県春日部市一ノ割948番1",
    "lat": 35.9594059,
    "lng": 139.7583978,
    "tel": "048-733-2915",
    "url": "https://www.flowerhill.jp",
    "pref": "埼玉県",
    "city": "春日部市",
    "category": "tokuyou",
    "serviceType": "介護老人福祉施設",
    "capacity": null,
    "openDays": [],
    "openDaysNote": ""
  },
  {
    "id": "1170601189",
    "name": "特別養護老人ホーム　彩光苑",
    "kana": "トクベツヨウゴロウジンホーム　サイコウエン",
    "address": "埼玉県春日部市内牧3149",
    "lat": 35.9936158,
    "lng": 139.7173395,
    "tel": "048-755-2111",
    "url": "http://www.saiseikai-kasukabe.jp",
    "pref": "埼玉県",
    "city": "春日部市",
    "category": "tokuyou",
    "serviceType": "介護老人福祉施設",
    "capacity": 0,
    "openDays": [],
    "openDaysNote": ""
  },
  {
    "id": "1170600082",
    "name": "特別養護老人ホーム　春日部勝彩園",
    "kana": "トクベツヨウゴロウジンホーム　カスカベショウサイエン",
    "address": "埼玉県春日部市上大増新田字東耕地109番地2",
    "lat": 35.9612035,
    "lng": 139.7370917,
    "tel": "048-738-5757",
    "url": "http://www.syosaien.or.jp/",
    "pref": "埼玉県",
    "city": "春日部市",
    "category": "tokuyou",
    "serviceType": "介護老人福祉施設",
    "capacity": 58,
    "openDays": [],
    "openDaysNote": ""
  },
  {
    "id": "1170601494",
    "name": "特別養護老人ホーム　庄和和合",
    "kana": "トクベツヨウゴロウジンホーム　ショウワワゴウ",
    "address": "埼玉県春日部市金崎字道江527-1",
    "lat": 35.9929774189568,
    "lng": 139.806018994998,
    "tel": "048-745-4501",
    "url": "http://www.shouwa-wagou.or.jp",
    "pref": "埼玉県",
    "city": "春日部市",
    "category": "tokuyou",
    "serviceType": "介護老人福祉施設",
    "capacity": 70,
    "openDays": [],
    "openDaysNote": ""
  },
  {
    "id": "1170602393",
    "name": "特別養護老人ホームそら",
    "kana": "トクベツヨウゴロウジンホームソラ",
    "address": "春日部市不動院野647番地",
    "lat": 36.0025507262878,
    "lng": 139.768720907887,
    "tel": "048-755-5440",
    "url": "http://kagayaki-kasukabe.or.jp",
    "pref": "埼玉県",
    "city": "春日部市",
    "category": "tokuyou",
    "serviceType": "介護老人福祉施設",
    "capacity": 100,
    "openDays": [],
    "openDaysNote": ""
  },
  {
    "id": "1170601726",
    "name": "特別養護老人ホームひかり",
    "kana": "トクベツヨウゴロウジンホームヒカリ",
    "address": "春日部市不動院野６４３番地",
    "lat": 36.0024538,
    "lng": 139.7692853,
    "tel": "048-755-5391",
    "url": "https://kagayaki-kasukabe.or.jp",
    "pref": "埼玉県",
    "city": "春日部市",
    "category": "tokuyou",
    "serviceType": "介護老人福祉施設",
    "capacity": 0,
    "openDays": [],
    "openDaysNote": ""
  },
  {
    "id": "1170600041",
    "name": "特別養護老人ホーム清寿園",
    "kana": "トクベツヨウゴロウジンホームセイジュエン",
    "address": "内牧２０７２番地",
    "lat": 35.9887157140531,
    "lng": 139.730153993273,
    "tel": "048-763-3331",
    "url": "https://seiju.or.jp/home/",
    "pref": "埼玉県",
    "city": "春日部市",
    "category": "tokuyou",
    "serviceType": "介護老人福祉施設",
    "capacity": 0,
    "openDays": [],
    "openDaysNote": ""
  },
  {
    "id": "1170603300",
    "name": "特別養護老人ホーム豊潤館（ユニット型）",
    "kana": "トクベツヨウゴロウジンホームホウジュンカン",
    "address": "埼玉県春日部市花積２６７－７",
    "lat": 35.9671171,
    "lng": 139.7194464,
    "tel": "048-753-1133",
    "url": "http://houjunkan.imwg.jp",
    "pref": "埼玉県",
    "city": "春日部市",
    "category": "tokuyou",
    "serviceType": "介護老人福祉施設",
    "capacity": 0,
    "openDays": [],
    "openDaysNote": ""
  },
  {
    "id": "1170600850",
    "name": "特別養護老人ホーム豊潤館（従来型）",
    "kana": "トクベツヨウゴロウジンホームホウジュンカン",
    "address": "埼玉県春日部市花積２６７－７",
    "lat": 35.9671171,
    "lng": 139.7194464,
    "tel": "048-753-1133",
    "url": "http://houjunkan.imwg.jp/",
    "pref": "埼玉県",
    "city": "春日部市",
    "category": "tokuyou",
    "serviceType": "介護老人福祉施設",
    "capacity": 0,
    "openDays": [],
    "openDaysNote": ""
  },
  {
    "id": "1170600215",
    "name": "百合の郷",
    "kana": "ユリノサト",
    "address": "埼玉県春日部市大畑407-2",
    "lat": 35.9445166,
    "lng": 139.7722767,
    "tel": "048-738-2294",
    "url": "https://www.yurinosato-k.jp/",
    "pref": "埼玉県",
    "city": "春日部市",
    "category": "tokuyou",
    "serviceType": "介護老人福祉施設",
    "capacity": 60,
    "openDays": [],
    "openDaysNote": ""
  },
  {
    "id": "1170603078",
    "name": "武里まきば園",
    "kana": "タケサトマキバエン",
    "address": "武里中野705",
    "lat": 35.951295875304,
    "lng": 139.756660592505,
    "tel": "048-739-2202",
    "url": "http://makibaen.com/",
    "pref": "埼玉県",
    "city": "春日部市",
    "category": "tokuyou",
    "serviceType": "介護老人福祉施設",
    "capacity": 100,
    "openDays": [],
    "openDaysNote": ""
  },
  {
    "id": "1172500223",
    "name": "介護老人福祉施設　健寿園",
    "kana": "カイゴロウジンフクシシセツ　ケンジュエン",
    "address": "所沢市北中2-301-1",
    "lat": 35.8136276,
    "lng": 139.4329405,
    "tel": "04-2921-7733",
    "url": "https://anshinkai-gr.jp",
    "pref": "埼玉県",
    "city": "所沢市",
    "category": "tokuyou",
    "serviceType": "介護老人福祉施設",
    "capacity": 0,
    "openDays": [],
    "openDaysNote": ""
  },
  {
    "id": "1172502609",
    "name": "介護老人福祉施設　所沢かがやきの里",
    "kana": "カイゴロウジンフクシシセツ　トコロザワカガヤキノサト",
    "address": "埼玉県所沢市大字下新井下流１２４９－２",
    "lat": 35.8000804838645,
    "lng": 139.492358378618,
    "tel": "04-2991-7300",
    "url": "https://anshinkai-gr.jp/anshinkai/tokorozawakagayakinosato",
    "pref": "埼玉県",
    "city": "所沢市",
    "category": "tokuyou",
    "serviceType": "介護老人福祉施設",
    "capacity": 0,
    "openDays": [],
    "openDaysNote": ""
  },
  {
    "id": "1172500249",
    "name": "介護老人福祉施設　所沢やすらぎの里",
    "kana": "カイゴロウジンフクシシセツ　トコロザワヤスラギノサト",
    "address": "埼玉県所沢市東狭山ヶ丘5丁目928-1",
    "lat": 35.814022,
    "lng": 139.4328877,
    "tel": "04-2921-5522",
    "url": "https://www.anshinkai-gr.jp",
    "pref": "埼玉県",
    "city": "所沢市",
    "category": "tokuyou",
    "serviceType": "介護老人福祉施設",
    "capacity": null,
    "openDays": [],
    "openDaysNote": ""
  },
  {
    "id": "1172505545",
    "name": "社会福祉法人若狭会　介護老人福祉施設すみれ野",
    "kana": "シャカイフクシホウジンワカサカイ　カイゴロウジンフクシシセツスミレノ",
    "address": "埼玉県所沢市東狭山ヶ丘4丁目2658番地の１すみれ野 すみれ野",
    "lat": 35.8079262973959,
    "lng": 139.427633417089,
    "tel": "04-2935-3511",
    "url": "http://www.wakasakai.com/",
    "pref": "埼玉県",
    "city": "所沢市",
    "category": "tokuyou",
    "serviceType": "介護老人福祉施設",
    "capacity": 0,
    "openDays": [],
    "openDaysNote": ""
  },