[
  {
    "id": "4471100182",
    "name": "宇佐ナーシングホーム泰生園",
    "kana": "ウサナーシングホームタイセイエン",
    "address": "大分県宇佐市大字山下字下坂本２１００番地",
    "lat": 33.5351922666441,
    "lng": 131.305461447313,
    "tel": "0978-33-1778",
    "url": "http://www.wellb.or.jp/usa/index.html",
    "pref": "大分県",
    "city": "宇佐市",
    "category": "tokuyou",
    "serviceType": "介護老人福祉施設",
    "capacity": 50,
    "openDays": [],
    "openDaysNote": ""
  },
  {
    "id": "4473100065",
    "name": "宇佐市立特別養護老人ホーム妙見荘",
    "kana": "ウサシリツトクベツヨウゴロウジンホームミョウケンソウ",
    "address": "大分県宇佐市院内町御沓488-1",
    "lat": 33.4530791,
    "lng": 131.32515,
    "tel": "0978-42-5058",
    "url": "http://mezura.jp/",
    "pref": "大分県",
    "city": "宇佐市",
    "category": "tokuyou",
    "serviceType": "介護老人福祉施設",
    "capacity": 80,
    "openDays": [],
    "openDaysNote": ""
  },
  {
    "id": "4471100190",
    "name": "特別養護老人ホーム　宇水園",
    "kana": "トクベツヨウゴロウジンホーム　ウスイエン",
    "address": "大分県宇佐市辛島299番地の2",
    "lat": 33.5324448170285,
    "lng": 131.337752829608,
    "tel": "0978-33-0111",
    "url": "http://www.usuien.org/",
    "pref": "大分県",
    "city": "宇佐市",
    "category": "tokuyou",
    "serviceType": "介護老人福祉施設",
    "capacity": 0,
    "openDays": [],
    "openDaysNote": ""
  },
  {
    "id": "4473100073",
    "name": "特別養護老人ホーム妻垣荘",
    "kana": "トクベツヨウゴロウジンホームツマカキソウ",
    "address": "大分県宇佐市安心院町妻垣401番地",
    "lat": 33.4287233,
    "lng": 131.3632862,
    "tel": "0978-34-4015",
    "url": "http://care-net.biz/44/tumagaki",
    "pref": "大分県",
    "city": "宇佐市",
    "category": "tokuyou",
    "serviceType": "介護老人福祉施設",
    "capacity": 50,
    "openDays": [],
    "openDaysNote": ""
  },
  {
    "id": "4472600438",
    "name": "特別養護老人ホーム　栄寿荘",
    "kana": "トクベツヨウゴロウジンホーム　エイジュソウ",
    "address": "大分県臼杵市野津町大字落谷５３０番地",
    "lat": 33.0202797,
    "lng": 131.7048748,
    "tel": "0974-32-3838",
    "url": "http://www.eijuso.or.jp/",
    "pref": "大分県",
    "city": "臼杵市",
    "category": "tokuyou",
    "serviceType": "介護老人福祉施設",
    "capacity": null,
    "openDays": [],
    "openDaysNote": ""
  },
  {
    "id": "4470600208",
    "name": "特別養護老人ホーム　緑の園",
    "kana": "トクベツヨウゴロウジンホーム　ミドリノソノ",
    "address": "大分県臼杵市大字大泊２２０番地",
    "lat": 33.118069,
    "lng": 131.8349497,
    "tel": "0972-63-2762",
    "url": "http://fuku-doushinkai.or.jp/midori.html",
    "pref": "大分県",
    "city": "臼杵市",
    "category": "tokuyou",
    "serviceType": "介護老人福祉施設",
    "capacity": 70,
    "openDays": [],
    "openDaysNote": ""
  },
  {
    "id": "4470600190",
    "name": "特別養護老人ホーム四季の郷",
    "kana": "トクベツヨウゴロウジンホームシキノサト",
    "address": "大字江無田1119番地の5",
    "lat": 33.1240606,
    "lng": 131.7782715,
    "tel": "0972-64-0177",
    "url": "http://i-mizuho.net",
    "pref": "大分県",
    "city": "臼杵市",
    "category": "tokuyou",
    "serviceType": "介護老人福祉施設",
    "capacity": 68,
    "openDays": [],
    "openDaysNote": ""
  },
  {
    "id": "4471000150",
    "name": "ユニット型特別養護老人ホーム　菩提樹",
    "kana": "ユニットガタトクベツヨウゴロウジンホーム　ボダイジュ",
    "address": "大分県杵築市大字日野1921番地15",
    "lat": 33.3941416,
    "lng": 131.5966796,
    "tel": "0978-62-2970",
    "url": "http://www.minorimura.or.jp/",
    "pref": "大分県",
    "city": "杵築市",
    "category": "tokuyou",
    "serviceType": "介護老人福祉施設",
    "capacity": 0,
    "openDays": [],
    "openDaysNote": ""
  },
  {
    "id": "4471000598",
    "name": "特別養護老人ホ－ム　太陽の家広寿苑",
    "kana": "トクベツヨウゴロウジンホーム　タイヨウノイエコウジュエン",
    "address": "大分県杵築市山香町野原1662番1",
    "lat": 33.4462593530452,
    "lng": 131.506808434116,
    "tel": "0977-75-0262",
    "url": "http://www.taiyounoie.or.jp",
    "pref": "大分県",
    "city": "杵築市",
    "category": "tokuyou",
    "serviceType": "介護老人福祉施設",
    "capacity": 0,
    "openDays": [],
    "openDaysNote": ""
  },
  {
    "id": "4471000259",
    "name": "特別養護老人ホーム　心助園",
    "kana": "トクベツヨウゴロウジンホーム　シンジョエン",
    "address": "大分県杵築市大字熊野1427-1",
    "lat": 33.3911843,
    "lng": 131.6333358,
    "tel": "0978-64-2222",
    "url": "http//isshinkai-oita-kitsuki.jp/",
    "pref": "大分県",
    "city": "杵築市",
    "category": "tokuyou",
    "serviceType": "介護老人福祉施設",
    "capacity": 0,
    "openDays": [],
    "openDaysNote": ""
  },
  {
    "id": "4471000580",
    "name": "特別養護老人ホーム　太陽の家広寿苑",
    "kana": "トクベツヨウゴロウジンホーム　タイヨウノイエコウジュエン",
    "address": "大分県杵築市山香町野原１６６２番１",
    "lat": 33.4462504008702,
    "lng": 131.506867442714,
    "tel": "0977-75-0262",
    "url": "http://www.taiyonoie.or.jp",
    "pref": "大分県",
    "city": "杵築市",
    "category": "tokuyou",
    "serviceType": "介護老人福祉施設",
    "capacity": 0,
    "openDays": [],
    "openDaysNote": ""
  },
  {
    "id": "4471000432",
    "name": "特別養護老人ホーム瑞雲荘",
    "kana": "トクベツヨウゴロウジンホームズイウンソウ",
    "address": "大分県杵築市大田沓掛2373番地",
    "lat": 33.4988370044375,
    "lng": 131.552528039287,
    "tel": "0978-52-2233",
    "url": "https://etoh-g.jp",
    "pref": "大分県",
    "city": "杵築市",
    "category": "tokuyou",
    "serviceType": "介護老人福祉施設",
    "capacity": 0,
    "openDays": [],
    "openDaysNote": ""
  },
  {
    "id": "4472800152",
    "name": "介護老人福祉施設　シルバーランドメルヘン",
    "kana": "カイゴロウジンフクシシセツ　シルバーランドメルヘン",
    "address": "大分県玖珠郡九重町大字右田3156番地の7",
    "lat": 33.2522023,
    "lng": 131.1745328,
    "tel": "0973-76-2100",
    "url": "http://www.daijyukai-meruhen.com",
    "pref": "大分県",
    "city": "九重町",
    "category": "tokuyou",
    "serviceType": "介護老人福祉施設",
    "capacity": 50,
    "openDays": [],
    "openDaysNote": ""
  },
  {
    "id": "4472800459",
    "name": "共生の里メルヘン",
    "kana": "キョウセイノサトメルヘン",
    "address": "大分県玖珠郡玖珠町大字帆足2189-1",
    "lat": 33.2926065,
    "lng": 131.1583794,
    "tel": "0973-72-1515",
    "url": "http://www.daijyukai-meruhen.com",
    "pref": "大分県",
    "city": "玖珠町",
    "category": "tokuyou",
    "serviceType": "介護老人福祉施設",
    "capacity": 0,
    "openDays": [],
    "openDaysNote": ""
  },
  {
    "id": "4472800160",
    "name": "特別養護老人ホーム玖珠園",
    "kana": "トクベツヨウゴロウジンホームクスエン",
    "address": "大分県玖珠郡玖珠町大字大隈325番地",
    "lat": 33.2704004,
    "lng": 131.1668604,
    "tel": "0973-72-3413",
    "url": "http://www.kusuen.or.jp",
    "pref": "大分県",
    "city": "玖珠町",
    "category": "tokuyou",
    "serviceType": "介護老人福祉施設",
    "capacity": 0,
    "openDays": [],
    "openDaysNote": ""
  },
  {
    "id": "4472100587",
    "name": "特別養護老人ホーム　くにさきの郷",
    "kana": "トクベツヨウゴロウジンホ-ム　クニサキノサト",
    "address": "大分県国東市国東町浜崎2757-16",
    "lat": 33.5892163,
    "lng": 131.7177789,
    "tel": "0978-74-1000",
    "url": "https://www.kunisakinosato.com/",
    "pref": "大分県",
    "city": "国東市",
    "category": "tokuyou",
    "serviceType": "介護老人福祉施設",
    "capacity": 0,
    "openDays": [],
    "openDaysNote": ""
  },
  {
    "id": "4471400137",
    "name": "特別養護老人ホーム　むさし苑",
    "kana": "トクベツヨウゴロウジンホーム　ムサシエン",
    "address": "大分県国東市武蔵町糸原2368番地1",
    "lat": 33.4908047,
    "lng": 131.7158714,
    "tel": "0978-68-0238",
    "url": "http://www.oct-net.ne.jp/~akisato/",
    "pref": "大分県",
    "city": "国東市",
    "category": "tokuyou",
    "serviceType": "介護老人福祉施設",
    "capacity": null,
    "openDays": [],
    "openDaysNote": ""
  },
  {
    "id": "4471400350",
    "name": "特別養護老人ホーム　姫見苑",
    "kana": "トクベツヨウゴロウジンホーム　ヒメミエン",
    "address": "大分県国東市国見町伊美3785番地",
    "lat": 33.6831016142219,
    "lng": 131.604245306746,
    "tel": "0978-82-1161",
    "url": "http://www.horita.or.jp/himemien/",
    "pref": "大分県",
    "city": "国東市",
    "category": "tokuyou",
    "serviceType": "介護老人福祉施設",
    "capacity": 50,
    "openDays": [],
    "openDaysNote": ""
  },
  {
    "id": "4472100264",
    "name": "特別養護老人ホーム鈴鳴荘",
    "kana": "トクベツヨウゴロウジンホーム　レイメイソウ",
    "address": "大分県国東市安岐町下山口58番地",
    "lat": 33.4607761,
    "lng": 131.6911959,
    "tel": "0978-67-2626",
    "url": "http://www.oct-net.ne.jp/~akisato/",
    "pref": "大分県",
    "city": "国東市",
    "category": "tokuyou",
    "serviceType": "介護老人福祉施設",
    "capacity": 0,
    "openDays": [],
    "openDaysNote": ""
  },
  {
    "id": "4472500182",
    "name": "佐伯市特別養護老人ホーム豊寿苑",
    "kana": "サイキシトクベツヨウゴロウジンホームホウジュエン",
    "address": "大分県佐伯市弥生大字井崎1765番地",
    "lat": 32.9784082,
    "lng": 131.8484023,
    "tel": "0972-46-2226",
    "url": "http://sashakyo.or.jp/publics/index/1/",
    "pref": "大分県",
    "city": "佐伯市",
    "category": "tokuyou",
    "serviceType": "介護老人福祉施設",
    "capacity": 0,
    "openDays": [],
    "openDaysNote": ""
  },
  {
    "id": "4470500150",
    "name": "特別養護老人ホーム　花みずき",
    "kana": "トクベツヨウゴロウジンホーム　ハナミズキ",
    "address": "大分県佐伯市大字池田1699番地の7",
    "lat": 32.9459492,
    "lng": 131.8962833,
    "tel": "0972-23-3000",
    "url": "http://www.nagato.or.jp/facilities/kaigo-hanamizuki.html",
    "pref": "大分県",
    "city": "佐伯市",
    "category": "tokuyou",
    "serviceType": "介護老人福祉施設",
    "capacity": 0,
    "openDays": [],
    "openDaysNote": ""
  },
  {
    "id": "4470501497",
    "name": "特別養護老人ホームはまゆう",
    "kana": "特別養護老人ホームハマユウ",
    "address": "大分県佐伯市蒲江大字蒲江浦１３４４番地１",
    "lat": 32.8040462,
    "lng": 131.9414767,
    "tel": "0972-42-1886",
    "url": "http://www.saiki.tv/~kamae-1886/",
    "pref": "大分県",
    "city": "佐伯市",
    "category": "tokuyou",
    "serviceType": "介護老人福祉施設",
    "capacity": null,
    "openDays": [],
    "openDaysNote": ""
  },
  {
    "id": "4472500208",
    "name": "特別養護老人ホームはまゆう",
    "kana": "トクベツヨウゴロウジンホームハマユウ",
    "address": "大分県佐伯市蒲江大字蒲江浦１３４４番地１",
    "lat": 32.8040462,
    "lng": 131.9414767,
    "tel": "0972-42-1886",
    "url": "http://www.saiki.tv/~kamae-1886/",
    "pref": "大分県",
    "city": "佐伯市",
    "category": "tokuyou",
    "serviceType": "介護老人福祉施設",
    "capacity": null,
    "openDays": [],
    "openDaysNote": ""
  },
  {
    "id": "4470500143",
    "name": "特別養護老人ホーム長良苑",
    "kana": "トクベツヨウゴロウジンホーム　ナガラエン",
    "address": "大分県佐伯市大字長良4956番地",
    "lat": 32.9360786,
    "lng": 131.9114961,
    "tel": "0972-28-3000",
    "url": "ｈｔｔｐ://ｒ．ｇｏｏｐｅ．ｊｐ/ｃｈｏｙｏｋａｉ",
    "pref": "大分県",
    "city": "佐伯市",
    "category": "tokuyou",
    "serviceType": "介護老人福祉施設",
    "capacity": 0,
    "openDays": [],
    "openDaysNote": ""
  },
  {
    "id": "4472500190",
    "name": "特別養護老人ホーム直川苑",
    "kana": "トクベツヨウゴロウジンホームナオカワエン",
    "address": "大分県佐伯市直川大字仁田原1962番地1",
    "lat": 32.8786413,
    "lng": 131.7573256,
    "tel": "0972-58-2744",
    "url": "http://www.naokawaen.com/",
    "pref": "大分県",
    "city": "佐伯市",
    "category": "tokuyou",
    "serviceType": "介護老人福祉施設",
    "capacity": 0,
    "openDays": [],
    "openDaysNote": ""
  },
  {
    "id": "4470501471",
    "name": "特別養護老人ホーム直川苑（ユニット型）",
    "kana": "トクベツヨウゴロウジンホームナオカワエン（ユニットガタ）",
    "address": "大分県佐伯市直川大字仁田原1962-1",
    "lat": 32.8786413,
    "lng": 131.7573256,
    "tel": "0972-58-2744",
    "url": "http://www.naokawaen.com/",
    "pref": "大分県",
    "city": "佐伯市",
    "category": "tokuyou",
    "serviceType": "介護老人福祉施設",
    "capacity": 0,
    "openDays": [],
    "openDaysNote": ""
  },
  {
    "id": "4470101132",
    "name": "指定介護老人福祉施設清静園",
    "kana": "シテイカイゴロウジンフクシシセツセイジョウエン",
    "address": "大分県大分市大字竹中５２６８番地",
    "lat": 33.1284991725739,
    "lng": 131.643722610312,
    "tel": "097-597-3189",
    "url": "http://www.seijyoen.or.jp",
    "pref": "大分県",
    "city": "大分市",
    "category": "tokuyou",
    "serviceType": "介護老人福祉施設",
    "capacity": 0,
    "openDays": [],
    "openDaysNote": ""
  },
  {
    "id": "4470101082",
    "name": "特別養護老人ホーム　アルメイダ　メモリアルホーム",
    "kana": "トクベツヨウゴロウジンホーム　アルメイダ　メモリアルホーム",
    "address": "大分県大分市大字宮崎1509番地",
    "lat": 33.1926708,
    "lng": 131.6094867,
    "tel": "097－568－2561",
    "url": "http://almeida-memorial-home.jp/",
    "pref": "大分県",
    "city": "大分市",
    "category": "tokuyou",
    "serviceType": "介護老人福祉施設",
    "capacity": null,
    "openDays": [],
    "openDaysNote": ""
  },
  {
    "id": "4470100852",
    "name": "特別養護老人ホーム　そうだ藤の森",
    "kana": "トクベツヨウゴロウジンホーム　ソウダフジノモリ",
    "address": "大分県大分市大字寒田202番地",
    "lat": 33.1743663,
    "lng": 131.5997071,
    "tel": "097-567-8822",
    "url": "http://san-ai-kai.or.jp/",
    "pref": "大分県",
    "city": "大分市",
    "category": "tokuyou",
    "serviceType": "介護老人福祉施設",
    "capacity": 0,
    "openDays": [],
    "openDaysNote": ""
  },
  {
    "id": "4470104201",
    "name": "特別養護老人ホーム　寿志の里",
    "kana": "トクベツヨウゴロウジンホーム　ジュシノサト",
    "address": "大分県大分市大字中判田１３４２番地の３",
    "lat": 33.1675018,
    "lng": 131.6266943,
    "tel": "097-548-8201",
    "url": "http://jyushinosato.com/",
    "pref": "大分県",
    "city": "大分市",
    "category": "tokuyou",
    "serviceType": "介護老人福祉施設",
    "capacity": 0,
    "openDays": [],
    "openDaysNote": ""
  },
  {
    "id": "4470110570",
    "name": "特別養護老人ホーム　清流苑",
    "kana": "トクベツヨウゴロウジンホーム　セイリュウエン",
    "address": "大分県大分市大字森336番地",
    "lat": 33.2222985,
    "lng": 131.6848829,
    "tel": "097-527-6600",
    "url": "https://seiryu-kyousei.org",
    "pref": "大分県",
    "city": "大分市",
    "category": "tokuyou",
    "serviceType": "介護老人福祉施設",
    "capacity": 0,
    "openDays": [],
    "openDaysNote": ""
  },
  {
    "id": "4470101124",
    "name": "特別養護老人ホーム　誠寿園",
    "kana": "トクベツヨウゴロウジンホーム　セイジュエン",
    "address": "大分県大分市大字中戸次6022番地1",
    "lat": 33.156514119088,
    "lng": 131.654978188423,
    "tel": "097-597-7007",
    "url": "https://seijuen.org",
    "pref": "大分県",
    "city": "大分市",
    "category": "tokuyou",
    "serviceType": "介護老人福祉施設",
    "capacity": 50,
    "openDays": [],
    "openDaysNote": ""
  },
  {
    "id": "4470101116",
    "name": "特別養護老人ホーム　白水長久苑",
    "kana": "トクベツヨウゴロウジンホーム　シラミズチョウキュウエン",
    "address": "大分県大分市大字横尾字大原１８９７番地２",
    "lat": 33.2050816333441,
    "lng": 131.664696010728,
    "tel": "097-520-2711",
    "url": "http://chokyuen.jp/",
    "pref": "大分県",
    "city": "大分市",
    "category": "tokuyou",
    "serviceType": "介護老人福祉施設",
    "capacity": null,
    "openDays": [],
    "openDaysNote": ""
  },
  {
    "id": "4472300328",
    "name": "特別養護老人ホーム　和泉荘",
    "kana": "トクベツヨウゴロウジンホーム　イズミソウ",
    "address": "大分県大分市大字竹矢1024番地の1",
    "lat": 33.1550543,
    "lng": 131.5069689,
    "tel": "097-588-1110",
    "url": "http://izumisou.com/",
    "pref": "大分県",
    "city": "大分市",
    "category": "tokuyou",
    "serviceType": "介護老人福祉施設",
    "capacity": 0,
    "openDays": [],
    "openDaysNote": ""
  },
  {
    "id": "4470101678",
    "name": "特別養護老人ホームアイリスおおいた",
    "kana": "トクベツヨウゴロウジンホームアイリスオオイタ",
    "address": "大分県大分市大字横尾4451番地の8",
    "lat": 33.2168097044384,
    "lng": 131.64842063179,
    "tel": "097-503-1755",
    "url": "http://www.niji-iris.com",
    "pref": "大分県",
    "city": "大分市",
    "category": "tokuyou",
    "serviceType": "介護老人福祉施設",
    "capacity": 0,
    "openDays": [],
    "openDaysNote": ""
  },
  {
    "id": "4470102130",
    "name": "特別養護老人ホームリバーサイド桃花苑",
    "kana": "トクベツヨウゴロウジンホームリバーサイドトウカエン",
    "address": "大分県大分市大字曲字箕久保320番リバーサイド桃花苑 リバーサイド桃花苑",
    "lat": 33.1979322986147,
    "lng": 131.61842865889,
    "tel": "097-504-7666",
    "url": "http://www.riverside-toukaen.jp",
    "pref": "大分県",
    "city": "大分市",
    "category": "tokuyou",
    "serviceType": "介護老人福祉施設",
    "capacity": 0,
    "openDays": [],
    "openDaysNote": ""
  },
  {
    "id": "4470101090",
    "name": "特別養護老人ホーム玉光苑",
    "kana": "トクベツヨウゴロウジンホームギョッコウエン",
    "address": "大分県大分市大字市459番地",
    "lat": 33.1885890982019,
    "lng": 131.570482137919,
    "tel": "097-541-0344",
    "url": "http://gyokkouen.com/",
    "pref": "大分県",
    "city": "大分市",
    "category": "tokuyou",
    "serviceType": "介護老人福祉施設",
    "capacity": 0,
    "openDays": [],
    "openDaysNote": ""
  },
  {
    "id": "4472400243",
    "name": "特別養護老人ホーム光明園",
    "kana": "トクベツヨウゴロウジンホームコウミョウエン",
    "address": "大分県大分市大字志生木字西岡145-9",
    "lat": 33.2450676576598,
    "lng": 131.832936509509,
    "tel": "097-574-0634",
    "url": "http://www.koumyouen.or.jp/",
    "pref": "大分県",
    "city": "大分市",
    "category": "tokuyou",
    "serviceType": "介護老人福祉施設",
    "capacity": 0,
    "openDays": [],
    "openDaysNote": ""
  },
  {
    "id": "4470101108",
    "name": "特別養護老人ホーム庄の原苑",
    "kana": "トクベツヨウゴロウジンホームショウノハルエン",
    "address": "大字荏隈字庄の原1798番地",
    "lat": 33.2218447639807,
    "lng": 131.572964759525,
    "tel": "097-544-0888",
    "url": "shonoharuen.com",
    "pref": "大分県",
    "city": "大分市",
    "category": "tokuyou",
    "serviceType": "介護老人福祉施設",
    "capacity": 0,
    "openDays": [],
    "openDaysNote": ""
  },
  {
    "id": "4470101157",
    "name": "特別養護老人ホーム創生の里",
    "kana": "トクベツヨウゴロウジンホームソウセイノサト",
    "address": "大分県大分市大字野田３０６番地の２",
    "lat": 33.2031772,
    "lng": 131.5361897,
    "tel": "097-549-0012",
    "url": "http://www.wakakusakai.jp",
    "pref": "大分県",
    "city": "大分市",
    "category": "tokuyou",
    "serviceType": "介護老人福祉施設",
    "capacity": 52,
    "openDays": [],
    "openDaysNote": ""
  },
  {
    "id": "4470101165",
    "name": "特別養護老人ホーム百華苑",
    "kana": "トクベツヨウゴロウジンホームヒャッカエン",
    "address": "大分県大分市大字東上野字五両１８００番地",
    "lat": 33.2293831,
    "lng": 131.7712305,
    "tel": "097-592-1513",
    "url": "http//www.hyakkaen/or.jp/",
    "pref": "大分県",
    "city": "大分市",
    "category": "tokuyou",
    "serviceType": "介護老人福祉施設",
    "capacity": 0,
    "openDays": [],
    "openDaysNote": ""
  },
  {
    "id": "4470101181",
    "name": "特別養護老人ホーム緑風苑",
    "kana": "トクベツヨウゴロウジンホームリョクフウエン",
    "address": "大分県大分市下郡山の手２番17号",
    "lat": 33.2274422,
    "lng": 131.6284473,
    "tel": "097-567-3733",
    "url": "http://syouzankai-jp/ryokufu-en/",
    "pref": "大分県",
    "city": "大分市",
    "category": "tokuyou",
    "serviceType": "介護老人福祉施設",
    "capacity": 0,
    "openDays": [],
    "openDaysNote": ""
  },
  {
    "id": "4470101173",
    "name": "特別養護老人ホーム柞原の里",
    "kana": "トクベツヨウゴロウジンホームユスハラノサト",
    "address": "大分県大分市大字八幡320番地の1",
    "lat": 33.2337649,
    "lng": 131.55838,
    "tel": "097-535-2377",
    "url": "http://yusuhara.org/",
    "pref": "大分県",
    "city": "大分市",
    "category": "tokuyou",
    "serviceType": "介護老人福祉施設",
    "capacity": null,
    "openDays": [],
    "openDaysNote": ""
  },
  {
    "id": "4472700196",
    "name": "特別養護老人ホーム　美晴が丘",
    "kana": "トクベツヨウゴロウジンホーム　ミハルガオカ",
    "address": "大分県竹田市直入町大字長湯9067番地4",
    "lat": 33.082601,
    "lng": 131.3838559,
    "tel": "0974-75-3333",
    "url": "http://www.miharugaoka.com/",
    "pref": "大分県",
    "city": "竹田市",
    "category": "tokuyou",
    "serviceType": "介護老人福祉施設",
    "capacity": 0,
    "openDays": [],
    "openDaysNote": ""
  },
  {
    "id": "4470800071",
    "name": "特別養護老人ホーム　悠々居",
    "kana": "トクベツヨウゴロウジンホーム　ユウユウキョ",
    "address": "大分県竹田市大字三宅1763番地1",
    "lat": 32.9911868756535,
    "lng": 131.413924586508,
    "tel": "0974-63-3201",
    "url": "https://yuyukyo.com",
    "pref": "大分県",
    "city": "竹田市",
    "category": "tokuyou",
    "serviceType": "介護老人福祉施設",
    "capacity": 0,
    "openDays": [],
    "openDaysNote": ""
  },
  {
    "id": "4472700089",
    "name": "特別養護老人ホーム久住荘",
    "kana": "トクベツヨウゴロウジンホームクジュウソウ",
    "address": "大分県竹田市久住町大字久住6485番地1",
    "lat": 33.0204936,
    "lng": 131.2973652,
    "tel": "0974-76-0111",
    "url": "",
    "pref": "大分県",
    "city": "竹田市",
    "category": "tokuyou",
    "serviceType": "介護老人福祉施設",
    "capacity": 0,
    "openDays": [],
    "openDaysNote": ""
  },
  {
    "id": "4473000067",
    "name": "中津市特別養護老人ホームやすらぎ荘",
    "kana": "ナカツシトクベツヨウゴロウジンホームヤスラギソウ",
    "address": "中津市耶馬溪町大字樋山路1番地1",
    "lat": 33.4305321,
    "lng": 131.0975942,
    "tel": "0979-56-2386",
    "url": "http://www.nakatsu-s.or.jp/",
    "pref": "大分県",
    "city": "中津市",
    "category": "tokuyou",
    "serviceType": "介護老人福祉施設",
    "capacity": 80,
    "openDays": [],
    "openDaysNote": ""
  },
  {
    "id": "4470300940",
    "name": "特別養護老人ホーム　むくの木",
    "kana": "トクベツヨウゴロウジンホーム　ムクノキ",
    "address": "大分県中津市大字上宮永348番地",
    "lat": 33.5856249,
    "lng": 131.185453,
    "tel": "0979-23-1094",
    "url": "http://www.mukunoki-kenseikai.jp/",
    "pref": "大分県",
    "city": "中津市",
    "category": "tokuyou",
    "serviceType": "介護老人福祉施設",
    "capacity": 0,
    "openDays": [],
    "openDaysNote": ""
  },
  {
    "id": "4470300361",
    "name": "特別養護老人ホーム　悠久の里",
    "kana": "トクベツヨウゴロウジンホーム　ユウキュウノサト",
    "address": "大分県中津市永添945番地",
    "lat": 33.5738218,
    "lng": 131.2117872,
    "tel": "0979-26-0760",
    "url": "http://yukyunosato.org/",
    "pref": "大分県",
    "city": "中津市",
    "category": "tokuyou",
    "serviceType": "介護老人福祉施設",
    "capacity": 0,
    "openDays": [],
    "openDaysNote": ""
  },
  {
    "id": "4470300189",
    "name": "特別養護老人ホームいずみの園",
    "kana": "トクベツヨウゴロウジンホームイズミノソノ",
    "address": "大分県中津市大字永添2744番地",
    "lat": 33.5609132289636,
    "lng": 131.199067111945,
    "tel": "0979-53-7750",
    "url": "http://www.izuminosono.jp/",
    "pref": "大分県",
    "city": "中津市",
    "category": "tokuyou",
    "serviceType": "介護老人福祉施設",
    "capacity": 0,
    "openDays": [],
    "openDaysNote": ""
  },
  {
    "id": "4470301112",
    "name": "特別養護老人ホームいずみの園ヨハネ館",
    "kana": "トクベツヨウゴロウジンホームイズミノソノヨハネカン",
    "address": "大分県中津市大字永添2744番地",
    "lat": 33.5609176991255,
    "lng": 131.199061412251,
    "tel": "0979-53-7750",
    "url": "http://www.izuminosono.jp",
    "pref": "大分県",
    "city": "中津市",
    "category": "tokuyou",
    "serviceType": "介護老人福祉施設",
    "capacity": 0,
    "openDays": [],
    "openDaysNote": ""
  },
  {
    "id": "4473000216",
    "name": "特別養護老人ホーム望箭荘",
    "kana": "トクベツヨウゴロウジンホームボウセンソウ",
    "address": "大分県中津市三光森山８５１番地",
    "lat": 33.5474365,
    "lng": 131.2195699,
    "tel": "0979-43-6610",
    "url": "http://www.chokusin.jp/",
    "pref": "大分県",
    "city": "中津市",
    "category": "tokuyou",
    "serviceType": "介護老人福祉施設",
    "capacity": 0,
    "openDays": [],
    "openDaysNote": ""
  },
  {
    "id": "4470700180",
    "name": "特別養護老人ホーム　しおさい",
    "kana": "トクベツヨウゴロウジンホーム　シオサイ",
    "address": "大分県津久見市大字長目2715番地の5",
    "lat": 33.1110795,
    "lng": 131.8861293,
    "tel": "0972-85-0539",
    "url": "http://fuku-doushinkai.or.jp",
    "pref": "大分県",
    "city": "津久見市",
    "category": "tokuyou",
    "serviceType": "介護老人福祉施設",
    "capacity": 0,
    "openDays": [],
    "openDaysNote": ""
  },
  {
    "id": "4470700065",
    "name": "特別養護老人ホーム白梅荘",
    "kana": "トクベツヨウゴロウジンホームシラウメソウ",
    "address": "大分県津久見市徳浦宮町420番地",
    "lat": 33.0911334,
    "lng": 131.8508496,
    "tel": "0972－82－0345",
    "url": "http://www.shiraume-fukushikai.com/",
    "pref": "大分県",
    "city": "津久見市",
    "category": "tokuyou",
    "serviceType": "介護老人福祉施設",
    "capacity": null,
    "openDays": [],
    "openDaysNote": ""
  },
  {
    "id": "4472200189",
    "name": "特別養護老人ホーム暘谷苑",
    "kana": "トクベツヨウゴロウジンホームヨウコクエン",
    "address": "大分県速見郡日出町大字藤原5708番地の3",
    "lat": 33.3964216,
    "lng": 131.5526836,
    "tel": "0977-72-8336",
    "url": "http://www.youkoku.or.jp/",
    "pref": "大分県",
    "city": "日出町",
    "category": "tokuyou",
    "serviceType": "介護老人福祉施設",
    "capacity": 0,
    "openDays": [],
    "openDaysNote": ""
  },
  {
    "id": "4470400252",
    "name": "とくべつようごろうじんほーむ　かげつえん",
    "kana": "特別養護老人ホーム　花月園",
    "address": "大分県日田市日ノ出町156番地",
    "lat": 33.3347398,
    "lng": 130.939713,
    "tel": "0973-26-3500",
    "url": "http://www.kagetsuen-swc.com/kagetsuentop.htm",
    "pref": "大分県",
    "city": "日田市",
    "category": "tokuyou",
    "serviceType": "介護老人福祉施設",
    "capacity": 0,
    "openDays": [],
    "openDaysNote": ""
  },
  {
    "id": "4470400906",
    "name": "特別養護老人ホーム　ひた翠明館",
    "kana": "トクベツヨウゴロウジンホーム　ヒタスイメイカン",
    "address": "大字求来里607番地5",
    "lat": 33.3129606,
    "lng": 130.9600036,
    "tel": "0973-22-7220",
    "url": "http://www.suimei.or.jp",
    "pref": "大分県",
    "city": "日田市",
    "category": "tokuyou",
    "serviceType": "介護老人福祉施設",
    "capacity": 0,
    "openDays": [],
    "openDaysNote": ""
  },
  {
    "id": "4470400880",
    "name": "特別養護老人ホーム　敬天荘",
    "kana": "トクベツヨウゴロウジンホーム　ケイテンソウ",
    "address": "大分県日田市天瀬町女子畑２３４番地",
    "lat": 33.2898613,
    "lng": 130.9648288,
    "tel": "0973-57-3451",
    "url": "http://suimei.or.jp",
    "pref": "大分県",
    "city": "日田市",
    "category": "tokuyou",
    "serviceType": "介護老人福祉施設",
    "capacity": 0,
    "openDays": [],
    "openDaysNote": ""
  },
  {
    "id": "4470401185",
    "name": "特別養護老人ホーム喜楽苑",
    "kana": "トクベツヨウゴロウジンホームキラクエン",
    "address": "大分県日田市天瀬町桜竹1115-87",
    "lat": 33.2425558,
    "lng": 131.0118788,
    "tel": "973267810",
    "url": "http://care-net.biz/44/kirakuen/index.php",
    "pref": "大分県",
    "city": "日田市",
    "category": "tokuyou",
    "serviceType": "介護老人福祉施設",
    "capacity": 0,
    "openDays": [],
    "openDaysNote": ""
  },
  {
    "id": "4472900168",
    "name": "特別養護老人ホーム喜楽苑",
    "kana": "トクベツヨウゴロウジンホームキラクエン",
    "address": "大分県日田市天瀬町桜竹1115-87",
    "lat": 33.2425558,
    "lng": 131.0118788,
    "tel": "0973-26-7810",
    "url": "http://care-net.biz/44/kirakuen/index.php",
    "pref": "大分県",
    "city": "日田市",
    "category": "tokuyou",
    "serviceType": "介護老人福祉施設",
    "capacity": 0,
    "openDays": [],
    "openDaysNote": ""
  },
  {
    "id": "4470400260",
    "name": "特別養護老人ホーム中ノ島園",
    "kana": "トクベツヨウゴロウジンホームナカノシマエン",
    "address": "大分県日田市大字庄手字大釣685番地の16",
    "lat": 33.3124676842887,
    "lng": 130.916963951566,
    "tel": "0973-23-1165",
    "url": "http://www.suimei.or.jp",
    "pref": "大分県",
    "city": "日田市",
    "category": "tokuyou",
    "serviceType": "介護老人福祉施設",
    "capacity": 0,
    "openDays": [],
    "openDaysNote": ""
  },
  {
    "id": "4470400278",
    "name": "特別養護老人ホーム日田園",
    "kana": "トクベツヨウゴロウジンホーム　ヒタエン",
    "address": "大分県日田市大字石井字池ノ瀬271番地の2",
    "lat": 33.3125716488332,
    "lng": 130.911987044597,
    "tel": "0973-23-3535",
    "url": "http://hitaen.jp/",
    "pref": "大分県",
    "city": "日田市",
    "category": "tokuyou",
    "serviceType": "介護老人福祉施設",
    "capacity": 0,
    "openDays": [],
    "openDaysNote": ""
  },
  {
    "id": "4470401334",
    "name": "特別養護老人ホーム日田園ユニット",
    "kana": "トクベツヨウゴロウジンホーム　ヒタエンユニット",
    "address": "大分県日田市大字石井字池ノ瀬271番地の2",
    "lat": 33.3125806147802,
    "lng": 130.912035324359,
    "tel": "0973-23-3535",
    "url": "http://www.hitaen.jp/",
    "pref": "大分県",
    "city": "日田市",
    "category": "tokuyou",
    "serviceType": "介護老人福祉施設",
    "capacity": 0,
    "openDays": [],
    "openDaysNote": ""
  },
  {
    "id": "4470200512",
    "name": "ナーシングホームはるかぜ",
    "kana": "ナーシングホームハルカゼ",
    "address": "大分県別府市大字鶴見字前畑3841番地の1",
    "lat": 33.2997315692737,
    "lng": 131.478814985567,
    "tel": "0977-25-7371",
    "url": "http://www.harukaze.or.jp",
    "pref": "大分県",
    "city": "別府市",
    "category": "tokuyou",
    "serviceType": "介護老人福祉施設",
    "capacity": 0,
    "openDays": [],
    "openDaysNote": ""
  },
  {
    "id": "4470201338",
    "name": "特別養護老人ホーム　石垣一燈園",
    "kana": "トクベツヨウゴロウジンホーム　イシガキイットウエン",
    "address": "大分県別府市石垣東3丁目726番地",
    "lat": 33.2928051,
    "lng": 131.4979023,
    "tel": "0977-21-2228",
    "url": "http://www.ittouen.or.jp",
    "pref": "大分県",
    "city": "別府市",
    "category": "tokuyou",
    "serviceType": "介護老人福祉施設",
    "capacity": 0,
    "openDays": [],
    "openDaysNote": ""
  },
  {
    "id": "4470202302",
    "name": "特別養護老人ホーム　友和苑",
    "kana": "トクベツヨウゴロウジンホーム　ユウワエン",
    "address": "大分県別府市亀川東町8番20号",
    "lat": 33.3245716,
    "lng": 131.4974772,
    "tel": "0977-66-0007",
    "url": "http://www.housinkai.life/",
    "pref": "大分県",
    "city": "別府市",
    "category": "tokuyou",
    "serviceType": "介護老人福祉施設",
    "capacity": 0,
    "openDays": [],
    "openDaysNote": ""
  },
  {
    "id": "4470202807",
    "name": "特別養護老人ホーム　楼蘭",
    "kana": "トクベツヨウゴロウジンホーム　ロウラン",
    "address": "大分県別府市小倉町29番23号",
    "lat": 33.3072853423851,
    "lng": 131.465193157672,
    "tel": "0977-73-8848",
    "url": "http://rouran-beppu.com/",
    "pref": "大分県",
    "city": "別府市",
    "category": "tokuyou",
    "serviceType": "介護老人福祉施設",
    "capacity": 50,
    "openDays": [],
    "openDaysNote": ""
  },
  {
    "id": "4470200488",
    "name": "特別養護老人ホーム一燈園",
    "kana": "トクベツヨウゴロウジンホーム　イットウエン",
    "address": "大分県別府市大字南立石３７１番地（堀田４組）",
    "lat": 33.2940103286651,
    "lng": 131.455874520193,
    "tel": "0977－25－8888",
    "url": "http://www.ittouen.or.jp",
    "pref": "大分県",
    "city": "別府市",
    "category": "tokuyou",
    "serviceType": "介護老人福祉施設",
    "capacity": 0,
    "openDays": [],
    "openDaysNote": ""
  },
  {
    "id": "4470200504",
    "name": "特別養護老人ホーム静雲荘",
    "kana": "トクベツヨウゴロウジンホームセイウンソウ",
    "address": "大分県別府市大字野田字サッショウ原1293番地の1",
    "lat": 33.3231370658808,
    "lng": 131.453834535168,
    "tel": "0977-67-2311",
    "url": "http://seiunso.com/",
    "pref": "大分県",
    "city": "別府市",
    "category": "tokuyou",
    "serviceType": "介護老人福祉施設",
    "capacity": 0,
    "openDays": [],
    "openDaysNote": ""
  },
  {
    "id": "4470200496",
    "name": "特別養護老人ホーム茶寿苑",
    "kana": "トクベツヨウゴロウジンホームサジュエン",
    "address": "大分県別府市大字鉄輪1050番地",
    "lat": 33.3173914,
    "lng": 131.4786427,
    "tel": "0977-66-5021",
    "url": "http://sajuen.jp/",
    "pref": "大分県",
    "city": "別府市",
    "category": "tokuyou",
    "serviceType": "介護老人福祉施設",
    "capacity": 0,
    "openDays": [],
    "openDaysNote": ""
  },
  {
    "id": "4470200538",
    "name": "特別養護老人ホーム和幸苑",
    "kana": "トクベツヨウゴロウジンホームワコウエン",
    "address": "大分県別府市大字野田1494番地の１",
    "lat": 33.3254711,
    "lng": 131.4760652,
    "tel": "0977-67-6211",
    "url": "http://www.housinkai.life/",
    "pref": "大分県",
    "city": "別府市",
    "category": "tokuyou",
    "serviceType": "介護老人福祉施設",
    "capacity": 70,
    "openDays": [],
    "openDaysNote": ""
  },
  {
    "id": "4470200520",
    "name": "別府ナーシングホーム泰生園",
    "kana": "ベップナーシングホームタイセイエン",
    "address": "別府市大字鶴見字中山田1068番地の1",
    "lat": 33.3017985,
    "lng": 131.4808481,
    "tel": "0977-66-9988",
    "url": "http://www.wellb.or.jp/",
    "pref": "大分県",
    "city": "別府市",
    "category": "tokuyou",
    "serviceType": "介護老人福祉施設",
    "capacity": 54,
    "openDays": [],
    "openDaysNote": ""
  },
  {
    "id": "4470900285",
    "name": "特別養護老人ホーム　真寿苑",
    "kana": "トクベツヨウゴロウジンホーム　シンジュエン",
    "address": "大分県豊後高田市臼野４２９８番地３",
    "lat": 33.630806,
    "lng": 131.4773468,
    "tel": "0978-53-4181",
    "url": "http://www.shinjuen.jp/",
    "pref": "大分県",
    "city": "豊後高田市",
    "category": "tokuyou",
    "serviceType": "介護老人福祉施設",
    "capacity": 0,
    "openDays": [],
    "openDaysNote": ""
  },
  {
    "id": "4470900095",
    "name": "特別養護老人ホームやすらぎの里",
    "kana": "トクベツヨウゴロウジンホームヤスラギノサト",
    "address": "大分県豊後高田市呉崎755-1",
    "lat": 33.5759609,
    "lng": 131.4321462,
    "tel": "0978-22-1311",
    "url": "http://s-yasuragi.org",
    "pref": "大分県",
    "city": "豊後高田市",
    "category": "tokuyou",
    "serviceType": "介護老人福祉施設",
    "capacity": null,
    "openDays": [],
    "openDaysNote": ""
  },
  {
    "id": "4472600446",
    "name": "特別養護老人ホーム　紫雲荘",
    "kana": "トクベツヨウゴロウジンホーム　シウンソウ",
    "address": "三重町本城2050番地",
    "lat": 32.9721669,
    "lng": 131.5716736,
    "tel": "0974-22-1010",
    "url": "http://siunkai.com/",
    "pref": "大分県",
    "city": "豊後大野市",
    "category": "tokuyou",
    "serviceType": "介護老人福祉施設",
    "capacity": 0,
    "openDays": [],
    "openDaysNote": ""
  },
  {
    "id": "4472600461",
    "name": "特別養護老人ホーム　偕生園",
    "kana": "トクベツヨウゴロウジンホーム　カイセイエン",
    "address": "大分県豊後大野市大野町田中７００番地２",
    "lat": 33.0379578,
    "lng": 131.493298,
    "tel": "０９７４－３４－３８０１",
    "url": "http://www.kaiseien-bungo-ohno.com/",
    "pref": "大分県",
    "city": "豊後大野市",
    "category": "tokuyou",
    "serviceType": "介護老人福祉施設",
    "capacity": 50,
    "openDays": [],
    "openDaysNote": ""
  },
  {
    "id": "4472600453",
    "name": "特別養護老人ホーム任運荘",
    "kana": "トクベツヨウゴロウジンホーム　ニンウンソウ",
    "address": "大分県豊後大野市緒方町馬場796-1",
    "lat": 32.9742163,
    "lng": 131.4779117,
    "tel": "0974-42-2338",
    "url": "http://ninun.or.jp",
    "pref": "大分県",
    "city": "豊後大野市",
    "category": "tokuyou",
    "serviceType": "介護老人福祉施設",
    "capacity": 50,
    "openDays": [],
    "openDaysNote": ""
  },
  {
    "id": "4471300402",
    "name": "ユニット型特別養護老人ホーム白心荘",
    "kana": "ユニットガタトクベツヨウゴロウジンホームハクシンソウ",
    "address": "大分県由布市湯布院町川北１３５４番地１３",
    "lat": 33.2595206,
    "lng": 131.3353984,
    "tel": "0977-85-3551",
    "url": "http://hakushinsou.com/",
    "pref": "大分県",
    "city": "由布市",
    "category": "tokuyou",
    "serviceType": "介護老人福祉施設",
    "capacity": 0,
    "openDays": [],
    "openDaysNote": ""
  },
  {
    "id": "4472300351",
    "name": "温水園",
    "kana": "ヌクミエン",
    "address": "大分県由布市湯布院町川北1964",
    "lat": 33.2485103,
    "lng": 131.3367458,
    "tel": "0977 85 3722",
    "url": "nukumien@basil.ocn.ne.jp",
    "pref": "大分県",
    "city": "由布市",
    "category": "tokuyou",
    "serviceType": "介護老人福祉施設",
    "capacity": 0,
    "openDays": [],
    "openDaysNote": ""
  },
  {
    "id": "4472300369",
    "name": "特別養護老人ホーム　白心荘",
    "kana": "トクベツヨウゴロウジンホーム　ハクシンソウ",
    "address": "大分県由布市湯布院町川北１３５４番地１３",
    "lat": 33.2595206,
    "lng": 131.3353984,
    "tel": "0977-85-3551",
    "url": "http://hakushinsou.com/",
    "pref": "大分県",
    "city": "由布市",
    "category": "tokuyou",
    "serviceType": "介護老人福祉施設",
    "capacity": 0,
    "openDays": [],
    "openDaysNote": ""
  },
  {
    "id": "4472300336",
    "name": "特別養護老人ホーム若葉苑",
    "kana": "トクベツヨウゴロウジンホームワカバエン",
    "address": "大分県由布市挾間町向原1215番地2",
    "lat": 33.1964659,
    "lng": 131.5029176,
    "tel": "097-540-7880",
    "url": "http://cere-net.biz/44wakabaen/",
    "pref": "大分県",
    "city": "由布市",
    "category": "tokuyou",
    "serviceType": "介護老人福祉施設",
    "capacity": 0,
    "openDays": [],
    "openDaysNote": ""
  },
  {
    "id": "4472300344",
    "name": "特別養護老人ホーム情和園",
    "kana": "トクベツヨウゴロウジンホームジョウワエン",
    "address": "大分県由布市庄内町西長宝870番地1",
    "lat": 33.1961581320608,
    "lng": 131.442279738623,
    "tel": "097-582-1010",
    "url": "http://www.jyowaen.com/",
    "pref": "大分県",
    "city": "由布市",
    "category": "tokuyou",
    "serviceType": "介護老人福祉施設",
    "capacity": 0,
    "openDays": [],
    "openDaysNote": ""
  }
]