[
  {
    "id": "2774202051",
    "name": "茨木特別養護老人ホームラガール",
    "kana": "イバラキトクベツヨウゴロウジンホームラガール",
    "address": "大阪府茨木市大字安威12番地",
    "lat": 34.8489767,
    "lng": 135.5653627,
    "tel": "072-648-1500",
    "url": "http://www.koudoukai.or.jp/ibaraki/",
    "pref": "大阪府",
    "city": "茨木市",
    "category": "tokuyou",
    "serviceType": "介護老人福祉施設",
    "capacity": 0,
    "openDays": [],
    "openDaysNote": ""
  },
  {
    "id": "2774200832",
    "name": "特別養護老人ホーム　茨木荘",
    "kana": "トクベツヨウゴロウジンホーム　イバラキソウ",
    "address": "大阪府茨木市丑寅2-1-5",
    "lat": 34.7971056292143,
    "lng": 135.558362632541,
    "tel": "072-631-3388",
    "url": "http://www.tenno.or.jp",
    "pref": "大阪府",
    "city": "茨木市",
    "category": "tokuyou",
    "serviceType": "介護老人福祉施設",
    "capacity": 90,
    "openDays": [],
    "openDaysNote": ""
  },
  {
    "id": "2774201616",
    "name": "特別養護老人ホーム　春風",
    "kana": "トクベツヨウゴロウジンホーム　ハルカゼ",
    "address": "大阪府茨木市南安威2丁目10番5号",
    "lat": 34.8422912,
    "lng": 135.5600048,
    "tel": "072-640-2626",
    "url": "http://www.tanaka-hsp.or.jp",
    "pref": "大阪府",
    "city": "茨木市",
    "category": "tokuyou",
    "serviceType": "介護老人福祉施設",
    "capacity": 57,
    "openDays": [],
    "openDaysNote": ""
  },
  {
    "id": "2774200840",
    "name": "特別養護老人ホーム　庄栄エルダーセンター",
    "kana": "トクベツヨウゴロウジンホウム　ショエイエルダーセンター",
    "address": "大阪府茨木市庄2丁目7番38号",
    "lat": 34.8239909,
    "lng": 135.5809255,
    "tel": "072-631-5151",
    "url": "http://care-net.biz/27/shouei",
    "pref": "大阪府",
    "city": "茨木市",
    "category": "tokuyou",
    "serviceType": "介護老人福祉施設",
    "capacity": 56,
    "openDays": [],
    "openDaysNote": ""
  },
  {
    "id": "2774200444",
    "name": "特別養護老人ホーム　常清の里",
    "kana": "トクベツヨウゴロウジンホーム　ジョウセイノサト",
    "address": "大阪府茨木市清水一丁目２８番２２号",
    "lat": 34.837577,
    "lng": 135.5288493,
    "tel": "072-641-3151",
    "url": "http://www.keitokukai.or.jp/",
    "pref": "大阪府",
    "city": "茨木市",
    "category": "tokuyou",
    "serviceType": "介護老人福祉施設",
    "capacity": 0,
    "openDays": [],
    "openDaysNote": ""
  },
  {
    "id": "2774200360",
    "name": "特別養護老人ホーム　聖和荘",
    "kana": "トクベツヨウゴロウジンホーム　セイワソウ",
    "address": "大阪府茨木市畑田町11番25号",
    "lat": 34.8296344,
    "lng": 135.5656601,
    "tel": "072-626-0010",
    "url": "http://www.ibarakikouseikai.or.jp",
    "pref": "大阪府",
    "city": "茨木市",
    "category": "tokuyou",
    "serviceType": "介護老人福祉施設",
    "capacity": 50,
    "openDays": [],
    "openDaysNote": ""
  },
  {
    "id": "2774202010",
    "name": "特別養護老人ホームコムシェいばらき",
    "kana": "トクベツヨウゴロウジンホームコムシェイバラキ",
    "address": "大阪府茨木市玉島1丁目28番1号",
    "lat": 34.7987546,
    "lng": 135.5874533,
    "tel": "072-632-3355",
    "url": "http://keishokai.org/",
    "pref": "大阪府",
    "city": "茨木市",
    "category": "tokuyou",
    "serviceType": "介護老人福祉施設",
    "capacity": 70,
    "openDays": [],
    "openDaysNote": ""
  },
  {
    "id": "2774200410",
    "name": "特別養護老人ホーム春菊苑",
    "kana": "トクベツヨウゴロウジンホーム　シュンギクエン",
    "address": "茨木市見付山1-10-25",
    "lat": 34.8195961,
    "lng": 135.5544336,
    "tel": "072-624-6500",
    "url": "http://www.keitokukai.or.jp/",
    "pref": "大阪府",
    "city": "茨木市",
    "category": "tokuyou",
    "serviceType": "介護老人福祉施設",
    "capacity": 0,
    "openDays": [],
    "openDaysNote": ""
  },
  {
    "id": "2774201160",
    "name": "特別養護老人ホーム春日丘荘",
    "kana": "トクベツヨウゴロウジンホーム　カスガオカソウ",
    "address": "茨木市南春日丘7丁目11番22号",
    "lat": 34.821065,
    "lng": 135.5303357,
    "tel": "072-625-6377",
    "url": "http://www.kasugaoka.net/",
    "pref": "大阪府",
    "city": "茨木市",
    "category": "tokuyou",
    "serviceType": "介護老人福祉施設",
    "capacity": 120,
    "openDays": [],
    "openDaysNote": ""
  },
  {
    "id": "2774202283",
    "name": "特別養護老人ホーム豊川の郷",
    "kana": "トクベツヨウゴロウジンホームトヨカワノサト",
    "address": "大阪府茨木市豊川４丁目３５番３１号",
    "lat": 34.8338801,
    "lng": 135.5278189,
    "tel": "072-643-0333",
    "url": "http://www.to-wakai.or.jp",
    "pref": "大阪府",
    "city": "茨木市",
    "category": "tokuyou",
    "serviceType": "介護老人福祉施設",
    "capacity": 0,
    "openDays": [],
    "openDaysNote": ""
  },
  {
    "id": "2773800434",
    "name": "羽曳野特別養護老人ホーム",
    "kana": "ハビキノトクベツヨウゴロウジンホーム",
    "address": "大阪府羽曳野市古市2271番地114",
    "lat": 34.5305135,
    "lng": 135.6297934,
    "tel": "072-958-9951",
    "url": "http://www.waetsukai.jp/",
    "pref": "大阪府",
    "city": "羽曳野市",
    "category": "tokuyou",
    "serviceType": "介護老人福祉施設",
    "capacity": 100,
    "openDays": [],
    "openDaysNote": ""
  },
  {
    "id": "2773800509",
    "name": "四天王寺悲田院特別養護老人ホーム",
    "kana": "シテンノウジヒデンイントクベツヨウゴロウジンホーム",
    "address": "羽曳野市学園前6-1-1",
    "lat": 34.5482521,
    "lng": 135.5846419,
    "tel": "072-957-7512",
    "url": "http://www.shitennoji-fukushi.jp/",
    "pref": "大阪府",
    "city": "羽曳野市",
    "category": "tokuyou",
    "serviceType": "介護老人福祉施設",
    "capacity": 0,
    "openDays": [],
    "openDaysNote": ""
  },
  {
    "id": "2773800111",
    "name": "特別養護老人ホーム　アンジュ",
    "kana": "トクベツヨウゴロウジンホーム　アンジュ",
    "address": "大阪府羽曳野市野371番地",
    "lat": 34.5612756,
    "lng": 135.5732679,
    "tel": "072-936-1212",
    "url": "http://tokuyou-ange.jp",
    "pref": "大阪府",
    "city": "羽曳野市",
    "category": "tokuyou",
    "serviceType": "介護老人福祉施設",
    "capacity": 0,
    "openDays": [],
    "openDaysNote": ""
  },
  {
    "id": "2773800798",
    "name": "特別養護老人ホーム　スマイル",
    "kana": "トクベツヨウゴロウジンホーム　スマイル",
    "address": "大阪府羽曳野市尺度３８２番地の5",
    "lat": 34.5316849,
    "lng": 135.5987435,
    "tel": "072-956-4165",
    "url": "http://smile-habikino.jp/",
    "pref": "大阪府",
    "city": "羽曳野市",
    "category": "tokuyou",
    "serviceType": "介護老人福祉施設",
    "capacity": 0,
    "openDays": [],
    "openDaysNote": ""
  },
  {
    "id": "2773801135",
    "name": "特別養護老人ホームあすくの里",
    "kana": "トクベツヨウゴロウジンホームアスクノサト",
    "address": "大阪府羽曳野市飛鳥１１番",
    "lat": 34.5357963,
    "lng": 135.6345611,
    "tel": "072-957-1764",
    "url": "http://www.daichofuku.or.jp/",
    "pref": "大阪府",
    "city": "羽曳野市",
    "category": "tokuyou",
    "serviceType": "介護老人福祉施設",
    "capacity": 0,
    "openDays": [],
    "openDaysNote": ""
  },
  {
    "id": "2773800517",
    "name": "特別養護老人ホーム河原城苑",
    "kana": "トクベツヨウゴロウジンホームカワハラジョウエン",
    "address": "大阪府羽曳野市河原城９２７番地",
    "lat": 34.5479994,
    "lng": 135.5753067,
    "tel": "072-938-3999",
    "url": "http://kawaharajoen.com",
    "pref": "大阪府",
    "city": "羽曳野市",
    "category": "tokuyou",
    "serviceType": "介護老人福祉施設",
    "capacity": 135,
    "openDays": [],
    "openDaysNote": ""
  },
  {
    "id": "2770700538",
    "name": "特別養護老人ホーム　あかしあ",
    "kana": "トクベツヨウゴロウジンホーム　アカシア",
    "address": "大阪府河内長野市あかしあ台2丁目6番15号",
    "lat": 34.4672351894779,
    "lng": 135.553608516587,
    "tel": "0721-52-0333",
    "url": "https://www.ontoku.or.jp/",
    "pref": "大阪府",
    "city": "河内長野市",
    "category": "tokuyou",
    "serviceType": "介護老人福祉施設",
    "capacity": 50,
    "openDays": [],
    "openDaysNote": ""
  },
  {
    "id": "2770700355",
    "name": "特別養護老人ホーム　スリーハートの丘",
    "kana": "トクベツヨウゴロウジンホーム　スリハートノオカ",
    "address": "大阪府河内長野市上原町５５４番地",
    "lat": 34.4445285773537,
    "lng": 135.557110911025,
    "tel": "0721-56-2391",
    "url": "http://www.naganozaidan.jp",
    "pref": "大阪府",
    "city": "河内長野市",
    "category": "tokuyou",
    "serviceType": "介護老人福祉施設",
    "capacity": 0,
    "openDays": [],
    "openDaysNote": ""
  },
  {
    "id": "2770703094",
    "name": "特別養護老人ホーム　ラ・フォート河内長野",
    "kana": "トクベツヨウゴロウジンホーム　ラ・フォートカワチナガノ",
    "address": "大阪府河内長野市木戸1丁目31番25号",
    "lat": 34.4701178175805,
    "lng": 135.570413563229,
    "tel": "0721-55-6677",
    "url": "https://yasuragi-kai.com/",
    "pref": "大阪府",
    "city": "河内長野市",
    "category": "tokuyou",
    "serviceType": "介護老人福祉施設",
    "capacity": 50,
    "openDays": [],
    "openDaysNote": ""
  },
  {
    "id": "2770700207",
    "name": "特別養護老人ホーム　寿里苑",
    "kana": "トクベツヨウゴロウジンホーム　ジュリエン",
    "address": "大阪府河内長野市小山田町448番地の2",
    "lat": 34.451821,
    "lng": 135.5530213,
    "tel": "0721-52-3888",
    "url": "http://www.julien.or.jp",
    "pref": "大阪府",
    "city": "河内長野市",
    "category": "tokuyou",
    "serviceType": "介護老人福祉施設",
    "capacity": 0,
    "openDays": [],
    "openDaysNote": ""
  },
  {
    "id": "2770700652",
    "name": "特別養護老人ホーム生登福祉ケアセンター",
    "kana": "トクベツヨウゴロウジンホームセイトフクシケアセンター",
    "address": "大阪府河内長野市高向２７４番１",
    "lat": 34.4367309,
    "lng": 135.546414,
    "tel": "0721-50-0101",
    "url": "http://www.teramoto.or.jp",
    "pref": "大阪府",
    "city": "河内長野市",
    "category": "tokuyou",
    "serviceType": "介護老人福祉施設",
    "capacity": 50,
    "openDays": [],
    "openDaysNote": ""
  },
  {
    "id": "2770700298",
    "name": "特別養護老人ホーム泰昌園",
    "kana": "トクベツヨウゴロウジンホームタイショウエン",
    "address": "大阪府河内長野市寺元928番地",
    "lat": 34.4345512,
    "lng": 135.5974268,
    "tel": "0721-63-0171",
    "url": "https://www.taisyoen.com",
    "pref": "大阪府",
    "city": "河内長野市",
    "category": "tokuyou",
    "serviceType": "介護老人福祉施設",
    "capacity": 0,
    "openDays": [],
    "openDaysNote": ""
  },
  {
    "id": "2773500778",
    "name": "特別養護老人ホーム　あんり",
    "kana": "トクベツヨウゴロウジンホーム　アンリ",
    "address": "大阪府南河内郡河南町大字寛弘寺１０１番地",
    "lat": 34.4824684,
    "lng": 135.624339,
    "tel": "0721-90-3200",
    "url": "http://www.jyunshin.or.jp/anri/",
    "pref": "大阪府",
    "city": "河南町",
    "category": "tokuyou",
    "serviceType": "介護老人福祉施設",
    "capacity": 0,
    "openDays": [],
    "openDaysNote": ""
  },
  {
    "id": "2773500158",
    "name": "特別養護老人ホーム菊水苑",
    "kana": "トクベツヨウゴロウジンホーム　キクスイエン",
    "address": "大阪府南河内郡河南町大字加納元南１７番地",
    "lat": 34.4857518078442,
    "lng": 135.645932028958,
    "tel": "0721-93-4678",
    "url": "http://www.kikusuien.com/",
    "pref": "大阪府",
    "city": "河南町",
    "category": "tokuyou",
    "serviceType": "介護老人福祉施設",
    "capacity": 80,
    "openDays": [],
    "openDaysNote": ""
  },
  {
    "id": "2771300122",
    "name": "特別養護老人ホーム　水間ヶ丘",
    "kana": "トクベツヨウゴロウジンホーム　ミズマガオカ",
    "address": "大阪府貝塚市水間１３７番１",
    "lat": 34.4043275,
    "lng": 135.3881366,
    "tel": "072-446-5530",
    "url": "http://www.kenjinkai-mizuma.jp/",
    "pref": "大阪府",
    "city": "貝塚市",
    "category": "tokuyou",
    "serviceType": "介護老人福祉施設",
    "capacity": 125,
    "openDays": [],
    "openDaysNote": ""
  },
  {
    "id": "2771300114",
    "name": "特別養護老人ホーム貝塚誠心園",
    "kana": "トクベツヨウゴロウジンホームカイヅカセイシンエン",
    "address": "大阪府貝塚市森1103-2",
    "lat": 34.4138872,
    "lng": 135.3773517,
    "tel": "072-446-8022",
    "url": "http://seishinen.com",
    "pref": "大阪府",
    "city": "貝塚市",
    "category": "tokuyou",
    "serviceType": "介護老人福祉施設",
    "capacity": 80,
    "openDays": [],
    "openDaysNote": ""
  },
  {
    "id": "2771100308",
    "name": "岸和田特別養護老人ホーム",
    "kana": "キシワダトクベツヨウゴロウジンホーム",
    "address": "大阪府岸和田市藤井町２丁目１３番１３号",
    "lat": 34.4641619,
    "lng": 135.3846889,
    "tel": "072-436-5100",
    "url": "http://www.kishiwada.or.jp",
    "pref": "大阪府",
    "city": "岸和田市",
    "category": "tokuyou",
    "serviceType": "介護老人福祉施設",
    "capacity": 0,
    "openDays": [],
    "openDaysNote": ""
  },
  {
    "id": "2771106313",
    "name": "第二岸和田特別養護老人ホーム",
    "kana": "ダイニキシワダトクベツヨウゴロウジンホーム",
    "address": "大阪府岸和田市藤井町2-13-19",
    "lat": 34.4642333,
    "lng": 135.3847461,
    "tel": "072-433-4800",
    "url": "https://kishiwada.or.jp/",
    "pref": "大阪府",
    "city": "岸和田市",
    "category": "tokuyou",
    "serviceType": "介護老人福祉施設",
    "capacity": 0,
    "openDays": [],
    "openDaysNote": ""
  },
  {
    "id": "2771100696",
    "name": "特別養護老人ホーム　いなば荘",
    "kana": "トクベツヨウゴロウジンホーム　イナバソウ",
    "address": "大阪府岸和田市稲葉町1066番地",
    "lat": 34.4320973,
    "lng": 135.4477394,
    "tel": "072-479-2900",
    "url": "http://inabasou.com",
    "pref": "大阪府",
    "city": "岸和田市",
    "category": "tokuyou",
    "serviceType": "介護老人福祉施設",
    "capacity": 104,
    "openDays": [],
    "openDaysNote": ""
  },
  {
    "id": "2771100290",
    "name": "特別養護老人ホーム　神於山園",
    "kana": "トクベツヨウゴロウジンホーム　コウノヤマエン",
    "address": "大阪府岸和田市尾生町３１９２番２",
    "lat": 34.4215176,
    "lng": 135.4180112,
    "tel": "072-427-1165",
    "url": "https://kounoyamaen.or.jp",
    "pref": "大阪府",
    "city": "岸和田市",
    "category": "tokuyou",
    "serviceType": "介護老人福祉施設",
    "capacity": 50,
    "openDays": [],
    "openDaysNote": ""
  },
  {
    "id": "2771100217",
    "name": "特別養護老人ホーム　千亀利荘",
    "kana": "トクベツヨウゴロウジンホーム　チキリソウ",
    "address": "大阪府岸和田市積川町３５８番地",
    "lat": 34.4247445,
    "lng": 135.4398983,
    "tel": "072-479-1885",
    "url": "http://www.chikiriso.jp",
    "pref": "大阪府",
    "city": "岸和田市",
    "category": "tokuyou",
    "serviceType": "介護老人福祉施設",
    "capacity": 50,
    "openDays": [],
    "openDaysNote": ""
  },
  {
    "id": "2771100126",
    "name": "特別養護老人ホーム　萬寿園",
    "kana": "トクベツヨウゴロウジンホーム　マンジュエン",
    "address": "大阪府岸和田市尾生町808番地",
    "lat": 34.4513474,
    "lng": 135.4074175,
    "tel": "072-445-0749",
    "url": "http://www13.ocn.ne.jp/~man/MyPage/menu0.html",
    "pref": "大阪府",
    "city": "岸和田市",
    "category": "tokuyou",
    "serviceType": "介護老人福祉施設",
    "capacity": 0,
    "openDays": [],
    "openDaysNote": ""
  },
  {
    "id": "2771107022",
    "name": "特別養護老人ホームCiao神於山園",
    "kana": "トクベツヨウゴロウジンホームチャオコウノヤマエン",
    "address": "大阪府岸和田市尾生町3192番1",
    "lat": 34.4212944545817,
    "lng": 135.418332262041,
    "tel": "072-427-1165",
    "url": "http://kounoyamaen.or.jp",
    "pref": "大阪府",
    "city": "岸和田市",
    "category": "tokuyou",
    "serviceType": "介護老人福祉施設",
    "capacity": null,
    "openDays": [],
    "openDaysNote": ""
  },
  {
    "id": "2771201221",
    "name": "特別養護老人ホーム　第３永楽荘",
    "kana": "トクベツヨウゴロウジンホーム　ダイサンエイラクソウ",
    "address": "大阪府泉南郡熊取町野田３丁目２２８１番地１",
    "lat": 34.4047404,
    "lng": 135.3555655,
    "tel": "072-452-5167",
    "url": "http://www.eiraku-fukushi.com/",
    "pref": "大阪府",
    "city": "熊取町",
    "category": "tokuyou",
    "serviceType": "介護老人福祉施設",
    "capacity": 0,
    "openDays": [],
    "openDaysNote": ""
  },
  {
    "id": "2771200165",
    "name": "特別養護老人ホーム第１永楽荘",
    "kana": "トクベツヨウゴロウジンホームダイイチエイラクソウ",
    "address": "大阪府泉南郡熊取町野田三丁目1111番地2",
    "lat": 34.4047404,
    "lng": 135.3555655,
    "tel": "072-451-2789",
    "url": "http://www.eiraku-fukushi.com",
    "pref": "大阪府",
    "city": "熊取町",
    "category": "tokuyou",
    "serviceType": "介護老人福祉施設",
    "capacity": 0,
    "openDays": [],
    "openDaysNote": ""
  },
  {
    "id": "2771200132",
    "name": "特別養護老人ホーム弥栄園",
    "kana": "トクベツヨウゴロウジンホーム　ヤサカエン",
    "address": "大阪府泉南郡熊取町大久保南三丁目1380番地の1",
    "lat": 34.3955745,
    "lng": 135.342975,
    "tel": "072-452-7025",
    "url": "http://www.yasakaen.com",
    "pref": "大阪府",
    "city": "熊取町",
    "category": "tokuyou",
    "serviceType": "介護老人福祉施設",
    "capacity": 79,
    "openDays": [],
    "openDaysNote": ""
  },
  {
    "id": "2773600115",
    "name": "きんもくせい特別養護老人ホーム",
    "kana": "キンモクセイトクベツヨウゴロウジンホーム",
    "address": "大阪府交野市大字星田５１５６－８",
    "lat": 34.7569387,
    "lng": 135.6701213,
    "tel": "072-892-5689",
    "url": "http://care-net.biz/27/mokuseikai/",
    "pref": "大阪府",
    "city": "交野市",
    "category": "tokuyou",
    "serviceType": "介護老人福祉施設",
    "capacity": 50,
    "openDays": [],
    "openDaysNote": ""
  },
  {
    "id": "2773600156",
    "name": "特別養護老人ホーム　天の川明星",
    "kana": "トクベツヨウゴロウジンホームアマノガワミョウジョウ",
    "address": "大阪府交野市藤が尾２－５－２２",
    "lat": 34.7700264,
    "lng": 135.6785646,
    "tel": "072-894-3029",
    "url": "https://www.h-myojo.or.jp/",
    "pref": "大阪府",
    "city": "交野市",
    "category": "tokuyou",
    "serviceType": "介護老人福祉施設",
    "capacity": 55,
    "openDays": [],
    "openDaysNote": ""
  },
  {
    "id": "2773600719",
    "name": "特別養護老人ホーム美来",
    "kana": "トクベツヨウゴロウジンホームミライ",
    "address": "大阪府交野市倉治四丁目４０番７号",
    "lat": 34.7956513,
    "lng": 135.6848862,
    "tel": "072-810-8670",
    "url": "http://www.misugikai.jp",
    "pref": "大阪府",
    "city": "交野市",
    "category": "tokuyou",
    "serviceType": "介護老人福祉施設",
    "capacity": 80,
    "openDays": [],
    "openDaysNote": ""
  },
  {
    "id": "2773600172",
    "name": "特別養護老人ホーム明星",
    "kana": "トクベツヨウゴロウジンホームミョウジョウ",
    "address": "大阪府交野市星田８丁目６番７号",
    "lat": 34.7638407,
    "lng": 135.6700128,
    "tel": "072-891-2029",
    "url": "https://www.h-myojo.or.jp",
    "pref": "大阪府",
    "city": "交野市",
    "category": "tokuyou",
    "serviceType": "介護老人福祉施設",
    "capacity": 0,
    "openDays": [],
    "openDaysNote": ""
  },
  {
    "id": "2775300177",
    "name": "高石特別養護老人ホーム",
    "kana": "タカイシトクベツヨウゴロウジンホーム",
    "address": "大阪府高石市取石５丁目８番１５号",
    "lat": 34.5132847,
    "lng": 135.4445774,
    "tel": "072-275-1031",
    "url": "http://www.itokukai.com",
    "pref": "大阪府",
    "city": "高石市",
    "category": "tokuyou",
    "serviceType": "介護老人福祉施設",
    "capacity": 0,
    "openDays": [],
    "openDaysNote": ""
  },
  {
    "id": "2775300151",
    "name": "特別養護老人ホーム　アウェイク東羽衣",
    "kana": "トクベツヨウゴロウジンホウム　アウェイクヒガシハゴロモ",
    "address": "大阪府高石市東羽衣2-14-18",
    "lat": 34.5314188,
    "lng": 135.444963,
    "tel": "072-266-4350",
    "url": "http://aueiku.jp/",
    "pref": "大阪府",
    "city": "高石市",
    "category": "tokuyou",
    "serviceType": "介護老人福祉施設",
    "capacity": null,
    "openDays": [],
    "openDaysNote": ""
  },
  {
    "id": "2770901359",
    "name": "グリーン特別養護老人ホーム",
    "kana": "グリーントクベツヨウゴロウジンホーム",
    "address": "大阪府高槻市奈佐原4-7-15",
    "lat": 34.8653667,
    "lng": 135.5755117,
    "tel": "072-690-3331",
    "url": "",
    "pref": "大阪府",
    "city": "高槻市",
    "category": "tokuyou",
    "serviceType": "介護老人福祉施設",
    "capacity": 0,
    "openDays": [],
    "openDaysNote": ""
  },
  {
    "id": "2770901813",
    "name": "介護老人福祉施設　高槻けやきの郷",
    "kana": "カイゴロウジンフクシシセツ　タカツキケヤキノサト",
    "address": "大阪府高槻市番田１丁目６０番１号",
    "lat": 34.8179784,
    "lng": 135.6246768,
    "tel": "072-662-5888",
    "url": "http://swc-seikouen.jp/takatsuki/index.html",
    "pref": "大阪府",
    "city": "高槻市",
    "category": "tokuyou",
    "serviceType": "介護老人福祉施設",
    "capacity": 0,
    "openDays": [],
    "openDaysNote": ""
  },
  {
    "id": "2770900633",
    "name": "高槻黄金の里特別養護老人ホーム",
    "kana": "タカツキコガネノサト　トクベツヨウゴロウジンホーム",
    "address": "大阪府高槻市黄金の里1丁目14番8号",
    "lat": 34.8748051,
    "lng": 135.5921046,
    "tel": "072-687-3681",
    "url": "http://www.kogane.or.jp",
    "pref": "大阪府",
    "city": "高槻市",
    "category": "tokuyou",
    "serviceType": "介護老人福祉施設",
    "capacity": 0,
    "openDays": [],
    "openDaysNote": ""
  },
  {
    "id": "2770900849",
    "name": "特別養護老人ホーム　れんげ荘",
    "kana": "トクベツヨウゴロウジンホーム　レンゲソウ",
    "address": "高槻市三島江４丁目３８番７号",
    "lat": 34.796811,
    "lng": 135.6090953,
    "tel": "072-677-5888",
    "url": "http://www.rengesou.or.jp",
    "pref": "大阪府",
    "city": "高槻市",
    "category": "tokuyou",
    "serviceType": "介護老人福祉施設",
    "capacity": 0,
    "openDays": [],
    "openDaysNote": ""
  },
  {
    "id": "2770902266",
    "name": "特別養護老人ホーム　樫田の里",
    "kana": "トクベツヨウゴロウジンホーム　カシダノサト",
    "address": "大阪府高槻市大字田能小字畑子谷１５番地１",
    "lat": 34.9530164,
    "lng": 135.5899367,
    "tel": "072-680-0001",
    "url": "http://www.ryokufu1984.or.jp",
    "pref": "大阪府",
    "city": "高槻市",
    "category": "tokuyou",
    "serviceType": "介護老人福祉施設",
    "capacity": 100,
    "openDays": [],
    "openDaysNote": ""
  },
  {
    "id": "2770900393",
    "name": "特別養護老人ホーム　高槻ともしび苑",
    "kana": "トクベツヨウゴロウジンホーム　タカツキトモシビエン",
    "address": "高槻市安岡寺町6丁目6番1号",
    "lat": 34.8818491,
    "lng": 135.6066751,
    "tel": "072-689-2772",
    "url": "http://tomoshibifukushikai.jp/",
    "pref": "大阪府",
    "city": "高槻市",
    "category": "tokuyou",
    "serviceType": "介護老人福祉施設",
    "capacity": 0,
    "openDays": [],
    "openDaysNote": ""
  },
  {
    "id": "2770901326",
    "name": "特別養護老人ホーム　和朗園",
    "kana": "トクベツヨウゴロウジンホーム　ワロウエン",
    "address": "高槻市井尻二丁目37-8",
    "lat": 34.8551192,
    "lng": 135.6490384,
    "tel": "072-660-3600",
    "url": "http://www.kyousei-fukushi.or.jp/",
    "pref": "大阪府",
    "city": "高槻市",
    "category": "tokuyou",
    "serviceType": "介護老人福祉施設",
    "capacity": 0,
    "openDays": [],
    "openDaysNote": ""
  },
  {
    "id": "2770903868",
    "name": "特別養護老人ホームぐんげ今城の丘",
    "kana": "トクベツヨウゴロウジンホームグンゲイマシロノオカ",
    "address": "大阪府高槻市郡家本町１３番２３号",
    "lat": 34.8542519,
    "lng": 135.5977929,
    "tel": "072-681-1500",
    "url": "http://www.syunjyukai.or.jp/",
    "pref": "大阪府",
    "city": "高槻市",
    "category": "tokuyou",
    "serviceType": "介護老人福祉施設",
    "capacity": 0,
    "openDays": [],
    "openDaysNote": ""
  },
  {
    "id": "2770901953",
    "name": "特別養護老人ホームひばり苑",
    "kana": "トクベツヨウゴロウジンホームヒバリエン",
    "address": "大阪府高槻市三箇牧二丁目20番3号",
    "lat": 34.7978662,
    "lng": 135.601785,
    "tel": "072-679-1105",
    "url": "http://tahoukai-hibarien.com",
    "pref": "大阪府",
    "city": "高槻市",
    "category": "tokuyou",
    "serviceType": "介護老人福祉施設",
    "capacity": 0,
    "openDays": [],
    "openDaysNote": ""
  },
  {
    "id": "2770900674",
    "name": "特別養護老人ホームミス・ブール記念ホーム",
    "kana": "ミス・ブールキネンホーム",
    "address": "高槻市松ヶ丘１－２１－９",
    "lat": 34.871634899207,
    "lng": 135.599455574351,
    "tel": "072-688-5138",
    "url": "http://yohane-g.jp/",
    "pref": "大阪府",
    "city": "高槻市",
    "category": "tokuyou",
    "serviceType": "介護老人福祉施設",
    "capacity": 50,
    "openDays": [],
    "openDaysNote": ""
  },
  {
    "id": "2770901227",
    "name": "特別養護老人ホーム高槻荘",
    "kana": "トクベツヨウゴロウジンホームタカツキソウ",
    "address": "高槻市郡家新町４８番７号",
    "lat": 34.8518355,
    "lng": 135.5956293,
    "tel": "072-682-6652",
    "url": "https://takatsuki-huku2.wixsite.com/osj-takatukisou",
    "pref": "大阪府",
    "city": "高槻市",
    "category": "tokuyou",
    "serviceType": "介護老人福祉施設",
    "capacity": 0,
    "openDays": [],
    "openDaysNote": ""
  },
  {
    "id": "2770902597",
    "name": "特別養護老人ホーム出丸苑",
    "kana": "トクベツヨウゴロウジンホーム　デマルエン",
    "address": "大阪府高槻市出丸町４番６２号",
    "lat": 34.8427172,
    "lng": 135.6191799,
    "tel": "072-676-2830",
    "url": "http://demaruen-takatsuki.com",
    "pref": "大阪府",
    "city": "高槻市",
    "category": "tokuyou",
    "serviceType": "介護老人福祉施設",
    "capacity": 0,
    "openDays": [],
    "openDaysNote": ""
  },
  {
    "id": "2779500210",
    "name": "特別養護老人ホーム　玉井泉陽園",
    "kana": "トクベツヨウゴロウジンホーム　タマイセンヨウエン",
    "address": "大阪府阪南市下出371番地の1",
    "lat": 34.3595390980507,
    "lng": 135.249115695107,
    "tel": "072-473-0001",
    "url": "http://senyoen.jp",
    "pref": "大阪府",
    "city": "阪南市",
    "category": "tokuyou",
    "serviceType": "介護老人福祉施設",
    "capacity": 90,
    "openDays": [],
    "openDaysNote": ""
  },
  {
    "id": "2779500202",
    "name": "特別養護老人ホーム玉田山荘",
    "kana": "トクベツヨウゴロウジンホーム　タマダヤマソウ",
    "address": "大阪府阪南市石田738番地の4",
    "lat": 34.3426573051797,
    "lng": 135.248486347202,
    "tel": "072-473-2222",
    "url": "http://www.tamadayama.or.jp",
    "pref": "大阪府",
    "city": "阪南市",
    "category": "tokuyou",
    "serviceType": "介護老人福祉施設",
    "capacity": 0,
    "openDays": [],
    "openDaysNote": ""
  },
  {
    "id": "2776002558",
    "name": "松屋茶論",
    "kana": "マツヤサロン",
    "address": "大阪府堺市堺区松屋大和川通1丁13番1松屋茶論 松屋茶論",
    "lat": 34.5993703,
    "lng": 135.4701513,
    "tel": "072-227-8220",
    "url": "http://www.misasakai.or.jp/shisetsu/matsuyasalon.php",
    "pref": "大阪府",
    "city": "堺市堺区",
    "category": "tokuyou",
    "serviceType": "介護老人福祉施設",
    "capacity": 0,
    "openDays": [],
    "openDaysNote": ""
  },
  {
    "id": "2770102826",
    "name": "特別養護老人ホーム　グレース堺",
    "kana": "トクベツヨウゴロウジンホーム　グレースサカイ",
    "address": "大阪府堺市堺区京町通1-21",
    "lat": 34.5680844,
    "lng": 135.4720405,
    "tel": "072-232-0007",
    "url": "http://gracesakai.or.jp/",
    "pref": "大阪府",
    "city": "堺市堺区",
    "category": "tokuyou",
    "serviceType": "介護老人福祉施設",
    "capacity": 80,
    "openDays": [],
    "openDaysNote": ""
  },
  {
    "id": "2770101109",
    "name": "特別養護老人ホーム　ハートピア堺",
    "kana": "トクベツヨウゴロウジンホーム　ハートピアサカイ",
    "address": "堺市堺区海山町３－１５０－１",
    "lat": 34.5897185,
    "lng": 135.472979,
    "tel": "072-222-8080",
    "url": "http://www.heartpia-sakai.or.jp/",
    "pref": "大阪府",
    "city": "堺市堺区",
    "category": "tokuyou",
    "serviceType": "介護老人福祉施設",
    "capacity": 84,
    "openDays": [],
    "openDaysNote": ""
  },
  {
    "id": "2770104814",
    "name": "特別養護老人ホームアル・ソーレ",
    "kana": "トクベツヨウゴロウジンホーム　アル・ソーレ",
    "address": "堺市堺区甲斐町西２丁１－１５",
    "lat": 34.5784723,
    "lng": 135.4722209,
    "tel": "072-222-2262",
    "url": "http://www.alsole.or.jp/",
    "pref": "大阪府",
    "city": "堺市堺区",
    "category": "tokuyou",
    "serviceType": "介護老人福祉施設",
    "capacity": 50,
    "openDays": [],
    "openDaysNote": ""
  },
  {
    "id": "2770102677",
    "name": "特別養護老人ホームかーさ・びあんか",
    "kana": "トクベツヨウゴロウジンホームカーサ・ビアンカ",
    "address": "堺市堺区今池町４丁４番８号",
    "lat": 34.5846945,
    "lng": 135.4923497,
    "tel": "072-229-6266",
    "url": "http://www.asakayama-kinenkai.or.jp",
    "pref": "大阪府",
    "city": "堺市堺区",
    "category": "tokuyou",
    "serviceType": "介護老人福祉施設",
    "capacity": 0,
    "openDays": [],
    "openDaysNote": ""
  },
  {
    "id": "2770106199",
    "name": "特別養護老人ホームベルライブ",
    "kana": "トクベツヨウゴロウジンホームベルライブ",
    "address": "大阪府堺市堺区南安井町３丁１番１号",
    "lat": 34.5704037,
    "lng": 135.4767207,
    "tel": "072-221-7002",
    "url": "http://www.yujinkai.com",
    "pref": "大阪府",
    "city": "堺市堺区",
    "category": "tokuyou",
    "serviceType": "介護老人福祉施設",
    "capacity": 88,
    "openDays": [],
    "openDaysNote": ""
  },
  {
    "id": "2770101547",
    "name": "特別養護老人ホーム愛らいふ",
    "kana": "トクベツヨウゴロウジンホームアイライフ",
    "address": "大阪府堺市堺区協和町３丁１２８－１１",
    "lat": 34.5640098,
    "lng": 135.4705573,
    "tel": "072-245-3711",
    "url": "http://www.ailife.or.jp/",
    "pref": "大阪府",
    "city": "堺市堺区",
    "category": "tokuyou",
    "serviceType": "介護老人福祉施設",
    "capacity": 0,
    "openDays": [],
    "openDaysNote": ""
  },
  {
    "id": "2776001758",
    "name": "特別養護老人ホーム大仙もずの音",
    "kana": "トクベツヨウゴロウジンホームダイセンモズノネ",
    "address": "大阪府堺市堺区大仙町1-2",
    "lat": 34.5656999360693,
    "lng": 135.481997923804,
    "tel": "072（238）0088",
    "url": "http://www.misasagikai.or.jp/",
    "pref": "大阪府",
    "city": "堺市堺区",
    "category": "tokuyou",
    "serviceType": "介護老人福祉施設",
    "capacity": 80,
    "openDays": [],
    "openDaysNote": ""
  },
  {
    "id": "2776302164",
    "name": "特別養護老人ホーム　アリオン",
    "kana": "トクベツヨウゴロウジンホーム　アリオン",
    "address": "大阪府堺市西区浜寺石津町西1-2-7",
    "lat": 34.5624419060562,
    "lng": 135.454693556483,
    "tel": "072-245-9640",
    "url": "http://windhorse.or.jp/",
    "pref": "大阪府",
    "city": "堺市西区",
    "category": "tokuyou",
    "serviceType": "介護老人福祉施設",
    "capacity": 80,
    "openDays": [],
    "openDaysNote": ""
  },
  {
    "id": "2770101893",
    "name": "特別養護老人ホーム　ハートピア泉北",
    "kana": "トクベツヨウゴロウジンホーム　ハートピアセンボク",
    "address": "大阪府堺市西区太平寺331-1",
    "lat": 34.5038537663531,
    "lng": 135.478951793254,
    "tel": "072-297-9598",
    "url": "http://www.sakaifukushikai.jp/",
    "pref": "大阪府",
    "city": "堺市西区",
    "category": "tokuyou",
    "serviceType": "介護老人福祉施設",
    "capacity": 0,
    "openDays": [],
    "openDaysNote": ""
  },
  {
    "id": "2776301257",
    "name": "特別養護老人ホーム　ベルアルプ",
    "kana": "トクベツヨウゴロウジンホーム　ベルアルプ",
    "address": "大阪府堺市西区菱木1丁2343番16",
    "lat": 34.5130157,
    "lng": 135.4776328,
    "tel": "072-349-6710",
    "url": "http://www.yujinkai.com/bellharpe/",
    "pref": "大阪府",
    "city": "堺市西区",
    "category": "tokuyou",
    "serviceType": "介護老人福祉施設",
    "capacity": 80,
    "openDays": [],
    "openDaysNote": ""
  },
  {
    "id": "2776302172",
    "name": "特別養護老人ホーム　マーヤの里　上野芝",
    "kana": "トクベツヨウゴロウジンホーム　マーヤノサト　ウエノシバ",
    "address": "大阪府堺市西区上野芝町5-9-20",
    "lat": 34.5475187,
    "lng": 135.4732798,
    "tel": "072-275-5188",
    "url": "http://ma-ya.org",
    "pref": "大阪府",
    "city": "堺市西区",
    "category": "tokuyou",
    "serviceType": "介護老人福祉施設",
    "capacity": 0,
    "openDays": [],
    "openDaysNote": ""
  },
  {
    "id": "2770103147",
    "name": "特別養護老人ホーム　朗友サロン",
    "kana": "トクベツヨウゴロウジンホーム　ロウユウサロン",
    "address": "堺市西区草部743番地",
    "lat": 34.5197538,
    "lng": 135.4716248,
    "tel": "072-271-7611",
    "url": "http://www.otorifukusikai.or.jp/",
    "pref": "大阪府",
    "city": "堺市西区",
    "category": "tokuyou",
    "serviceType": "介護老人福祉施設",
    "capacity": 0,
    "openDays": [],
    "openDaysNote": ""
  },
  {
    "id": "2770101745",
    "name": "特別養護老人ホーム　朗友館",
    "kana": "トクベツヨウゴロウジンホーム　　ロウユウカン",
    "address": "大阪府堺市西区鳳東町6丁659番地１",
    "lat": 34.5374899925492,
    "lng": 135.464530037578,
    "tel": "072-275-1555",
    "url": "http://www.otorifukushikai.or.jp/",
    "pref": "大阪府",
    "city": "堺市西区",
    "category": "tokuyou",
    "serviceType": "介護老人福祉施設",
    "capacity": 0,
    "openDays": [],
    "openDaysNote": ""
  },
  {
    "id": "2776300564",
    "name": "特別養護老人ホームパルハウスくさべ",
    "kana": "トクベツヨウゴロウジンホームパルハウスクサベ",
    "address": "大阪府堺市西区草部1417",
    "lat": 34.5155486,
    "lng": 135.4632035,
    "tel": "072-275-0111",
    "url": "https://www.wafukai.net/",
    "pref": "大阪府",
    "city": "堺市西区",
    "category": "tokuyou",
    "serviceType": "介護老人福祉施設",
    "capacity": 0,
    "openDays": [],
    "openDaysNote": ""
  },
  {
    "id": "2776104149",
    "name": "特別養護老人ホーム　あいする久世",
    "kana": "トクベツヨウゴロウジンホーム　アイスルクゼ",
    "address": "大阪府堺市中区平井６７５番地1",
    "lat": 34.5164892569954,
    "lng": 135.493654026289,
    "tel": "072-268-5111",
    "url": "http://www.houseikai.net/",
    "pref": "大阪府",
    "city": "堺市中区",
    "category": "tokuyou",
    "serviceType": "介護老人福祉施設",
    "capacity": null,
    "openDays": [],
    "openDaysNote": ""
  },
  {
    "id": "2770104236",
    "name": "特別養護老人ホーム　クレーネ堺",
    "kana": "トクベツヨウゴロウジンホーム　クレーネサカイ",
    "address": "堺市中区福田339-2",
    "lat": 34.5186131,
    "lng": 135.5262088,
    "tel": "072-230-5288",
    "url": "https://care-net.biz/27/kurene/",
    "pref": "大阪府",
    "city": "堺市中区",
    "category": "tokuyou",
    "serviceType": "介護老人福祉施設",
    "capacity": 70,
    "openDays": [],
    "openDaysNote": ""
  },
  {
    "id": "2770101794",
    "name": "特別養護老人ホーム　ベルファミリア",
    "kana": "トクベツヨウゴロウジンホーム　ベルファミリア",
    "address": "大阪府堺市中区東山841番地1",
    "lat": 34.5170741,
    "lng": 135.5067356,
    "tel": "072-234-2005",
    "url": "http://www.yujinkai.com",
    "pref": "大阪府",
    "city": "堺市中区",
    "category": "tokuyou",
    "serviceType": "介護老人福祉施設",
    "capacity": 0,
    "openDays": [],
    "openDaysNote": ""
  },
  {
    "id": "2776103588",
    "name": "特別養護老人ホーム　マーヤの里　鈴の宮",
    "kana": "トクベツヨウゴロウジンホーム　マーヤノサト　スズノミヤ",
    "address": "大阪府堺市中区毛穴町294-1",
    "lat": 34.5282541,
    "lng": 135.4743781,
    "tel": "072-349-8166",
    "url": "http://ma-ya.org",
    "pref": "大阪府",
    "city": "堺市中区",
    "category": "tokuyou",
    "serviceType": "介護老人福祉施設",
    "capacity": 0,
    "openDays": [],
    "openDaysNote": ""
  },
  {
    "id": "2770101240",
    "name": "特別養護老人ホームふれ愛の家",
    "kana": "トクベツヨウゴロウジンホームフレアイノイエ",
    "address": "大阪府堺市中区土塔町2028番地",
    "lat": 34.5343872808672,
    "lng": 135.505430308598,
    "tel": "072-237-1979",
    "url": "https://tokogakuen.com",
    "pref": "大阪府",
    "city": "堺市中区",
    "category": "tokuyou",
    "serviceType": "介護老人福祉施設",
    "capacity": 0,
    "openDays": [],
    "openDaysNote": ""
  },
  {
    "id": "2770102644",
    "name": "特別養護老人ホームやすらぎの園",
    "kana": "トクベツヨウゴロウジンホームヤスラギノソノ",
    "address": "大阪府堺市中区深井畑山町2528番地の1",
    "lat": 34.5244511,
    "lng": 135.5113211,
    "tel": "072-270-7000",
    "url": "http://www.yasuraginosono.jp/",
    "pref": "大阪府",
    "city": "堺市中区",
    "category": "tokuyou",
    "serviceType": "介護老人福祉施設",
    "capacity": 80,
    "openDays": [],
    "openDaysNote": ""
  },
  {
    "id": "2776102242",
    "name": "特別養護老人ホームゆーとりあ",
    "kana": "トクベツヨウゴロウジンホームユートリア",
    "address": "大阪府堺市中区見野山164番地",
    "lat": 34.5030066,
    "lng": 135.5353279,
    "tel": "072-236-8779",
    "url": "http://yutoria.or.jp",
    "pref": "大阪府",
    "city": "堺市中区",
    "category": "tokuyou",
    "serviceType": "介護老人福祉施設",
    "capacity": 80,
    "openDays": [],
    "openDaysNote": ""
  },
  {
    "id": "2770101901",
    "name": "特別養護老人ホーム嘉齢荘",
    "kana": "トクベツヨウゴロウジンホームカレイソウ",
    "address": "大阪府堺市中区伏尾１９６番地",
    "lat": 34.5146879,
    "lng": 135.4924398,
    "tel": "072-278-0205",
    "url": "http://www.fukuseikai.org",
    "pref": "大阪府",
    "city": "堺市中区",
    "category": "tokuyou",
    "serviceType": "介護老人福祉施設",
    "capacity": 0,
    "openDays": [],
    "openDaysNote": ""
  },
  {
    "id": "2776200459",
    "name": "特別養護老人ホーム　くみのき苑ゆらら",
    "kana": "トクベツヨウゴロウジンホーム　クミノキエンユララ",
    "address": "大阪府堺市東区南野田454‐2",
    "lat": 34.5188548218452,
    "lng": 135.546675286508,
    "tel": "０７２－２８９－１１００",
    "url": "http://www.rapport-kuminoki.jp/",
    "pref": "大阪府",
    "city": "堺市東区",
    "category": "tokuyou",
    "serviceType": "介護老人福祉施設",
    "capacity": 80,
    "openDays": [],
    "openDaysNote": ""
  },
  {
    "id": "2770108427",
    "name": "特別養護老人ホーム　ソルメゾン",
    "kana": "トクベツヨウゴロウジンホーム　ソルメゾン",
    "address": "堺市東区菩提町２丁６２番地の１",
    "lat": 34.5503483720062,
    "lng": 135.534237395107,
    "tel": "072-288-2008",
    "url": "http://www.syofuku.or.jp/",
    "pref": "大阪府",
    "city": "堺市東区",
    "category": "tokuyou",
    "serviceType": "介護老人福祉施設",
    "capacity": 80,
    "openDays": [],
    "openDaysNote": ""
  },
  {
    "id": "2770101703",
    "name": "特別養護老人ホーム　つるぎ荘",
    "kana": "トクベツヨウゴロウジンホームツルギソウ",
    "address": "堺市東区日置荘田中町143-1",
    "lat": 34.5332143,
    "lng": 135.5315579,
    "tel": "072-286-2828",
    "url": "http://www.sobikai.or.jp",
    "pref": "大阪府",
    "city": "堺市東区",
    "category": "tokuyou",
    "serviceType": "介護老人福祉施設",
    "capacity": 84,
    "openDays": [],
    "openDaysNote": ""
  },
  {
    "id": "2770101653",
    "name": "特別養護老人ホーム　ハーモニー",
    "kana": "トクベツヨウゴロウジンホーム　ハーモニー",
    "address": "大阪府堺市東区南野田33番地",
    "lat": 34.5226103,
    "lng": 135.5502121,
    "tel": "072-239-0011",
    "url": "http://www.harmony.or.jp",
    "pref": "大阪府",
    "city": "堺市東区",
    "category": "tokuyou",
    "serviceType": "介護老人福祉施設",
    "capacity": 70,
    "openDays": [],
    "openDaysNote": ""
  },
  {
    "id": "2770102800",
    "name": "特別養護老人ホーム・おおみの",
    "kana": "トクベツヨウゴロウジンホーム・オオミノ",
    "address": "大阪府堺市東区西野42番地",
    "lat": 34.5189577,
    "lng": 135.53793,
    "tel": "072-230-0700",
    "url": "http://www.oomino.jp",
    "pref": "大阪府",
    "city": "堺市東区",
    "category": "tokuyou",
    "serviceType": "介護老人福祉施設",
    "capacity": 48,
    "openDays": [],
    "openDaysNote": ""
  },
  {
    "id": "2776201184",
    "name": "特別養護老人ホームくみのき苑しらさぎ",
    "kana": "トクベツヨウゴロウジンホームクミノキエンシラサギ",
    "address": "大阪府堺市東区白鷺町3丁18番17号",
    "lat": 34.54601,
    "lng": 135.5209168,
    "tel": "072-287-7222",
    "url": "http://www.rapport-kuminoki.jp/shirasagi/",
    "pref": "大阪府",
    "city": "堺市東区",
    "category": "tokuyou",
    "serviceType": "介護老人福祉施設",
    "capacity": 80,
    "openDays": [],
    "openDaysNote": ""
  },
  {
    "id": "2770102453",
    "name": "特別養護老人ホーム　泉北園百寿荘",
    "kana": "トクベツヨウゴロウジンホーム　センボクエンヒャクジュソウ",
    "address": "大阪府堺市南区茶山台３－２３－２",
    "lat": 34.4886387,
    "lng": 135.5178962,
    "tel": "072-296-3535",
    "url": "http://www.hyakujusou.or.jp/",
    "pref": "大阪府",
    "city": "堺市南区",
    "category": "tokuyou",
    "serviceType": "介護老人福祉施設",
    "capacity": 50,
    "openDays": [],
    "openDaysNote": ""
  },
  {
    "id": "2770102313",
    "name": "特別養護老人ホーム　年輪",
    "kana": "トクベツヨウゴロウジンホーム　ネンリン",
    "address": "大阪府堺市南区御池台５－２－２",
    "lat": 34.4580571760191,
    "lng": 135.504798576057,
    "tel": "072-293-4800",
    "url": "http://www.s-nenrin.or.jp",
    "pref": "大阪府",
    "city": "堺市南区",
    "category": "tokuyou",
    "serviceType": "介護老人福祉施設",
    "capacity": 100,
    "openDays": [],
    "openDaysNote": ""
  },
  {
    "id": "2770102198",
    "name": "特別養護老人ホーム　美樹の園",
    "kana": "トクベツヨウゴロウジンホーム　ミキノソノ",
    "address": "大阪府堺市南区美木多上１２７７番地１",
    "lat": 34.4607357,
    "lng": 135.493057,
    "tel": "072-296-1222",
    "url": "http://mikinosono.sakura.ne.jp",
    "pref": "大阪府",
    "city": "堺市南区",
    "category": "tokuyou",
    "serviceType": "介護老人福祉施設",
    "capacity": 0,
    "openDays": [],
    "openDaysNote": ""
  },
  {
    "id": "2770101299",
    "name": "特別養護老人ホーム故郷の家",
    "kana": "トクベツヨウゴロウジンホームコキョウノイエ",
    "address": "大阪府堺市南区檜尾３３６０－１２",
    "lat": 34.489921,
    "lng": 135.4673451,
    "tel": "072-271-0881",
    "url": "http://www.kokorono.or.jp",
    "pref": "大阪府",
    "city": "堺市南区",
    "category": "tokuyou",
    "serviceType": "介護老人福祉施設",
    "capacity": 0,
    "openDays": [],
    "openDaysNote": ""
  },
  {
    "id": "2770101166",
    "name": "特別養護老人ホーム槇塚荘",
    "kana": "トクベツヨウゴロウジンホームマキヅカソウ",
    "address": "大阪府堺市南区逆瀬川１０３８－２",
    "lat": 34.4788178,
    "lng": 135.5275175,
    "tel": "072-291-0920",
    "url": "http://www.makiduka.jp",
    "pref": "大阪府",
    "city": "堺市南区",
    "category": "tokuyou",
    "serviceType": "介護老人福祉施設",
    "capacity": 73,
    "openDays": [],
    "openDaysNote": ""
  },
  {
    "id": "2770107205",
    "name": "特別養護老人ホーム　平尾荘",
    "kana": "トクベツヨウゴロウジンホーム　ヒラオソウ",
    "address": "大阪府堺市美原区平尾1938-1",
    "lat": 34.5319207,
    "lng": 135.5748957,
    "tel": "072-363-1555",
    "url": "http://www.tenjukai.or.jp",
    "pref": "大阪府",
    "city": "堺市美原区",
    "category": "tokuyou",
    "serviceType": "介護老人福祉施設",
    "capacity": 0,
    "openDays": [],
    "openDaysNote": ""
  },
  {
    "id": "2770107304",
    "name": "特別養護老人ホーム美原荘",
    "kana": "トクベツヨウゴロウジンホームミハラソウ",
    "address": "大阪府堺市美原区平尾595番1号",
    "lat": 34.5286849,
    "lng": 135.5699657,
    "tel": "072-362-3491",
    "url": "http://miharasou-group.net/mihara/",
    "pref": "大阪府",
    "city": "堺市美原区",
    "category": "tokuyou",
    "serviceType": "介護老人福祉施設",
    "capacity": 0,
    "openDays": [],
    "openDaysNote": ""
  },
  {
    "id": "2770102669",
    "name": "ハピネス金岡",
    "kana": "ハピネスカナオカ",
    "address": "堺市北区金岡町2725番",
    "lat": 34.5561342,
    "lng": 135.525244,
    "tel": "072-251-0222",
    "url": "http://osakafukushikai.or.jp/tokuyo",
    "pref": "大阪府",
    "city": "堺市北区",
    "category": "tokuyou",
    "serviceType": "介護老人福祉施設",
    "capacity": 0,
    "openDays": [],
    "openDaysNote": ""
  },
  {
    "id": "2770102529",
    "name": "特別養護老人ホーム　あけぼの苑",
    "kana": "トクベツヨウゴロウジンホーム　アケボノエン",
    "address": "大阪府堺市北区野遠町３４４－１",
    "lat": 34.5654889,
    "lng": 135.539815,
    "tel": "072-257-2277",
    "url": "http://www.akatsuki.or.jp",
    "pref": "大阪府",
    "city": "堺市北区",
    "category": "tokuyou",
    "serviceType": "介護老人福祉施設",
    "capacity": 0,
    "openDays": [],
    "openDaysNote": ""
  },
  {
    "id": "2770107619",
    "name": "特別養護老人ホーム　グリーンハウス",
    "kana": "トクベツヨウゴロウジンホーム　グリーンハウス",
    "address": "大阪府堺市北区百舌鳥本町三丁430番地2",
    "lat": 34.5524478,
    "lng": 135.4869146,
    "tel": "072-255-1658",
    "url": "http://www.sakura-kai.or.jp",
    "pref": "大阪府",
    "city": "堺市北区",
    "category": "tokuyou",
    "serviceType": "介護老人福祉施設",
    "capacity": 80,
    "openDays": [],
    "openDaysNote": ""
  },
  {
    "id": "2776503134",
    "name": "特別養護老人ホーム　朱雀",
    "kana": "トクベツヨウゴロウジンホームスザク",
    "address": "大阪府堺市北区中長尾町1-2-12",
    "lat": 34.5730201807074,
    "lng": 135.498067498449,
    "tel": "072-250-1115",
    "url": "http://www.alsole.or.jp/",
    "pref": "大阪府",
    "city": "堺市北区",
    "category": "tokuyou",
    "serviceType": "介護老人福祉施設",
    "capacity": null,
    "openDays": [],
    "openDaysNote": ""
  },
  {
    "id": "2776503506",
    "name": "特別養護老人ホーム　梢，よろこび園",
    "kana": "トクベツヨウゴロウジンホームコズエヨロコビエン",
    "address": "大阪府堺市北区中村町３６７番地３",
    "lat": 34.5621628060683,
    "lng": 135.536504651543,
    "tel": "072-246-3987",
    "url": "https://kankikai.jp",
    "pref": "大阪府",
    "city": "堺市北区",
    "category": "tokuyou",
    "serviceType": "介護老人福祉施設",
    "capacity": 0,
    "openDays": [],
    "openDaysNote": ""
  },
  {
    "id": "2770102628",
    "name": "特別養護老人ホーム　陵東館",
    "kana": "トクベツヨウゴロウジンホウム　リョウトウカン",
    "address": "大阪府堺市北区長曽根町１２１０番地の１",
    "lat": 34.5662023,
    "lng": 135.5080622,
    "tel": "072-252-6000",
    "url": "https://kansaifukushikai.or.jp",
    "pref": "大阪府",
    "city": "堺市北区",
    "category": "tokuyou",
    "serviceType": "介護老人福祉施設",
    "capacity": 0,
    "openDays": [],
    "openDaysNote": ""
  },
  {
    "id": "2775700160",
    "name": "特別養護老人ホーム　田原荘",
    "kana": "トクベツヨウゴロウジンホーム　タワラソウ",
    "address": "大阪府四條畷市上田原597番地",
    "lat": 34.7224983,
    "lng": 135.6966585,
    "tel": "0743-79-2525",
    "url": "http://www.wakoucai.or.jp/taharasou/",
    "pref": "大阪府",
    "city": "四條畷市",
    "category": "tokuyou",
    "serviceType": "介護老人福祉施設",
    "capacity": 49,
    "openDays": [],
    "openDaysNote": ""
  },
  {
    "id": "2775700194",
    "name": "特別養護老人ホームるうてるホーム",
    "kana": "トクベツヨウゴロウジンホームルウテルホーム",
    "address": "大阪府四條畷市岡山五丁目１９番２０号",
    "lat": 34.7479758448898,
    "lng": 135.637861855559,
    "tel": "072-878-9373",
    "url": "https://www.ruuteruhome.or.jp",
    "pref": "大阪府",
    "city": "四條畷市",
    "category": "tokuyou",
    "serviceType": "介護老人福祉施設",
    "capacity": 0,
    "openDays": [],
    "openDaysNote": ""
  },
  {
    "id": "2775700269",
    "name": "特別養護老人ホーム四條畷荘",
    "kana": "トクベツヨウゴロウジンホームシジョウナワテソウ",
    "address": "四條畷市北出町28番1号",
    "lat": 34.736477,
    "lng": 135.6301616,
    "tel": "072-878-2651",
    "url": "https://4jou.jp/",
    "pref": "大阪府",
    "city": "四條畷市",
    "category": "tokuyou",
    "serviceType": "介護老人福祉施設",
    "capacity": 0,
    "openDays": [],
    "openDaysNote": ""
  },
  {
    "id": "2775700392",
    "name": "特別養護老人ホーム清滝らくらく苑",
    "kana": "トクベツヨウゴロウジンホームキヨタキラクラクエン",
    "address": "大阪府四條畷市清滝中町1-3",
    "lat": 34.7386101,
    "lng": 135.651468,
    "tel": "072-876-3611",
    "url": "http://www.sanrokukai.com/",
    "pref": "大阪府",
    "city": "四條畷市",
    "category": "tokuyou",
    "serviceType": "介護老人福祉施設",
    "capacity": 50,
    "openDays": [],
    "openDaysNote": ""
  },
  {
    "id": "2773201872",
    "name": "特別養護老人ホーム　なずな園",
    "kana": "トクベツヨウゴロウジンホーム　ナズナエン",
    "address": "大阪府守口市八雲北町2丁目26番1号",
    "lat": 34.75126,
    "lng": 135.5627145,
    "tel": "06-6997-7270",
    "url": "http://hakuseikai.jp",
    "pref": "大阪府",
    "city": "守口市",
    "category": "tokuyou",
    "serviceType": "介護老人福祉施設",
    "capacity": 0,
    "openDays": [],
    "openDaysNote": ""
  },
  {
    "id": "2773200718",
    "name": "特別養護老人ホーム　フローラル",
    "kana": "トクベツヨウゴロウジンホーム　フローラル",
    "address": "大阪府守口市大日町1-11-11",
    "lat": 34.75266,
    "lng": 135.5753605,
    "tel": "06-6907-1371",
    "url": "http://www.floral.or.jp/",
    "pref": "大阪府",
    "city": "守口市",
    "category": "tokuyou",
    "serviceType": "介護老人福祉施設",
    "capacity": 0,
    "openDays": [],
    "openDaysNote": ""
  },
  {
    "id": "2773200395",
    "name": "特別養護老人ホームすずしろ園",
    "kana": "トクベツヨウゴロウジンホームスズシロエン",
    "address": "守口市南寺方東通１－１３－１６",
    "lat": 34.717203,
    "lng": 135.5696815,
    "tel": "06-6992-7722",
    "url": "http://www.hakuseikai.jp",
    "pref": "大阪府",
    "city": "守口市",
    "category": "tokuyou",
    "serviceType": "介護老人福祉施設",
    "capacity": 60,
    "openDays": [],
    "openDaysNote": ""
  },
  {
    "id": "2773200296",
    "name": "特別養護老人ホームたかせ若葉苑",
    "kana": "トクベツヨウゴロウジンホームタカセワカバエン",
    "address": "守口市高瀬町５－８－１６",
    "lat": 34.72458,
    "lng": 135.5656122,
    "tel": "06-6994-7560",
    "url": "",
    "pref": "大阪府",
    "city": "守口市",
    "category": "tokuyou",
    "serviceType": "介護老人福祉施設",
    "capacity": 30,
    "openDays": [],
    "openDaysNote": ""
  },
  {
    "id": "2773200338",
    "name": "特別養護老人ホーム守口荘",
    "kana": "トクベツヨウゴロウジンホームモリグチソウ",
    "address": "大阪府守口市八雲中町三丁目13番17号",
    "lat": 34.7473467,
    "lng": 135.5707694,
    "tel": "06-6906-0554",
    "url": "https://shirayuri-net.jp/",
    "pref": "大阪府",
    "city": "守口市",
    "category": "tokuyou",
    "serviceType": "介護老人福祉施設",
    "capacity": 0,
    "openDays": [],
    "openDaysNote": ""
  },
  {
    "id": "2773202557",
    "name": "特別養護老人ホーム鶴見緑地苑",
    "kana": "トクベツヨウゴロウジンホームツルミリョクチエン",
    "address": "大阪府守口市菊水通3丁目16番2号",
    "lat": 34.7292546,
    "lng": 135.5783304,
    "tel": "06-6995-5005",
    "url": "https://www.seisuikai.net/",
    "pref": "大阪府",
    "city": "守口市",
    "category": "tokuyou",
    "serviceType": "介護老人福祉施設",
    "capacity": 87,
    "openDays": [],
    "openDaysNote": ""
  },
  {
    "id": "2773200593",
    "name": "特別養護老人ホーム梅香苑",
    "kana": "トクベツヨウゴロウジンホームバイコウエン",
    "address": "大阪府守口市佐太中町６丁目４１番１９号",
    "lat": 34.761909,
    "lng": 135.5882535,
    "tel": "06-6900-5054",
    "url": "http://www.bikouen.or.jp",
    "pref": "大阪府",
    "city": "守口市",
    "category": "tokuyou",
    "serviceType": "介護老人福祉施設",
    "capacity": 60,
    "openDays": [],
    "openDaysNote": ""
  },
  {
    "id": "2774800243",
    "name": "大阪老人ホーム",
    "kana": "オオサカロウジンホーム",
    "address": "大阪府松原市阿保3－14－22",
    "lat": 34.5795567,
    "lng": 135.5542527,
    "tel": "072-331-4164",
    "url": "http://www.shoutokukai.net/",
    "pref": "大阪府",
    "city": "松原市",
    "category": "tokuyou",
    "serviceType": "介護老人福祉施設",
    "capacity": 96,
    "openDays": [],
    "openDaysNote": ""
  },
  {
    "id": "2774801415",
    "name": "大阪老人ホームうえだ",
    "kana": "オオサカロウジンホームウエダ",
    "address": "松原市上田８－１１－１１",
    "lat": 34.571005,
    "lng": 135.5621245,
    "tel": "072-339-1661",
    "url": "http://www.shoutokukai.net",
    "pref": "大阪府",
    "city": "松原市",
    "category": "tokuyou",
    "serviceType": "介護老人福祉施設",
    "capacity": 88,
    "openDays": [],
    "openDaysNote": ""
  },
  {
    "id": "2774800219",
    "name": "特別養護老人ホーム　遊づる",
    "kana": "トクベツヨウゴロウジンホームユウヅル",
    "address": "大阪府松原市岡１丁目１８４－１",
    "lat": 34.5631698,
    "lng": 135.5516504,
    "tel": "072-335-0110",
    "url": "http://www.akatsuki.or.jp/",
    "pref": "大阪府",
    "city": "松原市",
    "category": "tokuyou",
    "serviceType": "介護老人福祉施設",
    "capacity": 60,
    "openDays": [],
    "openDaysNote": ""
  },
  {
    "id": "2774800706",
    "name": "特別養護老人ホーム寿里苑サラ",
    "kana": "トクベツヨウゴロウジンホーム　ジュリエンサラ",
    "address": "松原市丹南4丁目172",
    "lat": 34.5589148,
    "lng": 135.5610663,
    "tel": "072-337-7555",
    "url": "http://www.julien.or.jp/",
    "pref": "大阪府",
    "city": "松原市",
    "category": "tokuyou",
    "serviceType": "介護老人福祉施設",
    "capacity": 0,
    "openDays": [],
    "openDaysNote": ""
  },
  {
    "id": "2770300636",
    "name": "特別養護老人ホーム　いちょう園",
    "kana": "トクベツヨウゴロウジンホーム　イチョウエン",
    "address": "大阪府寝屋川市打上南町１４番１号",
    "lat": 34.7535138,
    "lng": 135.6493316,
    "tel": "072-820-2200",
    "url": "https://ichouen.org/",
    "pref": "大阪府",
    "city": "寝屋川市",
    "category": "tokuyou",
    "serviceType": "介護老人福祉施設",
    "capacity": 0,
    "openDays": [],
    "openDaysNote": ""
  },
  {
    "id": "2770300305",
    "name": "特別養護老人ホーム　かわきた園",
    "kana": "トクベツヨウゴロウジンホーム　カワキタエン",
    "address": "大阪府寝屋川市河北東町18-1",
    "lat": 34.7289139,
    "lng": 135.6319254,
    "tel": "072-823-5100",
    "url": "http://syueikai.jp/tokuyou/",
    "pref": "大阪府",
    "city": "寝屋川市",
    "category": "tokuyou",
    "serviceType": "介護老人福祉施設",
    "capacity": 50,
    "openDays": [],
    "openDaysNote": ""
  },
  {
    "id": "2770300693",
    "name": "特別養護老人ホーム　香西園",
    "kana": "トクベツヨウゴロウジンホーム　コウセイエン",
    "address": "大阪府寝屋川市香里西之町１４番２４号",
    "lat": 34.7892318,
    "lng": 135.627252,
    "tel": "072-833-2610",
    "url": "",
    "pref": "大阪府",
    "city": "寝屋川市",
    "category": "tokuyou",
    "serviceType": "介護老人福祉施設",
    "capacity": 60,
    "openDays": [],
    "openDaysNote": ""
  },
  {
    "id": "2770302244",
    "name": "特別養護老人ホーム　香里寿苑",
    "kana": "トクベツヨウゴロウジンホーム　コウリコトブキエン",
    "address": "大阪府寝屋川市寿町32番20号",
    "lat": 34.7818771,
    "lng": 135.6286716,
    "tel": "072-832-5567",
    "url": "https://kousei-fukushikai.or.jp",
    "pref": "大阪府",
    "city": "寝屋川市",
    "category": "tokuyou",
    "serviceType": "介護老人福祉施設",
    "capacity": 50,
    "openDays": [],
    "openDaysNote": ""
  },
  {
    "id": "2770300727",
    "name": "特別養護老人ホーム　寝屋川石津園",
    "kana": "トクベツヨウゴロウジンホーム　ネヤガワイシヅエン",
    "address": "大阪府寝屋川市石津中町　35番8号",
    "lat": 34.7772776,
    "lng": 135.6209057,
    "tel": "072-839-8080",
    "url": "http://www.ishiduen.net",
    "pref": "大阪府",
    "city": "寝屋川市",
    "category": "tokuyou",
    "serviceType": "介護老人福祉施設",
    "capacity": 0,
    "openDays": [],
    "openDaysNote": ""
  },
  {
    "id": "2770305601",
    "name": "特別養護老人ホームさくら園",
    "kana": "トクベツヨウゴロウジンホームサクラエン",
    "address": "大阪府寝屋川市打上南町14番1-2号",
    "lat": 34.7534177758485,
    "lng": 135.648672176582,
    "tel": "072-820-2234",
    "url": "https://sakuraen-osaka.org",
    "pref": "大阪府",
    "city": "寝屋川市",
    "category": "tokuyou",
    "serviceType": "介護老人福祉施設",
    "capacity": 0,
    "openDays": [],
    "openDaysNote": ""
  },
  {
    "id": "2770302772",
    "name": "特別養護老人ホームロイヤルライフ天寿苑",
    "kana": "トクベツヨウゴロウジンホームロイヤルライフテンジュエン",
    "address": "大阪府寝屋川市御幸東町９番２号",
    "lat": 34.7524385,
    "lng": 135.606691,
    "tel": "072-827-1333",
    "url": "https://tenjyuen.jimdoweb.com",
    "pref": "大阪府",
    "city": "寝屋川市",
    "category": "tokuyou",
    "serviceType": "介護老人福祉施設",
    "capacity": 0,
    "openDays": [],
    "openDaysNote": ""
  },
  {
    "id": "2770304638",
    "name": "特別養護老人ホーム幸楽の里ねや川",
    "kana": "トクベツヨウゴロウジンホーム　コウラクノサトネヤガワ",
    "address": "大阪府寝屋川市葛原二丁目4番31号特別養護老人ホーム幸楽の里ねや川 特別養護老人ホーム幸楽の里ねや川",
    "lat": 34.7713523815236,
    "lng": 135.603215175198,
    "tel": "072-826-4165",
    "url": "http://keieifukushikai.com/",
    "pref": "大阪府",
    "city": "寝屋川市",
    "category": "tokuyou",
    "serviceType": "介護老人福祉施設",
    "capacity": 70,
    "openDays": [],
    "openDaysNote": ""
  },
  {
    "id": "2770300495",
    "name": "特別養護老人ホーム合掌荘",
    "kana": "トクベツヨウゴロウジンホームガッショウソウ",
    "address": "大阪府寝屋川市成田東が丘28番7号",
    "lat": 34.777922944918,
    "lng": 135.646547528528,
    "tel": "072-833-0008",
    "url": "http://www.gassyoukai.com/",
    "pref": "大阪府",
    "city": "寝屋川市",
    "category": "tokuyou",
    "serviceType": "介護老人福祉施設",
    "capacity": 70,
    "openDays": [],
    "openDaysNote": ""
  },
  {
    "id": "2770300701",
    "name": "特別養護老人ホーム寝屋川苑",
    "kana": "トクベツヨウゴエロウジンホームネヤガワエン",
    "address": "大阪府寝屋川市宇谷町１番３６号",
    "lat": 34.7673344,
    "lng": 135.6450593,
    "tel": "072-824-0345",
    "url": "http://www.neyagawaen.com/",
    "pref": "大阪府",
    "city": "寝屋川市",
    "category": "tokuyou",
    "serviceType": "介護老人福祉施設",
    "capacity": 0,
    "openDays": [],
    "openDaysNote": ""
  },
  {
    "id": "2770304562",
    "name": "特別養護老人ホーム東神田の里",
    "kana": "トクベツヨウゴロウジンホームヒガシカミダノサト",
    "address": "大阪府寝屋川市東神田町19番1号",
    "lat": 34.7558633,
    "lng": 135.6135764,
    "tel": "072-839-8000",
    "url": "http://www.iwaki-kai.or.jp/",
    "pref": "大阪府",
    "city": "寝屋川市",
    "category": "tokuyou",
    "serviceType": "介護老人福祉施設",
    "capacity": 70,
    "openDays": [],
    "openDaysNote": ""
  },
  {
    "id": "2770302657",
    "name": "特別養護老人ホーム和の里",
    "kana": "トクベツヨウゴロウジンホームワノサト",
    "address": "大阪府寝屋川市高柳一丁目１番１５号",
    "lat": 34.7650266807426,
    "lng": 135.613041213492,
    "tel": "072-828-0888",
    "url": "http://www.iwaki-kai.or.jp",
    "pref": "大阪府",
    "city": "寝屋川市",
    "category": "tokuyou",
    "serviceType": "介護老人福祉施設",
    "capacity": 80,
    "openDays": [],
    "openDaysNote": ""
  },
  {
    "id": "2771602527",
    "name": "介護老人福祉施設　ちくりんの里",
    "kana": "カイゴロウジンフクシシセツ　チクリンノサト",
    "address": "大阪府吹田市春日　２丁目２５番地１０号",
    "lat": 34.7853016,
    "lng": 135.4935451,
    "tel": "06-6386-7881",
    "url": "http://shunpu.jp/",
    "pref": "大阪府",
    "city": "吹田市",
    "category": "tokuyou",
    "serviceType": "介護老人福祉施設",
    "capacity": 100,
    "openDays": [],
    "openDaysNote": ""
  },
  {
    "id": "2771603418",
    "name": "介護老人福祉施設吹田竜ヶ池ホーム",
    "kana": "カイゴロウジンフクシシセツ　スイタタツガイケホーム",
    "address": "大阪府吹田市原町３丁目２１番２５号",
    "lat": 34.7787005,
    "lng": 135.5262366,
    "tel": "06-6310-7353",
    "url": "https://swc-seikouen.jp/tatsugaike/",
    "pref": "大阪府",
    "city": "吹田市",
    "category": "tokuyou",
    "serviceType": "介護老人福祉施設",
    "capacity": 50,
    "openDays": [],
    "openDaysNote": ""
  },
  {
    "id": "2771600240",
    "name": "社会福祉法人恩賜財団済生会支部大阪府済生会吹田特別養護老人ホーム高寿園",
    "kana": "シャカイフクシホウジンオンシザイダンサイセイカイシブオオサカフサイセイカイスイタトクベツヨウゴロウジンホームコウジュエン",
    "address": "大阪府吹田市山手町１－１－１",
    "lat": 34.7669519872184,
    "lng": 135.514742075749,
    "tel": "06-6389-2751",
    "url": "http://www.suita.saiseikai.or.jp/koujyuen/",
    "pref": "大阪府",
    "city": "吹田市",
    "category": "tokuyou",
    "serviceType": "介護老人福祉施設",
    "capacity": 0,
    "openDays": [],
    "openDaysNote": ""
  },
  {
    "id": "2771600232",
    "name": "吹田特別養護老人ホーム松風園",
    "kana": "スイタトクベツヨウゴロウジンホームショウフウエン",
    "address": "大阪府吹田市川園町１番１号",
    "lat": 34.7612777,
    "lng": 135.5341112,
    "tel": "06-6382-7201",
    "url": "http://www.suita.saiseikai.or.jp/shofuuen/",
    "pref": "大阪府",
    "city": "吹田市",
    "category": "tokuyou",
    "serviceType": "介護老人福祉施設",
    "capacity": 80,
    "openDays": [],
    "openDaysNote": ""
  },
  {
    "id": "2771600588",
    "name": "大阪市立弘済院第２特別養護老人ホーム",
    "kana": "オオサカシリツコウサイインダイニトクベツヨウゴロウジンホーム",
    "address": "大阪府吹田市古江台６－２－１",
    "lat": 34.8068977966007,
    "lng": 135.513219014841,
    "tel": "06-6871-8020",
    "url": "https://www.city.osaka.lg.jp/fukushi/page/0000507393.html",
    "pref": "大阪府",
    "city": "吹田市",
    "category": "tokuyou",
    "serviceType": "介護老人福祉施設",
    "capacity": 0,
    "openDays": [],
    "openDaysNote": ""
  },
  {
    "id": "2771603095",
    "name": "特別養護老人ホーム　あす～る吹田",
    "kana": "トクベツヨウゴロウジンホーム　アス～ルスイタ",
    "address": "大阪府吹田市岸部中２丁目７番１２号",
    "lat": 34.7753231,
    "lng": 135.5326777,
    "tel": "06-6385-7070",
    "url": "http://azul.or.jp",
    "pref": "大阪府",
    "city": "吹田市",
    "category": "tokuyou",
    "serviceType": "介護老人福祉施設",
    "capacity": 140,
    "openDays": [],
    "openDaysNote": ""
  },
  {
    "id": "2771600380",
    "name": "特別養護老人ホーム　エバーグリーン",
    "kana": "トクベツヨウゴロウジンホーム　エバーグリーン",
    "address": "大阪府吹田市江坂町４－２０－１",
    "lat": 34.7706923,
    "lng": 135.4943923,
    "tel": "06-6368-6001",
    "url": "http://www.evergreen.or.jp",
    "pref": "大阪府",
    "city": "吹田市",
    "category": "tokuyou",
    "serviceType": "介護老人福祉施設",
    "capacity": 70,
    "openDays": [],
    "openDaysNote": ""
  },
  {
    "id": "2771602816",
    "name": "特別養護老人ホーム　メルヴェイユ吹田",
    "kana": "トクベツヨウゴロウジンホーム　メルウ゛ェイユスイタ",
    "address": "大阪府吹田市岸部南1-4-24",
    "lat": 34.776248,
    "lng": 135.5444433,
    "tel": "06-6318-4165",
    "url": "http://www.aoyama-med.gr.jp/ontoku-welfare/merveille-suita",
    "pref": "大阪府",
    "city": "吹田市",
    "category": "tokuyou",
    "serviceType": "介護老人福祉施設",
    "capacity": 0,
    "openDays": [],
    "openDaysNote": ""
  },
  {
    "id": "2771600554",
    "name": "特別養護老人ホーム　寿楽荘",
    "kana": "ジュラクソウ",
    "address": "吹田市岸部北４丁目９番３号",
    "lat": 34.7820584,
    "lng": 135.5277754,
    "tel": "06-6337-8400",
    "url": "",
    "pref": "大阪府",
    "city": "吹田市",
    "category": "tokuyou",
    "serviceType": "介護老人福祉施設",
    "capacity": 0,
    "openDays": [],
    "openDaysNote": ""
  },
  {
    "id": "2771600356",
    "name": "特別養護老人ホーム　青藍荘",
    "kana": "トクベツヨウゴロウジンホーム　セイランソウ",
    "address": "大阪府吹田市佐竹台２丁目３番１号",
    "lat": 34.7919709,
    "lng": 135.5144627,
    "tel": "06-6871-2671",
    "url": "http://www.aino-fukushikai.or.jp/",
    "pref": "大阪府",
    "city": "吹田市",
    "category": "tokuyou",
    "serviceType": "介護老人福祉施設",
    "capacity": 50,
    "openDays": [],
    "openDaysNote": ""
  },
  {
    "id": "2771602931",
    "name": "特別養護老人ホーム　緑風会イサベル",
    "kana": "トクベツヨウゴロウジンホーム　リョクフウカイイサベル",
    "address": "大阪府吹田市岸部北５丁目４３番１０号",
    "lat": 34.7864507,
    "lng": 135.5315005,
    "tel": "06-6816-7881",
    "url": "https://www.kenshokai.group",
    "pref": "大阪府",
    "city": "吹田市",
    "category": "tokuyou",
    "serviceType": "介護老人福祉施設",
    "capacity": 70,
    "openDays": [],
    "openDaysNote": ""
  },
  {
    "id": "2771601115",
    "name": "特別養護老人ホームいのこの里",
    "kana": "トクベツヨウゴロウジンホームイノコノサト",
    "address": "大阪府吹田市山田西1-26-27",
    "lat": 34.7904935,
    "lng": 135.5289753,
    "tel": "06-6877-7020",
    "url": "http://www.kobatokai.jp/",
    "pref": "大阪府",
    "city": "吹田市",
    "category": "tokuyou",
    "serviceType": "介護老人福祉施設",
    "capacity": 0,
    "openDays": [],
    "openDaysNote": ""
  },
  {
    "id": "2771600992",
    "name": "特別養護老人ホームハピネスさんあい",
    "kana": "トクベツヨウゴロウジンホームハピネスサンアイ",
    "address": "吹田市幸町22-5",
    "lat": 34.7690655,
    "lng": 135.5354414,
    "tel": "06-4860-8220",
    "url": "http://www.sanaikai-official.com/",
    "pref": "大阪府",
    "city": "吹田市",
    "category": "tokuyou",
    "serviceType": "介護老人福祉施設",
    "capacity": 80,
    "openDays": [],
    "openDaysNote": ""
  },
  {
    "id": "2771607682",
    "name": "特別養護老人ホームみなと弘済園",
    "kana": "トクベツヨウゴロウジンホームミナトコウサイエン",
    "address": "大阪府吹田市古江台6-2-1",
    "lat": 34.8081965,
    "lng": 135.5116809,
    "tel": "06-6871-8018",
    "url": "https://minato-kosaien.jp/",
    "pref": "大阪府",
    "city": "吹田市",
    "category": "tokuyou",
    "serviceType": "介護老人福祉施設",
    "capacity": 270,
    "openDays": [],
    "openDaysNote": ""
  },
  {
    "id": "2771603426",
    "name": "特別養護老人ホームみらい",
    "kana": "トクベツヨウゴロウジンホームミライ",
    "address": "大阪府吹田市山田北５番１３号特別養護老人ホームみらい 特別養護老人ホームみらい",
    "lat": 34.8093523,
    "lng": 135.519026,
    "tel": "06-6878-2233",
    "url": "http://www.mirai-kai.com/",
    "pref": "大阪府",
    "city": "吹田市",
    "category": "tokuyou",
    "serviceType": "介護老人福祉施設",
    "capacity": 0,
    "openDays": [],
    "openDaysNote": ""
  },
  {
    "id": "2771606312",
    "name": "特別養護老人ホーム吹田千寿園",
    "kana": "トクベツヨウゴロウジンホウム　スイタセンジュエン",
    "address": "大阪府吹田市南吹田4-13-36",
    "lat": 34.7492316,
    "lng": 135.5055764,
    "tel": "06-6310-9070",
    "url": "https://moujinkai-grp.com/",
    "pref": "大阪府",
    "city": "吹田市",
    "category": "tokuyou",
    "serviceType": "介護老人福祉施設",
    "capacity": 100,
    "openDays": [],
    "openDaysNote": ""
  },
  {
    "id": "2773700592",
    "name": "介護老人福祉施設　「摂津特養ひかり」",
    "kana": "カイゴロウジンフクシシセツ　セッツトクヨウヒカリ",
    "address": "摂津市鳥飼八防2-7-12",
    "lat": 34.7695632,
    "lng": 135.5733741,
    "tel": "072-650-1300",
    "url": "https://settsu-tokuyou-hikari.jp/",
    "pref": "大阪府",
    "city": "摂津市",
    "category": "tokuyou",
    "serviceType": "介護老人福祉施設",
    "capacity": 0,
    "openDays": [],
    "openDaysNote": ""
  },
  {
    "id": "2773701145",
    "name": "特別養護老人ホームせっつ桜苑",
    "kana": "トクベツヨウゴロウジンホームセッツサクラエン",
    "address": "大阪府摂津市桜町1丁目1番11号せっつ桜苑 せっつ桜苑",
    "lat": 34.7884856,
    "lng": 135.5601697,
    "tel": "072-632-0400",
    "url": "https://swc-seikouen.jp/settsu-sakuraen/",
    "pref": "大阪府",
    "city": "摂津市",
    "category": "tokuyou",
    "serviceType": "介護老人福祉施設",
    "capacity": 54,
    "openDays": [],
    "openDaysNote": ""
  },
  {
    "id": "2773700212",
    "name": "特別養護老人ホームとりかい白鷺園",
    "kana": "トクベツヨウゴロウジンホームトリカイシラサギエン",
    "address": "大阪府摂津市鳥飼中１丁目19番8号",
    "lat": 34.7798598,
    "lng": 135.5914252,
    "tel": "072-654-5094",
    "url": "http://www.shirasagien.com/",
    "pref": "大阪府",
    "city": "摂津市",
    "category": "tokuyou",
    "serviceType": "介護老人福祉施設",
    "capacity": 0,
    "openDays": [],
    "openDaysNote": ""
  },
  {
    "id": "2773700162",
    "name": "特別養護老人ホーム摂津いやし園",
    "kana": "トクベツヨウゴロウジンホームセッツイヤシエン",
    "address": "大阪府摂津市鳥飼下１－１３－７",
    "lat": 34.7766378,
    "lng": 135.5876339,
    "tel": "072-650-3301",
    "url": "https://iyashien.com",
    "pref": "大阪府",
    "city": "摂津市",
    "category": "tokuyou",
    "serviceType": "介護老人福祉施設",
    "capacity": 0,
    "openDays": [],
    "openDaysNote": ""
  },
  {
    "id": "2773500356",
    "name": "特別養護老人ホーム　千早赤阪春の家",
    "kana": "トクベツヨウゴロウジンホーム　チハヤアカサカハルノイエ",
    "address": "大阪府南河内郡千早赤阪村東阪122-1番地",
    "lat": 34.4501708675569,
    "lng": 135.614515739287,
    "tel": "0721-70-2525",
    "url": "http://www.harunoie.net",
    "pref": "大阪府",
    "city": "千早赤阪村",
    "category": "tokuyou",
    "serviceType": "介護老人福祉施設",
    "capacity": 0,
    "openDays": [],
    "openDaysNote": ""
  },
  {
    "id": "2774500884",
    "name": "特別養護老人ホーム　ホライズン",
    "kana": "トクベツヨウゴロウジンホーム　ホライズン",
    "address": "大阪府泉佐野市鶴原1071－1",
    "lat": 34.4177747,
    "lng": 135.3435217,
    "tel": "072-460-0880",
    "url": "http://www.horizon.or.jp",
    "pref": "大阪府",
    "city": "泉佐野市",
    "category": "tokuyou",
    "serviceType": "介護老人福祉施設",
    "capacity": 30,
    "openDays": [],
    "openDaysNote": ""
  },
  {
    "id": "2774500306",
    "name": "特別養護老人ホーム　犬鳴山荘",
    "kana": "トクベツヨウゴロウジンホーム　イヌナキサンソウ",
    "address": "大阪府泉佐野市土丸３８８番地",
    "lat": 34.3725713216402,
    "lng": 135.348992783992,
    "tel": "072-468-0661",
    "url": "http://www.inunaki.or.jp",
    "pref": "大阪府",
    "city": "泉佐野市",
    "category": "tokuyou",
    "serviceType": "介護老人福祉施設",
    "capacity": 0,
    "openDays": [],
    "openDaysNote": ""
  },
  {
    "id": "2774500421",
    "name": "特別養護老人ホーム　泉ヶ丘園",
    "kana": "トクベツヨウゴロウジンホーム　イズミガオカエン",
    "address": "大阪府泉佐野市土丸531",
    "lat": 34.3699279,
    "lng": 135.3469413,
    "tel": "072-467-2160",
    "url": "http://izumigaokaen.or.jp/",
    "pref": "大阪府",
    "city": "泉佐野市",
    "category": "tokuyou",
    "serviceType": "介護老人福祉施設",
    "capacity": 70,
    "openDays": [],
    "openDaysNote": ""
  },
  {
    "id": "2774501007",
    "name": "特別養護老人ホーム　泉ヶ丘園りんくう",
    "kana": "トクベツヨウゴロウジンホーム　イズミガオカエンリンクウ",
    "address": "大阪府泉佐野市りんくう往来南５－１７",
    "lat": 34.4034534,
    "lng": 135.2926342,
    "tel": "072-458-2100",
    "url": "http://izumigaokaen.or.jp",
    "pref": "大阪府",
    "city": "泉佐野市",
    "category": "tokuyou",
    "serviceType": "介護老人福祉施設",
    "capacity": 50,
    "openDays": [],
    "openDaysNote": ""
  },
  {
    "id": "2770600076",
    "name": "特別養護老人ホーム　オズ",
    "kana": "トクベツヨウゴロウジンホーム　オズ",
    "address": "大阪府泉大津市菅原町１０－３３",
    "lat": 34.5066153,
    "lng": 135.4028175,
    "tel": "0725-33-6001",
    "url": "http://www.oz-tokuyo.jp",
    "pref": "大阪府",
    "city": "泉大津市",
    "category": "tokuyou",
    "serviceType": "介護老人福祉施設",
    "capacity": 58,
    "openDays": [],
    "openDaysNote": ""
  },
  {
    "id": "2770600100",
    "name": "特別養護老人ホーム　覚寿園",
    "kana": "トクベツヨウゴロウジンホーム　カクジュエン",
    "address": "大阪府泉大津市曽根町2丁目2番38号",
    "lat": 34.5017548,
    "lng": 135.422552,
    "tel": "0725-33-1000",
    "url": "http://www.kakujuen.or.jp/",
    "pref": "大阪府",
    "city": "泉大津市",
    "category": "tokuyou",
    "serviceType": "介護老人福祉施設",
    "capacity": 0,
    "openDays": [],
    "openDaysNote": ""
  },
  {
    "id": "2770601843",
    "name": "特別養護老人ホーム　美休",
    "kana": "トクベツヨウゴロウジンホーム　ビキュウ",
    "address": "大阪府泉大津市河原町11番6号特別養護老人ホーム　美休 特別養護老人ホーム　美休",
    "lat": 34.5003583928856,
    "lng": 135.390600168123,
    "tel": "0725-22-3622",
    "url": "https://vikyu.jp/",
    "pref": "大阪府",
    "city": "泉大津市",
    "category": "tokuyou",
    "serviceType": "介護老人福祉施設",
    "capacity": 50,
    "openDays": [],
    "openDaysNote": ""
  },
  {
    "id": "2770600597",
    "name": "特別養護老人ホームローズガーデン条南苑",
    "kana": "トクベツヨウゴロウジンホームローズガーデンジョウナンエン",
    "address": "大阪府泉大津市東豊中町2丁目4番26号",
    "lat": 34.4931733,
    "lng": 135.4261891,
    "tel": "0725-40-5800",
    "url": "http://www.toyonaka-fukushikai.com",
    "pref": "大阪府",
    "city": "泉大津市",
    "category": "tokuyou",
    "serviceType": "介護老人福祉施設",
    "capacity": 65,
    "openDays": [],
    "openDaysNote": ""
  },
  {
    "id": "2770600084",
    "name": "特別養護老人ホーム百楽園",
    "kana": "トクベツヨウゴロウジンホームヒャクラクエン",
    "address": "大阪府泉大津市板原町一丁目９番１８号",
    "lat": 34.4905147,
    "lng": 135.4112724,
    "tel": "0725-21-1250",
    "url": "http://www.hyakurakuen.soudancenter.com/",
    "pref": "大阪府",
    "city": "泉大津市",
    "category": "tokuyou",
    "serviceType": "介護老人福祉施設",
    "capacity": 57,
    "openDays": [],
    "openDaysNote": ""
  },
  {
    "id": "2775600337",
    "name": "泉南特別養護老人ホームなでしこりんくう",
    "kana": "センナントクベツヨウゴロウジンホームナデシコリンクウ",
    "address": "大阪府泉南市りんくう南浜3番7",
    "lat": 34.3794086,
    "lng": 135.2646396,
    "tel": "072-480-5120",
    "url": "http://www.saiseikaisennan.jp",
    "pref": "大阪府",
    "city": "泉南市",
    "category": "tokuyou",
    "serviceType": "介護老人福祉施設",
    "capacity": 0,
    "openDays": [],
    "openDaysNote": ""
  },
  {
    "id": "2775600147",
    "name": "特別養護養護老人ホーム　六尾の郷",
    "kana": "トクベツヨウゴロウジンホームムツオノサト",
    "address": "泉南市信達金熊寺130番地",
    "lat": 34.3467157523299,
    "lng": 135.286106651035,
    "tel": "072-480-2850",
    "url": "http://www.chojukai.or.jp",
    "pref": "大阪府",
    "city": "泉南市",
    "category": "tokuyou",
    "serviceType": "介護老人福祉施設",
    "capacity": 0,
    "openDays": [],
    "openDaysNote": ""
  },
  {
    "id": "2775600220",
    "name": "特別養護老人ホームせんわ",
    "kana": "トクベツヨウゴロウジンホームセンワ",
    "address": "大阪府泉南市信達金熊寺530-1",
    "lat": 34.3337007,
    "lng": 135.2920861,
    "tel": "072-483-2022",
    "url": "http://www.senwa.or.jp",
    "pref": "大阪府",
    "city": "泉南市",
    "category": "tokuyou",
    "serviceType": "介護老人福祉施設",
    "capacity": 0,
    "openDays": [],
    "openDaysNote": ""
  },
  {
    "id": "2773500216",
    "name": "特別養護老人ホーム　美野の里",
    "kana": "トクベツヨウゴロウジンホーム　ミノノサト",
    "address": "大阪府南河内郡太子町山田２５５０",
    "lat": 34.5140433,
    "lng": 135.6575354,
    "tel": "0721-98-4165",
    "url": "http://www.minonosato.com",
    "pref": "大阪府",
    "city": "太子町",
    "category": "tokuyou",
    "serviceType": "介護老人福祉施設",
    "capacity": 50,
    "openDays": [],
    "openDaysNote": ""
  },
  {
    "id": "2779300181",
    "name": "特別養護老人ホーム　ファヴォーレ",
    "kana": "トクベツヨウゴロウジンホーム　ファウ”ォーレ",
    "address": "大阪府大阪狭山市大野西５６６－２",
    "lat": 34.4711909,
    "lng": 135.5418079,
    "tel": "072-367-2111",
    "url": "http://kyoyukai.org",
    "pref": "大阪府",
    "city": "大阪狭山市",
    "category": "tokuyou",
    "serviceType": "介護老人福祉施設",
    "capacity": 0,
    "openDays": [],
    "openDaysNote": ""
  },
  {
    "id": "2779300769",
    "name": "特別養護老人ホーム　陽だまりの丘",
    "kana": "トクベツヨウゴロウジンホーム　ヒダマリノオカ",
    "address": "大阪府大阪狭山市大野台１丁目１４番２０号",
    "lat": 34.4828312,
    "lng": 135.5507654,
    "tel": "072-367-2828",
    "url": "http://osakasayamahakuyukai.jp/",
    "pref": "大阪府",
    "city": "大阪狭山市",
    "category": "tokuyou",
    "serviceType": "介護老人福祉施設",
    "capacity": 0,
    "openDays": [],
    "openDaysNote": ""
  },
  {
    "id": "2779300132",
    "name": "特別養護老人ホームくみのき苑",
    "kana": "トクベツヨウゴロウジンホームクミノキエン",
    "address": "大阪狭山市東茱萸木四丁目1977番地",
    "lat": 34.4831562,
    "lng": 135.5571676,
    "tel": "072-368-2772",
    "url": "https://rapport-kuminoki.or.jp/",
    "pref": "大阪府",
    "city": "大阪狭山市",
    "category": "tokuyou",
    "serviceType": "介護老人福祉施設",
    "capacity": 0,
    "openDays": [],
    "openDaysNote": ""
  },
  {
    "id": "2772300345",
    "name": "ふれ愛丸山荘",
    "kana": "フレアイマルヤマソウ",
    "address": "大阪市阿倍野区丸山通１丁目2番8号",
    "lat": 34.6377858,
    "lng": 135.5080218,
    "tel": "06-6655-6611",
    "url": "http://www.freai-m.jp/",
    "pref": "大阪府",
    "city": "大阪市阿倍野区",
    "category": "tokuyou",
    "serviceType": "介護老人福祉施設",
    "capacity": 87,
    "openDays": [],
    "openDaysNote": ""
  },
  {
    "id": "2772300253",
    "name": "特別養護老人ホーム　いくとく",
    "kana": "トクベツヨウゴロウジンホーム　イクトク",
    "address": "大阪府大阪市阿倍野区天王寺町北3-18-16",
    "lat": 34.6429381,
    "lng": 135.5264783,
    "tel": "06-6713-1165",
    "url": "https://ikutokuen.or.jp",
    "pref": "大阪府",
    "city": "大阪市阿倍野区",
    "category": "tokuyou",
    "serviceType": "介護老人福祉施設",
    "capacity": 130,
    "openDays": [],
    "openDaysNote": ""
  },
  {
    "id": "2772303315",
    "name": "特別養護老人ホームミネルヴァあべの",
    "kana": "トクベツヨウゴロウジンホームミネルウ゛ァアベノ",
    "address": "大阪府大阪市阿倍野区昭和町3丁目4番27号",
    "lat": 34.6280342,
    "lng": 135.5162406,
    "tel": "06-6629-1110",
    "url": "http://helenkeller.jp/",
    "pref": "大阪府",
    "city": "大阪市阿倍野区",
    "category": "tokuyou",
    "serviceType": "介護老人福祉施設",
    "capacity": 70,
    "openDays": [],
    "openDaysNote": ""
  },
  {
    "id": "2772300527",
    "name": "特別養護老人ホーム阪和苑",
    "kana": "トクベツヨウゴロウジンホームハンワエン",
    "address": "大阪市阿倍野区松崎町２丁目３番１０号",
    "lat": 34.6442267,
    "lng": 135.5151987,
    "tel": "06-6626-3731",
    "url": "http://tezukayama.or.jp/hanwaen/index.html",
    "pref": "大阪府",
    "city": "大阪市阿倍野区",
    "category": "tokuyou",
    "serviceType": "介護老人福祉施設",
    "capacity": 140,
    "openDays": [],
    "openDaysNote": ""
  },
  {
    "id": "2773103110",
    "name": "社会福祉法人　邦寿会　高殿苑",
    "kana": "シャカイフクシホウジン　ホウジュカイ　タカドノエン",
    "address": "大阪府大阪市旭区高殿５－１０－７",
    "lat": 34.7184490924278,
    "lng": 135.538646294762,
    "tel": "06-6953-8511",
    "url": "http://www.houjukai.jp/takadono/index.html",
    "pref": "大阪府",
    "city": "大阪市旭区",
    "category": "tokuyou",
    "serviceType": "介護老人福祉施設",
    "capacity": null,
    "openDays": [],
    "openDaysNote": ""
  },
  {
    "id": "2773101015",
    "name": "生江特別養護老人ホーム白寿荘",
    "kana": "イクエトクベツヨウゴロウジンホームハクジュソウ",
    "address": "大阪府大阪市旭区生江３－２７－１",
    "lat": 34.7291734,
    "lng": 135.5351508,
    "tel": "06-6925-8910",
    "url": "http://www.liberta.or.jp/index.html",
    "pref": "大阪府",
    "city": "大阪市旭区",
    "category": "tokuyou",
    "serviceType": "介護老人福祉施設",
    "capacity": 0,
    "openDays": [],
    "openDaysNote": ""
  },
  {
    "id": "2773100249",
    "name": "特別養護老人ホーム　　ライフライト",
    "kana": "トクベツヨウゴロウジンホーム　　ライフライト",
    "address": "大阪市旭区赤川2-1-20",
    "lat": 34.7244155,
    "lng": 135.5309123,
    "tel": "06-6924-0030",
    "url": "http://hoshino-kai.com",
    "pref": "大阪府",
    "city": "大阪市旭区",
    "category": "tokuyou",
    "serviceType": "介護老人福祉施設",
    "capacity": 0,
    "openDays": [],
    "openDaysNote": ""
  },
  {
    "id": "2773100314",
    "name": "特別養護老人ホームあいあい",
    "kana": "トクベツヨウゴロウジンホームアイアイ",
    "address": "大阪市旭区赤川１－6－12",
    "lat": 34.7225324,
    "lng": 135.5327677,
    "tel": "06-6926-1122",
    "url": "http://www.aiai-1122.or.jp/",
    "pref": "大阪府",
    "city": "大阪市旭区",
    "category": "tokuyou",
    "serviceType": "介護老人福祉施設",
    "capacity": 0,
    "openDays": [],
    "openDaysNote": ""
  },
  {
    "id": "2773100520",
    "name": "特別養護老人ホームゆうゆう",
    "kana": "トクベツヨウゴロウジンホームユウユウ",
    "address": "大阪府大阪市旭区高殿６－２４－１２",
    "lat": 34.719408,
    "lng": 135.5465612,
    "tel": "06-4254-2221",
    "url": "http://www.aiai-1122.or.jp/yuyu/",
    "pref": "大阪府",
    "city": "大阪市旭区",
    "category": "tokuyou",
    "serviceType": "介護老人福祉施設",
    "capacity": 0,
    "openDays": [],
    "openDaysNote": ""
  },
  {
    "id": "2773101007",
    "name": "特別養護老人ホーム旭さくら苑",
    "kana": "トクベツヨウゴロウジンホームアサヒサクラエン",
    "address": "大阪府大阪市旭区清水三丁目１５番２３号",
    "lat": 34.72298,
    "lng": 135.5589601,
    "tel": "06-6957-8008",
    "url": "http://www.seisuikai.net/",
    "pref": "大阪府",
    "city": "大阪市旭区",
    "category": "tokuyou",
    "serviceType": "介護老人福祉施設",
    "capacity": 120,
    "openDays": [],
    "openDaysNote": ""
  },
  {
    "id": "2770400253",
    "name": "特別養護老人ホーム　ザイオン",
    "kana": "トクベツヨウゴロウジンホーム　ザイオン",
    "address": "大阪市港区市岡１丁目５番３０号",
    "lat": 34.6642513,
    "lng": 135.4621473,
    "tel": "06-4395-8888",
    "url": "http://www.zaion.or.jp",
    "pref": "大阪府",
    "city": "大阪市港区",
    "category": "tokuyou",
    "serviceType": "介護老人福祉施設",
    "capacity": 106,
    "openDays": [],
    "openDaysNote": ""
  },
  {
    "id": "2770401905",
    "name": "特別養護老人ホーム　ザイオン大阪港",
    "kana": "トクベツヨウゴロウジンホーム　ザイオンオオサカコウ",
    "address": "大阪府大阪市港区築港一丁目９番７号",
    "lat": 34.6534157,
    "lng": 135.4363972,
    "tel": "06-6576-8801",
    "url": "http://osakakou.zaion.or.jp/",
    "pref": "大阪府",
    "city": "大阪市港区",
    "category": "tokuyou",
    "serviceType": "介護老人福祉施設",
    "capacity": 0,
    "openDays": [],
    "openDaysNote": ""
  },
  {
    "id": "2770400147",
    "name": "特別養護老人ホーム　愛港園",
    "kana": "トクベツヨウゴロウジンホーム　アイコウエン",
    "address": "大阪府大阪市港区八幡屋４丁目８番１号",
    "lat": 34.6515107,
    "lng": 135.4467963,
    "tel": "06-6571-6231",
    "url": "http://www.aikoen.jp",
    "pref": "大阪府",
    "city": "大阪市港区",
    "category": "tokuyou",
    "serviceType": "介護老人福祉施設",
    "capacity": 0,
    "openDays": [],
    "openDaysNote": ""
  },
  {
    "id": "2770401525",
    "name": "特別養護老人ホーム　平成みなと苑",
    "kana": "トクベツヨウゴロウジンホーム　ヘイセイミナトエン",
    "address": "大阪府大阪市港区弁天２－８－１６",
    "lat": 34.6685857559942,
    "lng": 135.454590747221,
    "tel": "06-7502-0607",
    "url": "http://www.heiseifukushikai.com/",
    "pref": "大阪府",
    "city": "大阪市港区",
    "category": "tokuyou",
    "serviceType": "介護老人福祉施設",
    "capacity": 130,
    "openDays": [],
    "openDaysNote": ""
  },
  {
    "id": "2770400154",
    "name": "特別養護老人ホーム第２愛港園",
    "kana": "トクベツヨウゴロウジンホームダイニアイコウエン",
    "address": "大阪府大阪市港区八幡屋４丁目８番１号",
    "lat": 34.6515107,
    "lng": 135.4467963,
    "tel": "06-6571-5241",
    "url": "http://www.minatoryo.or.jp/",
    "pref": "大阪府",
    "city": "大阪市港区",
    "category": "tokuyou",
    "serviceType": "介護老人福祉施設",
    "capacity": 50,
    "openDays": [],
    "openDaysNote": ""
  },
  {
    "id": "2772800229",
    "name": "ケアセンター水都ホーム",
    "kana": "ケアセンタースイトホーム",
    "address": "大阪府大阪市此花区西九条1-1-2",
    "lat": 34.6833159,
    "lng": 135.469835,
    "tel": "06-6467-2929",
    "url": "http://www.fuyoufukusikai.com/index.html",
    "pref": "大阪府",
    "city": "大阪市此花区",
    "category": "tokuyou",
    "serviceType": "介護老人福祉施設",
    "capacity": 50,
    "openDays": [],
    "openDaysNote": ""
  },
  {
    "id": "2772801367",
    "name": "社会福祉法人緑修会　特別養護老人ホームクローバー",
    "kana": "シャカイフクシホウジンリョクシュウカイ　トクベツヨウゴロウジンホームクローバー",
    "address": "大阪府大阪市此花区高見2-8-1",
    "lat": 34.6892623497565,
    "lng": 135.456378065099,
    "tel": "06-4804-9608",
    "url": "https://www.ryokushukai.jp/",
    "pref": "大阪府",
    "city": "大阪市此花区",
    "category": "tokuyou",
    "serviceType": "介護老人福祉施設",
    "capacity": 0,
    "openDays": [],
    "openDaysNote": ""
  },
  {
    "id": "2772800443",
    "name": "特別養護老人ホーム　ラヴィータウーノ",
    "kana": "トクベツヨウゴロウジンホーム　ラヴィータウーノ",
    "address": "大阪市此花区伝法六丁目５番１２号",
    "lat": 34.6853539,
    "lng": 135.4479841,
    "tel": "06-6463-6546",
    "url": "http://www.lavita-uno.jp",
    "pref": "大阪府",
    "city": "大阪市此花区",
    "category": "tokuyou",
    "serviceType": "介護老人福祉施設",
    "capacity": 0,
    "openDays": [],
    "openDaysNote": ""
  },
  {
    "id": "2772800211",
    "name": "特別養護老人ホームガーデン天使",
    "kana": "トクベツヨウゴロウジンホームガーデンテンシ",
    "address": "大阪府大阪市此花区島屋４丁目１番１１号",
    "lat": 34.674044,
    "lng": 135.4437376,
    "tel": "06-6460-0028",
    "url": "http://garden-tenshi.jp",
    "pref": "大阪府",
    "city": "大阪市此花区",
    "category": "tokuyou",
    "serviceType": "介護老人福祉施設",
    "capacity": 0,
    "openDays": [],
    "openDaysNote": ""
  },
  {
    "id": "2772801169",
    "name": "特別養護老人ホームクレーネ大阪",
    "kana": "トクベツヨウゴロウジンホームクレーネオオサカ",
    "address": "大阪府大阪市此花区春日出北1-22-3",
    "lat": 34.6840924036317,
    "lng": 135.450828569312,
    "tel": "06-6464-9038",
    "url": "http://care-net.biz/27/kurene/",
    "pref": "大阪府",
    "city": "大阪市此花区",
    "category": "tokuyou",
    "serviceType": "介護老人福祉施設",
    "capacity": 0,
    "openDays": [],
    "openDaysNote": ""
  },
  {
    "id": "2772000457",
    "name": "帝塚山特別養護老人ホーム",
    "kana": "テヅカヤマトクベツヨウゴロウジンホーム",
    "address": "大阪府大阪市住吉区帝塚山東2丁目1番35号",
    "lat": 34.6202574,
    "lng": 135.5020893,
    "tel": "06-4701-1121",
    "url": "http://www.tezukayama.or.jp/reifu/index.html",
    "pref": "大阪府",
    "city": "大阪市住吉区",
    "category": "tokuyou",
    "serviceType": "介護老人福祉施設",
    "capacity": 124,
    "openDays": [],
    "openDaysNote": ""
  },
  {
    "id": "2772000242",
    "name": "特別養護老人ホーム　アップリケア・ホーム",
    "kana": "トクベツヨウゴロウジンホーム　アップリケア・ホーム",
    "address": "大阪市住吉区浅香1丁目8番38号",
    "lat": 34.5919412,
    "lng": 135.5108639,
    "tel": "06-6696-1177",
    "url": "http://www.apricare.com/",
    "pref": "大阪府",
    "city": "大阪市住吉区",
    "category": "tokuyou",
    "serviceType": "介護老人福祉施設",
    "capacity": 0,
    "openDays": [],
    "openDaysNote": ""
  },
  {
    "id": "2772000465",
    "name": "特別養護老人ホーム　ウェルネスあびこ",
    "kana": "トクベツヨウゴロウジンホーム　ウェルネスアビコ",
    "address": "大阪市住吉区我孫子西1-2-15",
    "lat": 34.604737,
    "lng": 135.5084055,
    "tel": "06-6608-3000",
    "url": "http://teru.or.jp/wellness-abiko",
    "pref": "大阪府",
    "city": "大阪市住吉区",
    "category": "tokuyou",
    "serviceType": "介護老人福祉施設",
    "capacity": 86,
    "openDays": [],
    "openDaysNote": ""
  },
  {
    "id": "2772001398",
    "name": "特別養護老人ホーム　なごみ",
    "kana": "トクベツヨウゴロウジンホーム　ナゴミ",
    "address": "大阪府大阪市住吉区帝塚山東５丁目１０番１５号",
    "lat": 34.61275,
    "lng": 135.4986121,
    "tel": "06-6676-0753",
    "url": "http://www.lifesupport.or.jp/index.html",
    "pref": "大阪府",
    "city": "大阪市住吉区",
    "category": "tokuyou",
    "serviceType": "介護老人福祉施設",
    "capacity": 30,
    "openDays": [],
    "openDaysNote": ""
  },
  {
    "id": "2772003444",
    "name": "特別養護老人ホーム　阪和帝塚山苑",
    "kana": "トクベツヨウゴロウジンホーム　ハンワテヅカヤマエン",
    "address": "大阪府大阪市住吉区帝塚山東２－１－41",
    "lat": 34.6208545,
    "lng": 135.5026142,
    "tel": "06-4701-1151",
    "url": "http://tezukayama.or.jp/",
    "pref": "大阪府",
    "city": "大阪市住吉区",
    "category": "tokuyou",
    "serviceType": "介護老人福祉施設",
    "capacity": 0,
    "openDays": [],
    "openDaysNote": ""
  },
  {
    "id": "2772005241",
    "name": "特別養護老人ホームあじさい苑大阪住吉",
    "kana": "トクベツヨウゴロウジンホームアジサイエンオオサカスミヨシ",
    "address": "大阪府大阪市住吉区住吉一丁目９番１８号",
    "lat": 34.6122451350532,
    "lng": 135.49620417791,
    "tel": "06-6671-1055",
    "url": "https://koshokai-swc.oe.jo",
    "pref": "大阪府",
    "city": "大阪市住吉区",
    "category": "tokuyou",
    "serviceType": "介護老人福祉施設",
    "capacity": 0,
    "openDays": [],
    "openDaysNote": ""
  },
  {
    "id": "2772000705",
    "name": "特別養護老人ホームさんらく苑",
    "kana": "トクベツヨウゴロウジンホームサンラクエン",
    "address": "大阪府大阪市住吉区苅田5丁目16番10号",
    "lat": 34.6007319,
    "lng": 135.5141355,
    "tel": "06-6606-3100",
    "url": "https://sanrakucare.or.jp/",
    "pref": "大阪府",
    "city": "大阪市住吉区",
    "category": "tokuyou",
    "serviceType": "介護老人福祉施設",
    "capacity": 0,
    "openDays": [],
    "openDaysNote": ""
  },
  {
    "id": "2772002024",
    "name": "特別養護老人ホームゆうけい創和",
    "kana": "トクベツヨウゴロウジンホームユウケイソウワ",
    "address": "大阪府大阪市住吉区遠里小野２丁目７番２０号",
    "lat": 34.5966379,
    "lng": 135.4974681,
    "tel": "06-6609-6815",
    "url": "http://www.yukeikai-web.com/links/",
    "pref": "大阪府",
    "city": "大阪市住吉区",
    "category": "tokuyou",
    "serviceType": "介護老人福祉施設",
    "capacity": 60,
    "openDays": [],
    "openDaysNote": ""
  },
  {
    "id": "2775900323",
    "name": "介護老人福祉施設　グルメ杵屋社会貢献の家",
    "kana": "カイゴロウジンフクシシセツ　グルメキネヤシャカイコウケンノイエ",
    "address": "大阪府大阪市住之江区浜口東2-5-14",
    "lat": 34.6109454418246,
    "lng": 135.487037471758,
    "tel": "06-6671-2500",
    "url": "http://www.gksc.jp/",
    "pref": "大阪府",
    "city": "大阪市住之江区",
    "category": "tokuyou",
    "serviceType": "介護老人福祉施設",
    "capacity": 0,
    "openDays": [],
    "openDaysNote": ""
  },
  {
    "id": "2775900315",
    "name": "特別養護老人ホーム　いわき園",
    "kana": "トクベツヨウゴロウジンホーム　イワキエン",
    "address": "大阪府大阪市住之江区南加賀屋三丁目９番２号",
    "lat": 34.6052974768326,
    "lng": 135.4742008,
    "tel": "06-6683-6655",
    "url": "http://www.iwakigakuen.or.jp/iwakien/",
    "pref": "大阪府",
    "city": "大阪市住之江区",
    "category": "tokuyou",
    "serviceType": "介護老人福祉施設",
    "capacity": 130,
    "openDays": [],
    "openDaysNote": ""
  },
  {
    "id": "2775902204",
    "name": "特別養護老人ホーム　健祥会エンリケ",
    "kana": "トクベツヨウゴロウジンホーム　ケンショウカイエンリケ",
    "address": "大阪府大阪市住之江区南港北二丁目7番48号",
    "lat": 34.6400633,
    "lng": 135.4082891,
    "tel": "06-6616-5555",
    "url": "http://www.kenshokai.group",
    "pref": "大阪府",
    "city": "大阪市住之江区",
    "category": "tokuyou",
    "serviceType": "介護老人福祉施設",
    "capacity": 144,
    "openDays": [],
    "openDaysNote": ""
  },
  {
    "id": "2775902485",
    "name": "特別養護老人ホーム　浜木綿苑",
    "kana": "トクベツヨウゴロウジンホーム　ハマユウエン",
    "address": "大阪府大阪市住之江区南港北１丁目４番地１号",
    "lat": 34.6384033,
    "lng": 135.4251487,
    "tel": "０６－６６１３－７０５３",
    "url": "http://www.tezukayama.or.jp/hamayuen/index.html",
    "pref": "大阪府",
    "city": "大阪市住之江区",
    "category": "tokuyou",
    "serviceType": "介護老人福祉施設",
    "capacity": 0,
    "openDays": [],
    "openDaysNote": ""
  },
  {
    "id": "2775902303",
    "name": "特別養護老人ホーム加賀屋の森",
    "kana": "トクベツヨウゴロウジンホームカガヤノモリ",
    "address": "大阪府大阪市住之江区北加賀屋5丁目4番23号",
    "lat": 34.6222928,
    "lng": 135.474582,
    "tel": "06-6686-5301",
    "url": "https://kenseikaigroup.or.jp/",
    "pref": "大阪府",
    "city": "大阪市住之江区",
    "category": "tokuyou",
    "serviceType": "介護老人福祉施設",
    "capacity": 90,
    "openDays": [],
    "openDaysNote": ""
  },
  {
    "id": "2775900612",
    "name": "南港咲洲特別養護老人ホーム",
    "kana": "ナンコウサキシマトクベツヨウゴロウジンホーム",
    "address": "大阪市住之江区南港中２－１－３５",
    "lat": 34.6293101,
    "lng": 135.4303485,
    "tel": "06-4703-1700",
    "url": "http://www.itokukai.com",
    "pref": "大阪府",
    "city": "大阪市住之江区",
    "category": "tokuyou",
    "serviceType": "介護老人福祉施設",
    "capacity": 140,
    "openDays": [],
    "openDaysNote": ""
  },
  {
    "id": "2774403998",
    "name": "社会福祉法人清水福祉会　特別養護老人ホーム城東さくら苑",
    "kana": "シャカイフクシホウジンシミズフクシカイ　トクベツヨウゴロウジンホームジョウトウサクラエン",
    "address": "大阪府大阪市城東区今福西6-6-20",
    "lat": 34.7033258,
    "lng": 135.5518056,
    "tel": "06-6939-7000",
    "url": "http://www.seisuikai.net",
    "pref": "大阪府",
    "city": "大阪市城東区",
    "category": "tokuyou",
    "serviceType": "介護老人福祉施設",
    "capacity": 0,
    "openDays": [],
    "openDaysNote": ""
  },
  {
    "id": "2774400507",
    "name": "城東特別養護老人ホーム",
    "kana": "ジョウトウトクベツヨウゴロウジンホーム",
    "address": "大阪府大阪市城東区古市1-20-17",
    "lat": 34.7088285,
    "lng": 135.557494,
    "tel": "06-6931-5190",
    "url": "http://joto-tokuyou.com",
    "pref": "大阪府",
    "city": "大阪市城東区",
    "category": "tokuyou",
    "serviceType": "介護老人福祉施設",
    "capacity": 93,
    "openDays": [],
    "openDaysNote": ""
  },
  {
    "id": "2774400390",
    "name": "特別養護老人ホーム　至善荘",
    "kana": "トクベツヨウゴロウジンホーム　シゼンソウ",
    "address": "大阪市城東区蒲生4-2-10",
    "lat": 34.6980573,
    "lng": 135.5439229,
    "tel": "06-6930-7258",
    "url": "http://www.shizenkai.or.jp/",
    "pref": "大阪府",
    "city": "大阪市城東区",
    "category": "tokuyou",
    "serviceType": "介護老人福祉施設",
    "capacity": 0,
    "openDays": [],
    "openDaysNote": ""
  },
  {
    "id": "2774400267",
    "name": "特別養護老人ホームしぎの黄金の里",
    "kana": "トクベツヨウゴロウジンホームシギノコガネノサト",
    "address": "大阪市城東区鴫野東2丁目26番12号",
    "lat": 34.6919136,
    "lng": 135.5485254,
    "tel": "06-6963-5551",
    "url": "http://www.kogane.or.jp",
    "pref": "大阪府",
    "city": "大阪市城東区",
    "category": "tokuyou",
    "serviceType": "介護老人福祉施設",
    "capacity": 0,
    "openDays": [],
    "openDaysNote": ""
  },
  {
    "id": "2774402578",
    "name": "特別養護老人ホーム城東こすもす苑",
    "kana": "トクベツヨウゴロウジンホーム　　ジョウトウコスモスエン",
    "address": "大阪府大阪市城東区蒲生2-2-38",
    "lat": 34.6980971644853,
    "lng": 135.5404703,
    "tel": "06-6933-2002",
    "url": "http://www.seisuikai.net/",
    "pref": "大阪府",
    "city": "大阪市城東区",
    "category": "tokuyou",
    "serviceType": "介護老人福祉施設",
    "capacity": 0,
    "openDays": [],
    "openDaysNote": ""
  },
  {
    "id": "2774404269",
    "name": "特別養護老人ホーム平成森之宮苑",
    "kana": "トクベツヨウゴロウジンホームヘイセイモリノミヤエン",
    "address": "大阪府大阪市城東区森之宮２－１－４９",
    "lat": 34.6849220925425,
    "lng": 135.539361497028,
    "tel": "06-6167-7410",
    "url": "http://www.heiseifukushikai.com/facility/facility/morinomiya/",
    "pref": "大阪府",
    "city": "大阪市城東区",
    "category": "tokuyou",
    "serviceType": "介護老人福祉施設",
    "capacity": null,
    "openDays": [],
    "openDaysNote": ""
  },
  {
    "id": "2774400192",
    "name": "野江特別養護老人ホーム　城東園",
    "kana": "ノエトクベツヨウゴロウジンホームジョウトウエン",
    "address": "大阪府大阪市城東区今福東２丁目２番２５号",
    "lat": 34.7033762,
    "lng": 135.5550777,
    "tel": "06-6931-3825",
    "url": "http://www.noe.saiseikai.or.jp/jotoen/index.html",
    "pref": "大阪府",
    "city": "大阪市城東区",
    "category": "tokuyou",
    "serviceType": "介護老人福祉施設",
    "capacity": 0,
    "openDays": [],
    "openDaysNote": ""
  },
  {
    "id": "2772200461",
    "name": "インパレスみのり苑",
    "kana": "インパレスミノリエン",
    "address": "大阪府大阪市生野区巽中３丁目１４番３号",
    "lat": 34.647655,
    "lng": 135.5517648,
    "tel": "06-6756-5200",
    "url": "http://www.minori-en.com/",
    "pref": "大阪府",
    "city": "大阪市生野区",
    "category": "tokuyou",
    "serviceType": "介護老人福祉施設",
    "capacity": 94,
    "openDays": [],
    "openDaysNote": ""
  },
  {
    "id": "2772200420",
    "name": "社会福祉法人　慶生会　特別養護老人ホーム　瑞光苑",
    "kana": "ケイセイカイ　ズイコウエン",
    "address": "大阪市生野区巽東4丁目11番10号特別養護老人ホーム　　瑞光苑 特別養護老人ホーム　　瑞光苑",
    "lat": 34.645797,
    "lng": 135.5579532,
    "tel": "06-6758-0088",
    "url": "http://www.zuikouen.or.jp",
    "pref": "大阪府",
    "city": "大阪市生野区",
    "category": "tokuyou",
    "serviceType": "介護老人福祉施設",
    "capacity": 0,
    "openDays": [],
    "openDaysNote": ""
  },
  {
    "id": "2772207185",
    "name": "上本町特別養護老人ホームラガール",
    "kana": "ウエホンマチトクベツヨウゴロウジンホウムラガアル",
    "address": "大阪府大阪市生野区鶴橋一丁目9番34号",
    "lat": 34.6626493,
    "lng": 135.5304577,
    "tel": "06ｰ6777ｰ8033",
    "url": "http://uehonmachi.koudoukai.or.jp/",
    "pref": "大阪府",
    "city": "大阪市生野区",
    "category": "tokuyou",
    "serviceType": "介護老人福祉施設",
    "capacity": null,
    "openDays": [],
    "openDaysNote": ""
  },
  {
    "id": "2772200321",
    "name": "特別養護老人ホーム　サン・アクエリア",
    "kana": "トクベツヨウゴロウジンホーム　サン・アクエリア",
    "address": "大阪府大阪市生野区新今里4-11-17",
    "lat": 34.6624726,
    "lng": 135.548884,
    "tel": "06-6755-1165",
    "url": "http://www.sun-aquaria.com/",
    "pref": "大阪府",
    "city": "大阪市生野区",
    "category": "tokuyou",
    "serviceType": "介護老人福祉施設",
    "capacity": 50,
    "openDays": [],
    "openDaysNote": ""
  },
  {
    "id": "2772204851",
    "name": "特別養護老人ホーム　せんぽ",
    "kana": "トクベツヨウゴロウジンホーム　センポ",
    "address": "大阪市生野区巽北一丁目14番3号",
    "lat": 34.6561621,
    "lng": 135.5442624,
    "tel": "06-4306-1000",
    "url": "http://senpokai.org/",
    "pref": "大阪府",
    "city": "大阪市生野区",
    "category": "tokuyou",
    "serviceType": "介護老人福祉施設",
    "capacity": 0,
    "openDays": [],
    "openDaysNote": ""
  },
  {
    "id": "2772200685",
    "name": "特別養護老人ホーム　レインボー今里",
    "kana": "トクベツヨウゴロウジンホーム　レインボーイマザト",
    "address": "大阪府大阪市生野区中川１－６－２０",
    "lat": 34.6624835,
    "lng": 135.542479,
    "tel": "06-6755-6700",
    "url": "https://gogroup.jp/",
    "pref": "大阪府",
    "city": "大阪市生野区",
    "category": "tokuyou",
    "serviceType": "介護老人福祉施設",
    "capacity": 80,
    "openDays": [],
    "openDaysNote": ""
  },
  {
    "id": "2772202442",
    "name": "特別養護老人ホーム　寿幸苑",
    "kana": "トクベツヨウゴロウジンホームジュコウエン",
    "address": "大阪府大阪市生野区林寺４丁目１３番１４号",
    "lat": 34.641608,
    "lng": 135.5349859,
    "tel": "06-6714-2221",
    "url": "http://www.jukouen.com",
    "pref": "大阪府",
    "city": "大阪市生野区",
    "category": "tokuyou",
    "serviceType": "介護老人福祉施設",
    "capacity": 0,
    "openDays": [],
    "openDaysNote": ""
  },
  {
    "id": "2772200495",
    "name": "特別養護老人ホーム　甍",
    "kana": "トクベツヨウゴロウジンホーム　イラカ",
    "address": "大阪市生野区巽南3丁目7番30号",
    "lat": 34.6421973,
    "lng": 135.5499929,
    "tel": "06-6752-1339",
    "url": "http://sansyukai.jp",
    "pref": "大阪府",
    "city": "大阪市生野区",
    "category": "tokuyou",
    "serviceType": "介護老人福祉施設",
    "capacity": 98,
    "openDays": [],
    "openDaysNote": ""
  },
  {
    "id": "2772200479",
    "name": "特別養護老人ホームあじさいの里",
    "kana": "トクベツヨウゴロウジンホームアジサイノサト",
    "address": "大阪府大阪市生野区勝山北3-13-20",
    "lat": 34.6546926,
    "lng": 135.5339306,
    "tel": "06-6716-1199",
    "url": "https://www.fukushi-aiseikai.or.jp/",
    "pref": "大阪府",
    "city": "大阪市生野区",
    "category": "tokuyou",
    "serviceType": "介護老人福祉施設",
    "capacity": 0,
    "openDays": [],
    "openDaysNote": ""
  },
  {
    "id": "2772201253",
    "name": "特別養護老人ホーム巽さくらら苑",
    "kana": "トクベツヨウゴロウジンホーム　タツミサクララエン",
    "address": "大阪府大阪市生野区巽中１－５－８",
    "lat": 34.6516739,
    "lng": 135.5499787,
    "tel": "06-6753-1147",
    "url": "http://sakuraraen.jp",
    "pref": "大阪府",
    "city": "大阪市生野区",
    "category": "tokuyou",
    "serviceType": "介護老人福祉施設",
    "capacity": 60,
    "openDays": [],
    "openDaysNote": ""
  },
  {
    "id": "2772203887",
    "name": "特別養護老人ホーム夢の箱　勝山",
    "kana": "トクベツヨウゴロウジンホームユメノハコカツヤマ",
    "address": "大阪市生野区勝山南１丁目１７番４３号",
    "lat": 34.6529675,
    "lng": 135.5266446,
    "tel": "06-6712-2220",
    "url": "http://www.yumenohako.info",
    "pref": "大阪府",
    "city": "大阪市生野区",
    "category": "tokuyou",
    "serviceType": "介護老人福祉施設",
    "capacity": 0,
    "openDays": [],
    "openDaysNote": ""
  },
  {
    "id": "2771800188",
    "name": "特別養護老人ホーム　江之子島コスモス苑",
    "kana": "トクベツヨウゴロウジンホーム　エノコジマコスモスエン",
    "address": "大阪市西区江之子島１－８－４４",
    "lat": 34.684119,
    "lng": 135.4842475,
    "tel": "06-6225-2662",
    "url": "https://cosmos-en.tane.or.jp",
    "pref": "大阪府",
    "city": "大阪市西区",
    "category": "tokuyou",
    "serviceType": "介護老人福祉施設",
    "capacity": 0,
    "openDays": [],
    "openDaysNote": ""
  },
  {
    "id": "2771800923",
    "name": "特別養護老人ホームすみれ苑",
    "kana": "トクベツヨウゴロウジンホームスミレエン",
    "address": "大阪府大阪市西区川口3－6－14",
    "lat": 34.6816969,
    "lng": 135.4775121,
    "tel": "06-6585-1660",
    "url": "http://www.sumire-en.jp",
    "pref": "大阪府",
    "city": "大阪市西区",
    "category": "tokuyou",
    "serviceType": "介護老人福祉施設",
    "capacity": 60,
    "openDays": [],
    "openDaysNote": ""
  },
  {
    "id": "2773300245",
    "name": "まちかどホーム　すずらん",
    "kana": "マチカドホーム　スズラン",
    "address": "大阪市西成区出城2丁目４番10号",
    "lat": 34.650526,
    "lng": 135.4909618,
    "tel": "06-6563-6563",
    "url": "http://www.humannet.or.jp",
    "pref": "大阪府",
    "city": "大阪市西成区",
    "category": "tokuyou",
    "serviceType": "介護老人福祉施設",
    "capacity": 0,
    "openDays": [],
    "openDaysNote": ""
  },
  {
    "id": "2773300229",
    "name": "社会福祉法人　枚方療育園　特別養護老人ホーム　山愛",
    "kana": "シャカイフクシホウジン　ヒラカタリョウイクエン　トクベツヨウゴロウジンホーム　サンアイ",
    "address": "大阪府大阪市西成区南津守1丁目4番7号",
    "lat": 34.6358498,
    "lng": 135.4845739,
    "tel": "06-6656-7001",
    "url": "http://www.bienetre-k.jp/",
    "pref": "大阪府",
    "city": "大阪市西成区",
    "category": "tokuyou",
    "serviceType": "介護老人福祉施設",
    "capacity": 0,
    "openDays": [],
    "openDaysNote": ""
  },
  {
    "id": "2773306929",
    "name": "特別養護老人ホーム　ライフカーサ",
    "kana": "トクベツヨウゴロウジンホーム　ライフカーサ",
    "address": "大阪府大阪市西成区松３－１２－３５特別養護老人ホーム　ライフカーサ 特別養護老人ホーム　ライフカーサ",
    "lat": 34.6417482499984,
    "lng": 135.486133525252,
    "tel": "06-6661-0999",
    "url": "http://hoshino-kai.com/",
    "pref": "大阪府",
    "city": "大阪市西成区",
    "category": "tokuyou",
    "serviceType": "介護老人福祉施設",
    "capacity": 110,
    "openDays": [],
    "openDaysNote": ""
  },
  {
    "id": "2773300153",
    "name": "特別養護老人ホーム　白寿苑",
    "kana": "トクベツヨウゴロウジンホーム　ハクジュエン",
    "address": "大阪府大阪市西成区南津守７丁目１２番３２号",
    "lat": 34.6242651,
    "lng": 135.4836022,
    "tel": "06-6651-2210",
    "url": "http://www.hakujuen.or.jp",
    "pref": "大阪府",
    "city": "大阪市西成区",
    "category": "tokuyou",
    "serviceType": "介護老人福祉施設",
    "capacity": 144,
    "openDays": [],
    "openDaysNote": ""
  },
  {
    "id": "2773306879",
    "name": "特別養護老人ホームかがやき",
    "kana": "トクベツヨウゴロウジンホームカガヤキ",
    "address": "大阪府大阪市西成区聖天下二丁目８番５号",
    "lat": 34.6351389,
    "lng": 135.5016308,
    "tel": "06-6627-9295",
    "url": "http://www.soyokai.or.jp/",
    "pref": "大阪府",
    "city": "大阪市西成区",
    "category": "tokuyou",
    "serviceType": "介護老人福祉施設",
    "capacity": 54,
    "openDays": [],
    "openDaysNote": ""
  },
  {
    "id": "2773307075",
    "name": "特別養護老人ホームにちげつの光",
    "kana": "トクベツヨウゴロウジンホームニチゲツノヒカリ",
    "address": "大阪市西成区萩之茶屋１－２－５",
    "lat": 34.6495428,
    "lng": 135.5024108,
    "tel": "06-6633-1680",
    "url": "https://s-koutokukai.or.jp/",
    "pref": "大阪府",
    "city": "大阪市西成区",
    "category": "tokuyou",
    "serviceType": "介護老人福祉施設",
    "capacity": null,
    "openDays": [],
    "openDaysNote": ""
  },
  {
    "id": "2773308925",
    "name": "特別養護老人ホームにちげつの光津守",
    "kana": "トクベツヨウゴロウジンホウムニチゲツノヒカリツモリ",
    "address": "大阪府大阪市西成区南津守5丁目1番8号",
    "lat": 34.6307194,
    "lng": 135.4824099,
    "tel": "06-6659-5111",
    "url": "https://s-koutokukai.or.jp",
    "pref": "大阪府",
    "city": "大阪市西成区",
    "category": "tokuyou",
    "serviceType": "介護老人福祉施設",
    "capacity": 0,
    "openDays": [],
    "openDaysNote": ""
  },
  {
    "id": "2773304312",
    "name": "特別養護老人ホームローズ",
    "kana": "トクベツヨウゴロウジンホームローズ",
    "address": "大阪府大阪市西成区天下茶屋北２丁目４番７号",
    "lat": 34.642888,
    "lng": 135.5012917,
    "tel": "06-6647-7300",
    "url": "http://www.hajime-kai.com/",
    "pref": "大阪府",
    "city": "大阪市西成区",
    "category": "tokuyou",
    "serviceType": "介護老人福祉施設",
    "capacity": 160,
    "openDays": [],
    "openDaysNote": ""
  },
  {
    "id": "2771001498",
    "name": "介護老人福祉施設水都ホーム福町",
    "kana": "カイゴロウジンフクシシセツスイトホームフクマチ",
    "address": "大阪府大阪市西淀川区福町2丁目11番７号",
    "lat": 34.6956133466731,
    "lng": 135.442609704893,
    "tel": "06-4808-2962",
    "url": "http://www.fuyoufukusikai.com/",
    "pref": "大阪府",
    "city": "大阪市西淀川区",
    "category": "tokuyou",
    "serviceType": "介護老人福祉施設",
    "capacity": 0,
    "openDays": [],
    "openDaysNote": ""
  },
  {
    "id": "2771000300",
    "name": "社会福祉法人　松福会　西淀川特別養護老人ホーム",
    "kana": "シャカイフクシホウジン　ショウフクカイ　ニシヨドガワトクベツヨウゴロウジンホーム",
    "address": "大阪府大阪市西淀川区大和田二丁目５番１１号",
    "lat": 34.7028217965689,
    "lng": 135.442476442328,
    "tel": "06-6477-6565",
    "url": "http://s-f-k.or.jp",
    "pref": "大阪府",
    "city": "大阪市西淀川区",
    "category": "tokuyou",
    "serviceType": "介護老人福祉施設",
    "capacity": 0,
    "openDays": [],
    "openDaysNote": ""
  },
  {
    "id": "2771001308",
    "name": "特別養護老人ホーム　姫島みずほ苑",
    "kana": "トクベツヨウゴロウジンホーム　ヒメジマミズホエン",
    "address": "大阪市西淀川区姫島5丁目11番24号",
    "lat": 34.7033518,
    "lng": 135.449589,
    "tel": "06-6477-0050",
    "url": "https://himejima-mizuhoen.jp/",
    "pref": "大阪府",
    "city": "大阪市西淀川区",
    "category": "tokuyou",
    "serviceType": "介護老人福祉施設",
    "capacity": 0,
    "openDays": [],
    "openDaysNote": ""
  },
  {
    "id": "2771000706",
    "name": "特別養護老人ホームルーチェ千舟",
    "kana": "トクベツヨウゴロウジンホームルーチェチブネ",
    "address": "大阪市西淀川区千舟2丁目７番２号",
    "lat": 34.7117842,
    "lng": 135.4530414,
    "tel": "06-6477-1010",
    "url": "http://s-f-k.or.jp",
    "pref": "大阪府",
    "city": "大阪市西淀川区",
    "category": "tokuyou",
    "serviceType": "介護老人福祉施設",
    "capacity": 80,
    "openDays": [],
    "openDaysNote": ""
  },
  {
    "id": "2771002322",
    "name": "特別養護老人ホーム陽光ひめじま苑",
    "kana": "トクベツヨウゴロウジンホームヨウコウヒメジマエン",
    "address": "大阪府大阪市西淀川区姫島5丁目16番36号",
    "lat": 34.7044516,
    "lng": 135.4481752,
    "tel": "06-7506-9521",
    "url": "http://youkou-wel.com/",
    "pref": "大阪府",
    "city": "大阪市西淀川区",
    "category": "tokuyou",
    "serviceType": "介護老人福祉施設",
    "capacity": 0,
    "openDays": [],
    "openDaysNote": ""
  },
  {
    "id": "2772700262",
    "name": "社会福祉法人恩賜財団済生会支部大阪府済生会　泉尾特別養護老人ホーム大正園",
    "kana": "シャカイフクシホウジンオンシザイダンサイセイカイシブオオサカフサイセイカイ　イズオトクベツヨウゴロウジンホームタイショウエン",
    "address": "大阪市大正区北村3-4-3",
    "lat": 34.6497254,
    "lng": 135.467289,
    "tel": "06-6552-3323",
    "url": "https://izuo-taishyoen.jp/",
    "pref": "大阪府",
    "city": "大阪市大正区",
    "category": "tokuyou",
    "serviceType": "介護老人福祉施設",
    "capacity": 0,
    "openDays": [],
    "openDaysNote": ""
  },
  {
    "id": "2772700270",
    "name": "泉尾特別養護老人ホーム第二大正園",
    "kana": "イズオトクベツヨウゴロウジンホームダイニタイショウエン",
    "address": "大阪市大正区北村3-5-10",
    "lat": 34.6505837,
    "lng": 135.4673223,
    "tel": "06-6552-8070",
    "url": "https://izuo-dai2taishyoen.jp/",
    "pref": "大阪府",
    "city": "大阪市大正区",
    "category": "tokuyou",
    "serviceType": "介護老人福祉施設",
    "capacity": 0,
    "openDays": [],
    "openDaysNote": ""
  },
  {
    "id": "2772701831",
    "name": "特別養護老人ホーム　悠の里",
    "kana": "トクベツヨウゴロウジンホーム　ユウノサト",
    "address": "大阪府大阪市大正区小林東2-6-15",
    "lat": 34.6431709,
    "lng": 135.4763023,
    "tel": "06-6554-4320",
    "url": "http://yuunosato.com",
    "pref": "大阪府",
    "city": "大阪市大正区",
    "category": "tokuyou",
    "serviceType": "介護老人福祉施設",
    "capacity": 0,
    "openDays": [],
    "openDaysNote": ""
  },
  {
    "id": "2772700502",
    "name": "特別養護老人ホームビーナスホーム千島園",
    "kana": "トクベツヨウゴロウジンホームビーナスホームチシマエン",
    "address": "大阪府大阪市大正区千島１－２３－２６",
    "lat": 34.6522226,
    "lng": 135.4761964,
    "tel": "06-6553-4800",
    "url": "http://www.venushome.jp/",
    "pref": "大阪府",
    "city": "大阪市大正区",
    "category": "tokuyou",
    "serviceType": "介護老人福祉施設",
    "capacity": 150,
    "openDays": [],
    "openDaysNote": ""
  },
  {
    "id": "2772701666",
    "name": "特別養護老人ホーム幸楽園",
    "kana": "トクベツヨウゴロウジンホームコウラクエン",
    "address": "大阪府大阪市大正区鶴町二丁目１９番２８号",
    "lat": 34.6393013,
    "lng": 135.4546099,
    "tel": "06-6555-5556",
    "url": "http://kourakuen.osakakoufuukai.com/",
    "pref": "大阪府",
    "city": "大阪市大正区",
    "category": "tokuyou",
    "serviceType": "介護老人福祉施設",
    "capacity": 81,
    "openDays": [],
    "openDaysNote": ""
  },
  {
    "id": "2779400213",
    "name": "特別養護老人ホーム　さくら",
    "kana": "トクベツヨウゴロウジンホーム　サクラ",
    "address": "大阪市中央区農人橋一丁目４番２０号",
    "lat": 34.6807254,
    "lng": 135.5146838,
    "tel": "06-6947-5215",
    "url": "http://www.kensyokai.jp",
    "pref": "大阪府",
    "city": "大阪市中央区",
    "category": "tokuyou",
    "serviceType": "介護老人福祉施設",
    "capacity": 0,
    "openDays": [],
    "openDaysNote": ""
  },
  {
    "id": "2779200399",
    "name": "特別養護老人ホーム　ウェルシーライフ",
    "kana": "トクベツヨウゴロウジンホーム　ウェルシーライフ",
    "address": "大阪府大阪市鶴見区諸口1丁目１４－４３",
    "lat": 34.701091,
    "lng": 135.5778201,
    "tel": "06-6914-3331",
    "url": "https://houjyu-w.sakura.ne.jp/",
    "pref": "大阪府",
    "city": "大阪市鶴見区",
    "category": "tokuyou",
    "serviceType": "介護老人福祉施設",
    "capacity": 75,
    "openDays": [],
    "openDaysNote": ""
  },
  {
    "id": "2779202064",
    "name": "特別養護老人ホーム　グリーンランドみずき",
    "kana": "トクベツヨウゴロウジンホーム　グリーンランドミズキ",
    "address": "大阪府大阪市鶴見区緑３丁目１６番２７号",
    "lat": 34.7128672,
    "lng": 135.5663403,
    "tel": "06-6911-0012",
    "url": "http://mizuki-osaka.jp",
    "pref": "大阪府",
    "city": "大阪市鶴見区",
    "category": "tokuyou",
    "serviceType": "介護老人福祉施設",
    "capacity": 0,
    "openDays": [],
    "openDaysNote": ""
  },
  {
    "id": "2779200258",
    "name": "特別養護老人ホーム　ファミリー",
    "kana": "トクベツヨウゴロウジンホーム　ファミリー",
    "address": "大阪市鶴見区安田2丁目１番２７号",
    "lat": 34.7026745,
    "lng": 135.5912521,
    "tel": "06-6915-1717",
    "url": "http://www2.family.ed.jp/~family/",
    "pref": "大阪府",
    "city": "大阪市鶴見区",
    "category": "tokuyou",
    "serviceType": "介護老人福祉施設",
    "capacity": 104,
    "openDays": [],
    "openDaysNote": ""
  },
  {
    "id": "2779200324",
    "name": "特別養護老人ホーム　リベルタヴィータ",
    "kana": "トクベツヨウゴロウジンホーム　リベルタウ゛ィータ",
    "address": "大阪市鶴見区今津南3丁目5番5号",
    "lat": 34.6887424,
    "lng": 135.5738371,
    "tel": "06-6963-6360",
    "url": "http://www.liberta-vita.jp/",
    "pref": "大阪府",
    "city": "大阪市鶴見区",
    "category": "tokuyou",
    "serviceType": "介護老人福祉施設",
    "capacity": 110,
    "openDays": [],
    "openDaysNote": ""
  },
  {
    "id": "2779202197",
    "name": "特別養護老人ホームくつろぎ・つるみ荘",
    "kana": "トクベツヨウゴロウジンホームクツロギツルミソウ",
    "address": "大阪府大阪市鶴見区中茶屋１丁目１番１０号特別養護老人ホームくつろぎ・つるみ荘 特別養護老人ホームくつろぎ・つるみ荘",
    "lat": 34.6996107276486,
    "lng": 135.584046921951,
    "tel": "06-6914-3877",
    "url": "http://www.elfkaigo.co.jp/tsurumi/",
    "pref": "大阪府",
    "city": "大阪市鶴見区",
    "category": "tokuyou",
    "serviceType": "介護老人福祉施設",
    "capacity": 0,
    "openDays": [],
    "openDaysNote": ""
  },