[
  {
    "id": "2774202051",
    "name": "茨木特別養護老人ホームラガール",
    "kana": "イバラキトクベツヨウゴロウジンホームラガール",
    "address": "大阪府茨木市大字安威12番地",
    "lat": 34.8489767,
    "lng": 135.5653627,
    "tel": "072-648-1500",
    "url": "http://www.koudoukai.or.jp/ibaraki/",
    "pref": "大阪府",
    "city": "茨木市",
    "category": "tokuyou",
    "serviceType": "介護老人福祉施設",
    "capacity": 0,
    "openDays": [],
    "openDaysNote": ""
  },
  {
    "id": "2774200832",
    "name": "特別養護老人ホーム　茨木荘",
    "kana": "トクベツヨウゴロウジンホーム　イバラキソウ",
    "address": "大阪府茨木市丑寅2-1-5",
    "lat": 34.7971056292143,
    "lng": 135.558362632541,
    "tel": "072-631-3388",
    "url": "http://www.tenno.or.jp",
    "pref": "大阪府",
    "city": "茨木市",
    "category": "tokuyou",
    "serviceType": "介護老人福祉施設",
    "capacity": 90,
    "openDays": [],
    "openDaysNote": ""
  },
  {
    "id": "2774201616",
    "name": "特別養護老人ホーム　春風",
    "kana": "トクベツヨウゴロウジンホーム　ハルカゼ",
    "address": "大阪府茨木市南安威2丁目10番5号",
    "lat": 34.8422912,
    "lng": 135.5600048,
    "tel": "072-640-2626",
    "url": "http://www.tanaka-hsp.or.jp",
    "pref": "大阪府",
    "city": "茨木市",
    "category": "tokuyou",
    "serviceType": "介護老人福祉施設",
    "capacity": 57,
    "openDays": [],
    "openDaysNote": ""
  },
  {
    "id": "2774200840",
    "name": "特別養護老人ホーム　庄栄エルダーセンター",
    "kana": "トクベツヨウゴロウジンホウム　ショエイエルダーセンター",
    "address": "大阪府茨木市庄2丁目7番38号",
    "lat": 34.8239909,
    "lng": 135.5809255,
    "tel": "072-631-5151",
    "url": "http://care-net.biz/27/shouei",
    "pref": "大阪府",
    "city": "茨木市",
    "category": "tokuyou",
    "serviceType": "介護老人福祉施設",
    "capacity": 56,
    "openDays": [],
    "openDaysNote": ""
  },
  {
    "id": "2774200444",
    "name": "特別養護老人ホーム　常清の里",
    "kana": "トクベツヨウゴロウジンホーム　ジョウセイノサト",
    "address": "大阪府茨木市清水一丁目２８番２２号",
    "lat": 34.837577,
    "lng": 135.5288493,
    "tel": "072-641-3151",
    "url": "http://www.keitokukai.or.jp/",
    "pref": "大阪府",
    "city": "茨木市",
    "category": "tokuyou",
    "serviceType": "介護老人福祉施設",
    "capacity": 0,
    "openDays": [],
    "openDaysNote": ""
  },
  {
    "id": "2774200360",
    "name": "特別養護老人ホーム　聖和荘",
    "kana": "トクベツヨウゴロウジンホーム　セイワソウ",
    "address": "大阪府茨木市畑田町11番25号",
    "lat": 34.8296344,
    "lng": 135.5656601,
    "tel": "072-626-0010",
    "url": "http://www.ibarakikouseikai.or.jp",
    "pref": "大阪府",
    "city": "茨木市",
    "category": "tokuyou",
    "serviceType": "介護老人福祉施設",
    "capacity": 50,
    "openDays": [],
    "openDaysNote": ""
  },
  {
    "id": "2774202010",
    "name": "特別養護老人ホームコムシェいばらき",
    "kana": "トクベツヨウゴロウジンホームコムシェイバラキ",
    "address": "大阪府茨木市玉島1丁目28番1号",
    "lat": 34.7987546,
    "lng": 135.5874533,
    "tel": "072-632-3355",
    "url": "http://keishokai.org/",
    "pref": "大阪府",
    "city": "茨木市",
    "category": "tokuyou",
    "serviceType": "介護老人福祉施設",
    "capacity": 70,
    "openDays": [],
    "openDaysNote": ""
  },
  {
    "id": "2774200410",
    "name": "特別養護老人ホーム春菊苑",
    "kana": "トクベツヨウゴロウジンホーム　シュンギクエン",
    "address": "茨木市見付山1-10-25",
    "lat": 34.8195961,
    "lng": 135.5544336,
    "tel": "072-624-6500",
    "url": "http://www.keitokukai.or.jp/",
    "pref": "大阪府",
    "city": "茨木市",
    "category": "tokuyou",
    "serviceType": "介護老人福祉施設",
    "capacity": 0,
    "openDays": [],
    "openDaysNote": ""
  },
  {
    "id": "2774201160",
    "name": "特別養護老人ホーム春日丘荘",
    "kana": "トクベツヨウゴロウジンホーム　カスガオカソウ",
    "address": "茨木市南春日丘7丁目11番22号",
    "lat": 34.821065,
    "lng": 135.5303357,
    "tel": "072-625-6377",
    "url": "http://www.kasugaoka.net/",
    "pref": "大阪府",
    "city": "茨木市",
    "category": "tokuyou",
    "serviceType": "介護老人福祉施設",
    "capacity": 120,
    "openDays": [],
    "openDaysNote": ""
  },
  {
    "id": "2774202283",
    "name": "特別養護老人ホーム豊川の郷",
    "kana": "トクベツヨウゴロウジンホームトヨカワノサト",
    "address": "大阪府茨木市豊川４丁目３５番３１号",
    "lat": 34.8338801,
    "lng": 135.5278189,
    "tel": "072-643-0333",
    "url": "http://www.to-wakai.or.jp",
    "pref": "大阪府",
    "city": "茨木市",
    "category": "tokuyou",
    "serviceType": "介護老人福祉施設",
    "capacity": 0,
    "openDays": [],
    "openDaysNote": ""
  },
  {
    "id": "2773800434",
    "name": "羽曳野特別養護老人ホーム",
    "kana": "ハビキノトクベツヨウゴロウジンホーム",
    "address": "大阪府羽曳野市古市2271番地114",
    "lat": 34.5305135,
    "lng": 135.6297934,
    "tel": "072-958-9951",
    "url": "http://www.waetsukai.jp/",
    "pref": "大阪府",
    "city": "羽曳野市",
    "category": "tokuyou",
    "serviceType": "介護老人福祉施設",
    "capacity": 100,
    "openDays": [],
    "openDaysNote": ""
  },
  {
    "id": "2773800509",
    "name": "四天王寺悲田院特別養護老人ホーム",
    "kana": "シテンノウジヒデンイントクベツヨウゴロウジンホーム",
    "address": "羽曳野市学園前6-1-1",
    "lat": 34.5482521,
    "lng": 135.5846419,
    "tel": "072-957-7512",
    "url": "http://www.shitennoji-fukushi.jp/",
    "pref": "大阪府",
    "city": "羽曳野市",
    "category": "tokuyou",
    "serviceType": "介護老人福祉施設",
    "capacity": 0,
    "openDays": [],
    "openDaysNote": ""
  },
  {
    "id": "2773800111",
    "name": "特別養護老人ホーム　アンジュ",
    "kana": "トクベツヨウゴロウジンホーム　アンジュ",
    "address": "大阪府羽曳野市野371番地",
    "lat": 34.5612756,
    "lng": 135.5732679,
    "tel": "072-936-1212",
    "url": "http://tokuyou-ange.jp",
    "pref": "大阪府",
    "city": "羽曳野市",
    "category": "tokuyou",
    "serviceType": "介護老人福祉施設",
    "capacity": 0,
    "openDays": [],
    "openDaysNote": ""
  },
  {
    "id": "2773800798",
    "name": "特別養護老人ホーム　スマイル",
    "kana": "トクベツヨウゴロウジンホーム　スマイル",
    "address": "大阪府羽曳野市尺度３８２番地の5",
    "lat": 34.5316849,
    "lng": 135.5987435,
    "tel": "072-956-4165",
    "url": "http://smile-habikino.jp/",
    "pref": "大阪府",
    "city": "羽曳野市",
    "category": "tokuyou",
    "serviceType": "介護老人福祉施設",
    "capacity": 0,
    "openDays": [],
    "openDaysNote": ""
  },
  {
    "id": "2773801135",
    "name": "特別養護老人ホームあすくの里",
    "kana": "トクベツヨウゴロウジンホームアスクノサト",
    "address": "大阪府羽曳野市飛鳥１１番",
    "lat": 34.5357963,
    "lng": 135.6345611,
    "tel": "072-957-1764",
    "url": "http://www.daichofuku.or.jp/",
    "pref": "大阪府",
    "city": "羽曳野市",
    "category": "tokuyou",
    "serviceType": "介護老人福祉施設",
    "capacity": 0,
    "openDays": [],
    "openDaysNote": ""
  },
  {
    "id": "2773800517",
    "name": "特別養護老人ホーム河原城苑",
    "kana": "トクベツヨウゴロウジンホームカワハラジョウエン",
    "address": "大阪府羽曳野市河原城９２７番地",
    "lat": 34.5479994,
    "lng": 135.5753067,
    "tel": "072-938-3999",
    "url": "http://kawaharajoen.com",
    "pref": "大阪府",
    "city": "羽曳野市",
    "category": "tokuyou",
    "serviceType": "介護老人福祉施設",
    "capacity": 135,
    "openDays": [],
    "openDaysNote": ""
  },
  {
    "id": "2770700538",
    "name": "特別養護老人ホーム　あかしあ",
    "kana": "トクベツヨウゴロウジンホーム　アカシア",
    "address": "大阪府河内長野市あかしあ台2丁目6番15号",
    "lat": 34.4672351894779,
    "lng": 135.553608516587,
    "tel": "0721-52-0333",
    "url": "https://www.ontoku.or.jp/",
    "pref": "大阪府",
    "city": "河内長野市",
    "category": "tokuyou",
    "serviceType": "介護老人福祉施設",
    "capacity": 50,
    "openDays": [],
    "openDaysNote": ""
  },
  {
    "id": "2770700355",
    "name": "特別養護老人ホーム　スリーハートの丘",
    "kana": "トクベツヨウゴロウジンホーム　スリハートノオカ",
    "address": "大阪府河内長野市上原町５５４番地",
    "lat": 34.4445285773537,
    "lng": 135.557110911025,
    "tel": "0721-56-2391",
    "url": "http://www.naganozaidan.jp",
    "pref": "大阪府",
    "city": "河内長野市",
    "category": "tokuyou",
    "serviceType": "介護老人福祉施設",
    "capacity": 0,
    "openDays": [],
    "openDaysNote": ""
  },
  {
    "id": "2770703094",
    "name": "特別養護老人ホーム　ラ・フォート河内長野",
    "kana": "トクベツヨウゴロウジンホーム　ラ・フォートカワチナガノ",
    "address": "大阪府河内長野市木戸1丁目31番25号",
    "lat": 34.4701178175805,
    "lng": 135.570413563229,
    "tel": "0721-55-6677",
    "url": "https://yasuragi-kai.com/",
    "pref": "大阪府",
    "city": "河内長野市",
    "category": "tokuyou",
    "serviceType": "介護老人福祉施設",
    "capacity": 50,
    "openDays": [],
    "openDaysNote": ""
  },
  {
    "id": "2770700207",
    "name": "特別養護老人ホーム　寿里苑",
    "kana": "トクベツヨウゴロウジンホーム　ジュリエン",
    "address": "大阪府河内長野市小山田町448番地の2",
    "lat": 34.451821,
    "lng": 135.5530213,
    "tel": "0721-52-3888",
    "url": "http://www.julien.or.jp",
    "pref": "大阪府",
    "city": "河内長野市",
    "category": "tokuyou",
    "serviceType": "介護老人福祉施設",
    "capacity": 0,
    "openDays": [],
    "openDaysNote": ""
  },
  {
    "id": "2770700652",
    "name": "特別養護老人ホーム生登福祉ケアセンター",
    "kana": "トクベツヨウゴロウジンホームセイトフクシケアセンター",
    "address": "大阪府河内長野市高向２７４番１",
    "lat": 34.4367309,
    "lng": 135.546414,
    "tel": "0721-50-0101",
    "url": "http://www.teramoto.or.jp",
    "pref": "大阪府",
    "city": "河内長野市",
    "category": "tokuyou",
    "serviceType": "介護老人福祉施設",
    "capacity": 50,
    "openDays": [],
    "openDaysNote": ""
  },
  {
    "id": "2770700298",
    "name": "特別養護老人ホーム泰昌園",
    "kana": "トクベツヨウゴロウジンホームタイショウエン",
    "address": "大阪府河内長野市寺元928番地",
    "lat": 34.4345512,
    "lng": 135.5974268,
    "tel": "0721-63-0171",
    "url": "https://www.taisyoen.com",
    "pref": "大阪府",
    "city": "河内長野市",
    "category": "tokuyou",
    "serviceType": "介護老人福祉施設",
    "capacity": 0,
    "openDays": [],
    "openDaysNote": ""
  },
  {
    "id": "2773500778",
    "name": "特別養護老人ホーム　あんり",
    "kana": "トクベツヨウゴロウジンホーム　アンリ",
    "address": "大阪府南河内郡河南町大字寛弘寺１０１番地",
    "lat": 34.4824684,
    "lng": 135.624339,
    "tel": "0721-90-3200",
    "url": "http://www.jyunshin.or.jp/anri/",
    "pref": "大阪府",
    "city": "河南町",
    "category": "tokuyou",
    "serviceType": "介護老人福祉施設",
    "capacity": 0,
    "openDays": [],
    "openDaysNote": ""
  },
  {
    "id": "2773500158",
    "name": "特別養護老人ホーム菊水苑",
    "kana": "トクベツヨウゴロウジンホーム　キクスイエン",
    "address": "大阪府南河内郡河南町大字加納元南１７番地",
    "lat": 34.4857518078442,
    "lng": 135.645932028958,
    "tel": "0721-93-4678",
    "url": "http://www.kikusuien.com/",
    "pref": "大阪府",
    "city": "河南町",
    "category": "tokuyou",
    "serviceType": "介護老人福祉施設",
    "capacity": 80,
    "openDays": [],
    "openDaysNote": ""
  },
  {
    "id": "2771300122",
    "name": "特別養護老人ホーム　水間ヶ丘",
    "kana": "トクベツヨウゴロウジンホーム　ミズマガオカ",
    "address": "大阪府貝塚市水間１３７番１",
    "lat": 34.4043275,
    "lng": 135.3881366,
    "tel": "072-446-5530",
    "url": "http://www.kenjinkai-mizuma.jp/",
    "pref": "大阪府",
    "city": "貝塚市",
    "category": "tokuyou",
    "serviceType": "介護老人福祉施設",
    "capacity": 125,
    "openDays": [],
    "openDaysNote": ""
  },
  {
    "id": "2771300114",
    "name": "特別養護老人ホーム貝塚誠心園",
    "kana": "トクベツヨウゴロウジンホームカイヅカセイシンエン",
    "address": "大阪府貝塚市森1103-2",
    "lat": 34.4138872,
    "lng": 135.3773517,
    "tel": "072-446-8022",
    "url": "http://seishinen.com",
    "pref": "大阪府",
    "city": "貝塚市",
    "category": "tokuyou",
    "serviceType": "介護老人福祉施設",
    "capacity": 80,
    "openDays": [],
    "openDaysNote": ""
  },
  {
    "id": "2771100308",
    "name": "岸和田特別養護老人ホーム",
    "kana": "キシワダトクベツヨウゴロウジンホーム",
    "address": "大阪府岸和田市藤井町２丁目１３番１３号",
    "lat": 34.4641619,
    "lng": 135.3846889,
    "tel": "072-436-5100",
    "url": "http://www.kishiwada.or.jp",
    "pref": "大阪府",
    "city": "岸和田市",
    "category": "tokuyou",
    "serviceType": "介護老人福祉施設",
    "capacity": 0,
    "openDays": [],
    "openDaysNote": ""
  },
  {
    "id": "2771106313",
    "name": "第二岸和田特別養護老人ホーム",
    "kana": "ダイニキシワダトクベツヨウゴロウジンホーム",
    "address": "大阪府岸和田市藤井町2-13-19",
    "lat": 34.4642333,
    "lng": 135.3847461,
    "tel": "072-433-4800",
    "url": "https://kishiwada.or.jp/",
    "pref": "大阪府",
    "city": "岸和田市",
    "category": "tokuyou",
    "serviceType": "介護老人福祉施設",
    "capacity": 0,
    "openDays": [],
    "openDaysNote": ""
  },
  {
    "id": "2771100696",
    "name": "特別養護老人ホーム　いなば荘",
    "kana": "トクベツヨウゴロウジンホーム　イナバソウ",
    "address": "大阪府岸和田市稲葉町1066番地",
    "lat": 34.4320973,
    "lng": 135.4477394,
    "tel": "072-479-2900",
    "url": "http://inabasou.com",
    "pref": "大阪府",
    "city": "岸和田市",
    "category": "tokuyou",
    "serviceType": "介護老人福祉施設",
    "capacity": 104,
    "openDays": [],
    "openDaysNote": ""
  },
  {
    "id": "2771100290",
    "name": "特別養護老人ホーム　神於山園",
    "kana": "トクベツヨウゴロウジンホーム　コウノヤマエン",
    "address": "大阪府岸和田市尾生町３１９２番２",
    "lat": 34.4215176,
    "lng": 135.4180112,
    "tel": "072-427-1165",
    "url": "https://kounoyamaen.or.jp",
    "pref": "大阪府",
    "city": "岸和田市",
    "category": "tokuyou",
    "serviceType": "介護老人福祉施設",
    "capacity": 50,
    "openDays": [],
    "openDaysNote": ""
  },
  {
    "id": "2771100217",
    "name": "特別養護老人ホーム　千亀利荘",
    "kana": "トクベツヨウゴロウジンホーム　チキリソウ",
    "address": "大阪府岸和田市積川町３５８番地",
    "lat": 34.4247445,
    "lng": 135.4398983,
    "tel": "072-479-1885",
    "url": "http://www.chikiriso.jp",
    "pref": "大阪府",
    "city": "岸和田市",
    "category": "tokuyou",
    "serviceType": "介護老人福祉施設",
    "capacity": 50,
    "openDays": [],
    "openDaysNote": ""
  },
  {
    "id": "2771100126",
    "name": "特別養護老人ホーム　萬寿園",
    "kana": "トクベツヨウゴロウジンホーム　マンジュエン",
    "address": "大阪府岸和田市尾生町808番地",
    "lat": 34.4513474,
    "lng": 135.4074175,
    "tel": "072-445-0749",
    "url": "http://www13.ocn.ne.jp/~man/MyPage/menu0.html",
    "pref": "大阪府",
    "city": "岸和田市",
    "category": "tokuyou",
    "serviceType": "介護老人福祉施設",
    "capacity": 0,
    "openDays": [],
    "openDaysNote": ""
  },
  {
    "id": "2771107022",
    "name": "特別養護老人ホームCiao神於山園",
    "kana": "トクベツヨウゴロウジンホームチャオコウノヤマエン",
    "address": "大阪府岸和田市尾生町3192番1",
    "lat": 34.4212944545817,
    "lng": 135.418332262041,
    "tel": "072-427-1165",
    "url": "http://kounoyamaen.or.jp",
    "pref": "大阪府",
    "city": "岸和田市",
    "category": "tokuyou",
    "serviceType": "介護老人福祉施設",
    "capacity": null,
    "openDays": [],
    "openDaysNote": ""
  },
  {
    "id": "2771201221",
    "name": "特別養護老人ホーム　第３永楽荘",
    "kana": "トクベツヨウゴロウジンホーム　ダイサンエイラクソウ",
    "address": "大阪府泉南郡熊取町野田３丁目２２８１番地１",
    "lat": 34.4047404,
    "lng": 135.3555655,
    "tel": "072-452-5167",
    "url": "http://www.eiraku-fukushi.com/",
    "pref": "大阪府",
    "city": "熊取町",
    "category": "tokuyou",
    "serviceType": "介護老人福祉施設",
    "capacity": 0,
    "openDays": [],
    "openDaysNote": ""
  },
  {
    "id": "2771200165",
    "name": "特別養護老人ホーム第１永楽荘",
    "kana": "トクベツヨウゴロウジンホームダイイチエイラクソウ",
    "address": "大阪府泉南郡熊取町野田三丁目1111番地2",
    "lat": 34.4047404,
    "lng": 135.3555655,
    "tel": "072-451-2789",
    "url": "http://www.eiraku-fukushi.com",
    "pref": "大阪府",
    "city": "熊取町",
    "category": "tokuyou",
    "serviceType": "介護老人福祉施設",
    "capacity": 0,
    "openDays": [],
    "openDaysNote": ""
  },
  {
    "id": "2771200132",
    "name": "特別養護老人ホーム弥栄園",
    "kana": "トクベツヨウゴロウジンホーム　ヤサカエン",
    "address": "大阪府泉南郡熊取町大久保南三丁目1380番地の1",
    "lat": 34.3955745,
    "lng": 135.342975,
    "tel": "072-452-7025",
    "url": "http://www.yasakaen.com",
    "pref": "大阪府",
    "city": "熊取町",
    "category": "tokuyou",
    "serviceType": "介護老人福祉施設",
    "capacity": 79,
    "openDays": [],
    "openDaysNote": ""
  },
  {
    "id": "2773600115",
    "name": "きんもくせい特別養護老人ホーム",
    "kana": "キンモクセイトクベツヨウゴロウジンホーム",
    "address": "大阪府交野市大字星田５１５６－８",
    "lat": 34.7569387,
    "lng": 135.6701213,
    "tel": "072-892-5689",
    "url": "http://care-net.biz/27/mokuseikai/",
    "pref": "大阪府",
    "city": "交野市",
    "category": "tokuyou",
    "serviceType": "介護老人福祉施設",
    "capacity": 50,
    "openDays": [],
    "openDaysNote": ""
  },
  {
    "id": "2773600156",
    "name": "特別養護老人ホーム　天の川明星",
    "kana": "トクベツヨウゴロウジンホームアマノガワミョウジョウ",
    "address": "大阪府交野市藤が尾２－５－２２",
    "lat": 34.7700264,
    "lng": 135.6785646,
    "tel": "072-894-3029",
    "url": "https://www.h-myojo.or.jp/",
    "pref": "大阪府",
    "city": "交野市",
    "category": "tokuyou",
    "serviceType": "介護老人福祉施設",
    "capacity": 55,
    "openDays": [],
    "openDaysNote": ""
  },
  {
    "id": "2773600719",
    "name": "特別養護老人ホーム美来",
    "kana": "トクベツヨウゴロウジンホームミライ",
    "address": "大阪府交野市倉治四丁目４０番７号",
    "lat": 34.7956513,
    "lng": 135.6848862,
    "tel": "072-810-8670",
    "url": "http://www.misugikai.jp",
    "pref": "大阪府",
    "city": "交野市",
    "category": "tokuyou",
    "serviceType": "介護老人福祉施設",
    "capacity": 80,
    "openDays": [],
    "openDaysNote": ""
  },
  {
    "id": "2773600172",
    "name": "特別養護老人ホーム明星",
    "kana": "トクベツヨウゴロウジンホームミョウジョウ",
    "address": "大阪府交野市星田８丁目６番７号",
    "lat": 34.7638407,
    "lng": 135.6700128,
    "tel": "072-891-2029",
    "url": "https://www.h-myojo.or.jp",
    "pref": "大阪府",
    "city": "交野市",
    "category": "tokuyou",
    "serviceType": "介護老人福祉施設",
    "capacity": 0,
    "openDays": [],
    "openDaysNote": ""
  },
  {
    "id": "2775300177",
    "name": "高石特別養護老人ホーム",
    "kana": "タカイシトクベツヨウゴロウジンホーム",
    "address": "大阪府高石市取石５丁目８番１５号",
    "lat": 34.5132847,
    "lng": 135.4445774,
    "tel": "072-275-1031",
    "url": "http://www.itokukai.com",
    "pref": "大阪府",
    "city": "高石市",
    "category": "tokuyou",
    "serviceType": "介護老人福祉施設",
    "capacity": 0,
    "openDays": [],
    "openDaysNote": ""
  },
  {
    "id": "2775300151",
    "name": "特別養護老人ホーム　アウェイク東羽衣",
    "kana": "トクベツヨウゴロウジンホウム　アウェイクヒガシハゴロモ",
    "address": "大阪府高石市東羽衣2-14-18",
    "lat": 34.5314188,
    "lng": 135.444963,
    "tel": "072-266-4350",
    "url": "http://aueiku.jp/",
    "pref": "大阪府",
    "city": "高石市",
    "category": "tokuyou",
    "serviceType": "介護老人福祉施設",
    "capacity": null,
    "openDays": [],
    "openDaysNote": ""
  },
  {
    "id": "2770901359",
    "name": "グリーン特別養護老人ホーム",
    "kana": "グリーントクベツヨウゴロウジンホーム",
    "address": "大阪府高槻市奈佐原4-7-15",
    "lat": 34.8653667,
    "lng": 135.5755117,
    "tel": "072-690-3331",
    "url": "",
    "pref": "大阪府",
    "city": "高槻市",
    "category": "tokuyou",
    "serviceType": "介護老人福祉施設",
    "capacity": 0,
    "openDays": [],
    "openDaysNote": ""
  },
  {
    "id": "2770901813",
    "name": "介護老人福祉施設　高槻けやきの郷",
    "kana": "カイゴロウジンフクシシセツ　タカツキケヤキノサト",
    "address": "大阪府高槻市番田１丁目６０番１号",
    "lat": 34.8179784,
    "lng": 135.6246768,
    "tel": "072-662-5888",
    "url": "http://swc-seikouen.jp/takatsuki/index.html",
    "pref": "大阪府",
    "city": "高槻市",
    "category": "tokuyou",
    "serviceType": "介護老人福祉施設",
    "capacity": 0,
    "openDays": [],
    "openDaysNote": ""
  },
  {
    "id": "2770900633",
    "name": "高槻黄金の里特別養護老人ホーム",
    "kana": "タカツキコガネノサト　トクベツヨウゴロウジンホーム",
    "address": "大阪府高槻市黄金の里1丁目14番8号",
    "lat": 34.8748051,
    "lng": 135.5921046,
    "tel": "072-687-3681",
    "url": "http://www.kogane.or.jp",
    "pref": "大阪府",
    "city": "高槻市",
    "category": "tokuyou",
    "serviceType": "介護老人福祉施設",
    "capacity": 0,
    "openDays": [],
    "openDaysNote": ""
  },
  {
    "id": "2770900849",
    "name": "特別養護老人ホーム　れんげ荘",
    "kana": "トクベツヨウゴロウジンホーム　レンゲソウ",
    "address": "高槻市三島江４丁目３８番７号",
    "lat": 34.796811,
    "lng": 135.6090953,
    "tel": "072-677-5888",
    "url": "http://www.rengesou.or.jp",
    "pref": "大阪府",
    "city": "高槻市",
    "category": "tokuyou",
    "serviceType": "介護老人福祉施設",
    "capacity": 0,
    "openDays": [],
    "openDaysNote": ""
  },
  {
    "id": "2770902266",
    "name": "特別養護老人ホーム　樫田の里",
    "kana": "トクベツヨウゴロウジンホーム　カシダノサト",
    "address": "大阪府高槻市大字田能小字畑子谷１５番地１",
    "lat": 34.9530164,
    "lng": 135.5899367,
    "tel": "072-680-0001",
    "url": "http://www.ryokufu1984.or.jp",
    "pref": "大阪府",
    "city": "高槻市",
    "category": "tokuyou",
    "serviceType": "介護老人福祉施設",
    "capacity": 100,
    "openDays": [],
    "openDaysNote": ""
  },
  {
    "id": "2770900393",
    "name": "特別養護老人ホーム　高槻ともしび苑",
    "kana": "トクベツヨウゴロウジンホーム　タカツキトモシビエン",
    "address": "高槻市安岡寺町6丁目6番1号",
    "lat": 34.8818491,
    "lng": 135.6066751,
    "tel": "072-689-2772",
    "url": "http://tomoshibifukushikai.jp/",
    "pref": "大阪府",
    "city": "高槻市",
    "category": "tokuyou",
    "serviceType": "介護老人福祉施設",
    "capacity": 0,
    "openDays": [],
    "openDaysNote": ""
  },
  {
    "id": "2770901326",
    "name": "特別養護老人ホーム　和朗園",
    "kana": "トクベツヨウゴロウジンホーム　ワロウエン",
    "address": "高槻市井尻二丁目37-8",
    "lat": 34.8551192,
    "lng": 135.6490384,
    "tel": "072-660-3600",
    "url": "http://www.kyousei-fukushi.or.jp/",
    "pref": "大阪府",
    "city": "高槻市",
    "category": "tokuyou",
    "serviceType": "介護老人福祉施設",
    "capacity": 0,
    "openDays": [],
    "openDaysNote": ""
  },
  {
    "id": "2770903868",
    "name": "特別養護老人ホームぐんげ今城の丘",
    "kana": "トクベツヨウゴロウジンホームグンゲイマシロノオカ",
    "address": "大阪府高槻市郡家本町１３番２３号",
    "lat": 34.8542519,
    "lng": 135.5977929,
    "tel": "072-681-1500",
    "url": "http://www.syunjyukai.or.jp/",
    "pref": "大阪府",
    "city": "高槻市",
    "category": "tokuyou",
    "serviceType": "介護老人福祉施設",
    "capacity": 0,
    "openDays": [],
    "openDaysNote": ""
  },
  {
    "id": "2770901953",
    "name": "特別養護老人ホームひばり苑",
    "kana": "トクベツヨウゴロウジンホームヒバリエン",
    "address": "大阪府高槻市三箇牧二丁目20番3号",
    "lat": 34.7978662,
    "lng": 135.601785,
    "tel": "072-679-1105",
    "url": "http://tahoukai-hibarien.com",
    "pref": "大阪府",
    "city": "高槻市",
    "category": "tokuyou",
    "serviceType": "介護老人福祉施設",
    "capacity": 0,
    "openDays": [],
    "openDaysNote": ""
  },
  {
    "id": "2770900674",
    "name": "特別養護老人ホームミス・ブール記念ホーム",
    "kana": "ミス・ブールキネンホーム",
    "address": "高槻市松ヶ丘１－２１－９",
    "lat": 34.871634899207,
    "lng": 135.599455574351,
    "tel": "072-688-5138",
    "url": "http://yohane-g.jp/",
    "pref": "大阪府",
    "city": "高槻市",
    "category": "tokuyou",
    "serviceType": "介護老人福祉施設",
    "capacity": 50,
    "openDays": [],
    "openDaysNote": ""
  },
  {
    "id": "2770901227",
    "name": "特別養護老人ホーム高槻荘",
    "kana": "トクベツヨウゴロウジンホームタカツキソウ",
    "address": "高槻市郡家新町４８番７号",
    "lat": 34.8518355,
    "lng": 135.5956293,
    "tel": "072-682-6652",
    "url": "https://takatsuki-huku2.wixsite.com/osj-takatukisou",
    "pref": "大阪府",
    "city": "高槻市",
    "category": "tokuyou",
    "serviceType": "介護老人福祉施設",
    "capacity": 0,
    "openDays": [],
    "openDaysNote": ""
  },
  {
    "id": "2770902597",
    "name": "特別養護老人ホーム出丸苑",
    "kana": "トクベツヨウゴロウジンホーム　デマルエン",
    "address": "大阪府高槻市出丸町４番６２号",
    "lat": 34.8427172,
    "lng": 135.6191799,
    "tel": "072-676-2830",
    "url": "http://demaruen-takatsuki.com",
    "pref": "大阪府",
    "city": "高槻市",
    "category": "tokuyou",
    "serviceType": "介護老人福祉施設",
    "capacity": 0,
    "openDays": [],
    "openDaysNote": ""
  },
  {
    "id": "2779500210",
    "name": "特別養護老人ホーム　玉井泉陽園",
    "kana": "トクベツヨウゴロウジンホーム　タマイセンヨウエン",
    "address": "大阪府阪南市下出371番地の1",
    "lat": 34.3595390980507,
    "lng": 135.249115695107,
    "tel": "072-473-0001",
    "url": "http://senyoen.jp",
    "pref": "大阪府",
    "city": "阪南市",
    "category": "tokuyou",
    "serviceType": "介護老人福祉施設",
    "capacity": 90,
    "openDays": [],
    "openDaysNote": ""
  },
  {
    "id": "2779500202",
    "name": "特別養護老人ホーム玉田山荘",
    "kana": "トクベツヨウゴロウジンホーム　タマダヤマソウ",
    "address": "大阪府阪南市石田738番地の4",
    "lat": 34.3426573051797,
    "lng": 135.248486347202,
    "tel": "072-473-2222",
    "url": "http://www.tamadayama.or.jp",
    "pref": "大阪府",
    "city": "阪南市",
    "category": "tokuyou",
    "serviceType": "介護老人福祉施設",
    "capacity": 0,
    "openDays": [],
    "openDaysNote": ""
  },
  {
    "id": "2776002558",
    "name": "松屋茶論",
    "kana": "マツヤサロン",
    "address": "大阪府堺市堺区松屋大和川通1丁13番1松屋茶論 松屋茶論",
    "lat": 34.5993703,
    "lng": 135.4701513,
    "tel": "072-227-8220",
    "url": "http://www.misasakai.or.jp/shisetsu/matsuyasalon.php",
    "pref": "大阪府",
    "city": "堺市堺区",
    "category": "tokuyou",
    "serviceType": "介護老人福祉施設",
    "capacity": 0,
    "openDays": [],
    "openDaysNote": ""
  },
  {
    "id": "2770102826",
    "name": "特別養護老人ホーム　グレース堺",
    "kana": "トクベツヨウゴロウジンホーム　グレースサカイ",
    "address": "大阪府堺市堺区京町通1-21",
    "lat": 34.5680844,
    "lng": 135.4720405,
    "tel": "072-232-0007",
    "url": "http://gracesakai.or.jp/",
    "pref": "大阪府",
    "city": "堺市堺区",
    "category": "tokuyou",
    "serviceType": "介護老人福祉施設",
    "capacity": 80,
    "openDays": [],
    "openDaysNote": ""
  },
  {
    "id": "2770101109",
    "name": "特別養護老人ホーム　ハートピア堺",
    "kana": "トクベツヨウゴロウジンホーム　ハートピアサカイ",
    "address": "堺市堺区海山町３－１５０－１",
    "lat": 34.5897185,
    "lng": 135.472979,
    "tel": "072-222-8080",
    "url": "http://www.heartpia-sakai.or.jp/",
    "pref": "大阪府",
    "city": "堺市堺区",
    "category": "tokuyou",
    "serviceType": "介護老人福祉施設",
    "capacity": 84,
    "openDays": [],
    "openDaysNote": ""
  },
  {
    "id": "2770104814",
    "name": "特別養護老人ホームアル・ソーレ",
    "kana": "トクベツヨウゴロウジンホーム　アル・ソーレ",
    "address": "堺市堺区甲斐町西２丁１－１５",
    "lat": 34.5784723,
    "lng": 135.4722209,
    "tel": "072-222-2262",
    "url": "http://www.alsole.or.jp/",
    "pref": "大阪府",
    "city": "堺市堺区",
    "category": "tokuyou",
    "serviceType": "介護老人福祉施設",
    "capacity": 50,
    "openDays": [],
    "openDaysNote": ""
  },
  {
    "id": "2770102677",
    "name": "特別養護老人ホームかーさ・びあんか",
    "kana": "トクベツヨウゴロウジンホームカーサ・ビアンカ",
    "address": "堺市堺区今池町４丁４番８号",
    "lat": 34.5846945,
    "lng": 135.4923497,
    "tel": "072-229-6266",
    "url": "http://www.asakayama-kinenkai.or.jp",
    "pref": "大阪府",
    "city": "堺市堺区",
    "category": "tokuyou",
    "serviceType": "介護老人福祉施設",
    "capacity": 0,
    "openDays": [],
    "openDaysNote": ""
  },
  {
    "id": "2770106199",
    "name": "特別養護老人ホームベルライブ",
    "kana": "トクベツヨウゴロウジンホームベルライブ",
    "address": "大阪府堺市堺区南安井町３丁１番１号",
    "lat": 34.5704037,
    "lng": 135.4767207,
    "tel": "072-221-7002",
    "url": "http://www.yujinkai.com",
    "pref": "大阪府",
    "city": "堺市堺区",
    "category": "tokuyou",
    "serviceType": "介護老人福祉施設",
    "capacity": 88,
    "openDays": [],
    "openDaysNote": ""
  },
  {
    "id": "2770101547",
    "name": "特別養護老人ホーム愛らいふ",
    "kana": "トクベツヨウゴロウジンホームアイライフ",
    "address": "大阪府堺市堺区協和町３丁１２８－１１",
    "lat": 34.5640098,
    "lng": 135.4705573,
    "tel": "072-245-3711",
    "url": "http://www.ailife.or.jp/",
    "pref": "大阪府",
    "city": "堺市堺区",
    "category": "tokuyou",
    "serviceType": "介護老人福祉施設",
    "capacity": 0,
    "openDays": [],
    "openDaysNote": ""
  },
  {
    "id": "2776001758",
    "name": "特別養護老人ホーム大仙もずの音",
    "kana": "トクベツヨウゴロウジンホームダイセンモズノネ",
    "address": "大阪府堺市堺区大仙町1-2",
    "lat": 34.5656999360693,
    "lng": 135.481997923804,
    "tel": "072（238）0088",
    "url": "http://www.misasagikai.or.jp/",
    "pref": "大阪府",
    "city": "堺市堺区",
    "category": "tokuyou",
    "serviceType": "介護老人福祉施設",
    "capacity": 80,
    "openDays": [],
    "openDaysNote": ""
  },
  {
    "id": "2776302164",
    "name": "特別養護老人ホーム　アリオン",
    "kana": "トクベツヨウゴロウジンホーム　アリオン",
    "address": "大阪府堺市西区浜寺石津町西1-2-7",
    "lat": 34.5624419060562,
    "lng": 135.454693556483,
    "tel": "072-245-9640",
    "url": "http://windhorse.or.jp/",
    "pref": "大阪府",
    "city": "堺市西区",
    "category": "tokuyou",
    "serviceType": "介護老人福祉施設",
    "capacity": 80,
    "openDays": [],
    "openDaysNote": ""
  },
  {
    "id": "2770101893",
    "name": "特別養護老人ホーム　ハートピア泉北",
    "kana": "トクベツヨウゴロウジンホーム　ハートピアセンボク",
    "address": "大阪府堺市西区太平寺331-1",
    "lat": 34.5038537663531,
    "lng": 135.478951793254,
    "tel": "072-297-9598",
    "url": "http://www.sakaifukushikai.jp/",
    "pref": "大阪府",
    "city": "堺市西区",
    "category": "tokuyou",
    "serviceType": "介護老人福祉施設",
    "capacity": 0,
    "openDays": [],
    "openDaysNote": ""
  },
  {
    "id": "2776301257",
    "name": "特別養護老人ホーム　ベルアルプ",
    "kana": "トクベツヨウゴロウジンホーム　ベルアルプ",
    "address": "大阪府堺市西区菱木1丁2343番16",
    "lat": 34.5130157,
    "lng": 135.4776328,
    "tel": "072-349-6710",
    "url": "http://www.yujinkai.com/bellharpe/",
    "pref": "大阪府",
    "city": "堺市西区",
    "category": "tokuyou",
    "serviceType": "介護老人福祉施設",
    "capacity": 80,
    "openDays": [],
    "openDaysNote": ""
  },
  {
    "id": "2776302172",
    "name": "特別養護老人ホーム　マーヤの里　上野芝",
    "kana": "トクベツヨウゴロウジンホーム　マーヤノサト　ウエノシバ",
    "address": "大阪府堺市西区上野芝町5-9-20",
    "lat": 34.5475187,
    "lng": 135.4732798,
    "tel": "072-275-5188",
    "url": "http://ma-ya.org",
    "pref": "大阪府",
    "city": "堺市西区",
    "category": "tokuyou",
    "serviceType": "介護老人福祉施設",
    "capacity": 0,
    "openDays": [],
    "openDaysNote": ""
  },
  {
    "id": "2770103147",
    "name": "特別養護老人ホーム　朗友サロン",
    "kana": "トクベツヨウゴロウジンホーム　ロウユウサロン",
    "address": "堺市西区草部743番地",
    "lat": 34.5197538,
    "lng": 135.4716248,
    "tel": "072-271-7611",
    "url": "http://www.otorifukusikai.or.jp/",
    "pref": "大阪府",
    "city": "堺市西区",
    "category": "tokuyou",
    "serviceType": "介護老人福祉施設",
    "capacity": 0,
    "openDays": [],
    "openDaysNote": ""
  },
  {
    "id": "2770101745",
    "name": "特別養護老人ホーム　朗友館",
    "kana": "トクベツヨウゴロウジンホーム　　ロウユウカン",
    "address": "大阪府堺市西区鳳東町6丁659番地１",
    "lat": 34.5374899925492,
    "lng": 135.464530037578,
    "tel": "072-275-1555",
    "url": "http://www.otorifukushikai.or.jp/",
    "pref": "大阪府",
    "city": "堺市西区",
    "category": "tokuyou",
    "serviceType": "介護老人福祉施設",
    "capacity": 0,
    "openDays": [],
    "openDaysNote": ""
  },
  {
    "id": "2776300564",
    "name": "特別養護老人ホームパルハウスくさべ",
    "kana": "トクベツヨウゴロウジンホームパルハウスクサベ",
    "address": "大阪府堺市西区草部1417",
    "lat": 34.5155486,
    "lng": 135.4632035,
    "tel": "072-275-0111",
    "url": "https://www.wafukai.net/",
    "pref": "大阪府",
    "city": "堺市西区",
    "category": "tokuyou",
    "serviceType": "介護老人福祉施設",
    "capacity": 0,
    "openDays": [],
    "openDaysNote": ""
  },
  {
    "id": "2776104149",
    "name": "特別養護老人ホーム　あいする久世",
    "kana": "トクベツヨウゴロウジンホーム　アイスルクゼ",
    "address": "大阪府堺市中区平井６７５番地1",
    "lat": 34.5164892569954,
    "lng": 135.493654026289,
    "tel": "072-268-5111",
    "url": "http://www.houseikai.net/",
    "pref": "大阪府",
    "city": "堺市中区",
    "category": "tokuyou",
    "serviceType": "介護老人福祉施設",
    "capacity": null,
    "openDays": [],
    "openDaysNote": ""
  },
  {
    "id": "2770104236",
    "name": "特別養護老人ホーム　クレーネ堺",
    "kana": "トクベツヨウゴロウジンホーム　クレーネサカイ",
    "address": "堺市中区福田339-2",
    "lat": 34.5186131,
    "lng": 135.5262088,
    "tel": "072-230-5288",
    "url": "https://care-net.biz/27/kurene/",
    "pref": "大阪府",
    "city": "堺市中区",
    "category": "tokuyou",
    "serviceType": "介護老人福祉施設",
    "capacity": 70,
    "openDays": [],
    "openDaysNote": ""
  },
  {
    "id": "2770101794",
    "name": "特別養護老人ホーム　ベルファミリア",
    "kana": "トクベツヨウゴロウジンホーム　ベルファミリア",
    "address": "大阪府堺市中区東山841番地1",
    "lat": 34.5170741,
    "lng": 135.5067356,
    "tel": "072-234-2005",
    "url": "http://www.yujinkai.com",
    "pref": "大阪府",
    "city": "堺市中区",
    "category": "tokuyou",
    "serviceType": "介護老人福祉施設",
    "capacity": 0,
    "openDays": [],
    "openDaysNote": ""
  },
  {
    "id": "2776103588",
    "name": "特別養護老人ホーム　マーヤの里　鈴の宮",
    "kana": "トクベツヨウゴロウジンホーム　マーヤノサト　スズノミヤ",
    "address": "大阪府堺市中区毛穴町294-1",
    "lat": 34.5282541,
    "lng": 135.4743781,
    "tel": "072-349-8166",
    "url": "http://ma-ya.org",
    "pref": "大阪府",
    "city": "堺市中区",
    "category": "tokuyou",
    "serviceType": "介護老人福祉施設",
    "capacity": 0,
    "openDays": [],
    "openDaysNote": ""
  },
  {
    "id": "2770101240",
    "name": "特別養護老人ホームふれ愛の家",
    "kana": "トクベツヨウゴロウジンホームフレアイノイエ",
    "address": "大阪府堺市中区土塔町2028番地",
    "lat": 34.5343872808672,
    "lng": 135.505430308598,
    "tel": "072-237-1979",
    "url": "https://tokogakuen.com",
    "pref": "大阪府",
    "city": "堺市中区",
    "category": "tokuyou",
    "serviceType": "介護老人福祉施設",
    "capacity": 0,
    "openDays": [],
    "openDaysNote": ""
  },
  {
    "id": "2770102644",
    "name": "特別養護老人ホームやすらぎの園",
    "kana": "トクベツヨウゴロウジンホームヤスラギノソノ",
    "address": "大阪府堺市中区深井畑山町2528番地の1",
    "lat": 34.5244511,
    "lng": 135.5113211,
    "tel": "072-270-7000",
    "url": "http://www.yasuraginosono.jp/",
    "pref": "大阪府",
    "city": "堺市中区",
    "category": "tokuyou",
    "serviceType": "介護老人福祉施設",
    "capacity": 80,
    "openDays": [],
    "openDaysNote": ""
  },
  {
    "id": "2776102242",
    "name": "特別養護老人ホームゆーとりあ",
    "kana": "トクベツヨウゴロウジンホームユートリア",
    "address": "大阪府堺市中区見野山164番地",
    "lat": 34.5030066,
    "lng": 135.5353279,
    "tel": "072-236-8779",
    "url": "http://yutoria.or.jp",
    "pref": "大阪府",
    "city": "堺市中区",
    "category": "tokuyou",
    "serviceType": "介護老人福祉施設",
    "capacity": 80,
    "openDays": [],
    "openDaysNote": ""
  },
  {
    "id": "2770101901",
    "name": "特別養護老人ホーム嘉齢荘",
    "kana": "トクベツヨウゴロウジンホームカレイソウ",
    "address": "大阪府堺市中区伏尾１９６番地",
    "lat": 34.5146879,
    "lng": 135.4924398,
    "tel": "072-278-0205",
    "url": "http://www.fukuseikai.org",
    "pref": "大阪府",
    "city": "堺市中区",
    "category": "tokuyou",
    "serviceType": "介護老人福祉施設",
    "capacity": 0,
    "openDays": [],
    "openDaysNote": ""
  },
  {
    "id": "2776200459",
    "name": "特別養護老人ホーム　くみのき苑ゆらら",
    "kana": "トクベツヨウゴロウジンホーム　クミノキエンユララ",
    "address": "大阪府堺市東区南野田454‐2",
    "lat": 34.5188548218452,
    "lng": 135.546675286508,
    "tel": "０７２－２８９－１１００",
    "url": "http://www.rapport-kuminoki.jp/",
    "pref": "大阪府",
    "city": "堺市東区",
    "category": "tokuyou",
    "serviceType": "介護老人福祉施設",
    "capacity": 80,
    "openDays": [],
    "openDaysNote": ""
  },
  {
    "id": "2770108427",
    "name": "特別養護老人ホーム　ソルメゾン",
    "kana": "トクベツヨウゴロウジンホーム　ソルメゾン",
    "address": "堺市東区菩提町２丁６２番地の１",
    "lat": 34.5503483720062,
    "lng": 135.534237395107,
    "tel": "072-288-2008",
    "url": "http://www.syofuku.or.jp/",
    "pref": "大阪府",
    "city": "堺市東区",
    "category": "tokuyou",
    "serviceType": "介護老人福祉施設",
    "capacity": 80,
    "openDays": [],
    "openDaysNote": ""
  },
  {
    "id": "2770101703",
    "name": "特別養護老人ホーム　つるぎ荘",
    "kana": "トクベツヨウゴロウジンホームツルギソウ",
    "address": "堺市東区日置荘田中町143-1",
    "lat": 34.5332143,
    "lng": 135.5315579,
    "tel": "072-286-2828",
    "url": "http://www.sobikai.or.jp",
    "pref": "大阪府",
    "city": "堺市東区",
    "category": "tokuyou",
    "serviceType": "介護老人福祉施設",
    "capacity": 84,
    "openDays": [],
    "openDaysNote": ""
  },
  {
    "id": "2770101653",
    "name": "特別養護老人ホーム　ハーモニー",
    "kana": "トクベツヨウゴロウジンホーム　ハーモニー",
    "address": "大阪府堺市東区南野田33番地",
    "lat": 34.5226103,
    "lng": 135.5502121,
    "tel": "072-239-0011",
    "url": "http://www.harmony.or.jp",
    "pref": "大阪府",
    "city": "堺市東区",
    "category": "tokuyou",
    "serviceType": "介護老人福祉施設",
    "capacity": 70,
    "openDays": [],
    "openDaysNote": ""
  },
  {
    "id": "2770102800",
    "name": "特別養護老人ホーム・おおみの",
    "kana": "トクベツヨウゴロウジンホーム・オオミノ",
    "address": "大阪府堺市東区西野42番地",
    "lat": 34.5189577,
    "lng": 135.53793,
    "tel": "072-230-0700",
    "url": "http://www.oomino.jp",
    "pref": "大阪府",
    "city": "堺市東区",
    "category": "tokuyou",
    "serviceType": "介護老人福祉施設",
    "capacity": 48,
    "openDays": [],
    "openDaysNote": ""
  },
  {
    "id": "2776201184",
    "name": "特別養護老人ホームくみのき苑しらさぎ",
    "kana": "トクベツヨウゴロウジンホームクミノキエンシラサギ",
    "address": "大阪府堺市東区白鷺町3丁18番17号",
    "lat": 34.54601,
    "lng": 135.5209168,
    "tel": "072-287-7222",
    "url": "http://www.rapport-kuminoki.jp/shirasagi/",
    "pref": "大阪府",
    "city": "堺市東区",
    "category": "tokuyou",
    "serviceType": "介護老人福祉施設",
    "capacity": 80,
    "openDays": [],
    "openDaysNote": ""
  },
  {
    "id": "2770102453",
    "name": "特別養護老人ホーム　泉北園百寿荘",
    "kana": "トクベツヨウゴロウジンホーム　センボクエンヒャクジュソウ",
    "address": "大阪府堺市南区茶山台３－２３－２",
    "lat": 34.4886387,
    "lng": 135.5178962,
    "tel": "072-296-3535",
    "url": "http://www.hyakujusou.or.jp/",
    "pref": "大阪府",
    "city": "堺市南区",
    "category": "tokuyou",
    "serviceType": "介護老人福祉施設",
    "capacity": 50,
    "openDays": [],
    "openDaysNote": ""
  },
  {
    "id": "2770102313",
    "name": "特別養護老人ホーム　年輪",
    "kana": "トクベツヨウゴロウジンホーム　ネンリン",
    "address": "大阪府堺市南区御池台５－２－２",
    "lat": 34.4580571760191,
    "lng": 135.504798576057,
    "tel": "072-293-4800",
    "url": "http://www.s-nenrin.or.jp",
    "pref": "大阪府",
    "city": "堺市南区",
    "category": "tokuyou",
    "serviceType": "介護老人福祉施設",
    "capacity": 100,
    "openDays": [],
    "openDaysNote": ""
  },
  {
    "id": "2770102198",
    "name": "特別養護老人ホーム　美樹の園",
    "kana": "トクベツヨウゴロウジンホーム　ミキノソノ",
    "address": "大阪府堺市南区美木多上１２７７番地１",
    "lat": 34.4607357,
    "lng": 135.493057,
    "tel": "072-296-1222",
    "url": "http://mikinosono.sakura.ne.jp",
    "pref": "大阪府",
    "city": "堺市南区",
    "category": "tokuyou",
    "serviceType": "介護老人福祉施設",
    "capacity": 0,
    "openDays": [],
    "openDaysNote": ""
  },
  {
    "id": "2770101299",
    "name": "特別養護老人ホーム故郷の家",
    "kana": "トクベツヨウゴロウジンホームコキョウノイエ",
    "address": "大阪府堺市南区檜尾３３６０－１２",
    "lat": 34.489921,
    "lng": 135.4673451,
    "tel": "072-271-0881",
    "url": "http://www.kokorono.or.jp",
    "pref": "大阪府",
    "city": "堺市南区",
    "category": "tokuyou",
    "serviceType": "介護老人福祉施設",
    "capacity": 0,
    "openDays": [],
    "openDaysNote": ""
  },
  {
    "id": "2770101166",
    "name": "特別養護老人ホーム槇塚荘",
    "kana": "トクベツヨウゴロウジンホームマキヅカソウ",
    "address": "大阪府堺市南区逆瀬川１０３８－２",
    "lat": 34.4788178,
    "lng": 135.5275175,
    "tel": "072-291-0920",
    "url": "http://www.makiduka.jp",
    "pref": "大阪府",
    "city": "堺市南区",
    "category": "tokuyou",
    "serviceType": "介護老人福祉施設",
    "capacity": 73,
    "openDays": [],
    "openDaysNote": ""
  },
  {
    "id": "2770107205",
    "name": "特別養護老人ホーム　平尾荘",
    "kana": "トクベツヨウゴロウジンホーム　ヒラオソウ",
    "address": "大阪府堺市美原区平尾1938-1",
    "lat": 34.5319207,
    "lng": 135.5748957,
    "tel": "072-363-1555",
    "url": "http://www.tenjukai.or.jp",
    "pref": "大阪府",
    "city": "堺市美原区",
    "category": "tokuyou",
    "serviceType": "介護老人福祉施設",
    "capacity": 0,
    "openDays": [],
    "openDaysNote": ""
  },
  {
    "id": "2770107304",
    "name": "特別養護老人ホーム美原荘",
    "kana": "トクベツヨウゴロウジンホームミハラソウ",
    "address": "大阪府堺市美原区平尾595番1号",
    "lat": 34.5286849,
    "lng": 135.5699657,
    "tel": "072-362-3491",
    "url": "http://miharasou-group.net/mihara/",
    "pref": "大阪府",
    "city": "堺市美原区",
    "category": "tokuyou",
    "serviceType": "介護老人福祉施設",
    "capacity": 0,
    "openDays": [],
    "openDaysNote": ""
  },
  {
    "id": "2770102669",
    "name": "ハピネス金岡",
    "kana": "ハピネスカナオカ",
    "address": "堺市北区金岡町2725番",
    "lat": 34.5561342,
    "lng": 135.525244,
    "tel": "072-251-0222",
    "url": "http://osakafukushikai.or.jp/tokuyo",
    "pref": "大阪府",
    "city": "堺市北区",
    "category": "tokuyou",
    "serviceType": "介護老人福祉施設",
    "capacity": 0,
    "openDays": [],
    "openDaysNote": ""
  },
  {
    "id": "2770102529",
    "name": "特別養護老人ホーム　あけぼの苑",
    "kana": "トクベツヨウゴロウジンホーム　アケボノエン",
    "address": "大阪府堺市北区野遠町３４４－１",
    "lat": 34.5654889,
    "lng": 135.539815,
    "tel": "072-257-2277",
    "url": "http://www.akatsuki.or.jp",
    "pref": "大阪府",
    "city": "堺市北区",
    "category": "tokuyou",
    "serviceType": "介護老人福祉施設",
    "capacity": 0,
    "openDays": [],
    "openDaysNote": ""
  },
  {
    "id": "2770107619",
    "name": "特別養護老人ホーム　グリーンハウス",
    "kana": "トクベツヨウゴロウジンホーム　グリーンハウス",
    "address": "大阪府堺市北区百舌鳥本町三丁430番地2",
    "lat": 34.5524478,
    "lng": 135.4869146,
    "tel": "072-255-1658",
    "url": "http://www.sakura-kai.or.jp",
    "pref": "大阪府",
    "city": "堺市北区",
    "category": "tokuyou",
    "serviceType": "介護老人福祉施設",
    "capacity": 80,
    "openDays": [],
    "openDaysNote": ""
  },
  {
    "id": "2776503134",
    "name": "特別養護老人ホーム　朱雀",
    "kana": "トクベツヨウゴロウジンホームスザク",
    "address": "大阪府堺市北区中長尾町1-2-12",
    "lat": 34.5730201807074,
    "lng": 135.498067498449,
    "tel": "072-250-1115",
    "url": "http://www.alsole.or.jp/",
    "pref": "大阪府",
    "city": "堺市北区",
    "category": "tokuyou",
    "serviceType": "介護老人福祉施設",
    "capacity": null,
    "openDays": [],
    "openDaysNote": ""
  },
  {
    "id": "2776503506",
    "name": "特別養護老人ホーム　梢，よろこび園",
    "kana": "トクベツヨウゴロウジンホームコズエヨロコビエン",
    "address": "大阪府堺市北区中村町３６７番地３",
    "lat": 34.5621628060683,
    "lng": 135.536504651543,
    "tel": "072-246-3987",
    "url": "https://kankikai.jp",
    "pref": "大阪府",
    "city": "堺市北区",
    "category": "tokuyou",
    "serviceType": "介護老人福祉施設",
    "capacity": 0,
    "openDays": [],
    "openDaysNote": ""
  },
  {
    "id": "2770102628",
    "name": "特別養護老人ホーム　陵東館",
    "kana": "トクベツヨウゴロウジンホウム　リョウトウカン",
    "address": "大阪府堺市北区長曽根町１２１０番地の１",
    "lat": 34.5662023,
    "lng": 135.5080622,
    "tel": "072-252-6000",
    "url": "https://kansaifukushikai.or.jp",
    "pref": "大阪府",
    "city": "堺市北区",
    "category": "tokuyou",
    "serviceType": "介護老人福祉施設",
    "capacity": 0,
    "openDays": [],
    "openDaysNote": ""
  },
  {
    "id": "2775700160",
    "name": "特別養護老人ホーム　田原荘",
    "kana": "トクベツヨウゴロウジンホーム　タワラソウ",
    "address": "大阪府四條畷市上田原597番地",
    "lat": 34.7224983,
    "lng": 135.6966585,
    "tel": "0743-79-2525",
    "url": "http://www.wakoucai.or.jp/taharasou/",
    "pref": "大阪府",
    "city": "四條畷市",
    "category": "tokuyou",
    "serviceType": "介護老人福祉施設",
    "capacity": 49,
    "openDays": [],
    "openDaysNote": ""
  },
  {
    "id": "2775700194",
    "name": "特別養護老人ホームるうてるホーム",
    "kana": "トクベツヨウゴロウジンホームルウテルホーム",
    "address": "大阪府四條畷市岡山五丁目１９番２０号",
    "lat": 34.7479758448898,
    "lng": 135.637861855559,
    "tel": "072-878-9373",
    "url": "https://www.ruuteruhome.or.jp",
    "pref": "大阪府",
    "city": "四條畷市",
    "category": "tokuyou",
    "serviceType": "介護老人福祉施設",
    "capacity": 0,
    "openDays": [],
    "openDaysNote": ""
  },
  {
    "id": "2775700269",
    "name": "特別養護老人ホーム四條畷荘",
    "kana": "トクベツヨウゴロウジンホームシジョウナワテソウ",
    "address": "四條畷市北出町28番1号",
    "lat": 34.736477,
    "lng": 135.6301616,
    "tel": "072-878-2651",
    "url": "https://4jou.jp/",
    "pref": "大阪府",
    "city": "四條畷市",
    "category": "tokuyou",
    "serviceType": "介護老人福祉施設",
    "capacity": 0,
    "openDays": [],
    "openDaysNote": ""
  },
  {
    "id": "2775700392",
    "name": "特別養護老人ホーム清滝らくらく苑",
    "kana": "トクベツヨウゴロウジンホームキヨタキラクラクエン",
    "address": "大阪府四條畷市清滝中町1-3",
    "lat": 34.7386101,
    "lng": 135.651468,
    "tel": "072-876-3611",
    "url": "http://www.sanrokukai.com/",
    "pref": "大阪府",
    "city": "四條畷市",
    "category": "tokuyou",
    "serviceType": "介護老人福祉施設",
    "capacity": 50,
    "openDays": [],
    "openDaysNote": ""
  },
  {
    "id": "2773201872",
    "name": "特別養護老人ホーム　なずな園",
    "kana": "トクベツヨウゴロウジンホーム　ナズナエン",
    "address": "大阪府守口市八雲北町2丁目26番1号",
    "lat": 34.75126,
    "lng": 135.5627145,
    "tel": "06-6997-7270",
    "url": "http://hakuseikai.jp",
    "pref": "大阪府",
    "city": "守口市",
    "category": "tokuyou",
    "serviceType": "介護老人福祉施設",
    "capacity": 0,
    "openDays": [],
    "openDaysNote": ""
  },
  {
    "id": "2773200718",
    "name": "特別養護老人ホーム　フローラル",
    "kana": "トクベツヨウゴロウジンホーム　フローラル",
    "address": "大阪府守口市大日町1-11-11",
    "lat": 34.75266,
    "lng": 135.5753605,
    "tel": "06-6907-1371",
    "url": "http://www.floral.or.jp/",
    "pref": "大阪府",
    "city": "守口市",
    "category": "tokuyou",
    "serviceType": "介護老人福祉施設",
    "capacity": 0,
    "openDays": [],
    "openDaysNote": ""
  },
  {
    "id": "2773200395",
    "name": "特別養護老人ホームすずしろ園",
    "kana": "トクベツヨウゴロウジンホームスズシロエン",
    "address": "守口市南寺方東通１－１３－１６",
    "lat": 34.717203,
    "lng": 135.5696815,
    "tel": "06-6992-7722",
    "url": "http://www.hakuseikai.jp",
    "pref": "大阪府",
    "city": "守口市",
    "category": "tokuyou",
    "serviceType": "介護老人福祉施設",
    "capacity": 60,
    "openDays": [],
    "openDaysNote": ""
  },
  {
    "id": "2773200296",
    "name": "特別養護老人ホームたかせ若葉苑",
    "kana": "トクベツヨウゴロウジンホームタカセワカバエン",
    "address": "守口市高瀬町５－８－１６",
    "lat": 34.72458,
    "lng": 135.5656122,
    "tel": "06-6994-7560",
    "url": "",
    "pref": "大阪府",
    "city": "守口市",
    "category": "tokuyou",
    "serviceType": "介護老人福祉施設",
    "capacity": 30,
    "openDays": [],
    "openDaysNote": ""
  },
  {
    "id": "2773200338",
    "name": "特別養護老人ホーム守口荘",
    "kana": "トクベツヨウゴロウジンホームモリグチソウ",
    "address": "大阪府守口市八雲中町三丁目13番17号",
    "lat": 34.7473467,
    "lng": 135.5707694,
    "tel": "06-6906-0554",
    "url": "https://shirayuri-net.jp/",
    "pref": "大阪府",
    "city": "守口市",
    "category": "tokuyou",
    "serviceType": "介護老人福祉施設",
    "capacity": 0,
    "openDays": [],
    "openDaysNote": ""
  },
  {
    "id": "2773202557",
    "name": "特別養護老人ホーム鶴見緑地苑",
    "kana": "トクベツヨウゴロウジンホームツルミリョクチエン",
    "address": "大阪府守口市菊水通3丁目16番2号",
    "lat": 34.7292546,
    "lng": 135.5783304,
    "tel": "06-6995-5005",
    "url": "https://www.seisuikai.net/",
    "pref": "大阪府",
    "city": "守口市",
    "category": "tokuyou",
    "serviceType": "介護老人福祉施設",
    "capacity": 87,
    "openDays": [],
    "openDaysNote": ""
  },
  {
    "id": "2773200593",
    "name": "特別養護老人ホーム梅香苑",
    "kana": "トクベツヨウゴロウジンホームバイコウエン",
    "address": "大阪府守口市佐太中町６丁目４１番１９号",
    "lat": 34.761909,
    "lng": 135.5882535,
    "tel": "06-6900-5054",
    "url": "http://www.bikouen.or.jp",
    "pref": "大阪府",
    "city": "守口市",
    "category": "tokuyou",
    "serviceType": "介護老人福祉施設",
    "capacity": 60,
    "openDays": [],
    "openDaysNote": ""
  },
  {
    "id": "2774800243",
    "name": "大阪老人ホーム",
    "kana": "オオサカロウジンホーム",
    "address": "大阪府松原市阿保3－14－22",
    "lat": 34.5795567,
    "lng": 135.5542527,
    "tel": "072-331-4164",
    "url": "http://www.shoutokukai.net/",
    "pref": "大阪府",
    "city": "松原市",
    "category": "tokuyou",
    "serviceType": "介護老人福祉施設",
    "capacity": 96,
    "openDays": [],
    "openDaysNote": ""
  },
  {
    "id": "2774801415",
    "name": "大阪老人ホームうえだ",
    "kana": "オオサカロウジンホームウエダ",
    "address": "松原市上田８－１１－１１",
    "lat": 34.571005,
    "lng": 135.5621245,
    "tel": "072-339-1661",
    "url": "http://www.shoutokukai.net",
    "pref": "大阪府",
    "city": "松原市",
    "category": "tokuyou",
    "serviceType": "介護老人福祉施設",
    "capacity": 88,
    "openDays": [],
    "openDaysNote": ""
  },
  {
    "id": "2774800219",
    "name": "特別養護老人ホーム　遊づる",
    "kana": "トクベツヨウゴロウジンホームユウヅル",
    "address": "大阪府松原市岡１丁目１８４－１",
    "lat": 34.5631698,
    "lng": 135.5516504,
    "tel": "072-335-0110",
    "url": "http://www.akatsuki.or.jp/",
    "pref": "大阪府",
    "city": "松原市",
    "category": "tokuyou",
    "serviceType": "介護老人福祉施設",
    "capacity": 60,
    "openDays": [],
    "openDaysNote": ""
  },
  {
    "id": "2774800706",
    "name": "特別養護老人ホーム寿里苑サラ",
    "kana": "トクベツヨウゴロウジンホーム　ジュリエンサラ",
    "address": "松原市丹南4丁目172",
    "lat": 34.5589148,
    "lng": 135.5610663,
    "tel": "072-337-7555",
    "url": "http://www.julien.or.jp/",
    "pref": "大阪府",
    "city": "松原市",
    "category": "tokuyou",
    "serviceType": "介護老人福祉施設",
    "capacity": 0,
    "openDays": [],
    "openDaysNote": ""
  },
  {
    "id": "2770300636",
    "name": "特別養護老人ホーム　いちょう園",
    "kana": "トクベツヨウゴロウジンホーム　イチョウエン",
    "address": "大阪府寝屋川市打上南町１４番１号",
    "lat": 34.7535138,
    "lng": 135.6493316,
    "tel": "072-820-2200",
    "url": "https://ichouen.org/",
    "pref": "大阪府",
    "city": "寝屋川市",
    "category": "tokuyou",
    "serviceType": "介護老人福祉施設",
    "capacity": 0,
    "openDays": [],
    "openDaysNote": ""
  },
  {
    "id": "2770300305",
    "name": "特別養護老人ホーム　かわきた園",
    "kana": "トクベツヨウゴロウジンホーム　カワキタエン",
    "address": "大阪府寝屋川市河北東町18-1",
    "lat": 34.7289139,
    "lng": 135.6319254,
    "tel": "072-823-5100",
    "url": "http://syueikai.jp/tokuyou/",
    "pref": "大阪府",
    "city": "寝屋川市",
    "category": "tokuyou",
    "serviceType": "介護老人福祉施設",
    "capacity": 50,
    "openDays": [],
    "openDaysNote": ""
  },
  {
    "id": "2770300693",
    "name": "特別養護老人ホーム　香西園",
    "kana": "トクベツヨウゴロウジンホーム　コウセイエン",
    "address": "大阪府寝屋川市香里西之町１４番２４号",
    "lat": 34.7892318,
    "lng": 135.627252,
    "tel": "072-833-2610",
    "url": "",
    "pref": "大阪府",
    "city": "寝屋川市",
    "category": "tokuyou",
    "serviceType": "介護老人福祉施設",
    "capacity": 60,
    "openDays": [],
    "openDaysNote": ""
  },
  {
    "id": "2770302244",
    "name": "特別養護老人ホーム　香里寿苑",
    "kana": "トクベツヨウゴロウジンホーム　コウリコトブキエン",
    "address": "大阪府寝屋川市寿町32番20号",
    "lat": 34.7818771,
    "lng": 135.6286716,
    "tel": "072-832-5567",
    "url": "https://kousei-fukushikai.or.jp",
    "pref": "大阪府",
    "city": "寝屋川市",
    "category": "tokuyou",
    "serviceType": "介護老人福祉施設",
    "capacity": 50,
    "openDays": [],
    "openDaysNote": ""
  },
  {
    "id": "2770300727",
    "name": "特別養護老人ホーム　寝屋川石津園",
    "kana": "トクベツヨウゴロウジンホーム　ネヤガワイシヅエン",
    "address": "大阪府寝屋川市石津中町　35番8号",
    "lat": 34.7772776,
    "lng": 135.6209057,
    "tel": "072-839-8080",
    "url": "http://www.ishiduen.net",
    "pref": "大阪府",
    "city": "寝屋川市",
    "category": "tokuyou",
    "serviceType": "介護老人福祉施設",
    "capacity": 0,
    "openDays": [],
    "openDaysNote": ""
  },
  {
    "id": "2770305601",
    "name": "特別養護老人ホームさくら園",
    "kana": "トクベツヨウゴロウジンホームサクラエン",
    "address": "大阪府寝屋川市打上南町14番1-2号",
    "lat": 34.7534177758485,
    "lng": 135.648672176582,
    "tel": "072-820-2234",
    "url": "https://sakuraen-osaka.org",
    "pref": "大阪府",
    "city": "寝屋川市",
    "category": "tokuyou",
    "serviceType": "介護老人福祉施設",
    "capacity": 0,
    "openDays": [],
    "openDaysNote": ""
  },
  {
    "id": "2770302772",
    "name": "特別養護老人ホームロイヤルライフ天寿苑",
    "kana": "トクベツヨウゴロウジンホームロイヤルライフテンジュエン",
    "address": "大阪府寝屋川市御幸東町９番２号",
    "lat": 34.7524385,
    "lng": 135.606691,
    "tel": "072-827-1333",
    "url": "https://tenjyuen.jimdoweb.com",
    "pref": "大阪府",
    "city": "寝屋川市",
    "category": "tokuyou",
    "serviceType": "介護老人福祉施設",
    "capacity": 0,
    "openDays": [],
    "openDaysNote": ""
  },
  {
    "id": "2770304638",
    "name": "特別養護老人ホーム幸楽の里ねや川",
    "kana": "トクベツヨウゴロウジンホーム　コウラクノサトネヤガワ",
    "address": "大阪府寝屋川市葛原二丁目4番31号特別養護老人ホーム幸楽の里ねや川 特別養護老人ホーム幸楽の里ねや川",
    "lat": 34.7713523815236,
    "lng": 135.603215175198,
    "tel": "072-826-4165",
    "url": "http://keieifukushikai.com/",
    "pref": "大阪府",
    "city": "寝屋川市",
    "category": "tokuyou",
    "serviceType": "介護老人福祉施設",
    "capacity": 70,
    "openDays": [],
    "openDaysNote": ""
  },
  {
    "id": "2770300495",
    "name": "特別養護老人ホーム合掌荘",
    "kana": "トクベツヨウゴロウジンホームガッショウソウ",
    "address": "大阪府寝屋川市成田東が丘28番7号",
    "lat": 34.777922944918,
    "lng": 135.646547528528,
    "tel": "072-833-0008",
    "url": "http://www.gassyoukai.com/",
    "pref": "大阪府",
    "city": "寝屋川市",
    "category": "tokuyou",
    "serviceType": "介護老人福祉施設",
    "capacity": 70,
    "openDays": [],
    "openDaysNote": ""
  },
  {
    "id": "2770300701",
    "name": "特別養護老人ホーム寝屋川苑",
    "kana": "トクベツヨウゴエロウジンホームネヤガワエン",
    "address": "大阪府寝屋川市宇谷町１番３６号",
    "lat": 34.7673344,
    "lng": 135.6450593,
    "tel": "072-824-0345",
    "url": "http://www.neyagawaen.com/",
    "pref": "大阪府",
    "city": "寝屋川市",
    "category": "tokuyou",
    "serviceType": "介護老人福祉施設",
    "capacity": 0,
    "openDays": [],
    "openDaysNote": ""
  },
  {
    "id": "2770304562",
    "name": "特別養護老人ホーム東神田の里",
    "kana": "トクベツヨウゴロウジンホームヒガシカミダノサト",
    "address": "大阪府寝屋川市東神田町19番1号",
    "lat": 34.7558633,
    "lng": 135.6135764,
    "tel": "072-839-8000",
    "url": "http://www.iwaki-kai.or.jp/",
    "pref": "大阪府",
    "city": "寝屋川市",
    "category": "tokuyou",
    "serviceType": "介護老人福祉施設",
    "capacity": 70,
    "openDays": [],
    "openDaysNote": ""
  },
  {
    "id": "2770302657",
    "name": "特別養護老人ホーム和の里",
    "kana": "トクベツヨウゴロウジンホームワノサト",
    "address": "大阪府寝屋川市高柳一丁目１番１５号",
    "lat": 34.7650266807426,
    "lng": 135.613041213492,
    "tel": "072-828-0888",
    "url": "http://www.iwaki-kai.or.jp",
    "pref": "大阪府",
    "city": "寝屋川市",
    "category": "tokuyou",
    "serviceType": "介護老人福祉施設",
    "capacity": 80,
    "openDays": [],
    "openDaysNote": ""
  },
  {
    "id": "2771602527",
    "name": "介護老人福祉施設　ちくりんの里",
    "kana": "カイゴロウジンフクシシセツ　チクリンノサト",
    "address": "大阪府吹田市春日　２丁目２５番地１０号",
    "lat": 34.7853016,
    "lng": 135.4935451,
    "tel": "06-6386-7881",
    "url": "http://shunpu.jp/",
    "pref": "大阪府",
    "city": "吹田市",
    "category": "tokuyou",
    "serviceType": "介護老人福祉施設",
    "capacity": 100,
    "openDays": [],
    "openDaysNote": ""
  },
  {
    "id": "2771603418",
    "name": "介護老人福祉施設吹田竜ヶ池ホーム",
    "kana": "カイゴロウジンフクシシセツ　スイタタツガイケホーム",
    "address": "大阪府吹田市原町３丁目２１番２５号",
    "lat": 34.7787005,
    "lng": 135.5262366,
    "tel": "06-6310-7353",
    "url": "https://swc-seikouen.jp/tatsugaike/",
    "pref": "大阪府",
    "city": "吹田市",
    "category": "tokuyou",
    "serviceType": "介護老人福祉施設",
    "capacity": 50,
    "openDays": [],
    "openDaysNote": ""
  },
  {
    "id": "2771600240",
    "name": "社会福祉法人恩賜財団済生会支部大阪府済生会吹田特別養護老人ホーム高寿園",
    "kana": "シャカイフクシホウジンオンシザイダンサイセイカイシブオオサカフサイセイカイスイタトクベツヨウゴロウジンホームコウジュエン",
    "address": "大阪府吹田市山手町１－１－１",
    "lat": 34.7669519872184,
    "lng": 135.514742075749,
    "tel": "06-6389-2751",
    "url": "http://www.suita.saiseikai.or.jp/koujyuen/",
    "pref": "大阪府",
    "city": "吹田市",
    "category": "tokuyou",
    "serviceType": "介護老人福祉施設",
    "capacity": 0,
    "openDays": [],
    "openDaysNote": ""
  },
  {
    "id": "2771600232",
    "name": "吹田特別養護老人ホーム松風園",
    "kana": "スイタトクベツヨウゴロウジンホームショウフウエン",
    "address": "大阪府吹田市川園町１番１号",
    "lat": 34.7612777,
    "lng": 135.5341112,
    "tel": "06-6382-7201",
    "url": "http://www.suita.saiseikai.or.jp/shofuuen/",
    "pref": "大阪府",
    "city": "吹田市",
    "category": "tokuyou",
    "serviceType": "介護老人福祉施設",
    "capacity": 80,
    "openDays": [],
    "openDaysNote": ""
  },
  {
    "id": "2771600588",
    "name": "大阪市立弘済院第２特別養護老人ホーム",
    "kana": "オオサカシリツコウサイインダイニトクベツヨウゴロウジンホーム",
    "address": "大阪府吹田市古江台６－２－１",
    "lat": 34.8068977966007,
    "lng": 135.513219014841,
    "tel": "06-6871-8020",
    "url": "https://www.city.osaka.lg.jp/fukushi/page/0000507393.html",
    "pref": "大阪府",
    "city": "吹田市",
    "category": "tokuyou",
    "serviceType": "介護老人福祉施設",
    "capacity": 0,
    "openDays": [],
    "openDaysNote": ""
  },
  {
    "id": "2771603095",
    "name": "特別養護老人ホーム　あす～る吹田",
    "kana": "トクベツヨウゴロウジンホーム　アス～ルスイタ",
    "address": "大阪府吹田市岸部中２丁目７番１２号",
    "lat": 34.7753231,
    "lng": 135.5326777,
    "tel": "06-6385-7070",
    "url": "http://azul.or.jp",
    "pref": "大阪府",
    "city": "吹田市",
    "category": "tokuyou",
    "serviceType": "介護老人福祉施設",
    "capacity": 140,
    "openDays": [],
    "openDaysNote": ""
  },
  {
    "id": "2771600380",
    "name": "特別養護老人ホーム　エバーグリーン",
    "kana": "トクベツヨウゴロウジンホーム　エバーグリーン",
    "address": "大阪府吹田市江坂町４－２０－１",
    "lat": 34.7706923,
    "lng": 135.4943923,
    "tel": "06-6368-6001",
    "url": "http://www.evergreen.or.jp",
    "pref": "大阪府",
    "city": "吹田市",
    "category": "tokuyou",
    "serviceType": "介護老人福祉施設",
    "capacity": 70,
    "openDays": [],
    "openDaysNote": ""
  },
  {
    "id": "2771602816",
    "name": "特別養護老人ホーム　メルヴェイユ吹田",
    "kana": "トクベツヨウゴロウジンホーム　メルウ゛ェイユスイタ",
    "address": "大阪府吹田市岸部南1-4-24",
    "lat": 34.776248,
    "lng": 135.5444433,
    "tel": "06-6318-4165",
    "url": "http://www.aoyama-med.gr.jp/ontoku-welfare/merveille-suita",
    "pref": "大阪府",
    "city": "吹田市",
    "category": "tokuyou",
    "serviceType": "介護老人福祉施設",
    "capacity": 0,
    "openDays": [],
    "openDaysNote": ""
  },
  {
    "id": "2771600554",
    "name": "特別養護老人ホーム　寿楽荘",
    "kana": "ジュラクソウ",
    "address": "吹田市岸部北４丁目９番３号",
    "lat": 34.7820584,
    "lng": 135.5277754,
    "tel": "06-6337-8400",
    "url": "",
    "pref": "大阪府",
    "city": "吹田市",
    "category": "tokuyou",
    "serviceType": "介護老人福祉施設",
    "capacity": 0,
    "openDays": [],
    "openDaysNote": ""
  },
  {
    "id": "2771600356",
    "name": "特別養護老人ホーム　青藍荘",
    "kana": "トクベツヨウゴロウジンホーム　セイランソウ",
    "address": "大阪府吹田市佐竹台２丁目３番１号",
    "lat": 34.7919709,
    "lng": 135.5144627,
    "tel": "06-6871-2671",
    "url": "http://www.aino-fukushikai.or.jp/",
    "pref": "大阪府",
    "city": "吹田市",
    "category": "tokuyou",
    "serviceType": "介護老人福祉施設",
    "capacity": 50,
    "openDays": [],
    "openDaysNote": ""
  },
  {
    "id": "2771602931",
    "name": "特別養護老人ホーム　緑風会イサベル",
    "kana": "トクベツヨウゴロウジンホーム　リョクフウカイイサベル",
    "address": "大阪府吹田市岸部北５丁目４３番１０号",
    "lat": 34.7864507,
    "lng": 135.5315005,
    "tel": "06-6816-7881",
    "url": "https://www.kenshokai.group",
    "pref": "大阪府",
    "city": "吹田市",
    "category": "tokuyou",
    "serviceType": "介護老人福祉施設",
    "capacity": 70,
    "openDays": [],
    "openDaysNote": ""
  },
  {
    "id": "2771601115",
    "name": "特別養護老人ホームいのこの里",
    "kana": "トクベツヨウゴロウジンホームイノコノサト",
    "address": "大阪府吹田市山田西1-26-27",
    "lat": 34.7904935,
    "lng": 135.5289753,
    "tel": "06-6877-7020",
    "url": "http://www.kobatokai.jp/",
    "pref": "大阪府",
    "city": "吹田市",
    "category": "tokuyou",
    "serviceType": "介護老人福祉施設",
    "capacity": 0,
    "openDays": [],
    "openDaysNote": ""
  },
  {
    "id": "2771600992",
    "name": "特別養護老人ホームハピネスさんあい",
    "kana": "トクベツヨウゴロウジンホームハピネスサンアイ",
    "address": "吹田市幸町22-5",
    "lat": 34.7690655,
    "lng": 135.5354414,
    "tel": "06-4860-8220",
    "url": "http://www.sanaikai-official.com/",
    "pref": "大阪府",
    "city": "吹田市",
    "category": "tokuyou",
    "serviceType": "介護老人福祉施設",
    "capacity": 80,
    "openDays": [],
    "openDaysNote": ""
  },
  {
    "id": "2771607682",
    "name": "特別養護老人ホームみなと弘済園",
    "kana": "トクベツヨウゴロウジンホームミナトコウサイエン",
    "address": "大阪府吹田市古江台6-2-1",
    "lat": 34.8081965,
    "lng": 135.5116809,
    "tel": "06-6871-8018",
    "url": "https://minato-kosaien.jp/",
    "pref": "大阪府",
    "city": "吹田市",
    "category": "tokuyou",
    "serviceType": "介護老人福祉施設",
    "capacity": 270,
    "openDays": [],
    "openDaysNote": ""
  },
  {
    "id": "2771603426",
    "name": "特別養護老人ホームみらい",
    "kana": "トクベツヨウゴロウジンホームミライ",
    "address": "大阪府吹田市山田北５番１３号特別養護老人ホームみらい 特別養護老人ホームみらい",
    "lat": 34.8093523,
    "lng": 135.519026,
    "tel": "06-6878-2233",
    "url": "http://www.mirai-kai.com/",
    "pref": "大阪府",
    "city": "吹田市",
    "category": "tokuyou",
    "serviceType": "介護老人福祉施設",
    "capacity": 0,
    "openDays": [],
    "openDaysNote": ""
  },
  {
    "id": "2771606312",
    "name": "特別養護老人ホーム吹田千寿園",
    "kana": "トクベツヨウゴロウジンホウム　スイタセンジュエン",
    "address": "大阪府吹田市南吹田4-13-36",
    "lat": 34.7492316,
    "lng": 135.5055764,
    "tel": "06-6310-9070",
    "url": "https://moujinkai-grp.com/",
    "pref": "大阪府",
    "city": "吹田市",
    "category": "tokuyou",
    "serviceType": "介護老人福祉施設",
    "capacity": 100,
    "openDays": [],
    "openDaysNote": ""
  },
  {
    "id": "2773700592",
    "name": "介護老人福祉施設　「摂津特養ひかり」",
    "kana": "カイゴロウジンフクシシセツ　セッツトクヨウヒカリ",
    "address": "摂津市鳥飼八防2-7-12",
    "lat": 34.7695632,
    "lng": 135.5733741,
    "tel": "072-650-1300",
    "url": "https://settsu-tokuyou-hikari.jp/",
    "pref": "大阪府",
    "city": "摂津市",
    "category": "tokuyou",
    "serviceType": "介護老人福祉施設",
    "capacity": 0,
    "openDays": [],
    "openDaysNote": ""
  },
  {
    "id": "2773701145",
    "name": "特別養護老人ホームせっつ桜苑",
    "kana": "トクベツヨウゴロウジンホームセッツサクラエン",
    "address": "大阪府摂津市桜町1丁目1番11号せっつ桜苑 せっつ桜苑",
    "lat": 34.7884856,
    "lng": 135.5601697,
    "tel": "072-632-0400",
    "url": "https://swc-seikouen.jp/settsu-sakuraen/",
    "pref": "大阪府",
    "city": "摂津市",
    "category": "tokuyou",
    "serviceType": "介護老人福祉施設",
    "capacity": 54,
    "openDays": [],
    "openDaysNote": ""
  },
  {
    "id": "2773700212",
    "name": "特別養護老人ホームとりかい白鷺園",
    "kana": "トクベツヨウゴロウジンホームトリカイシラサギエン",
    "address": "大阪府摂津市鳥飼中１丁目19番8号",
    "lat": 34.7798598,
    "lng": 135.5914252,
    "tel": "072-654-5094",
    "url": "http://www.shirasagien.com/",
    "pref": "大阪府",
    "city": "摂津市",
    "category": "tokuyou",
    "serviceType": "介護老人福祉施設",
    "capacity": 0,
    "openDays": [],
    "openDaysNote": ""
  },
  {
    "id": "2773700162",
    "name": "特別養護老人ホーム摂津いやし園",
    "kana": "トクベツヨウゴロウジンホームセッツイヤシエン",
    "address": "大阪府摂津市鳥飼下１－１３－７",
    "lat": 34.7766378,
    "lng": 135.5876339,
    "tel": "072-650-3301",
    "url": "https://iyashien.com",
    "pref": "大阪府",
    "city": "摂津市",
    "category": "tokuyou",
    "serviceType": "介護老人福祉施設",
    "capacity": 0,
    "openDays": [],
    "openDaysNote": ""
  },
  {
    "id": "2773500356",
    "name": "特別養護老人ホーム　千早赤阪春の家",
    "kana": "トクベツヨウゴロウジンホーム　チハヤアカサカハルノイエ",
    "address": "大阪府南河内郡千早赤阪村東阪122-1番地",
    "lat": 34.4501708675569,
    "lng": 135.614515739287,
    "tel": "0721-70-2525",
    "url": "http://www.harunoie.net",
    "pref": "大阪府",
    "city": "千早赤阪村",
    "category": "tokuyou",
    "serviceType": "介護老人福祉施設",
    "capacity": 0,
    "openDays": [],
    "openDaysNote": ""
  },
  {
    "id": "2774500884",
    "name": "特別養護老人ホーム　ホライズン",
    "kana": "トクベツヨウゴロウジンホーム　ホライズン",
    "address": "大阪府泉佐野市鶴原1071－1",
    "lat": 34.4177747,
    "lng": 135.3435217,
    "tel": "072-460-0880",
    "url": "http://www.horizon.or.jp",
    "pref": "大阪府",
    "city": "泉佐野市",
    "category": "tokuyou",
    "serviceType": "介護老人福祉施設",
    "capacity": 30,
    "openDays": [],
    "openDaysNote": ""
  },
  {
    "id": "2774500306",
    "name": "特別養護老人ホーム　犬鳴山荘",
    "kana": "トクベツヨウゴロウジンホーム　イヌナキサンソウ",
    "address": "大阪府泉佐野市土丸３８８番地",
    "lat": 34.3725713216402,
    "lng": 135.348992783992,
    "tel": "072-468-0661",
    "url": "http://www.inunaki.or.jp",
    "pref": "大阪府",
    "city": "泉佐野市",
    "category": "tokuyou",
    "serviceType": "介護老人福祉施設",
    "capacity": 0,
    "openDays": [],
    "openDaysNote": ""
  },
  {
    "id": "2774500421",
    "name": "特別養護老人ホーム　泉ヶ丘園",
    "kana": "トクベツヨウゴロウジンホーム　イズミガオカエン",
    "address": "大阪府泉佐野市土丸531",
    "lat": 34.3699279,
    "lng": 135.3469413,
    "tel": "072-467-2160",
    "url": "http://izumigaokaen.or.jp/",
    "pref": "大阪府",
    "city": "泉佐野市",
    "category": "tokuyou",
    "serviceType": "介護老人福祉施設",
    "capacity": 70,
    "openDays": [],
    "openDaysNote": ""
  },
  {
    "id": "2774501007",
    "name": "特別養護老人ホーム　泉ヶ丘園りんくう",
    "kana": "トクベツヨウゴロウジンホーム　イズミガオカエンリンクウ",
    "address": "大阪府泉佐野市りんくう往来南５－１７",
    "lat": 34.4034534,
    "lng": 135.2926342,
    "tel": "072-458-2100",
    "url": "http://izumigaokaen.or.jp",
    "pref": "大阪府",
    "city": "泉佐野市",
    "category": "tokuyou",
    "serviceType": "介護老人福祉施設",
    "capacity": 50,
    "openDays": [],
    "openDaysNote": ""
  },
  {
    "id": "2770600076",
    "name": "特別養護老人ホーム　オズ",
    "kana": "トクベツヨウゴロウジンホーム　オズ",
    "address": "大阪府泉大津市菅原町１０－３３",
    "lat": 34.5066153,
    "lng": 135.4028175,
    "tel": "0725-33-6001",
    "url": "http://www.oz-tokuyo.jp",
    "pref": "大阪府",
    "city": "泉大津市",
    "category": "tokuyou",
    "serviceType": "介護老人福祉施設",
    "capacity": 58,
    "openDays": [],
    "openDaysNote": ""
  },
  {
    "id": "2770600100",
    "name": "特別養護老人ホーム　覚寿園",
    "kana": "トクベツヨウゴロウジンホーム　カクジュエン",
    "address": "大阪府泉大津市曽根町2丁目2番38号",
    "lat": 34.5017548,
    "lng": 135.422552,
    "tel": "0725-33-1000",
    "url": "http://www.kakujuen.or.jp/",
    "pref": "大阪府",
    "city": "泉大津市",
    "category": "tokuyou",
    "serviceType": "介護老人福祉施設",
    "capacity": 0,
    "openDays": [],
    "openDaysNote": ""
  },
  {
    "id": "2770601843",
    "name": "特別養護老人ホーム　美休",
    "kana": "トクベツヨウゴロウジンホーム　ビキュウ",
    "address": "大阪府泉大津市河原町11番6号特別養護老人ホーム　美休 特別養護老人ホーム　美休",
    "lat": 34.5003583928856,
    "lng": 135.390600168123,
    "tel": "0725-22-3622",
    "url": "https://vikyu.jp/",
    "pref": "大阪府",
    "city": "泉大津市",
    "category": "tokuyou",
    "serviceType": "介護老人福祉施設",
    "capacity": 50,
    "openDays": [],
    "openDaysNote": ""
  },
  {
    "id": "2770600597",
    "name": "特別養護老人ホームローズガーデン条南苑",
    "kana": "トクベツヨウゴロウジンホームローズガーデンジョウナンエン",
    "address": "大阪府泉大津市東豊中町2丁目4番26号",
    "lat": 34.4931733,
    "lng": 135.4261891,
    "tel": "0725-40-5800",
    "url": "http://www.toyonaka-fukushikai.com",
    "pref": "大阪府",
    "city": "泉大津市",
    "category": "tokuyou",
    "serviceType": "介護老人福祉施設",
    "capacity": 65,
    "openDays": [],
    "openDaysNote": ""
  },
  {
    "id": "2770600084",
    "name": "特別養護老人ホーム百楽園",
    "kana": "トクベツヨウゴロウジンホームヒャクラクエン",
    "address": "大阪府泉大津市板原町一丁目９番１８号",
    "lat": 34.4905147,
    "lng": 135.4112724,
    "tel": "0725-21-1250",
    "url": "http://www.hyakurakuen.soudancenter.com/",
    "pref": "大阪府",
    "city": "泉大津市",
    "category": "tokuyou",
    "serviceType": "介護老人福祉施設",
    "capacity": 57,
    "openDays": [],
    "openDaysNote": ""
  },
  {
    "id": "2775600337",
    "name": "泉南特別養護老人ホームなでしこりんくう",
    "kana": "センナントクベツヨウゴロウジンホームナデシコリンクウ",
    "address": "大阪府泉南市りんくう南浜3番7",
    "lat": 34.3794086,
    "lng": 135.2646396,
    "tel": "072-480-5120",
    "url": "http://www.saiseikaisennan.jp",
    "pref": "大阪府",
    "city": "泉南市",
    "category": "tokuyou",
    "serviceType": "介護老人福祉施設",
    "capacity": 0,
    "openDays": [],
    "openDaysNote": ""
  },
  {
    "id": "2775600147",
    "name": "特別養護養護老人ホーム　六尾の郷",
    "kana": "トクベツヨウゴロウジンホームムツオノサト",
    "address": "泉南市信達金熊寺130番地",
    "lat": 34.3467157523299,
    "lng": 135.286106651035,
    "tel": "072-480-2850",
    "url": "http://www.chojukai.or.jp",
    "pref": "大阪府",
    "city": "泉南市",
    "category": "tokuyou",
    "serviceType": "介護老人福祉施設",
    "capacity": 0,
    "openDays": [],
    "openDaysNote": ""
  },
  {
    "id": "2775600220",
    "name": "特別養護老人ホームせんわ",
    "kana": "トクベツヨウゴロウジンホームセンワ",
    "address": "大阪府泉南市信達金熊寺530-1",
    "lat": 34.3337007,
    "lng": 135.2920861,
    "tel": "072-483-2022",
    "url": "http://www.senwa.or.jp",
    "pref": "大阪府",
    "city": "泉南市",
    "category": "tokuyou",
    "serviceType": "介護老人福祉施設",
    "capacity": 0,
    "openDays": [],
    "openDaysNote": ""
  },
  {
    "id": "2773500216",
    "name": "特別養護老人ホーム　美野の里",
    "kana": "トクベツヨウゴロウジンホーム　ミノノサト",
    "address": "大阪府南河内郡太子町山田２５５０",
    "lat": 34.5140433,
    "lng": 135.6575354,
    "tel": "0721-98-4165",
    "url": "http://www.minonosato.com",
    "pref": "大阪府",
    "city": "太子町",
    "category": "tokuyou",
    "serviceType": "介護老人福祉施設",
    "capacity": 50,
    "openDays": [],
    "openDaysNote": ""
  },
  {
    "id": "2779300181",
    "name": "特別養護老人ホーム　ファヴォーレ",
    "kana": "トクベツヨウゴロウジンホーム　ファウ”ォーレ",
    "address": "大阪府大阪狭山市大野西５６６－２",
    "lat": 34.4711909,
    "lng": 135.5418079,
    "tel": "072-367-2111",
    "url": "http://kyoyukai.org",
    "pref": "大阪府",
    "city": "大阪狭山市",
    "category": "tokuyou",
    "serviceType": "介護老人福祉施設",
    "capacity": 0,
    "openDays": [],
    "openDaysNote": ""
  },
  {
    "id": "2779300769",
    "name": "特別養護老人ホーム　陽だまりの丘",
    "kana": "トクベツヨウゴロウジンホーム　ヒダマリノオカ",
    "address": "大阪府大阪狭山市大野台１丁目１４番２０号",
    "lat": 34.4828312,
    "lng": 135.5507654,
    "tel": "072-367-2828",
    "url": "http://osakasayamahakuyukai.jp/",
    "pref": "大阪府",
    "city": "大阪狭山市",
    "category": "tokuyou",
    "serviceType": "介護老人福祉施設",
    "capacity": 0,
    "openDays": [],
    "openDaysNote": ""
  },
  {
    "id": "2779300132",
    "name": "特別養護老人ホームくみのき苑",
    "kana": "トクベツヨウゴロウジンホームクミノキエン",
    "address": "大阪狭山市東茱萸木四丁目1977番地",
    "lat": 34.4831562,
    "lng": 135.5571676,
    "tel": "072-368-2772",
    "url": "https://rapport-kuminoki.or.jp/",
    "pref": "大阪府",
    "city": "大阪狭山市",
    "category": "tokuyou",
    "serviceType": "介護老人福祉施設",
    "capacity": 0,
    "openDays": [],
    "openDaysNote": ""
  },
  {
    "id": "2772300345",
    "name": "ふれ愛丸山荘",
    "kana": "フレアイマルヤマソウ",
    "address": "大阪市阿倍野区丸山通１丁目2番8号",
    "lat": 34.6377858,
    "lng": 135.5080218,
    "tel": "06-6655-6611",
    "url": "http://www.freai-m.jp/",
    "pref": "大阪府",
    "city": "大阪市阿倍野区",
    "category": "tokuyou",
    "serviceType": "介護老人福祉施設",
    "capacity": 87,
    "openDays": [],
    "openDaysNote": ""
  },
  {
    "id": "2772300253",
    "name": "特別養護老人ホーム　いくとく",
    "kana": "トクベツヨウゴロウジンホーム　イクトク",
    "address": "大阪府大阪市阿倍野区天王寺町北3-18-16",
    "lat": 34.6429381,
    "lng": 135.5264783,
    "tel": "06-6713-1165",
    "url": "https://ikutokuen.or.jp",
    "pref": "大阪府",
    "city": "大阪市阿倍野区",
    "category": "tokuyou",
    "serviceType": "介護老人福祉施設",
    "capacity": 130,
    "openDays": [],
    "openDaysNote": ""
  },
  {
    "id": "2772303315",
    "name": "特別養護老人ホームミネルヴァあべの",
    "kana": "トクベツヨウゴロウジンホームミネルウ゛ァアベノ",
    "address": "大阪府大阪市阿倍野区昭和町3丁目4番27号",
    "lat": 34.6280342,
    "lng": 135.5162406,
    "tel": "06-6629-1110",
    "url": "http://helenkeller.jp/",
    "pref": "大阪府",
    "city": "大阪市阿倍野区",
    "category": "tokuyou",
    "serviceType": "介護老人福祉施設",
    "capacity": 70,
    "openDays": [],
    "openDaysNote": ""
  },
  {
    "id": "2772300527",
    "name": "特別養護老人ホーム阪和苑",
    "kana": "トクベツヨウゴロウジンホームハンワエン",
    "address": "大阪市阿倍野区松崎町２丁目３番１０号",
    "lat": 34.6442267,
    "lng": 135.5151987,
    "tel": "06-6626-3731",
    "url": "http://tezukayama.or.jp/hanwaen/index.html",
    "pref": "大阪府",
    "city": "大阪市阿倍野区",
    "category": "tokuyou",
    "serviceType": "介護老人福祉施設",
    "capacity": 140,
    "openDays": [],
    "openDaysNote": ""
  },
  {
    "id": "2773103110",
    "name": "社会福祉法人　邦寿会　高殿苑",
    "kana": "シャカイフクシホウジン　ホウジュカイ　タカドノエン",
    "address": "大阪府大阪市旭区高殿５－１０－７",
    "lat": 34.7184490924278,
    "lng": 135.538646294762,
    "tel": "06-6953-8511",
    "url": "http://www.houjukai.jp/takadono/index.html",
    "pref": "大阪府",
    "city": "大阪市旭区",
    "category": "tokuyou",
    "serviceType": "介護老人福祉施設",
    "capacity": null,
    "openDays": [],
    "openDaysNote": ""
  },
  {
    "id": "2773101015",
    "name": "生江特別養護老人ホーム白寿荘",
    "kana": "イクエトクベツヨウゴロウジンホームハクジュソウ",
    "address": "大阪府大阪市旭区生江３－２７－１",
    "lat": 34.7291734,
    "lng": 135.5351508,
    "tel": "06-6925-8910",
    "url": "http://www.liberta.or.jp/index.html",
    "pref": "大阪府",
    "city": "大阪市旭区",
    "category": "tokuyou",
    "serviceType": "介護老人福祉施設",
    "capacity": 0,
    "openDays": [],
    "openDaysNote": ""
  },
  {
    "id": "2773100249",
    "name": "特別養護老人ホーム　　ライフライト",
    "kana": "トクベツヨウゴロウジンホーム　　ライフライト",
    "address": "大阪市旭区赤川2-1-20",
    "lat": 34.7244155,
    "lng": 135.5309123,
    "tel": "06-6924-0030",
    "url": "http://hoshino-kai.com",
    "pref": "大阪府",
    "city": "大阪市旭区",
    "category": "tokuyou",
    "serviceType": "介護老人福祉施設",
    "capacity": 0,
    "openDays": [],
    "openDaysNote": ""
  },
  {
    "id": "2773100314",
    "name": "特別養護老人ホームあいあい",
    "kana": "トクベツヨウゴロウジンホームアイアイ",
    "address": "大阪市旭区赤川１－6－12",
    "lat": 34.7225324,
    "lng": 135.5327677,
    "tel": "06-6926-1122",
    "url": "http://www.aiai-1122.or.jp/",
    "pref": "大阪府",
    "city": "大阪市旭区",
    "category": "tokuyou",
    "serviceType": "介護老人福祉施設",
    "capacity": 0,
    "openDays": [],
    "openDaysNote": ""
  },
  {
    "id": "2773100520",
    "name": "特別養護老人ホームゆうゆう",
    "kana": "トクベツヨウゴロウジンホームユウユウ",
    "address": "大阪府大阪市旭区高殿６－２４－１２",
    "lat": 34.719408,
    "lng": 135.5465612,
    "tel": "06-4254-2221",
    "url": "http://www.aiai-1122.or.jp/yuyu/",
    "pref": "大阪府",
    "city": "大阪市旭区",
    "category": "tokuyou",
    "serviceType": "介護老人福祉施設",
    "capacity": 0,
    "openDays": [],
    "openDaysNote": ""
  },
  {
    "id": "2773101007",
    "name": "特別養護老人ホーム旭さくら苑",
    "kana": "トクベツヨウゴロウジンホームアサヒサクラエン",
    "address": "大阪府大阪市旭区清水三丁目１５番２３号",
    "lat": 34.72298,
    "lng": 135.5589601,
    "tel": "06-6957-8008",
    "url": "http://www.seisuikai.net/",
    "pref": "大阪府",
    "city": "大阪市旭区",
    "category": "tokuyou",
    "serviceType": "介護老人福祉施設",
    "capacity": 120,
    "openDays": [],
    "openDaysNote": ""
  },
  {
    "id": "2770400253",
    "name": "特別養護老人ホーム　ザイオン",
    "kana": "トクベツヨウゴロウジンホーム　ザイオン",
    "address": "大阪市港区市岡１丁目５番３０号",
    "lat": 34.6642513,
    "lng": 135.4621473,
    "tel": "06-4395-8888",
    "url": "http://www.zaion.or.jp",
    "pref": "大阪府",
    "city": "大阪市港区",
    "category": "tokuyou",
    "serviceType": "介護老人福祉施設",
    "capacity": 106,
    "openDays": [],
    "openDaysNote": ""
  },
  {
    "id": "2770401905",
    "name": "特別養護老人ホーム　ザイオン大阪港",
    "kana": "トクベツヨウゴロウジンホーム　ザイオンオオサカコウ",
    "address": "大阪府大阪市港区築港一丁目９番７号",
    "lat": 34.6534157,
    "lng": 135.4363972,
    "tel": "06-6576-8801",
    "url": "http://osakakou.zaion.or.jp/",
    "pref": "大阪府",
    "city": "大阪市港区",
    "category": "tokuyou",
    "serviceType": "介護老人福祉施設",
    "capacity": 0,
    "openDays": [],
    "openDaysNote": ""
  },
  {
    "id": "2770400147",
    "name": "特別養護老人ホーム　愛港園",
    "kana": "トクベツヨウゴロウジンホーム　アイコウエン",
    "address": "大阪府大阪市港区八幡屋４丁目８番１号",
    "lat": 34.6515107,
    "lng": 135.4467963,
    "tel": "06-6571-6231",
    "url": "http://www.aikoen.jp",
    "pref": "大阪府",
    "city": "大阪市港区",
    "category": "tokuyou",
    "serviceType": "介護老人福祉施設",
    "capacity": 0,
    "openDays": [],
    "openDaysNote": ""
  },
  {
    "id": "2770401525",
    "name": "特別養護老人ホーム　平成みなと苑",
    "kana": "トクベツヨウゴロウジンホーム　ヘイセイミナトエン",
    "address": "大阪府大阪市港区弁天２－８－１６",
    "lat": 34.6685857559942,
    "lng": 135.454590747221,
    "tel": "06-7502-0607",
    "url": "http://www.heiseifukushikai.com/",
    "pref": "大阪府",
    "city": "大阪市港区",
    "category": "tokuyou",
    "serviceType": "介護老人福祉施設",
    "capacity": 130,
    "openDays": [],
    "openDaysNote": ""
  },
  {
    "id": "2770400154",
    "name": "特別養護老人ホーム第２愛港園",
    "kana": "トクベツヨウゴロウジンホームダイニアイコウエン",
    "address": "大阪府大阪市港区八幡屋４丁目８番１号",
    "lat": 34.6515107,
    "lng": 135.4467963,
    "tel": "06-6571-5241",
    "url": "http://www.minatoryo.or.jp/",
    "pref": "大阪府",
    "city": "大阪市港区",
    "category": "tokuyou",
    "serviceType": "介護老人福祉施設",
    "capacity": 50,
    "openDays": [],
    "openDaysNote": ""
  },
  {
    "id": "2772800229",
    "name": "ケアセンター水都ホーム",
    "kana": "ケアセンタースイトホーム",
    "address": "大阪府大阪市此花区西九条1-1-2",
    "lat": 34.6833159,
    "lng": 135.469835,
    "tel": "06-6467-2929",
    "url": "http://www.fuyoufukusikai.com/index.html",
    "pref": "大阪府",
    "city": "大阪市此花区",
    "category": "tokuyou",
    "serviceType": "介護老人福祉施設",
    "capacity": 50,
    "openDays": [],
    "openDaysNote": ""
  },
  {
    "id": "2772801367",
    "name": "社会福祉法人緑修会　特別養護老人ホームクローバー",
    "kana": "シャカイフクシホウジンリョクシュウカイ　トクベツヨウゴロウジンホームクローバー",
    "address": "大阪府大阪市此花区高見2-8-1",
    "lat": 34.6892623497565,
    "lng": 135.456378065099,
    "tel": "06-4804-9608",
    "url": "https://www.ryokushukai.jp/",
    "pref": "大阪府",
    "city": "大阪市此花区",
    "category": "tokuyou",
    "serviceType": "介護老人福祉施設",
    "capacity": 0,
    "openDays": [],
    "openDaysNote": ""
  },
  {
    "id": "2772800443",
    "name": "特別養護老人ホーム　ラヴィータウーノ",
    "kana": "トクベツヨウゴロウジンホーム　ラヴィータウーノ",
    "address": "大阪市此花区伝法六丁目５番１２号",
    "lat": 34.6853539,
    "lng": 135.4479841,
    "tel": "06-6463-6546",
    "url": "http://www.lavita-uno.jp",
    "pref": "大阪府",
    "city": "大阪市此花区",
    "category": "tokuyou",
    "serviceType": "介護老人福祉施設",
    "capacity": 0,
    "openDays": [],
    "openDaysNote": ""
  },
  {
    "id": "2772800211",
    "name": "特別養護老人ホームガーデン天使",
    "kana": "トクベツヨウゴロウジンホームガーデンテンシ",
    "address": "大阪府大阪市此花区島屋４丁目１番１１号",
    "lat": 34.674044,
    "lng": 135.4437376,
    "tel": "06-6460-0028",
    "url": "http://garden-tenshi.jp",
    "pref": "大阪府",
    "city": "大阪市此花区",
    "category": "tokuyou",
    "serviceType": "介護老人福祉施設",
    "capacity": 0,
    "openDays": [],
    "openDaysNote": ""
  },
  {
    "id": "2772801169",
    "name": "特別養護老人ホームクレーネ大阪",
    "kana": "トクベツヨウゴロウジンホームクレーネオオサカ",
    "address": "大阪府大阪市此花区春日出北1-22-3",
    "lat": 34.6840924036317,
    "lng": 135.450828569312,
    "tel": "06-6464-9038",
    "url": "http://care-net.biz/27/kurene/",
    "pref": "大阪府",
    "city": "大阪市此花区",
    "category": "tokuyou",
    "serviceType": "介護老人福祉施設",
    "capacity": 0,
    "openDays": [],
    "openDaysNote": ""
  },
  {
    "id": "2772000457",
    "name": "帝塚山特別養護老人ホーム",
    "kana": "テヅカヤマトクベツヨウゴロウジンホーム",
    "address": "大阪府大阪市住吉区帝塚山東2丁目1番35号",
    "lat": 34.6202574,
    "lng": 135.5020893,
    "tel": "06-4701-1121",
    "url": "http://www.tezukayama.or.jp/reifu/index.html",
    "pref": "大阪府",
    "city": "大阪市住吉区",
    "category": "tokuyou",
    "serviceType": "介護老人福祉施設",
    "capacity": 124,
    "openDays": [],
    "openDaysNote": ""
  },
  {
    "id": "2772000242",
    "name": "特別養護老人ホーム　アップリケア・ホーム",
    "kana": "トクベツヨウゴロウジンホーム　アップリケア・ホーム",
    "address": "大阪市住吉区浅香1丁目8番38号",
    "lat": 34.5919412,
    "lng": 135.5108639,
    "tel": "06-6696-1177",
    "url": "http://www.apricare.com/",
    "pref": "大阪府",
    "city": "大阪市住吉区",
    "category": "tokuyou",
    "serviceType": "介護老人福祉施設",
    "capacity": 0,
    "openDays": [],
    "openDaysNote": ""
  },
  {
    "id": "2772000465",
    "name": "特別養護老人ホーム　ウェルネスあびこ",
    "kana": "トクベツヨウゴロウジンホーム　ウェルネスアビコ",
    "address": "大阪市住吉区我孫子西1-2-15",
    "lat": 34.604737,
    "lng": 135.5084055,
    "tel": "06-6608-3000",
    "url": "http://teru.or.jp/wellness-abiko",
    "pref": "大阪府",
    "city": "大阪市住吉区",
    "category": "tokuyou",
    "serviceType": "介護老人福祉施設",
    "capacity": 86,
    "openDays": [],
    "openDaysNote": ""
  },
  {
    "id": "2772001398",
    "name": "特別養護老人ホーム　なごみ",
    "kana": "トクベツヨウゴロウジンホーム　ナゴミ",
    "address": "大阪府大阪市住吉区帝塚山東５丁目１０番１５号",
    "lat": 34.61275,
    "lng": 135.4986121,
    "tel": "06-6676-0753",
    "url": "http://www.lifesupport.or.jp/index.html",
    "pref": "大阪府",
    "city": "大阪市住吉区",
    "category": "tokuyou",
    "serviceType": "介護老人福祉施設",
    "capacity": 30,
    "openDays": [],
    "openDaysNote": ""
  },
  {
    "id": "2772003444",
    "name": "特別養護老人ホーム　阪和帝塚山苑",
    "kana": "トクベツヨウゴロウジンホーム　ハンワテヅカヤマエン",
    "address": "大阪府大阪市住吉区帝塚山東２－１－41",
    "lat": 34.6208545,
    "lng": 135.5026142,
    "tel": "06-4701-1151",
    "url": "http://tezukayama.or.jp/",
    "pref": "大阪府",
    "city": "大阪市住吉区",
    "category": "tokuyou",
    "serviceType": "介護老人福祉施設",
    "capacity": 0,
    "openDays": [],
    "openDaysNote": ""
  },
  {
    "id": "2772005241",
    "name": "特別養護老人ホームあじさい苑大阪住吉",
    "kana": "トクベツヨウゴロウジンホームアジサイエンオオサカスミヨシ",
    "address": "大阪府大阪市住吉区住吉一丁目９番１８号",
    "lat": 34.6122451350532,
    "lng": 135.49620417791,
    "tel": "06-6671-1055",
    "url": "https://koshokai-swc.oe.jo",
    "pref": "大阪府",
    "city": "大阪市住吉区",
    "category": "tokuyou",
    "serviceType": "介護老人福祉施設",
    "capacity": 0,
    "openDays": [],
    "openDaysNote": ""
  },
  {
    "id": "2772000705",
    "name": "特別養護老人ホームさんらく苑",
    "kana": "トクベツヨウゴロウジンホームサンラクエン",
    "address": "大阪府大阪市住吉区苅田5丁目16番10号",
    "lat": 34.6007319,
    "lng": 135.5141355,
    "tel": "06-6606-3100",
    "url": "https://sanrakucare.or.jp/",
    "pref": "大阪府",
    "city": "大阪市住吉区",
    "category": "tokuyou",
    "serviceType": "介護老人福祉施設",
    "capacity": 0,
    "openDays": [],
    "openDaysNote": ""
  },
  {
    "id": "2772002024",
    "name": "特別養護老人ホームゆうけい創和",
    "kana": "トクベツヨウゴロウジンホームユウケイソウワ",
    "address": "大阪府大阪市住吉区遠里小野２丁目７番２０号",
    "lat": 34.5966379,
    "lng": 135.4974681,
    "tel": "06-6609-6815",
    "url": "http://www.yukeikai-web.com/links/",
    "pref": "大阪府",
    "city": "大阪市住吉区",
    "category": "tokuyou",
    "serviceType": "介護老人福祉施設",
    "capacity": 60,
    "openDays": [],
    "openDaysNote": ""
  },
  {
    "id": "2775900323",
    "name": "介護老人福祉施設　グルメ杵屋社会貢献の家",
    "kana": "カイゴロウジンフクシシセツ　グルメキネヤシャカイコウケンノイエ",
    "address": "大阪府大阪市住之江区浜口東2-5-14",
    "lat": 34.6109454418246,
    "lng": 135.487037471758,
    "tel": "06-6671-2500",
    "url": "http://www.gksc.jp/",
    "pref": "大阪府",
    "city": "大阪市住之江区",
    "category": "tokuyou",
    "serviceType": "介護老人福祉施設",
    "capacity": 0,
    "openDays": [],
    "openDaysNote": ""
  },
  {
    "id": "2775900315",
    "name": "特別養護老人ホーム　いわき園",
    "kana": "トクベツヨウゴロウジンホーム　イワキエン",
    "address": "大阪府大阪市住之江区南加賀屋三丁目９番２号",
    "lat": 34.6052974768326,
    "lng": 135.4742008,
    "tel": "06-6683-6655",
    "url": "http://www.iwakigakuen.or.jp/iwakien/",
    "pref": "大阪府",
    "city": "大阪市住之江区",
    "category": "tokuyou",
    "serviceType": "介護老人福祉施設",
    "capacity": 130,
    "openDays": [],
    "openDaysNote": ""
  },
  {
    "id": "2775902204",
    "name": "特別養護老人ホーム　健祥会エンリケ",
    "kana": "トクベツヨウゴロウジンホーム　ケンショウカイエンリケ",
    "address": "大阪府大阪市住之江区南港北二丁目7番48号",
    "lat": 34.6400633,
    "lng": 135.4082891,
    "tel": "06-6616-5555",
    "url": "http://www.kenshokai.group",
    "pref": "大阪府",
    "city": "大阪市住之江区",
    "category": "tokuyou",
    "serviceType": "介護老人福祉施設",
    "capacity": 144,
    "openDays": [],
    "openDaysNote": ""
  },
  {
    "id": "2775902485",
    "name": "特別養護老人ホーム　浜木綿苑",
    "kana": "トクベツヨウゴロウジンホーム　ハマユウエン",
    "address": "大阪府大阪市住之江区南港北１丁目４番地１号",
    "lat": 34.6384033,
    "lng": 135.4251487,
    "tel": "０６－６６１３－７０５３",
    "url": "http://www.tezukayama.or.jp/hamayuen/index.html",
    "pref": "大阪府",
    "city": "大阪市住之江区",
    "category": "tokuyou",
    "serviceType": "介護老人福祉施設",
    "capacity": 0,
    "openDays": [],
    "openDaysNote": ""
  },
  {
    "id": "2775902303",
    "name": "特別養護老人ホーム加賀屋の森",
    "kana": "トクベツヨウゴロウジンホームカガヤノモリ",
    "address": "大阪府大阪市住之江区北加賀屋5丁目4番23号",
    "lat": 34.6222928,
    "lng": 135.474582,
    "tel": "06-6686-5301",
    "url": "https://kenseikaigroup.or.jp/",
    "pref": "大阪府",
    "city": "大阪市住之江区",
    "category": "tokuyou",
    "serviceType": "介護老人福祉施設",
    "capacity": 90,
    "openDays": [],
    "openDaysNote": ""
  },
  {
    "id": "2775900612",
    "name": "南港咲洲特別養護老人ホーム",
    "kana": "ナンコウサキシマトクベツヨウゴロウジンホーム",
    "address": "大阪市住之江区南港中２－１－３５",
    "lat": 34.6293101,
    "lng": 135.4303485,
    "tel": "06-4703-1700",
    "url": "http://www.itokukai.com",
    "pref": "大阪府",
    "city": "大阪市住之江区",
    "category": "tokuyou",
    "serviceType": "介護老人福祉施設",
    "capacity": 140,
    "openDays": [],
    "openDaysNote": ""
  },
  {
    "id": "2774403998",
    "name": "社会福祉法人清水福祉会　特別養護老人ホーム城東さくら苑",
    "kana": "シャカイフクシホウジンシミズフクシカイ　トクベツヨウゴロウジンホームジョウトウサクラエン",
    "address": "大阪府大阪市城東区今福西6-6-20",
    "lat": 34.7033258,
    "lng": 135.5518056,
    "tel": "06-6939-7000",
    "url": "http://www.seisuikai.net",
    "pref": "大阪府",
    "city": "大阪市城東区",
    "category": "tokuyou",
    "serviceType": "介護老人福祉施設",
    "capacity": 0,
    "openDays": [],
    "openDaysNote": ""
  },
  {
    "id": "2774400507",
    "name": "城東特別養護老人ホーム",
    "kana": "ジョウトウトクベツヨウゴロウジンホーム",
    "address": "大阪府大阪市城東区古市1-20-17",
    "lat": 34.7088285,
    "lng": 135.557494,
    "tel": "06-6931-5190",
    "url": "http://joto-tokuyou.com",
    "pref": "大阪府",
    "city": "大阪市城東区",
    "category": "tokuyou",
    "serviceType": "介護老人福祉施設",
    "capacity": 93,
    "openDays": [],
    "openDaysNote": ""
  },
  {
    "id": "2774400390",
    "name": "特別養護老人ホーム　至善荘",
    "kana": "トクベツヨウゴロウジンホーム　シゼンソウ",
    "address": "大阪市城東区蒲生4-2-10",
    "lat": 34.6980573,
    "lng": 135.5439229,
    "tel": "06-6930-7258",
    "url": "http://www.shizenkai.or.jp/",
    "pref": "大阪府",
    "city": "大阪市城東区",
    "category": "tokuyou",
    "serviceType": "介護老人福祉施設",
    "capacity": 0,
    "openDays": [],
    "openDaysNote": ""
  },
  {
    "id": "2774400267",
    "name": "特別養護老人ホームしぎの黄金の里",
    "kana": "トクベツヨウゴロウジンホームシギノコガネノサト",
    "address": "大阪市城東区鴫野東2丁目26番12号",
    "lat": 34.6919136,
    "lng": 135.5485254,
    "tel": "06-6963-5551",
    "url": "http://www.kogane.or.jp",
    "pref": "大阪府",
    "city": "大阪市城東区",
    "category": "tokuyou",
    "serviceType": "介護老人福祉施設",
    "capacity": 0,
    "openDays": [],
    "openDaysNote": ""
  },
  {
    "id": "2774402578",
    "name": "特別養護老人ホーム城東こすもす苑",
    "kana": "トクベツヨウゴロウジンホーム　　ジョウトウコスモスエン",
    "address": "大阪府大阪市城東区蒲生2-2-38",
    "lat": 34.6980971644853,
    "lng": 135.5404703,
    "tel": "06-6933-2002",
    "url": "http://www.seisuikai.net/",
    "pref": "大阪府",
    "city": "大阪市城東区",
    "category": "tokuyou",
    "serviceType": "介護老人福祉施設",
    "capacity": 0,
    "openDays": [],
    "openDaysNote": ""
  },
  {
    "id": "2774404269",
    "name": "特別養護老人ホーム平成森之宮苑",
    "kana": "トクベツヨウゴロウジンホームヘイセイモリノミヤエン",
    "address": "大阪府大阪市城東区森之宮２－１－４９",
    "lat": 34.6849220925425,
    "lng": 135.539361497028,
    "tel": "06-6167-7410",
    "url": "http://www.heiseifukushikai.com/facility/facility/morinomiya/",
    "pref": "大阪府",
    "city": "大阪市城東区",
    "category": "tokuyou",
    "serviceType": "介護老人福祉施設",
    "capacity": null,
    "openDays": [],
    "openDaysNote": ""
  },
  {
    "id": "2774400192",
    "name": "野江特別養護老人ホーム　城東園",
    "kana": "ノエトクベツヨウゴロウジンホームジョウトウエン",
    "address": "大阪府大阪市城東区今福東２丁目２番２５号",
    "lat": 34.7033762,
    "lng": 135.5550777,
    "tel": "06-6931-3825",
    "url": "http://www.noe.saiseikai.or.jp/jotoen/index.html",
    "pref": "大阪府",
    "city": "大阪市城東区",
    "category": "tokuyou",
    "serviceType": "介護老人福祉施設",
    "capacity": 0,
    "openDays": [],
    "openDaysNote": ""
  },
  {
    "id": "2772200461",
    "name": "インパレスみのり苑",
    "kana": "インパレスミノリエン",
    "address": "大阪府大阪市生野区巽中３丁目１４番３号",
    "lat": 34.647655,
    "lng": 135.5517648,
    "tel": "06-6756-5200",
    "url": "http://www.minori-en.com/",
    "pref": "大阪府",
    "city": "大阪市生野区",
    "category": "tokuyou",
    "serviceType": "介護老人福祉施設",
    "capacity": 94,
    "openDays": [],
    "openDaysNote": ""
  },
  {
    "id": "2772200420",
    "name": "社会福祉法人　慶生会　特別養護老人ホーム　瑞光苑",
    "kana": "ケイセイカイ　ズイコウエン",
    "address": "大阪市生野区巽東4丁目11番10号特別養護老人ホーム　　瑞光苑 特別養護老人ホーム　　瑞光苑",
    "lat": 34.645797,
    "lng": 135.5579532,
    "tel": "06-6758-0088",
    "url": "http://www.zuikouen.or.jp",
    "pref": "大阪府",
    "city": "大阪市生野区",
    "category": "tokuyou",
    "serviceType": "介護老人福祉施設",
    "capacity": 0,
    "openDays": [],
    "openDaysNote": ""
  },
  {
    "id": "2772207185",
    "name": "上本町特別養護老人ホームラガール",
    "kana": "ウエホンマチトクベツヨウゴロウジンホウムラガアル",
    "address": "大阪府大阪市生野区鶴橋一丁目9番34号",
    "lat": 34.6626493,
    "lng": 135.5304577,
    "tel": "06ｰ6777ｰ8033",
    "url": "http://uehonmachi.koudoukai.or.jp/",
    "pref": "大阪府",
    "city": "大阪市生野区",
    "category": "tokuyou",
    "serviceType": "介護老人福祉施設",
    "capacity": null,
    "openDays": [],
    "openDaysNote": ""
  },
  {
    "id": "2772200321",
    "name": "特別養護老人ホーム　サン・アクエリア",
    "kana": "トクベツヨウゴロウジンホーム　サン・アクエリア",
    "address": "大阪府大阪市生野区新今里4-11-17",
    "lat": 34.6624726,
    "lng": 135.548884,
    "tel": "06-6755-1165",
    "url": "http://www.sun-aquaria.com/",
    "pref": "大阪府",
    "city": "大阪市生野区",
    "category": "tokuyou",
    "serviceType": "介護老人福祉施設",
    "capacity": 50,
    "openDays": [],
    "openDaysNote": ""
  },
  {
    "id": "2772204851",
    "name": "特別養護老人ホーム　せんぽ",
    "kana": "トクベツヨウゴロウジンホーム　センポ",
    "address": "大阪市生野区巽北一丁目14番3号",
    "lat": 34.6561621,
    "lng": 135.5442624,
    "tel": "06-4306-1000",
    "url": "http://senpokai.org/",
    "pref": "大阪府",
    "city": "大阪市生野区",
    "category": "tokuyou",
    "serviceType": "介護老人福祉施設",
    "capacity": 0,
    "openDays": [],
    "openDaysNote": ""
  },
  {
    "id": "2772200685",
    "name": "特別養護老人ホーム　レインボー今里",
    "kana": "トクベツヨウゴロウジンホーム　レインボーイマザト",
    "address": "大阪府大阪市生野区中川１－６－２０",
    "lat": 34.6624835,
    "lng": 135.542479,
    "tel": "06-6755-6700",
    "url": "https://gogroup.jp/",
    "pref": "大阪府",
    "city": "大阪市生野区",
    "category": "tokuyou",
    "serviceType": "介護老人福祉施設",
    "capacity": 80,
    "openDays": [],
    "openDaysNote": ""
  },
  {
    "id": "2772202442",
    "name": "特別養護老人ホーム　寿幸苑",
    "kana": "トクベツヨウゴロウジンホームジュコウエン",
    "address": "大阪府大阪市生野区林寺４丁目１３番１４号",
    "lat": 34.641608,
    "lng": 135.5349859,
    "tel": "06-6714-2221",
    "url": "http://www.jukouen.com",
    "pref": "大阪府",
    "city": "大阪市生野区",
    "category": "tokuyou",
    "serviceType": "介護老人福祉施設",
    "capacity": 0,
    "openDays": [],
    "openDaysNote": ""
  },
  {
    "id": "2772200495",
    "name": "特別養護老人ホーム　甍",
    "kana": "トクベツヨウゴロウジンホーム　イラカ",
    "address": "大阪市生野区巽南3丁目7番30号",
    "lat": 34.6421973,
    "lng": 135.5499929,
    "tel": "06-6752-1339",
    "url": "http://sansyukai.jp",
    "pref": "大阪府",
    "city": "大阪市生野区",
    "category": "tokuyou",
    "serviceType": "介護老人福祉施設",
    "capacity": 98,
    "openDays": [],
    "openDaysNote": ""
  },
  {
    "id": "2772200479",
    "name": "特別養護老人ホームあじさいの里",
    "kana": "トクベツヨウゴロウジンホームアジサイノサト",
    "address": "大阪府大阪市生野区勝山北3-13-20",
    "lat": 34.6546926,
    "lng": 135.5339306,
    "tel": "06-6716-1199",
    "url": "https://www.fukushi-aiseikai.or.jp/",
    "pref": "大阪府",
    "city": "大阪市生野区",
    "category": "tokuyou",
    "serviceType": "介護老人福祉施設",
    "capacity": 0,
    "openDays": [],
    "openDaysNote": ""
  },
  {
    "id": "2772201253",
    "name": "特別養護老人ホーム巽さくらら苑",
    "kana": "トクベツヨウゴロウジンホーム　タツミサクララエン",
    "address": "大阪府大阪市生野区巽中１－５－８",
    "lat": 34.6516739,
    "lng": 135.5499787,
    "tel": "06-6753-1147",
    "url": "http://sakuraraen.jp",
    "pref": "大阪府",
    "city": "大阪市生野区",
    "category": "tokuyou",
    "serviceType": "介護老人福祉施設",
    "capacity": 60,
    "openDays": [],
    "openDaysNote": ""
  },
  {
    "id": "2772203887",
    "name": "特別養護老人ホーム夢の箱　勝山",
    "kana": "トクベツヨウゴロウジンホームユメノハコカツヤマ",
    "address": "大阪市生野区勝山南１丁目１７番４３号",
    "lat": 34.6529675,
    "lng": 135.5266446,
    "tel": "06-6712-2220",
    "url": "http://www.yumenohako.info",
    "pref": "大阪府",
    "city": "大阪市生野区",
    "category": "tokuyou",
    "serviceType": "介護老人福祉施設",
    "capacity": 0,
    "openDays": [],
    "openDaysNote": ""
  },
  {
    "id": "2771800188",
    "name": "特別養護老人ホーム　江之子島コスモス苑",
    "kana": "トクベツヨウゴロウジンホーム　エノコジマコスモスエン",
    "address": "大阪市西区江之子島１－８－４４",
    "lat": 34.684119,
    "lng": 135.4842475,
    "tel": "06-6225-2662",
    "url": "https://cosmos-en.tane.or.jp",
    "pref": "大阪府",
    "city": "大阪市西区",
    "category": "tokuyou",
    "serviceType": "介護老人福祉施設",
    "capacity": 0,
    "openDays": [],
    "openDaysNote": ""
  },
  {
    "id": "2771800923",
    "name": "特別養護老人ホームすみれ苑",
    "kana": "トクベツヨウゴロウジンホームスミレエン",
    "address": "大阪府大阪市西区川口3－6－14",
    "lat": 34.6816969,
    "lng": 135.4775121,
    "tel": "06-6585-1660",
    "url": "http://www.sumire-en.jp",
    "pref": "大阪府",
    "city": "大阪市西区",
    "category": "tokuyou",
    "serviceType": "介護老人福祉施設",
    "capacity": 60,
    "openDays": [],
    "openDaysNote": ""
  },
  {
    "id": "2773300245",
    "name": "まちかどホーム　すずらん",
    "kana": "マチカドホーム　スズラン",
    "address": "大阪市西成区出城2丁目４番10号",
    "lat": 34.650526,
    "lng": 135.4909618,
    "tel": "06-6563-6563",
    "url": "http://www.humannet.or.jp",
    "pref": "大阪府",
    "city": "大阪市西成区",
    "category": "tokuyou",
    "serviceType": "介護老人福祉施設",
    "capacity": 0,
    "openDays": [],
    "openDaysNote": ""
  },
  {
    "id": "2773300229",
    "name": "社会福祉法人　枚方療育園　特別養護老人ホーム　山愛",
    "kana": "シャカイフクシホウジン　ヒラカタリョウイクエン　トクベツヨウゴロウジンホーム　サンアイ",
    "address": "大阪府大阪市西成区南津守1丁目4番7号",
    "lat": 34.6358498,
    "lng": 135.4845739,
    "tel": "06-6656-7001",
    "url": "http://www.bienetre-k.jp/",
    "pref": "大阪府",
    "city": "大阪市西成区",
    "category": "tokuyou",
    "serviceType": "介護老人福祉施設",
    "capacity": 0,
    "openDays": [],
    "openDaysNote": ""
  },
  {
    "id": "2773306929",
    "name": "特別養護老人ホーム　ライフカーサ",
    "kana": "トクベツヨウゴロウジンホーム　ライフカーサ",
    "address": "大阪府大阪市西成区松３－１２－３５特別養護老人ホーム　ライフカーサ 特別養護老人ホーム　ライフカーサ",
    "lat": 34.6417482499984,
    "lng": 135.486133525252,
    "tel": "06-6661-0999",
    "url": "http://hoshino-kai.com/",
    "pref": "大阪府",
    "city": "大阪市西成区",
    "category": "tokuyou",
    "serviceType": "介護老人福祉施設",
    "capacity": 110,
    "openDays": [],
    "openDaysNote": ""
  },
  {
    "id": "2773300153",
    "name": "特別養護老人ホーム　白寿苑",
    "kana": "トクベツヨウゴロウジンホーム　ハクジュエン",
    "address": "大阪府大阪市西成区南津守７丁目１２番３２号",
    "lat": 34.6242651,
    "lng": 135.4836022,
    "tel": "06-6651-2210",
    "url": "http://www.hakujuen.or.jp",
    "pref": "大阪府",
    "city": "大阪市西成区",
    "category": "tokuyou",
    "serviceType": "介護老人福祉施設",
    "capacity": 144,
    "openDays": [],
    "openDaysNote": ""
  },
  {
    "id": "2773306879",
    "name": "特別養護老人ホームかがやき",
    "kana": "トクベツヨウゴロウジンホームカガヤキ",
    "address": "大阪府大阪市西成区聖天下二丁目８番５号",
    "lat": 34.6351389,
    "lng": 135.5016308,
    "tel": "06-6627-9295",
    "url": "http://www.soyokai.or.jp/",
    "pref": "大阪府",
    "city": "大阪市西成区",
    "category": "tokuyou",
    "serviceType": "介護老人福祉施設",
    "capacity": 54,
    "openDays": [],
    "openDaysNote": ""
  },
  {
    "id": "2773307075",
    "name": "特別養護老人ホームにちげつの光",
    "kana": "トクベツヨウゴロウジンホームニチゲツノヒカリ",
    "address": "大阪市西成区萩之茶屋１－２－５",
    "lat": 34.6495428,
    "lng": 135.5024108,
    "tel": "06-6633-1680",
    "url": "https://s-koutokukai.or.jp/",
    "pref": "大阪府",
    "city": "大阪市西成区",
    "category": "tokuyou",
    "serviceType": "介護老人福祉施設",
    "capacity": null,
    "openDays": [],
    "openDaysNote": ""
  },
  {
    "id": "2773308925",
    "name": "特別養護老人ホームにちげつの光津守",
    "kana": "トクベツヨウゴロウジンホウムニチゲツノヒカリツモリ",
    "address": "大阪府大阪市西成区南津守5丁目1番8号",
    "lat": 34.6307194,
    "lng": 135.4824099,
    "tel": "06-6659-5111",
    "url": "https://s-koutokukai.or.jp",
    "pref": "大阪府",
    "city": "大阪市西成区",
    "category": "tokuyou",
    "serviceType": "介護老人福祉施設",
    "capacity": 0,
    "openDays": [],
    "openDaysNote": ""
  },
  {
    "id": "2773304312",
    "name": "特別養護老人ホームローズ",
    "kana": "トクベツヨウゴロウジンホームローズ",
    "address": "大阪府大阪市西成区天下茶屋北２丁目４番７号",
    "lat": 34.642888,
    "lng": 135.5012917,
    "tel": "06-6647-7300",
    "url": "http://www.hajime-kai.com/",
    "pref": "大阪府",
    "city": "大阪市西成区",
    "category": "tokuyou",
    "serviceType": "介護老人福祉施設",
    "capacity": 160,
    "openDays": [],
    "openDaysNote": ""
  },
  {
    "id": "2771001498",
    "name": "介護老人福祉施設水都ホーム福町",
    "kana": "カイゴロウジンフクシシセツスイトホームフクマチ",
    "address": "大阪府大阪市西淀川区福町2丁目11番７号",
    "lat": 34.6956133466731,
    "lng": 135.442609704893,
    "tel": "06-4808-2962",
    "url": "http://www.fuyoufukusikai.com/",
    "pref": "大阪府",
    "city": "大阪市西淀川区",
    "category": "tokuyou",
    "serviceType": "介護老人福祉施設",
    "capacity": 0,
    "openDays": [],
    "openDaysNote": ""
  },
  {
    "id": "2771000300",
    "name": "社会福祉法人　松福会　西淀川特別養護老人ホーム",
    "kana": "シャカイフクシホウジン　ショウフクカイ　ニシヨドガワトクベツヨウゴロウジンホーム",
    "address": "大阪府大阪市西淀川区大和田二丁目５番１１号",
    "lat": 34.7028217965689,
    "lng": 135.442476442328,
    "tel": "06-6477-6565",
    "url": "http://s-f-k.or.jp",
    "pref": "大阪府",
    "city": "大阪市西淀川区",
    "category": "tokuyou",
    "serviceType": "介護老人福祉施設",
    "capacity": 0,
    "openDays": [],
    "openDaysNote": ""
  },
  {
    "id": "2771001308",
    "name": "特別養護老人ホーム　姫島みずほ苑",
    "kana": "トクベツヨウゴロウジンホーム　ヒメジマミズホエン",
    "address": "大阪市西淀川区姫島5丁目11番24号",
    "lat": 34.7033518,
    "lng": 135.449589,
    "tel": "06-6477-0050",
    "url": "https://himejima-mizuhoen.jp/",
    "pref": "大阪府",
    "city": "大阪市西淀川区",
    "category": "tokuyou",
    "serviceType": "介護老人福祉施設",
    "capacity": 0,
    "openDays": [],
    "openDaysNote": ""
  },
  {
    "id": "2771000706",
    "name": "特別養護老人ホームルーチェ千舟",
    "kana": "トクベツヨウゴロウジンホームルーチェチブネ",
    "address": "大阪市西淀川区千舟2丁目７番２号",
    "lat": 34.7117842,
    "lng": 135.4530414,
    "tel": "06-6477-1010",
    "url": "http://s-f-k.or.jp",
    "pref": "大阪府",
    "city": "大阪市西淀川区",
    "category": "tokuyou",
    "serviceType": "介護老人福祉施設",
    "capacity": 80,
    "openDays": [],
    "openDaysNote": ""
  },
  {
    "id": "2771002322",
    "name": "特別養護老人ホーム陽光ひめじま苑",
    "kana": "トクベツヨウゴロウジンホームヨウコウヒメジマエン",
    "address": "大阪府大阪市西淀川区姫島5丁目16番36号",
    "lat": 34.7044516,
    "lng": 135.4481752,
    "tel": "06-7506-9521",
    "url": "http://youkou-wel.com/",
    "pref": "大阪府",
    "city": "大阪市西淀川区",
    "category": "tokuyou",
    "serviceType": "介護老人福祉施設",
    "capacity": 0,
    "openDays": [],
    "openDaysNote": ""
  },
  {
    "id": "2772700262",
    "name": "社会福祉法人恩賜財団済生会支部大阪府済生会　泉尾特別養護老人ホーム大正園",
    "kana": "シャカイフクシホウジンオンシザイダンサイセイカイシブオオサカフサイセイカイ　イズオトクベツヨウゴロウジンホームタイショウエン",
    "address": "大阪市大正区北村3-4-3",
    "lat": 34.6497254,
    "lng": 135.467289,
    "tel": "06-6552-3323",
    "url": "https://izuo-taishyoen.jp/",
    "pref": "大阪府",
    "city": "大阪市大正区",
    "category": "tokuyou",
    "serviceType": "介護老人福祉施設",
    "capacity": 0,
    "openDays": [],
    "openDaysNote": ""
  },
  {
    "id": "2772700270",
    "name": "泉尾特別養護老人ホーム第二大正園",
    "kana": "イズオトクベツヨウゴロウジンホームダイニタイショウエン",
    "address": "大阪市大正区北村3-5-10",
    "lat": 34.6505837,
    "lng": 135.4673223,
    "tel": "06-6552-8070",
    "url": "https://izuo-dai2taishyoen.jp/",
    "pref": "大阪府",
    "city": "大阪市大正区",
    "category": "tokuyou",
    "serviceType": "介護老人福祉施設",
    "capacity": 0,
    "openDays": [],
    "openDaysNote": ""
  },
  {
    "id": "2772701831",
    "name": "特別養護老人ホーム　悠の里",
    "kana": "トクベツヨウゴロウジンホーム　ユウノサト",
    "address": "大阪府大阪市大正区小林東2-6-15",
    "lat": 34.6431709,
    "lng": 135.4763023,
    "tel": "06-6554-4320",
    "url": "http://yuunosato.com",
    "pref": "大阪府",
    "city": "大阪市大正区",
    "category": "tokuyou",
    "serviceType": "介護老人福祉施設",
    "capacity": 0,
    "openDays": [],
    "openDaysNote": ""
  },
  {
    "id": "2772700502",
    "name": "特別養護老人ホームビーナスホーム千島園",
    "kana": "トクベツヨウゴロウジンホームビーナスホームチシマエン",
    "address": "大阪府大阪市大正区千島１－２３－２６",
    "lat": 34.6522226,
    "lng": 135.4761964,
    "tel": "06-6553-4800",
    "url": "http://www.venushome.jp/",
    "pref": "大阪府",
    "city": "大阪市大正区",
    "category": "tokuyou",
    "serviceType": "介護老人福祉施設",
    "capacity": 150,
    "openDays": [],
    "openDaysNote": ""
  },
  {
    "id": "2772701666",
    "name": "特別養護老人ホーム幸楽園",
    "kana": "トクベツヨウゴロウジンホームコウラクエン",
    "address": "大阪府大阪市大正区鶴町二丁目１９番２８号",
    "lat": 34.6393013,
    "lng": 135.4546099,
    "tel": "06-6555-5556",
    "url": "http://kourakuen.osakakoufuukai.com/",
    "pref": "大阪府",
    "city": "大阪市大正区",
    "category": "tokuyou",
    "serviceType": "介護老人福祉施設",
    "capacity": 81,
    "openDays": [],
    "openDaysNote": ""
  },
  {
    "id": "2779400213",
    "name": "特別養護老人ホーム　さくら",
    "kana": "トクベツヨウゴロウジンホーム　サクラ",
    "address": "大阪市中央区農人橋一丁目４番２０号",
    "lat": 34.6807254,
    "lng": 135.5146838,
    "tel": "06-6947-5215",
    "url": "http://www.kensyokai.jp",
    "pref": "大阪府",
    "city": "大阪市中央区",
    "category": "tokuyou",
    "serviceType": "介護老人福祉施設",
    "capacity": 0,
    "openDays": [],
    "openDaysNote": ""
  },
  {
    "id": "2779200399",
    "name": "特別養護老人ホーム　ウェルシーライフ",
    "kana": "トクベツヨウゴロウジンホーム　ウェルシーライフ",
    "address": "大阪府大阪市鶴見区諸口1丁目１４－４３",
    "lat": 34.701091,
    "lng": 135.5778201,
    "tel": "06-6914-3331",
    "url": "https://houjyu-w.sakura.ne.jp/",
    "pref": "大阪府",
    "city": "大阪市鶴見区",
    "category": "tokuyou",
    "serviceType": "介護老人福祉施設",
    "capacity": 75,
    "openDays": [],
    "openDaysNote": ""
  },
  {
    "id": "2779202064",
    "name": "特別養護老人ホーム　グリーンランドみずき",
    "kana": "トクベツヨウゴロウジンホーム　グリーンランドミズキ",
    "address": "大阪府大阪市鶴見区緑３丁目１６番２７号",
    "lat": 34.7128672,
    "lng": 135.5663403,
    "tel": "06-6911-0012",
    "url": "http://mizuki-osaka.jp",
    "pref": "大阪府",
    "city": "大阪市鶴見区",
    "category": "tokuyou",
    "serviceType": "介護老人福祉施設",
    "capacity": 0,
    "openDays": [],
    "openDaysNote": ""
  },
  {
    "id": "2779200258",
    "name": "特別養護老人ホーム　ファミリー",
    "kana": "トクベツヨウゴロウジンホーム　ファミリー",
    "address": "大阪市鶴見区安田2丁目１番２７号",
    "lat": 34.7026745,
    "lng": 135.5912521,
    "tel": "06-6915-1717",
    "url": "http://www2.family.ed.jp/~family/",
    "pref": "大阪府",
    "city": "大阪市鶴見区",
    "category": "tokuyou",
    "serviceType": "介護老人福祉施設",
    "capacity": 104,
    "openDays": [],
    "openDaysNote": ""
  },
  {
    "id": "2779200324",
    "name": "特別養護老人ホーム　リベルタヴィータ",
    "kana": "トクベツヨウゴロウジンホーム　リベルタウ゛ィータ",
    "address": "大阪市鶴見区今津南3丁目5番5号",
    "lat": 34.6887424,
    "lng": 135.5738371,
    "tel": "06-6963-6360",
    "url": "http://www.liberta-vita.jp/",
    "pref": "大阪府",
    "city": "大阪市鶴見区",
    "category": "tokuyou",
    "serviceType": "介護老人福祉施設",
    "capacity": 110,
    "openDays": [],
    "openDaysNote": ""
  },
  {
    "id": "2779202197",
    "name": "特別養護老人ホームくつろぎ・つるみ荘",
    "kana": "トクベツヨウゴロウジンホームクツロギツルミソウ",
    "address": "大阪府大阪市鶴見区中茶屋１丁目１番１０号特別養護老人ホームくつろぎ・つるみ荘 特別養護老人ホームくつろぎ・つるみ荘",
    "lat": 34.6996107276486,
    "lng": 135.584046921951,
    "tel": "06-6914-3877",
    "url": "http://www.elfkaigo.co.jp/tsurumi/",
    "pref": "大阪府",
    "city": "大阪市鶴見区",
    "category": "tokuyou",
    "serviceType": "介護老人福祉施設",
    "capacity": 0,
    "openDays": [],
    "openDaysNote": ""
  },
  {
    "id": "2779202106",
    "name": "特別養護老人ホームらんまん鶴見",
    "kana": "トクベツヨウゴロウジンホームランマンツルミ",
    "address": "大阪府大阪市鶴見区鶴見5丁目2番10号",
    "lat": 34.7078648,
    "lng": 135.5612353,
    "tel": "06-6933-8830",
    "url": "http://www.man-ten.org/",
    "pref": "大阪府",
    "city": "大阪市鶴見区",
    "category": "tokuyou",
    "serviceType": "介護老人福祉施設",
    "capacity": 44,
    "openDays": [],
    "openDaysNote": ""
  },
  {
    "id": "2779200860",
    "name": "浜特別養護老人ホーム",
    "kana": "ハマトクベツヨウゴロウジンホーム",
    "address": "大阪府大阪市鶴見区浜５丁目６番１４号",
    "lat": 34.7163588,
    "lng": 135.5816221,
    "tel": "06-4257-3660",
    "url": "http://www.waetsukai.jp/",
    "pref": "大阪府",
    "city": "大阪市鶴見区",
    "category": "tokuyou",
    "serviceType": "介護老人福祉施設",
    "capacity": 90,
    "openDays": [],
    "openDaysNote": ""
  },
  {
    "id": "2771700156",
    "name": "特別養護老人ホーム　四天王寺たまつくり苑",
    "kana": "トクベツヨウゴロウジンホーム　シテンノウジタマツクリエン",
    "address": "大阪府大阪市天王寺区玉造元町1-29",
    "lat": 34.6731125,
    "lng": 135.5326102,
    "tel": "06-6763-4115",
    "url": "http://www.shitennoji-fukushi.jp/",
    "pref": "大阪府",
    "city": "大阪市天王寺区",
    "category": "tokuyou",
    "serviceType": "介護老人福祉施設",
    "capacity": 0,
    "openDays": [],
    "openDaysNote": ""
  },
  {
    "id": "2771700149",
    "name": "特別養護老人ホーム四天王寺きたやま苑",
    "kana": "トクベツヨウゴロウジンホームシテンノウジキタヤマエン",
    "address": "大阪府大阪市天王寺区北山町９－６",
    "lat": 34.6599832,
    "lng": 135.5227559,
    "tel": "06-6773-1811",
    "url": "http://www.shitennoji-fukushi.jp/",
    "pref": "大阪府",
    "city": "大阪市天王寺区",
    "category": "tokuyou",
    "serviceType": "介護老人福祉施設",
    "capacity": 0,
    "openDays": [],
    "openDaysNote": ""
  },
  {
    "id": "2775200260",
    "name": "社会福祉法人　治栄会　特別養護老人ホーム　からまつ苑",
    "kana": "シャカイフクシホウジン　ジエイカイ　トクベツヨウゴロウジンホーム　カラマツエン",
    "address": "大阪府大阪市都島区中野町５丁目１０番７０号",
    "lat": 34.7065203,
    "lng": 135.5240351,
    "tel": "06-6922-3300",
    "url": "http://www.karamatsuen.com/",
    "pref": "大阪府",
    "city": "大阪市都島区",
    "category": "tokuyou",
    "serviceType": "介護老人福祉施設",
    "capacity": 0,
    "openDays": [],
    "openDaysNote": ""
  },
  {
    "id": "2775200435",
    "name": "特別養護老人ホーム　ひまわりの郷",
    "kana": "トクベツヨウゴロウジンホーム　ヒマワリノサト",
    "address": "大阪市都島区都島本通4-10-19",
    "lat": 34.7071029839108,
    "lng": 135.531900478275,
    "tel": "06-6924-8880",
    "url": "http://miyakojima.or.jp/himawarinosato/",
    "pref": "大阪府",
    "city": "大阪市都島区",
    "category": "tokuyou",
    "serviceType": "介護老人福祉施設",
    "capacity": 81,
    "openDays": [],
    "openDaysNote": ""
  },
  {
    "id": "2775201250",
    "name": "特別養護老人ホーム　青都荘",
    "kana": "トクベツヨウゴロウジンホーム　セイトソウ",
    "address": "大阪市都島区都島中通三丁目１４番２０号",
    "lat": 34.7048788,
    "lng": 135.5359594,
    "tel": "06-6926-2351",
    "url": "http://www.seitoso.jp/",
    "pref": "大阪府",
    "city": "大阪市都島区",
    "category": "tokuyou",
    "serviceType": "介護老人福祉施設",
    "capacity": 0,
    "openDays": [],
    "openDaysNote": ""
  },
  {
    "id": "2775202670",
    "name": "特別養護老人ホーム　網島の郷",
    "kana": "トクベツヨウゴロウジンホーム　アミジマノサト",
    "address": "大阪府大阪市都島区網島町8番7号",
    "lat": 34.6945554486259,
    "lng": 135.526071535582,
    "tel": "06-6351-1000",
    "url": "http://sanyofukushikai.com/",
    "pref": "大阪府",
    "city": "大阪市都島区",
    "category": "tokuyou",
    "serviceType": "介護老人福祉施設",
    "capacity": 0,
    "openDays": [],
    "openDaysNote": ""
  },
  {
    "id": "2770806376",
    "name": "特別養護老人ホ－ム　せんぽ東住吉",
    "kana": "トクベツヨウゴロウジンホウム　センポヒガシスミヨシ",
    "address": "大阪府大阪市東住吉区住道矢田4丁目7番2号",
    "lat": 34.6032252,
    "lng": 135.5405269,
    "tel": "06-4302-6100",
    "url": "http://www.senpokai.org",
    "pref": "大阪府",
    "city": "大阪市東住吉区",
    "category": "tokuyou",
    "serviceType": "介護老人福祉施設",
    "capacity": null,
    "openDays": [],
    "openDaysNote": ""
  },
  {
    "id": "2770800395",
    "name": "特別養護老人ホーム　あっとほうむ",
    "kana": "トクベツヨウゴロウジンホーム　アットホウム",
    "address": "大阪府大阪市東住吉区杭全１丁目４番２０号",
    "lat": 34.640547,
    "lng": 135.5358914,
    "tel": "06-6719-8880",
    "url": "http://www.keiyo.org/index.html",
    "pref": "大阪府",
    "city": "大阪市東住吉区",
    "category": "tokuyou",
    "serviceType": "介護老人福祉施設",
    "capacity": 0,
    "openDays": [],
    "openDaysNote": ""
  },
  {
    "id": "2770802771",
    "name": "特別養護老人ホーム　くつろぎ",
    "kana": "トクベツヨウゴロウジンホーム　クツロギ",
    "address": "大阪府大阪市東住吉区公園南矢田1-4-17",
    "lat": 34.6070645,
    "lng": 135.5234594,
    "tel": "06-6695-1740",
    "url": "http://kuturogi-r.lovepop.jp/",
    "pref": "大阪府",
    "city": "大阪市東住吉区",
    "category": "tokuyou",
    "serviceType": "介護老人福祉施設",
    "capacity": 0,
    "openDays": [],
    "openDaysNote": ""
  },
  {
    "id": "2770800973",
    "name": "特別養護老人ホーム　ゆめあまみ",
    "kana": "トクベツヨウゴロウジンホーム　ユメアマミ",
    "address": "大阪市東住吉区矢田7-6-10",
    "lat": 34.5955298,
    "lng": 135.5300286,
    "tel": "072-349-0363",
    "url": "http://www.smile-yume.com",
    "pref": "大阪府",
    "city": "大阪市東住吉区",
    "category": "tokuyou",
    "serviceType": "介護老人福祉施設",
    "capacity": 0,
    "openDays": [],
    "openDaysNote": ""
  },
  {
    "id": "2770800213",
    "name": "特別養護老人ホーム　花嵐",
    "kana": "トクベツヨウゴロウジンホーム　カラン",
    "address": "大阪市東住吉区矢田6丁目８番７号",
    "lat": 34.6022679,
    "lng": 135.5322033,
    "tel": "06-6699-8787",
    "url": "http://www.karan.or.jp/",
    "pref": "大阪府",
    "city": "大阪市東住吉区",
    "category": "tokuyou",
    "serviceType": "介護老人福祉施設",
    "capacity": 134,
    "openDays": [],
    "openDaysNote": ""
  },
  {
    "id": "2770800601",
    "name": "特別養護老人ホーム　城南ホーム",
    "kana": "トクベツヨウゴロウジンホーム　ジョウナンホーム",
    "address": "大阪市東住吉区住道矢田４－２０－１７",
    "lat": 34.6000182,
    "lng": 135.5398557,
    "tel": "06-6760-6539",
    "url": "http://www.jonanhome.jp",
    "pref": "大阪府",
    "city": "大阪市東住吉区",
    "category": "tokuyou",
    "serviceType": "介護老人福祉施設",
    "capacity": 0,
    "openDays": [],
    "openDaysNote": ""
  },
  {
    "id": "2770805303",
    "name": "特別養護老人ホームヴァンサンクボヌール",
    "kana": "トクベツヨウゴロウジンホームヴァンサンクボヌール",
    "address": "大阪府大阪市東住吉区公園南矢田3-21-4",
    "lat": 34.6009089744496,
    "lng": 135.526950069312,
    "tel": "06-6115-6720",
    "url": "https://kaseikai.org/",
    "pref": "大阪府",
    "city": "大阪市東住吉区",
    "category": "tokuyou",
    "serviceType": "介護老人福祉施設",
    "capacity": 86,
    "openDays": [],
    "openDaysNote": ""
  },
  {
    "id": "2770803068",
    "name": "特別養護老人ホームヴァンサンク東住吉",
    "kana": "トクベツヨウゴロウジンホームウ”ァンサンクヒガシスミヨシ",
    "address": "大阪市東住吉区湯里5丁目13番5号",
    "lat": 34.611428,
    "lng": 135.5371334,
    "tel": "06-6760-7011",
    "url": "http://kaseikai.org",
    "pref": "大阪府",
    "city": "大阪市東住吉区",
    "category": "tokuyou",
    "serviceType": "介護老人福祉施設",
    "capacity": 0,
    "openDays": [],
    "openDaysNote": ""
  },
  {
    "id": "2770800247",
    "name": "特別養護老人ホームくれない",
    "kana": "トクベツヨウゴロウジンホームクレナイ",
    "address": "大阪府大阪市東住吉区今川7-9-7",
    "lat": 34.6251827,
    "lng": 135.53812,
    "tel": "06-6769-1155",
    "url": "http://www.9071.jp/",
    "pref": "大阪府",
    "city": "大阪市東住吉区",
    "category": "tokuyou",
    "serviceType": "介護老人福祉施設",
    "capacity": 0,
    "openDays": [],
    "openDaysNote": ""
  },
  {
    "id": "2770807267",
    "name": "特別養護老人ホームしらさぎ苑",
    "kana": "トクベツヨウゴロウジンホームシラサギエン",
    "address": "大阪府大阪市東住吉区今川六丁目6番6号",
    "lat": 34.628146896309,
    "lng": 135.542839737959,
    "tel": "06-6702-2050",
    "url": "https://harukazefukushikai.com/",
    "pref": "大阪府",
    "city": "大阪市東住吉区",
    "category": "tokuyou",
    "serviceType": "介護老人福祉施設",
    "capacity": null,
    "openDays": [],
    "openDaysNote": ""
  },
  {
    "id": "2771500176",
    "name": "特別養護老人ホーム　サンローズオオサカ",
    "kana": "トクベツヨウゴロウジンホーム　サンローズオオサカ",
    "address": "大阪府大阪市東成区神路１丁目１０番３号",
    "lat": 34.6786208,
    "lng": 135.5549999,
    "tel": "06-6974-7388",
    "url": "http://www.omichikai.or.jp/sunrose/index.htm",
    "pref": "大阪府",
    "city": "大阪市東成区",
    "category": "tokuyou",
    "serviceType": "介護老人福祉施設",
    "capacity": 0,
    "openDays": [],
    "openDaysNote": ""
  },
  {
    "id": "2771500846",
    "name": "特別養護老人ホーム　ハミングベル中道",
    "kana": "トクベツヨウゴロウジンホーム　ハミングベルナカミチ",
    "address": "大阪府大阪市東成区中道２丁目７-１",
    "lat": 34.6805592,
    "lng": 135.5393734,
    "tel": "06-6971-9788",
    "url": "http://www.humming-bell.or.jp",
    "pref": "大阪府",
    "city": "大阪市東成区",
    "category": "tokuyou",
    "serviceType": "介護老人福祉施設",
    "capacity": 80,
    "openDays": [],
    "openDaysNote": ""
  },
  {
    "id": "2771501307",
    "name": "特別養護老人ホームアルカンシエル東成",
    "kana": "トクベツヨウゴロウジンホームアルカンシエルヒガシナリ",
    "address": "大阪市東成区中本四丁目１番２１号",
    "lat": 34.6777057372663,
    "lng": 135.539496820377,
    "tel": "06-6978-1200",
    "url": "http://gogroup.jp",
    "pref": "大阪府",
    "city": "大阪市東成区",
    "category": "tokuyou",
    "serviceType": "介護老人福祉施設",
    "capacity": 90,
    "openDays": [],
    "openDaysNote": ""
  },
  {
    "id": "2771502826",
    "name": "特別養護老人ホーム称揚苑",
    "kana": "トクベツヨウゴロウジンホーム　ショウヨウエン",
    "address": "大阪府大阪市東成区深江北1-14-8",
    "lat": 34.6751904091223,
    "lng": 135.556504906337,
    "tel": "06-6977-8880",
    "url": "http://www.kyouseikai.org/",
    "pref": "大阪府",
    "city": "大阪市東成区",
    "category": "tokuyou",
    "serviceType": "介護老人福祉施設",
    "capacity": 0,
    "openDays": [],
    "openDaysNote": ""
  },
  {
    "id": "2773000662",
    "name": "介護老人福祉施設　さわやか苑",
    "kana": "カイゴロウジンフクシシセツ　サワヤカエン",
    "address": "大阪府大阪市東淀川区豊新2-15-20",
    "lat": 34.7425092,
    "lng": 135.5273739,
    "tel": "06-6815-9292",
    "url": "http://yukohukushikai.com",
    "pref": "大阪府",
    "city": "大阪市東淀川区",
    "category": "tokuyou",
    "serviceType": "介護老人福祉施設",
    "capacity": 0,
    "openDays": [],
    "openDaysNote": ""
  },
  {
    "id": "2773001041",
    "name": "淡路介護老人福祉施設ビハーラ",
    "kana": "アワジカイゴロウジンフクシシセツビハーラ",
    "address": "大阪府大阪市東淀川区淡路5-11-17",
    "lat": 34.7433018,
    "lng": 135.5171438,
    "tel": "06-6370-5501",
    "url": "http://vihara-sisinkai.jp/",
    "pref": "大阪府",
    "city": "大阪市東淀川区",
    "category": "tokuyou",
    "serviceType": "介護老人福祉施設",
    "capacity": 0,
    "openDays": [],
    "openDaysNote": ""
  },
  {
    "id": "2773000407",
    "name": "特別養護老人ホーム　ジュネス",
    "kana": "トクベツヨウゴロウジンホーム　ジュネス",
    "address": "大阪府大阪市東淀川区東淡路1-4-49メゾン　リベルテ メゾン　リベルテ",
    "lat": 34.7335308,
    "lng": 135.5196521,
    "tel": "06-6325-3336",
    "url": "http://www.ojk.or.jp/",
    "pref": "大阪府",
    "city": "大阪市東淀川区",
    "category": "tokuyou",
    "serviceType": "介護老人福祉施設",
    "capacity": 104,
    "openDays": [],
    "openDaysNote": ""
  },
  {
    "id": "2773000357",
    "name": "特別養護老人ホーム　だんらん",
    "kana": "トクベツヨウゴロウジンホーム　ダンラン",
    "address": "大阪市東淀川区淡路3丁目13-37",
    "lat": 34.7383581391092,
    "lng": 135.513327835582,
    "tel": "06-6328-7670",
    "url": "http://www.normalization-kyokai.jp/",
    "pref": "大阪府",
    "city": "大阪市東淀川区",
    "category": "tokuyou",
    "serviceType": "介護老人福祉施設",
    "capacity": 0,
    "openDays": [],
    "openDaysNote": ""
  },
  {
    "id": "2773001819",
    "name": "特別養護老人ホーム　とよさと黄金の里",
    "kana": "トクベツヨウゴロウジンホーム　トヨサトコガネノサト",
    "address": "大阪市東淀川区大桐１丁目７－１６",
    "lat": 34.7451856,
    "lng": 135.5439385,
    "tel": "06-6990-6881",
    "url": "http://www.kogane.or.jp",
    "pref": "大阪府",
    "city": "大阪市東淀川区",
    "category": "tokuyou",
    "serviceType": "介護老人福祉施設",
    "capacity": 0,
    "openDays": [],
    "openDaysNote": ""
  },
  {
    "id": "2773000266",
    "name": "特別養護老人ホーム　井高野園",
    "kana": "トクベツヨウゴロウジンホーム　イタカノエン",
    "address": "大阪府大阪市東淀川区井高野３丁目１番５８号",
    "lat": 34.7666326,
    "lng": 135.5439907,
    "tel": "06-6349-3417",
    "url": "http://www.itakanoen.or.jp/",
    "pref": "大阪府",
    "city": "大阪市東淀川区",
    "category": "tokuyou",
    "serviceType": "介護老人福祉施設",
    "capacity": 0,
    "openDays": [],
    "openDaysNote": ""
  },
  {
    "id": "2773004557",
    "name": "特別養護老人ホーム　菜乃花",
    "kana": "トクベツヨウゴロウジンホーム　ナノカ",
    "address": "大阪府大阪市東淀川区上新庄１丁目２番５号特別養護老人ホーム　菜乃花 特別養護老人ホーム　菜乃花",
    "lat": 34.7442381,
    "lng": 135.5274734,
    "tel": "06-6160-6541",
    "url": "https://www.ontoku.or.jp",
    "pref": "大阪府",
    "city": "大阪市東淀川区",
    "category": "tokuyou",
    "serviceType": "介護老人福祉施設",
    "capacity": 0,
    "openDays": [],
    "openDaysNote": ""
  },
  {
    "id": "2773003666",
    "name": "特別養護老人ホームザイオン新大阪",
    "kana": "トクベツヨウゴロウジンホームザイオンシンオオサカ",
    "address": "大阪府大阪市東淀川区東中島２丁目１４番１３号",
    "lat": 34.7290364,
    "lng": 135.5049396,
    "tel": "06-6370-7001",
    "url": "http://shinosaka.zaion.or.jp/",
    "pref": "大阪府",
    "city": "大阪市東淀川区",
    "category": "tokuyou",
    "serviceType": "介護老人福祉施設",
    "capacity": 0,
    "openDays": [],
    "openDaysNote": ""
  },
  {
    "id": "2773004730",
    "name": "特別養護老人ホームともしび",
    "kana": "トクベツヨウゴロウジンホームトモシビ",
    "address": "大阪府大阪市東淀川区東中島5-19-3",
    "lat": 34.732853602887,
    "lng": 135.509731062566,
    "tel": "06-6326-6700",
    "url": "https://www.tomoshibifukushikai.jp",
    "pref": "大阪府",
    "city": "大阪市東淀川区",
    "category": "tokuyou",
    "serviceType": "介護老人福祉施設",
    "capacity": 0,
    "openDays": [],
    "openDaysNote": ""
  },
  {
    "id": "2773005091",
    "name": "特別養護老人ホームポプラ上新庄",
    "kana": "トクベツヨウゴロウジンホームポプラカミシンジョウ",
    "address": "大阪府大阪市東淀川区上新庄三丁目15番9号",
    "lat": 34.7511746,
    "lng": 135.5314881,
    "tel": "06-6320-6410",
    "url": "https://poplar-group.jp/yougo/tokuyokamisinjyo",
    "pref": "大阪府",
    "city": "大阪市東淀川区",
    "category": "tokuyou",
    "serviceType": "介護老人福祉施設",
    "capacity": 60,
    "openDays": [],
    "openDaysNote": ""
  },
  {
    "id": "2773003336",
    "name": "特別養護老人ホーム寿楽荘いたかの",
    "kana": "トクベツヨウゴロウジンホーム　ジュラクソウイタカノ",
    "address": "大阪府大阪市東淀川区井高野４丁目６番６１号",
    "lat": 34.7667825,
    "lng": 135.5486347,
    "tel": "06-6340-0505",
    "url": "http://juraku-osaka.jp/",
    "pref": "大阪府",
    "city": "大阪市東淀川区",
    "category": "tokuyou",
    "serviceType": "介護老人福祉施設",
    "capacity": 80,
    "openDays": [],
    "openDaysNote": ""
  },
  {
    "id": "2770200158",
    "name": "特別養護老人ホーム　福島ともしび苑",
    "kana": "トクベツヨウゴロウジンホーム　フクシマトモシビエン",
    "address": "大阪府大阪市福島区吉野５丁目６番１１号",
    "lat": 34.6867904,
    "lng": 135.4669934,
    "tel": "06-6464-0105",
    "url": "http://www.tomoshibifukushikai.jp/",
    "pref": "大阪府",
    "city": "大阪市福島区",
    "category": "tokuyou",
    "serviceType": "介護老人福祉施設",
    "capacity": 60,
    "openDays": [],
    "openDaysNote": ""
  },
  {
    "id": "2770200240",
    "name": "特別養護老人ホームグリーン野田",
    "kana": "トクベツヨウゴロウジンホームグリーンノダ",
    "address": "大阪府大阪市福島区海老江２丁目１番３６号",
    "lat": 34.6958534,
    "lng": 135.4744008,
    "tel": "06-6454-1820",
    "url": "http://green-noda.com/",
    "pref": "大阪府",
    "city": "大阪市福島区",
    "category": "tokuyou",
    "serviceType": "介護老人福祉施設",
    "capacity": 0,
    "openDays": [],
    "openDaysNote": ""
  },
  {
    "id": "2770201693",
    "name": "特別養護老人ホーム平成福島苑",
    "kana": "トクベツヨウゴロウジンホームヘイセイフクシマエン",
    "address": "大阪府大阪市福島区海老江3-20-8",
    "lat": 34.7009627,
    "lng": 135.4718086,
    "tel": "06-7507-1187",
    "url": "https://www.heiseifukushikai.com/",
    "pref": "大阪府",
    "city": "大阪市福島区",
    "category": "tokuyou",
    "serviceType": "介護老人福祉施設",
    "capacity": 80,
    "openDays": [],
    "openDaysNote": ""
  },
  {
    "id": "2775800705",
    "name": "永寿特別養護老人ホーム",
    "kana": "エイジュトクベツヨウゴロウジンホーム",
    "address": "大阪市平野区瓜破南１－２－１１",
    "lat": 34.595902,
    "lng": 135.5453833,
    "tel": "06-6760-5070",
    "url": "https://eijyu.or.jp/index.html",
    "pref": "大阪府",
    "city": "大阪市平野区",
    "category": "tokuyou",
    "serviceType": "介護老人福祉施設",
    "capacity": 25,
    "openDays": [],
    "openDaysNote": ""
  },
  {
    "id": "2775800762",
    "name": "加美北特別養護老人ホーム",
    "kana": "カミキタトクベツヨウゴロウジンホーム",
    "address": "大阪府大阪市平野区加美北7丁目1番2号加美北特別養護老人ホーム 加美北特別養護老人ホーム",
    "lat": 34.6361954,
    "lng": 135.5577062,
    "tel": "06-4303-7700",
    "url": "http://www.waetsukai.jp",
    "pref": "大阪府",
    "city": "大阪市平野区",
    "category": "tokuyou",
    "serviceType": "介護老人福祉施設",
    "capacity": 100,
    "openDays": [],
    "openDaysNote": ""
  },
  {
    "id": "2775804731",
    "name": "特別養護老人ホーム　こうのとり",
    "kana": "トクベツヨウゴロウジンホーム　コウノトリ",
    "address": "大阪府大阪市平野区長吉川辺三丁目２番３号",
    "lat": 34.5991966,
    "lng": 135.5760557,
    "tel": "06-6700-8000",
    "url": "http://yuushinkai.or.jp/",
    "pref": "大阪府",
    "city": "大阪市平野区",
    "category": "tokuyou",
    "serviceType": "介護老人福祉施設",
    "capacity": 100,
    "openDays": [],
    "openDaysNote": ""
  },
  {
    "id": "2775807296",
    "name": "特別養護老人ホーム　プラーナ",
    "kana": "トクベツヨウゴロウジンホーム　プラーナ",
    "address": "大阪府大阪市平野区長吉川辺2-1-32",
    "lat": 34.5976404958814,
    "lng": 135.572296359,
    "tel": "06-6700-3656",
    "url": "https://koyu-fukushikai.jp/",
    "pref": "大阪府",
    "city": "大阪市平野区",
    "category": "tokuyou",
    "serviceType": "介護老人福祉施設",
    "capacity": 0,
    "openDays": [],
    "openDaysNote": ""
  },
  {
    "id": "2775800366",
    "name": "特別養護老人ホーム　愛和",
    "kana": "トクベツヨウゴロウジンホーム　アイワ",
    "address": "大阪市平野区長吉六反２－１－６",
    "lat": 34.6085707,
    "lng": 135.5785358,
    "tel": "TEL:06-6790-1",
    "url": "http://www.a-kaigo.gr.jp/contents/map_page/tokuyou_index/t4aiwa/t4aiwa.htm",
    "pref": "大阪府",
    "city": "大阪市平野区",
    "category": "tokuyou",
    "serviceType": "介護老人福祉施設",
    "capacity": 50,
    "openDays": [],
    "openDaysNote": ""
  },
  {
    "id": "2775800390",
    "name": "特別養護老人ホーム　喜連",
    "kana": "トクベツヨウゴロウジンホーム　キレ",
    "address": "大阪市平野区喜連２丁目２番４０号",
    "lat": 34.612128,
    "lng": 135.5512186,
    "tel": "06-6790-6666",
    "url": "http://www.eijyu.or.jp/",
    "pref": "大阪府",
    "city": "大阪市平野区",
    "category": "tokuyou",
    "serviceType": "介護老人福祉施設",
    "capacity": 0,
    "openDays": [],
    "openDaysNote": ""
  },
  {
    "id": "2775806975",
    "name": "特別養護老人ホーム　桜苑",
    "kana": "トクベツヨウゴロウジンホーム　サクラエン",
    "address": "大阪府大阪市平野区平野東3-7-16",
    "lat": 34.6208786,
    "lng": 135.5599482,
    "tel": "06-4305-7898",
    "url": "",
    "pref": "大阪府",
    "city": "大阪市平野区",
    "category": "tokuyou",
    "serviceType": "介護老人福祉施設",
    "capacity": 48,
    "openDays": [],
    "openDaysNote": ""
  },
  {
    "id": "2775803980",
    "name": "特別養護老人ホーム　万寿苑",
    "kana": "トクベツヨウゴロウジンホーム　マンジュエン",
    "address": "大阪市平野区加美東4丁目18番23号",
    "lat": 34.6288711,
    "lng": 135.5681833,
    "tel": "06-6796-5111",
    "url": "http://kyowahukushi.xsrv.jp/",
    "pref": "大阪府",
    "city": "大阪市平野区",
    "category": "tokuyou",
    "serviceType": "介護老人福祉施設",
    "capacity": 81,
    "openDays": [],
    "openDaysNote": ""
  },
  {
    "id": "2775807353",
    "name": "特別養護老人ホームオアシス寿安",
    "kana": "トクベツヨウゴロウジンホームオアシスジュアン",
    "address": "大阪府大阪市平野区長吉六反一丁目5番7号",
    "lat": 34.6108482,
    "lng": 135.5796273,
    "tel": "06-6769-6200",
    "url": "https://oasisgroup.or.jp/",
    "pref": "大阪府",
    "city": "大阪市平野区",
    "category": "tokuyou",
    "serviceType": "介護老人福祉施設",
    "capacity": 0,
    "openDays": [],
    "openDaysNote": ""
  },
  {
    "id": "2775807171",
    "name": "特別養護老人ホームせんぽ瓜破東",
    "kana": "トクベツヨウゴロウジンホームセンポウリワリヒガシ",
    "address": "大阪府大阪市平野区瓜破東8丁目8番6号",
    "lat": 34.5990268,
    "lng": 135.5611154,
    "tel": "06-6700-5000",
    "url": "http://senpokai.org/",
    "pref": "大阪府",
    "city": "大阪市平野区",
    "category": "tokuyou",
    "serviceType": "介護老人福祉施設",
    "capacity": null,
    "openDays": [],
    "openDaysNote": ""
  },
  {
    "id": "2775806330",
    "name": "特別養護老人ホームやぐるま苑",
    "kana": "トクベツヨウゴロウジンホームヤグルマエン",
    "address": "大阪府大阪市瓜破南2丁目4番10号",
    "lat": 34.5970122,
    "lng": 135.5550496,
    "tel": "06-6707-5502",
    "url": "http://harukazefukushikai.com/",
    "pref": "大阪府",
    "city": "大阪市平野区",
    "category": "tokuyou",
    "serviceType": "介護老人福祉施設",
    "capacity": 109,
    "openDays": [],
    "openDaysNote": ""
  },
  {
    "id": "2775805712",
    "name": "特別養護老人ホーム四天王寺紅生園",
    "kana": "トクベツヨウゴロウジンホームシテンノウジコウセイエン",
    "address": "大阪府大阪市平野区喜連東五丁目13番30号",
    "lat": 34.6094904,
    "lng": 135.5650411,
    "tel": "06-6760-7611",
    "url": "http://www.shitennoji-fukushi.jp",
    "pref": "大阪府",
    "city": "大阪市平野区",
    "category": "tokuyou",
    "serviceType": "介護老人福祉施設",
    "capacity": 0,
    "openDays": [],
    "openDaysNote": ""
  },
  {
    "id": "2775800432",
    "name": "特別養護老人ホーム長吉",
    "kana": "トクベツヨウゴロウジンホームナガヨシ",
    "address": "大阪市平野区長吉川辺３－２０－１４",
    "lat": 34.5939305,
    "lng": 135.578464,
    "tel": "06-6790-0007",
    "url": "http://www.eijyu.or.jp/",
    "pref": "大阪府",
    "city": "大阪市平野区",
    "category": "tokuyou",
    "serviceType": "介護老人福祉施設",
    "capacity": 104,
    "openDays": [],
    "openDaysNote": ""
  },
  {
    "id": "2774103945",
    "name": "中津特別養護老人ホーム喜久寿苑",
    "kana": "ナカツトクベツヨウゴロウジンホームキクジュエン",
    "address": "大阪府大阪市北区大淀南2丁目2番51号",
    "lat": 34.702188669801,
    "lng": 135.48687792209,
    "tel": "06-6458-1070",
    "url": "https://www.nakatsu.saiseikai.or.jp/kikujuen/",
    "pref": "大阪府",
    "city": "大阪市北区",
    "category": "tokuyou",
    "serviceType": "介護老人福祉施設",
    "capacity": 0,
    "openDays": [],
    "openDaysNote": ""
  },
  {
    "id": "2774101337",
    "name": "特別養護老人ホーム　淳風おおさか",
    "kana": "トクベツヨウゴロウジンホーム　ジュンプウオオサカ",
    "address": "大阪市北区大淀南二丁目５番２０号",
    "lat": 34.7008171,
    "lng": 135.4852164,
    "tel": "06-6450-1088",
    "url": "http://junpu-kai.or.jp",
    "pref": "大阪府",
    "city": "大阪市北区",
    "category": "tokuyou",
    "serviceType": "介護老人福祉施設",
    "capacity": 82,
    "openDays": [],
    "openDaysNote": ""
  },
  {
    "id": "2774100388",
    "name": "特別養護老人ホーム　藤ミレニアム",
    "kana": "トクベツヨウゴロウジンホーム　フジミレニアム",
    "address": "大阪府大阪市北区本庄西2-6-15藤ミレニアム 藤ミレニアム",
    "lat": 34.7139356,
    "lng": 135.5063811,
    "tel": "06-6371-6233",
    "url": "http://www.fuji-m.net/",
    "pref": "大阪府",
    "city": "大阪市北区",
    "category": "tokuyou",
    "serviceType": "介護老人福祉施設",
    "capacity": 82,
    "openDays": [],
    "openDaysNote": ""
  },
  {
    "id": "2774103283",
    "name": "特別養護老人ホーム　平成曽根崎苑",
    "kana": "トクベツヨウゴロウジンホーム　ヘイセイソネザキエン",
    "address": "大阪府大阪市北区曽根崎1-1-20",
    "lat": 34.6985878,
    "lng": 135.5038348,
    "tel": "06-7501-8690",
    "url": "http://www.heiseifukushikai.com",
    "pref": "大阪府",
    "city": "大阪市北区",
    "category": "tokuyou",
    "serviceType": "介護老人福祉施設",
    "capacity": null,
    "openDays": [],
    "openDaysNote": ""
  },
  {
    "id": "2774100495",
    "name": "特別養護老人ホーム　北野よろこび苑",
    "kana": "トクベツヨウゴロウジンホーム　キタノヨロコビエン",
    "address": "大阪府大阪市北区神山町１５－１２",
    "lat": 34.7042172,
    "lng": 135.5050118,
    "tel": "06-6311-4652",
    "url": "http://yorokobien.com/",
    "pref": "大阪府",
    "city": "大阪市北区",
    "category": "tokuyou",
    "serviceType": "介護老人福祉施設",
    "capacity": 50,
    "openDays": [],
    "openDaysNote": ""
  },
  {
    "id": "2774100206",
    "name": "特別養護老人ホーム鶴満寺聚楽院",
    "kana": "トクベツヨウゴロウジンホームカクマンジジュラクイン",
    "address": "大阪府大阪市北区長柄東1-3-12",
    "lat": 34.7109584,
    "lng": 135.5161913,
    "tel": "06-6351-7301",
    "url": "http://www.kinder.ne.jp/~kakumanji-jikouen/",
    "pref": "大阪府",
    "city": "大阪市北区",
    "category": "tokuyou",
    "serviceType": "介護老人福祉施設",
    "capacity": 0,
    "openDays": [],
    "openDaysNote": ""
  },
  {
    "id": "2779104252",
    "name": "特別養護老人ホ－ムコティコ－ト北大阪",
    "kana": "トクベツヨウゴロウジンホ-ム　コティコ－トキタオオサカ",
    "address": "大阪府大阪市淀川区田川北3-4-3",
    "lat": 34.7222529,
    "lng": 135.4684206,
    "tel": "06-4805-7771",
    "url": "https://www.ikufuku.or.jp/",
    "pref": "大阪府",
    "city": "大阪市淀川区",
    "category": "tokuyou",
    "serviceType": "介護老人福祉施設",
    "capacity": 110,
    "openDays": [],
    "openDaysNote": ""
  },
  {
    "id": "2779100946",
    "name": "特別養護老人ホーム　平成新高苑",
    "kana": "トクベツヨウゴロウジンホーム　ヘイセイニイタカエン",
    "address": "大阪府大阪市淀川区新高4-15-25",
    "lat": 34.7354238,
    "lng": 135.4791169,
    "tel": "06-6397-0710",
    "url": "http://www.heiseifukushikai.com",
    "pref": "大阪府",
    "city": "大阪市淀川区",
    "category": "tokuyou",
    "serviceType": "介護老人福祉施設",
    "capacity": 90,
    "openDays": [],
    "openDaysNote": ""
  },
  {
    "id": "2779100383",
    "name": "特別養護老人ホーム　淀川暖気の苑",
    "kana": "トクベツヨウゴロージンホーム　ヨドガワダンケノソノ",
    "address": "大阪府大阪市淀川区木川西4-5-40淀川暖気の苑 淀川暖気の苑",
    "lat": 34.7277167,
    "lng": 135.4869717,
    "tel": "06-6885-7811",
    "url": "http://danke.tokuyou.jp/",
    "pref": "大阪府",
    "city": "大阪市淀川区",
    "category": "tokuyou",
    "serviceType": "介護老人福祉施設",
    "capacity": 0,
    "openDays": [],
    "openDaysNote": ""
  },
  {
    "id": "2779104765",
    "name": "特別養護老人ホーム愛孝野中苑",
    "kana": "トクベツヨウゴロウジンホームアイコウノナカエン",
    "address": "大阪府大阪市淀川区野中南２丁目８番２７号",
    "lat": 34.7255832,
    "lng": 135.4818921,
    "tel": "06-6885-1606",
    "url": "http://aikoufukushikai.com",
    "pref": "大阪府",
    "city": "大阪市淀川区",
    "category": "tokuyou",
    "serviceType": "介護老人福祉施設",
    "capacity": 0,
    "openDays": [],
    "openDaysNote": ""
  },
  {
    "id": "2779100441",
    "name": "特別養護老人ホーム加寿苑",
    "kana": "トクベツヨウゴロウジンホーム　カジュエン",
    "address": "大阪市淀川区加島1丁目34番8号",
    "lat": 34.7251606,
    "lng": 135.458927,
    "tel": "06-6305-0711",
    "url": "http://www1.odn.ne.jp/~aap70820",
    "pref": "大阪府",
    "city": "大阪市淀川区",
    "category": "tokuyou",
    "serviceType": "介護老人福祉施設",
    "capacity": 0,
    "openDays": [],
    "openDaysNote": ""
  },
  {
    "id": "2779104013",
    "name": "特別養護老人ホーム寿里苑ラピス",
    "kana": "トクベツヨウゴロウジンホームジュリエンラピス",
    "address": "大阪市淀川区木川東2-19-15",
    "lat": 34.7243172,
    "lng": 135.4903881,
    "tel": "06-6101-3939",
    "url": "https://www.julien.or.jp/lapis/",
    "pref": "大阪府",
    "city": "大阪市淀川区",
    "category": "tokuyou",
    "serviceType": "介護老人福祉施設",
    "capacity": 0,
    "openDays": [],
    "openDaysNote": ""
  },
  {
    "id": "2779100235",
    "name": "特別養護老人ホーム博愛の園",
    "kana": "トクベツヨウゴロウジンホームハクアイノソノ",
    "address": "大阪府大阪市淀川区十三元今里３丁目１－88",
    "lat": 34.7228808,
    "lng": 135.4762199,
    "tel": "06-6301-8901",
    "url": "http://www.hakuaisha-welfare.net",
    "pref": "大阪府",
    "city": "大阪市淀川区",
    "category": "tokuyou",
    "serviceType": "介護老人福祉施設",
    "capacity": 73,
    "openDays": [],
    "openDaysNote": ""
  },
  {
    "id": "2774301184",
    "name": "特別養護老人ホーム　アシステンツァ　桜川",
    "kana": "トクベツヨウゴロウジンンホーム　アシステンツァ　サクラガワ",
    "address": "大阪市浪速区桜川三丁目7番2号特別養護老人ホーム　アシステンツァ桜川 特別養護老人ホーム　アシステンツァ桜川",
    "lat": 34.6661574,
    "lng": 135.4871673,
    "tel": "06-6567-5360",
    "url": "http://www.kensyokai.jp",
    "pref": "大阪府",
    "city": "大阪市浪速区",
    "category": "tokuyou",
    "serviceType": "介護老人福祉施設",
    "capacity": 0,
    "openDays": [],
    "openDaysNote": ""
  },
  {
    "id": "2774302224",
    "name": "特別養護老人ホーム　大国さわやか苑",
    "kana": "トクベツヨウゴロウジンホーム　ダイコクサワヤカエン",
    "address": "大阪府大阪市浪速区大国2-17-9",
    "lat": 34.6521425,
    "lng": 135.4953669,
    "tel": "06-6633-0210",
    "url": "http://d-sawayakaen.com/",
    "pref": "大阪府",
    "city": "大阪市浪速区",
    "category": "tokuyou",
    "serviceType": "介護老人福祉施設",
    "capacity": 0,
    "openDays": [],
    "openDaysNote": ""
  },
  {
    "id": "2774300319",
    "name": "特別養護老人ホームあいぜん",
    "kana": "トクベツヨウゴロウジンホームアイゼン",
    "address": "大阪府大阪市浪速区日本橋５丁目１６番１９号",
    "lat": 34.6576668,
    "lng": 135.5047076,
    "tel": "06-6634-8965",
    "url": "http://www.aizenen.or.jp",
    "pref": "大阪府",
    "city": "大阪市浪速区",
    "category": "tokuyou",
    "serviceType": "介護老人福祉施設",
    "capacity": 80,
    "openDays": [],
    "openDaysNote": ""
  },
  {
    "id": "2774301200",
    "name": "特別養護老人ホームなにわ",
    "kana": "トクベツヨウゴロウジンホーム　ナニワ",
    "address": "大阪府大阪市浪速区幸町二丁目３番１１号特別養護老人ホームなにわ 特別養護老人ホームなにわ",
    "lat": 34.6687070887364,
    "lng": 135.489429449074,
    "tel": "06-6568-1861",
    "url": "http://www.kensyokai.jp",
    "pref": "大阪府",
    "city": "大阪市浪速区",
    "category": "tokuyou",
    "serviceType": "介護老人福祉施設",
    "capacity": 58,
    "openDays": [],
    "openDaysNote": ""
  },
  {
    "id": "2771900392",
    "name": "特別養護老人ホーム　みどりの里",
    "kana": "トクベツヨウゴロウジンホーム　ミドリノサト",
    "address": "大阪府大東市北条６丁目２２３０番地の２",
    "lat": 34.7253533,
    "lng": 135.6473409,
    "tel": "072-803-2941",
    "url": "http://www.osaka-midorinosato.com/",
    "pref": "大阪府",
    "city": "大東市",
    "category": "tokuyou",
    "serviceType": "介護老人福祉施設",
    "capacity": 0,
    "openDays": [],
    "openDaysNote": ""
  },
  {
    "id": "2771900061",
    "name": "特別養護老人ホーム　生駒園",
    "kana": "トクベツヨウゴロウジンホウム　イコマエン",
    "address": "大東市龍間1304番地の4",
    "lat": 34.7111689,
    "lng": 135.6612705,
    "tel": "072-869-0300",
    "url": "http://syueikai.jp/tokuyou/",
    "pref": "大阪府",
    "city": "大東市",
    "category": "tokuyou",
    "serviceType": "介護老人福祉施設",
    "capacity": 50,
    "openDays": [],
    "openDaysNote": ""
  },
  {
    "id": "2771900822",
    "name": "特別養護老人ホーム　南郷の里",
    "kana": "トクベツヨウゴロウジンホーム　ナンゴウノサト",
    "address": "大阪府大東市氷野二丁目１番１３号",
    "lat": 34.7110431,
    "lng": 135.617985,
    "tel": "072-873-0031",
    "url": "http://www.souseifukusikai.com/",
    "pref": "大阪府",
    "city": "大東市",
    "category": "tokuyou",
    "serviceType": "介護老人福祉施設",
    "capacity": 80,
    "openDays": [],
    "openDaysNote": ""
  },
  {
    "id": "2771900244",
    "name": "特別養護老人ホーム　和光苑",
    "kana": "トクベツヨウゴロウジンホーム　ワコウエン",
    "address": "大東市野崎3丁目12番1号",
    "lat": 34.7151544,
    "lng": 135.645719,
    "tel": "072-877-8800",
    "url": "http://www.kyouseikai.org/",
    "pref": "大阪府",
    "city": "大東市",
    "category": "tokuyou",
    "serviceType": "介護老人福祉施設",
    "capacity": 80,
    "openDays": [],
    "openDaysNote": ""
  },
  {
    "id": "2771900319",
    "name": "特別養護老人ホームあいの里竜間",
    "kana": "トクベツヨウゴロウジンホームアイノサトタツマ",
    "address": "大阪府大東市大字龍間６７３番地３",
    "lat": 34.7079443,
    "lng": 135.6607762,
    "tel": "072-869-0788",
    "url": "http://ainosato-tatsuma.or.jp/",
    "pref": "大阪府",
    "city": "大東市",
    "category": "tokuyou",
    "serviceType": "介護老人福祉施設",
    "capacity": 60,
    "openDays": [],
    "openDaysNote": ""
  },
  {
    "id": "2772500357",
    "name": "ほほえみの園",
    "kana": "ホホエミノソノ",
    "address": "大阪府池田市建石町８番１０号",
    "lat": 34.8264769,
    "lng": 135.4297381,
    "tel": "072-751-9494",
    "url": "http://www.hohoemi-no-sono.or.jp",
    "pref": "大阪府",
    "city": "池田市",
    "category": "tokuyou",
    "serviceType": "介護老人福祉施設",
    "capacity": 60,
    "openDays": [],
    "openDaysNote": ""
  },
  {
    "id": "2772500209",
    "name": "特別養護老人ホーム　ハートフルふしお",
    "kana": "トクベツヨウゴロウジンホーム　ハートフルフシオ",
    "address": "大阪府池田市伏尾町１２番地1",
    "lat": 34.8602425,
    "lng": 135.4462833,
    "tel": "072-754-2901",
    "url": "http://www.daikyokai.or.jp",
    "pref": "大阪府",
    "city": "池田市",
    "category": "tokuyou",
    "serviceType": "介護老人福祉施設",
    "capacity": 84,
    "openDays": [],
    "openDaysNote": ""
  },
  {
    "id": "2772500258",
    "name": "特別養護老人ホーム　古江台ホール",
    "kana": "トクベツヨウゴロウジンホーム　フルエダイホール",
    "address": "大阪府池田市古江町18番地の2",
    "lat": 34.8534266,
    "lng": 135.4271764,
    "tel": "072-754-6541",
    "url": "https://nozomi-care.jp/",
    "pref": "大阪府",
    "city": "池田市",
    "category": "tokuyou",
    "serviceType": "介護老人福祉施設",
    "capacity": 0,
    "openDays": [],
    "openDaysNote": ""
  },
  {
    "id": "2772502023",
    "name": "特別養護老人ホームオレンジ池田",
    "kana": "トクベツヨウゴロウジンホームオレンジイケダ",
    "address": "大阪府池田市井口堂２丁目４番６号特別養護老人ホームオレンジ池田 特別養護老人ホームオレンジ池田",
    "lat": 34.8165836,
    "lng": 135.4447787,
    "tel": "072-760-0003",
    "url": "http://keiaikai-swc.com/",
    "pref": "大阪府",
    "city": "池田市",
    "category": "tokuyou",
    "serviceType": "介護老人福祉施設",
    "capacity": 50,
    "openDays": [],
    "openDaysNote": ""
  },
  {
    "id": "2772501017",
    "name": "特別養護老人ホームポプラ",
    "kana": "トクベツヨウゴロウジンホームポプラ",
    "address": "大阪府池田市東山町555-1",
    "lat": 34.8484633,
    "lng": 135.4342593,
    "tel": "072-754-0705",
    "url": "http://satsuki-kai.com/",
    "pref": "大阪府",
    "city": "池田市",
    "category": "tokuyou",
    "serviceType": "介護老人福祉施設",
    "capacity": 100,
    "openDays": [],
    "openDaysNote": ""
  },
  {
    "id": "2775400043",
    "name": "ピープルハウス忠岡",
    "kana": "ピープルハウスタダオカ",
    "address": "大阪府泉北郡忠岡町高月北１－１１－３",
    "lat": 34.477811,
    "lng": 135.4171358,
    "tel": "0725-46-3333",
    "url": "http://www.koseikai.org",
    "pref": "大阪府",
    "city": "忠岡町",
    "category": "tokuyou",
    "serviceType": "介護老人福祉施設",
    "capacity": 100,
    "openDays": [],
    "openDaysNote": ""
  },
  {
    "id": "2771200074",
    "name": "特別養護老人ホーム　フィオーレ南海",
    "kana": "トクベツヨウゴロウジンホーム　フィオーレナンカイ",
    "address": "大阪府泉南郡田尻町吉見326-1",
    "lat": 34.3862499,
    "lng": 135.2865212,
    "tel": "072-465-3388",
    "url": "http://www.fiorenankai.join-us.jp",
    "pref": "大阪府",
    "city": "田尻町",
    "category": "tokuyou",
    "serviceType": "介護老人福祉施設",
    "capacity": 60,
    "openDays": [],
    "openDaysNote": ""
  },
  {
    "id": "2773900069",
    "name": "特別養護老人ホーム　弥栄の郷",
    "kana": "トクベツヨウゴロウジンホーム　ヤエノサト",
    "address": "大阪府三島郡島本町山崎五丁目３番２５号",
    "lat": 34.8937239,
    "lng": 135.6756241,
    "tel": "075-961-0171",
    "url": "https://yaenosato-19910801.jp/",
    "pref": "大阪府",
    "city": "島本町",
    "category": "tokuyou",
    "serviceType": "介護老人福祉施設",
    "capacity": 0,
    "openDays": [],
    "openDaysNote": ""
  },
  {
    "id": "2775001908",
    "name": "特別養護老人ホーム　アーバンケア稲田",
    "kana": "トクベツヨウゴロウジンホーム　アーバンケア　イナダ",
    "address": "東大阪市稲田新町１丁目１０番１号",
    "lat": 34.689226,
    "lng": 135.5835474,
    "tel": "06-6748-8008",
    "url": "http://yoshijukai.or.jp/",
    "pref": "大阪府",
    "city": "東大阪市",
    "category": "tokuyou",
    "serviceType": "介護老人福祉施設",
    "capacity": 0,
    "openDays": [],
    "openDaysNote": ""
  },
  {
    "id": "2775001130",
    "name": "特別養護老人ホーム　アーバンケア島之内",
    "kana": "トクベツヨウゴロウジンホーム　アーバンケアシマノウチ",
    "address": "東大阪市吉田本町１丁目１０番１３号",
    "lat": 34.6753,
    "lng": 135.6212577,
    "tel": "072-960-6070",
    "url": "http://yoshijukai.or.jp/",
    "pref": "大阪府",
    "city": "東大阪市",
    "category": "tokuyou",
    "serviceType": "介護老人福祉施設",
    "capacity": 0,
    "openDays": [],
    "openDaysNote": ""
  },
  {
    "id": "2775001536",
    "name": "特別養護老人ホーム　イースタンビラ",
    "kana": "トクベツヨウゴロウジンホーム　イースタンビラ",
    "address": "東大阪市寿町1‐9‐39",
    "lat": 34.6525492,
    "lng": 135.5688853,
    "tel": "06-6729-5033",
    "url": "http://toujyukai.or.jp/",
    "pref": "大阪府",
    "city": "東大阪市",
    "category": "tokuyou",
    "serviceType": "介護老人福祉施設",
    "capacity": null,
    "openDays": [],
    "openDaysNote": ""
  },
  {
    "id": "2775003946",
    "name": "特別養護老人ホーム　ヴェルディ八戸ノ里",
    "kana": "トクベツヨウゴロウジンホーム　ベルディヤエノサト",
    "address": "大阪府東大阪市下小阪四丁目7番36号",
    "lat": 34.6608654,
    "lng": 135.5913164,
    "tel": "06-6727-0030",
    "url": "https://verdy-ten.jp/",
    "pref": "大阪府",
    "city": "東大阪市",
    "category": "tokuyou",
    "serviceType": "介護老人福祉施設",
    "capacity": 92,
    "openDays": [],
    "openDaysNote": ""
  },
  {
    "id": "2775005172",
    "name": "特別養護老人ホーム　きずり逢花苑",
    "kana": "トクベツヨウゴロウジンホーム　キズリオウカエン",
    "address": "大阪府東大阪市衣摺６－１２－３",
    "lat": 34.6392034,
    "lng": 135.5667276,
    "tel": "06-6723-4165",
    "url": "https://www.ontoku.or.jp/facilities/kizuri-home/",
    "pref": "大阪府",
    "city": "東大阪市",
    "category": "tokuyou",
    "serviceType": "介護老人福祉施設",
    "capacity": 70,
    "openDays": [],
    "openDaysNote": ""
  },
  {
    "id": "2775001270",
    "name": "特別養護老人ホーム　サンホーム",
    "kana": "トクベツヨウゴロウジンホーム　サンホーム",
    "address": "大阪府東大阪市御厨南3-1-18",
    "lat": 34.6649011,
    "lng": 135.5929022,
    "tel": "06-6787-3733",
    "url": "http://osakaymca.or.jp/kourei/sunhome/index.html",
    "pref": "大阪府",
    "city": "東大阪市",
    "category": "tokuyou",
    "serviceType": "介護老人福祉施設",
    "capacity": 50,
    "openDays": [],
    "openDaysNote": ""
  },
  {
    "id": "2775001064",
    "name": "特別養護老人ホーム　たちばなの里",
    "kana": "トクベツヨウゴロウジンホウム　タチバナノサト",
    "address": "大阪府東大阪市岸田堂北町6番1号",
    "lat": 34.6563393644717,
    "lng": 135.565028112303,
    "tel": "06-6224-5111",
    "url": "http://tatibananosato.or.jp/",
    "pref": "大阪府",
    "city": "東大阪市",
    "category": "tokuyou",
    "serviceType": "介護老人福祉施設",
    "capacity": 85,
    "openDays": [],
    "openDaysNote": ""
  },
  {
    "id": "2775009612",
    "name": "特別養護老人ホーム　たちばなの里別館永楽",
    "kana": "トクベツヨウゴロウジンホーム　タチバナノサトベッカンエイラク",
    "address": "大阪府東大阪市寺前町1丁目４番２１号",
    "lat": 34.6559904,
    "lng": 135.5660688,
    "tel": "06-6720-1801",
    "url": "http://tatibananosato.or.jp",
    "pref": "大阪府",
    "city": "東大阪市",
    "category": "tokuyou",
    "serviceType": "介護老人福祉施設",
    "capacity": 0,
    "openDays": [],
    "openDaysNote": ""
  },
  {
    "id": "2775003557",
    "name": "特別養護老人ホーム　なるかわ苑",
    "kana": "トクベツヨウゴロウジンホーム　ナルカワエン",
    "address": "大阪府東大阪市上六万寺町１３番４０号",
    "lat": 34.6552613,
    "lng": 135.6519666,
    "tel": "072-986-3680",
    "url": "https://koyu-fukushikai.jp/",
    "pref": "大阪府",
    "city": "東大阪市",
    "category": "tokuyou",
    "serviceType": "介護老人福祉施設",
    "capacity": 0,
    "openDays": [],
    "openDaysNote": ""
  },
  {
    "id": "2775003763",
    "name": "特別養護老人ホーム　ビオスの丘",
    "kana": "トクベツヨウゴロウジンホーム　ビオスノオカ",
    "address": "大阪府東大阪市善根寺町１丁目５番３１号",
    "lat": 34.6989175,
    "lng": 135.6499329,
    "tel": "072-986-0003",
    "url": "https://jinpu-kai.com/company/",
    "pref": "大阪府",
    "city": "東大阪市",
    "category": "tokuyou",
    "serviceType": "介護老人福祉施設",
    "capacity": 30,
    "openDays": [],
    "openDaysNote": ""
  },
  {
    "id": "2775000975",
    "name": "特別養護老人ホーム　みのわの里",
    "kana": "トクベツヨウゴロウジンホーム　ミノワノサト",
    "address": "東大阪市古箕輪１－３－２８",
    "lat": 34.6859959,
    "lng": 135.6166134,
    "tel": "072-964-0308",
    "url": "https://www.kawafukukai.or.jp/",
    "pref": "大阪府",
    "city": "東大阪市",
    "category": "tokuyou",
    "serviceType": "介護老人福祉施設",
    "capacity": 0,
    "openDays": [],
    "openDaysNote": ""
  },
  {
    "id": "2775001551",
    "name": "特別養護老人ホーム　メルテルホーム",
    "kana": "トクベツヨウゴロウジンホーム　メルテルホーム",
    "address": "大阪府東大阪市西岩田４丁目４番８２号",
    "lat": 34.6677677,
    "lng": 135.5993215,
    "tel": "06-6618-1320",
    "url": "",
    "pref": "大阪府",
    "city": "東大阪市",
    "category": "tokuyou",
    "serviceType": "介護老人福祉施設",
    "capacity": 0,
    "openDays": [],
    "openDaysNote": ""
  },
  {
    "id": "2775006451",
    "name": "特別養護老人ホーム　ラプラージュ",
    "kana": "トクベツヨウゴロウジンホーム　ラプラージュ",
    "address": "大阪府東大阪市池島町８－２－１０",
    "lat": 34.6544859,
    "lng": 135.6271494,
    "tel": "072-980-8055",
    "url": "http://hohoemi-fukushi.jp/laplage/",
    "pref": "大阪府",
    "city": "東大阪市",
    "category": "tokuyou",
    "serviceType": "介護老人福祉施設",
    "capacity": 0,
    "openDays": [],
    "openDaysNote": ""
  },
  {
    "id": "2775001544",
    "name": "特別養護老人ホーム　レーベンズポルト",
    "kana": "トクベツヨウゴロウジンホーム　レーベンズポルト",
    "address": "大阪府東大阪市長栄寺21番24号",
    "lat": 34.6684559,
    "lng": 135.5716985,
    "tel": "06-6783-0100",
    "url": "https://jueikai.or.jp",
    "pref": "大阪府",
    "city": "東大阪市",
    "category": "tokuyou",
    "serviceType": "介護老人福祉施設",
    "capacity": 50,
    "openDays": [],
    "openDaysNote": ""
  },
  {
    "id": "2775005966",
    "name": "特別養護老人ホーム　恵の里",
    "kana": "トクベツヨウゴロウジンホーム　メグミノサト",
    "address": "大阪府東大阪市東鴻池町２丁目３番２５号",
    "lat": 34.6923702,
    "lng": 135.6173937,
    "tel": "072-960-3001",
    "url": "http://www.meguminosato.jp/",
    "pref": "大阪府",
    "city": "東大阪市",
    "category": "tokuyou",
    "serviceType": "介護老人福祉施設",
    "capacity": 80,
    "openDays": [],
    "openDaysNote": ""
  },
  {
    "id": "2775001437",
    "name": "特別養護老人ホーム　春光園",
    "kana": "トクベツヨウゴロウジンホーム　シュンコウエン",
    "address": "大阪府東大阪市横枕８番３４号",
    "lat": 34.6809049,
    "lng": 135.6082894,
    "tel": "072-960-8555",
    "url": "http://www.shunkouen.jp/",
    "pref": "大阪府",
    "city": "東大阪市",
    "category": "tokuyou",
    "serviceType": "介護老人福祉施設",
    "capacity": 50,
    "openDays": [],
    "openDaysNote": ""
  },
  {
    "id": "2775001981",
    "name": "特別養護老人ホーム　千寿園",
    "kana": "トクベツヨウゴロウジンホーム　センジュエン",
    "address": "大阪府東大阪市南荘町１３番３８号",
    "lat": 34.674723,
    "lng": 135.6455806,
    "tel": "072-983-7700",
    "url": "",
    "pref": "大阪府",
    "city": "東大阪市",
    "category": "tokuyou",
    "serviceType": "介護老人福祉施設",
    "capacity": 0,
    "openDays": [],
    "openDaysNote": ""
  },
  {
    "id": "2775001106",
    "name": "特別養護老人ホーム　福寿苑",
    "kana": "トクベツヨウゴロウジンホーム　フクジュエン",
    "address": "大阪府東大阪市出雲井本町3番25号",
    "lat": 34.6692903,
    "lng": 135.6461084,
    "tel": "072-985-7771",
    "url": "http://kawafukukai.or.jp",
    "pref": "大阪府",
    "city": "東大阪市",
    "category": "tokuyou",
    "serviceType": "介護老人福祉施設",
    "capacity": 0,
    "openDays": [],
    "openDaysNote": ""
  },
  {
    "id": "2775000660",
    "name": "特別養護老人ホーム　六万寺園",
    "kana": "トクベツヨウゴロウジンホーム　ロクマンジエン",
    "address": "大阪府東大阪市六万寺町1-21-7",
    "lat": 34.6525615,
    "lng": 135.6510862,
    "tel": "072-987-8090",
    "url": "http://syueikai.jp/tokuyou/",
    "pref": "大阪府",
    "city": "東大阪市",
    "category": "tokuyou",
    "serviceType": "介護老人福祉施設",
    "capacity": 100,
    "openDays": [],
    "openDaysNote": ""
  },
  {
    "id": "2775005487",
    "name": "特別養護老人ホームアーバンケア御厨",
    "kana": "トクベツヨウゴロウジンホームアーバンケアミクリヤ",
    "address": "東大阪市御厨東１丁目９番１６号",
    "lat": 34.6701201,
    "lng": 135.5918383,
    "tel": "06-6784-7010",
    "url": "http://yoshijukai.or.jp/",
    "pref": "大阪府",
    "city": "東大阪市",
    "category": "tokuyou",
    "serviceType": "介護老人福祉施設",
    "capacity": 0,
    "openDays": [],
    "openDaysNote": ""
  },
  {
    "id": "2775009331",
    "name": "特別養護老人ホームアーバンケア八戸ノ里",
    "kana": "トクベツヨウゴロウジンホームアーバンケアヤエノサト",
    "address": "大阪府東大阪市御厨中２－３－３２",
    "lat": 34.6660872254485,
    "lng": 135.591909877632,
    "tel": "06-6782-1016",
    "url": "http://yoshijukai.or.jp/",
    "pref": "大阪府",
    "city": "東大阪市",
    "category": "tokuyou",
    "serviceType": "介護老人福祉施設",
    "capacity": 0,
    "openDays": [],
    "openDaysNote": ""
  },
  {
    "id": "2775001411",
    "name": "特別養護老人ホームアンパス東大阪",
    "kana": "トクベツヨウゴロウジンホームアンパスヒガシオオサカ",
    "address": "大阪府東大阪市若江南町3丁目7番7号",
    "lat": 34.6541689,
    "lng": 135.6001297,
    "tel": "06-4307-0333",
    "url": "http://www.ayumi-kai.net/",
    "pref": "大阪府",
    "city": "東大阪市",
    "category": "tokuyou",
    "serviceType": "介護老人福祉施設",
    "capacity": 60,
    "openDays": [],
    "openDaysNote": ""
  },
  {
    "id": "2775013853",
    "name": "特別養護老人ホームかわち野里ながせ",
    "kana": "トクベツヨウゴロウジンホームカワチノサトナガセ",
    "address": "大阪府東大阪市長瀬町１－５－１３",
    "lat": 34.6511522,
    "lng": 135.5753681,
    "tel": "０６－６７２６－０１３１",
    "url": "http://kawatino.jp/",
    "pref": "大阪府",
    "city": "東大阪市",
    "category": "tokuyou",
    "serviceType": "介護老人福祉施設",
    "capacity": 0,
    "openDays": [],
    "openDaysNote": ""
  },
  {
    "id": "2775004787",
    "name": "特別養護老人ホーム向日葵",
    "kana": "トクベツヨウゴロウジンホームヒマワリ",
    "address": "大阪府東大阪市玉串町東1丁目10番20号",
    "lat": 34.6560079,
    "lng": 135.6215388,
    "tel": "072-966-7756",
    "url": "http://www.tamami.or.jp",
    "pref": "大阪府",
    "city": "東大阪市",
    "category": "tokuyou",
    "serviceType": "介護老人福祉施設",
    "capacity": 72,
    "openDays": [],
    "openDaysNote": ""
  },
  {
    "id": "2775012525",
    "name": "特別養護老人ホーム八戸ノ里向日葵",
    "kana": "トクベツヨウゴロウジンホームヤエノサトヒマワリ",
    "address": "大阪府東大阪市若江西新町3-1-9",
    "lat": 34.6556576,
    "lng": 135.5965938,
    "tel": "06-6730-7181",
    "url": "http://www.tamami.or.jp/yaenosato.shtml",
    "pref": "大阪府",
    "city": "東大阪市",
    "category": "tokuyou",
    "serviceType": "介護老人福祉施設",
    "capacity": 90,
    "openDays": [],
    "openDaysNote": ""
  },
  {
    "id": "2775002351",
    "name": "特別養護老人ホーム布市福寿苑",
    "kana": "トクベツヨウゴロウジンホームヌノイチフクジュエン",
    "address": "東大阪市布市町２－１２－２",
    "lat": 34.6945704,
    "lng": 135.6394697,
    "tel": "072-983-2255",
    "url": "https://kawafukukai.or.jp/",
    "pref": "大阪府",
    "city": "東大阪市",
    "category": "tokuyou",
    "serviceType": "介護老人福祉施設",
    "capacity": 0,
    "openDays": [],
    "openDaysNote": ""
  },
  {
    "id": "2773400193",
    "name": "大阪老人ホーム惣社",
    "kana": "オオサカロウジンホームソウシャ",
    "address": "大阪府藤井寺市惣社2丁目5番15号",
    "lat": 34.5765277,
    "lng": 135.6210375,
    "tel": "072-952-3788",
    "url": "https://www.shoutokukai.net/",
    "pref": "大阪府",
    "city": "藤井寺市",
    "category": "tokuyou",
    "serviceType": "介護老人福祉施設",
    "capacity": 50,
    "openDays": [],
    "openDaysNote": ""
  },
  {
    "id": "2773400151",
    "name": "藤井寺特別養護老人ホーム",
    "kana": "フジイデラトクベツヨウゴロウジンホーム",
    "address": "大阪府藤井寺市藤井寺4-11-7",
    "lat": 34.5651892,
    "lng": 135.5958907,
    "tel": "072-952-0008",
    "url": "http://www.misasagikai.or.jp",
    "pref": "大阪府",
    "city": "藤井寺市",
    "category": "tokuyou",
    "serviceType": "介護老人福祉施設",
    "capacity": 0,
    "openDays": [],
    "openDaysNote": ""
  },
  {
    "id": "2773400375",
    "name": "特別養護老人ホーム　つどうホール",
    "kana": "トクベツヨウゴロウジンホーム　ツドウホール",
    "address": "大阪府藤井寺市小山３丁目１５１番地の1",
    "lat": 34.5816763,
    "lng": 135.5877913,
    "tel": "072-953-0248",
    "url": "http://www.misasagikai.or.jp",
    "pref": "大阪府",
    "city": "藤井寺市",
    "category": "tokuyou",
    "serviceType": "介護老人福祉施設",
    "capacity": 50,
    "openDays": [],
    "openDaysNote": ""
  },
  {
    "id": "2774700088",
    "name": "特別養護老人ホーム　青山荘",
    "kana": "トクベツヨウゴロウジンホーム　セイザンソウ",
    "address": "大阪府豊能郡能勢町平野142番地の1",
    "lat": 34.9556542,
    "lng": 135.394868,
    "tel": "072-734-2388",
    "url": "http://fuyoufukusikai.com/",
    "pref": "大阪府",
    "city": "能勢町",
    "category": "tokuyou",
    "serviceType": "介護老人福祉施設",
    "capacity": 50,
    "openDays": [],
    "openDaysNote": ""
  },
  {
    "id": "2774600213",
    "name": "特別養護老人ホーム　大阪「好意の庭」",
    "kana": "トクベツヨウゴロウジンホーム　オオサカ「コイノニア」",
    "address": "大阪府柏原市旭ヶ丘3丁目13番45号",
    "lat": 34.5571993,
    "lng": 135.6388614,
    "tel": "072-976-0090",
    "url": "http://www.osakakoinonia.jp",
    "pref": "大阪府",
    "city": "柏原市",
    "category": "tokuyou",
    "serviceType": "介護老人福祉施設",
    "capacity": 50,
    "openDays": [],
    "openDaysNote": ""
  },
  {
    "id": "2774600254",
    "name": "特別養護老人ホーム　第二好意の庭",
    "kana": "トクベツヨウゴロウジンホーム　ダイニコイノニア",
    "address": "大阪府柏原市国分市場1-9-45特別養護老人ホーム第二好意の庭 特別養護老人ホーム第二好意の庭",
    "lat": 34.5715238,
    "lng": 135.6487802,
    "tel": "072-976-0091",
    "url": "http://www.koinonia.or.jp/koinonia2/",
    "pref": "大阪府",
    "city": "柏原市",
    "category": "tokuyou",
    "serviceType": "介護老人福祉施設",
    "capacity": 60,
    "openDays": [],
    "openDaysNote": ""
  },
  {
    "id": "2774600114",
    "name": "特別養護老人ホームはくとう",
    "kana": "トクベツヨウゴロウジンホームハクトウ",
    "address": "大阪府柏原市大字青谷2104番地の1",
    "lat": 34.5737445,
    "lng": 135.6557816,
    "tel": "072-979-0260",
    "url": "https://meijyukai.jp/",
    "pref": "大阪府",
    "city": "柏原市",
    "category": "tokuyou",
    "serviceType": "介護老人福祉施設",
    "capacity": 50,
    "openDays": [],
    "openDaysNote": ""
  },
  {
    "id": "2774600320",
    "name": "特別養護老人ホーム高寿",
    "kana": "トクベツヨウゴロウジンホームコウジュ",
    "address": "大阪府柏原市大字高井田650番1",
    "lat": 34.5720948,
    "lng": 135.6374805,
    "tel": "072-977-5533",
    "url": "http://jyukoukai.org/index1.html",
    "pref": "大阪府",
    "city": "柏原市",
    "category": "tokuyou",
    "serviceType": "介護老人福祉施設",
    "capacity": 30,
    "openDays": [],
    "openDaysNote": ""
  },
  {
    "id": "2774600320",
    "name": "特別養護老人ホーム柏寿",
    "kana": "トクベツヨウゴロウジンホームカシジュ",
    "address": "大阪府柏原市大字高井田650番1",
    "lat": 34.5733329969038,
    "lng": 135.633752004321,
    "tel": "072-977-5533",
    "url": "http://kasijyu.jyukoukai.org/",
    "pref": "大阪府",
    "city": "柏原市",
    "category": "tokuyou",
    "serviceType": "介護老人福祉施設",
    "capacity": 30,
    "openDays": [],
    "openDaysNote": ""
  },
  {
    "id": "2775502244",
    "name": "特別養護老人ホーム　しあわせの郷",
    "kana": "シアワセノサト",
    "address": "大阪府八尾市郡川三丁目80番地1",
    "lat": 34.6221173,
    "lng": 135.6350687,
    "tel": "072-941-1102",
    "url": "http://shiawasenosato.com/",
    "pref": "大阪府",
    "city": "八尾市",
    "category": "tokuyou",
    "serviceType": "介護老人福祉施設",
    "capacity": 0,
    "openDays": [],
    "openDaysNote": ""
  },
  {
    "id": "2775501980",
    "name": "特別養護老人ホーム　ピュア",
    "kana": "トクベツヨウゴロウジンホウム　ピュア",
    "address": "大阪府八尾市郡川2丁目33番地１",
    "lat": 34.6242976,
    "lng": 135.6365575,
    "tel": "072-941-5755",
    "url": "http://www.kaguyamakai.com",
    "pref": "大阪府",
    "city": "八尾市",
    "category": "tokuyou",
    "serviceType": "介護老人福祉施設",
    "capacity": 60,
    "openDays": [],
    "openDaysNote": ""
  },
  {
    "id": "2775500610",
    "name": "特別養護老人ホーム　ホーム太子堂",
    "kana": "トクベツヨウゴロウジンホーム　ホームタイシドウ",
    "address": "八尾市太子堂４－１－３２",
    "lat": 34.6150395,
    "lng": 135.5861932,
    "tel": "072-996-0026",
    "url": "http://www.ryuge.or.jp/",
    "pref": "大阪府",
    "city": "八尾市",
    "category": "tokuyou",
    "serviceType": "介護老人福祉施設",
    "capacity": 0,
    "openDays": [],
    "openDaysNote": ""
  },
  {
    "id": "2775500313",
    "name": "特別養護老人ホーム　萱振苑",
    "kana": "トクベツヨウゴロウジンホーム　カヤフリエン",
    "address": "大阪府八尾市萱振町5丁目10番地",
    "lat": 34.6435507,
    "lng": 135.6067044,
    "tel": "072-999-2077",
    "url": "tukushikayahuri.sakura.ne.jp/",
    "pref": "大阪府",
    "city": "八尾市",
    "category": "tokuyou",
    "serviceType": "介護老人福祉施設",
    "capacity": 90,
    "openDays": [],
    "openDaysNote": ""
  },
  {
    "id": "2775500354",
    "name": "特別養護老人ホーム　吉兆苑",
    "kana": "トクベツヨウゴロウジンホーム　キッチョウエン",
    "address": "大阪府八尾市幸町六丁目33番地2",
    "lat": 34.6500555,
    "lng": 135.606432,
    "tel": "072-999-1500",
    "url": "http://www.kicchouen.com",
    "pref": "大阪府",
    "city": "八尾市",
    "category": "tokuyou",
    "serviceType": "介護老人福祉施設",
    "capacity": 0,
    "openDays": [],
    "openDaysNote": ""
  },
  {
    "id": "2775501147",
    "name": "特別養護老人ホーム　幸寿",
    "kana": "トクベツヨウゴロウジンホーム　コウジュ",
    "address": "八尾市太田３丁目１９２番地２特別養護老人ホーム　幸寿 特別養護老人ホーム　幸寿",
    "lat": 34.5903866,
    "lng": 135.589302,
    "tel": "072-949-0170",
    "url": "",
    "pref": "大阪府",
    "city": "八尾市",
    "category": "tokuyou",
    "serviceType": "介護老人福祉施設",
    "capacity": 0,
    "openDays": [],
    "openDaysNote": ""
  },
  {
    "id": "2775501725",
    "name": "特別養護老人ホーム　高安の郷",
    "kana": "トクベツヨウゴロウジンホーム　タカヤスノサト",
    "address": "大阪府八尾市服部川４丁目７７番地１",
    "lat": 34.6253447,
    "lng": 135.6416487,
    "tel": "072-941-0067",
    "url": "",
    "pref": "大阪府",
    "city": "八尾市",
    "category": "tokuyou",
    "serviceType": "介護老人福祉施設",
    "capacity": 0,
    "openDays": [],
    "openDaysNote": ""
  },
  {
    "id": "2775502236",
    "name": "特別養護老人ホーム　高秀苑",
    "kana": "トクベツヨウゴロウジンホーム　コウシュウエン",
    "address": "八尾市桂町５丁目１１－６特別養護老人ホーム　高秀苑 特別養護老人ホーム　高秀苑",
    "lat": 34.6438828,
    "lng": 135.6141612,
    "tel": "072-922-5355",
    "url": "http://koushuen.com",
    "pref": "大阪府",
    "city": "八尾市",
    "category": "tokuyou",
    "serviceType": "介護老人福祉施設",
    "capacity": 63,
    "openDays": [],
    "openDaysNote": ""
  },
  {
    "id": "2775500412",
    "name": "特別養護老人ホーム　信貴の里",
    "kana": "トクベツヨウゴロウジンホーム　シギノサト",
    "address": "八尾市服部川5丁目7番地2",
    "lat": 34.628125,
    "lng": 135.63881,
    "tel": "072-941-9981",
    "url": "http://shiginosato.com",
    "pref": "大阪府",
    "city": "八尾市",
    "category": "tokuyou",
    "serviceType": "介護老人福祉施設",
    "capacity": 0,
    "openDays": [],
    "openDaysNote": ""
  },
  {
    "id": "2775500990",
    "name": "特別養護老人ホームあすか八尾",
    "kana": "トクベツヨウゴロウジンホームアスカヤオ",
    "address": "大阪府八尾市太子堂四丁目２番３３号",
    "lat": 34.6144063,
    "lng": 135.5861182,
    "tel": "072-925-7501",
    "url": "http://www.tomojyu.or.jp",
    "pref": "大阪府",
    "city": "八尾市",
    "category": "tokuyou",
    "serviceType": "介護老人福祉施設",
    "capacity": 0,
    "openDays": [],
    "openDaysNote": ""
  },
  {
    "id": "2775505221",
    "name": "特別養護老人ホーム久宝寺愛の郷",
    "kana": "トクベツヨウゴロウジンホームキュウホウジアイノサト",
    "address": "大阪府八尾市久宝寺三丁目15-38",
    "lat": 34.629708447586,
    "lng": 135.587679998758,
    "tel": "072-924-5660",
    "url": "https://kyuhoji-ainosato.jp/",
    "pref": "大阪府",
    "city": "八尾市",
    "category": "tokuyou",
    "serviceType": "介護老人福祉施設",
    "capacity": 50,
    "openDays": [],
    "openDaysNote": ""
  },
  {
    "id": "2775505791",
    "name": "特別養護老人ホーム四天王寺大畑山苑",
    "kana": "トクベツヨウゴロウジンホームシテンノウジオオハタヤマエン",
    "address": "大阪府八尾市大字恩智1092-2",
    "lat": 34.6095687,
    "lng": 135.6362603,
    "tel": "072-941-0252",
    "url": "http://www.shitennoji-fukushi.jp/oohatayamaen/",
    "pref": "大阪府",
    "city": "八尾市",
    "category": "tokuyou",
    "serviceType": "介護老人福祉施設",
    "capacity": 0,
    "openDays": [],
    "openDaysNote": ""
  },
  {
    "id": "2775500552",
    "name": "特別養護老人ホーム寿光園",
    "kana": "トクベツヨウゴロウジンホームジュコウエン",
    "address": "大阪府八尾市楽音寺2-125",
    "lat": 34.6410847,
    "lng": 135.6387599,
    "tel": "072-941-2130",
    "url": "http://jyukouen.jyukoukai.org",
    "pref": "大阪府",
    "city": "八尾市",
    "category": "tokuyou",
    "serviceType": "介護老人福祉施設",
    "capacity": 0,
    "openDays": [],
    "openDaysNote": ""
  },
  {
    "id": "2775500321",
    "name": "特別養護老人ホーム成法苑",
    "kana": "トクベツヨウゴロウジンホームセイホウエン",
    "address": "大阪府八尾市南本町3-4-5",
    "lat": 34.6226392,
    "lng": 135.6054688,
    "tel": "072-994-8001",
    "url": "http://www.yaorinpokan.or.jp/",
    "pref": "大阪府",
    "city": "八尾市",
    "category": "tokuyou",
    "serviceType": "介護老人福祉施設",
    "capacity": 0,
    "openDays": [],
    "openDaysNote": ""
  },
  {
    "id": "2775501758",
    "name": "特別養護老人ホーム長生園",
    "kana": "トクベツヨウゴロウジンホーム　チョウセイエン",
    "address": "大阪府八尾市光南町１丁目４番８号",
    "lat": 34.6241666,
    "lng": 135.5987389,
    "tel": "072-991-5837",
    "url": "https://www.yojukai.net/",
    "pref": "大阪府",
    "city": "八尾市",
    "category": "tokuyou",
    "serviceType": "介護老人福祉施設",
    "capacity": 50,
    "openDays": [],
    "openDaysNote": ""
  },
  {
    "id": "2774901520",
    "name": "かんなびのさと",
    "kana": "カンナビノサト",
    "address": "大阪府富田林市大字甘南備216番地",
    "lat": 34.4537215,
    "lng": 135.5966922,
    "tel": "0721-34-2206",
    "url": "http://www.sfj-osaka.net",
    "pref": "大阪府",
    "city": "富田林市",
    "category": "tokuyou",
    "serviceType": "介護老人福祉施設",
    "capacity": 80,
    "openDays": [],
    "openDaysNote": ""
  },
  {
    "id": "2774900308",
    "name": "特別養護老人ホーム　　オレンジ荘",
    "kana": "トクベツヨウゴロウジンホーム　オレンジソウ",
    "address": "大阪府富田林市大字龍泉８７７－７８",
    "lat": 34.4645871,
    "lng": 135.5965309,
    "tel": "0721-33-0911",
    "url": "http://www.orange.or.jp/",
    "pref": "大阪府",
    "city": "富田林市",
    "category": "tokuyou",
    "serviceType": "介護老人福祉施設",
    "capacity": 0,
    "openDays": [],
    "openDaysNote": ""
  },
  {
    "id": "2774900845",
    "name": "特別養護老人ホーム　喜志菊水苑",
    "kana": "トクベツヨウゴロウジンホーム　キシキクスイエン",
    "address": "大阪府富田林市喜志町３丁目１番３３号",
    "lat": 34.5222778,
    "lng": 135.6097676,
    "tel": "0721-26-0056",
    "url": "http://www.kikusuien.com/",
    "pref": "大阪府",
    "city": "富田林市",
    "category": "tokuyou",
    "serviceType": "介護老人福祉施設",
    "capacity": 100,
    "openDays": [],
    "openDaysNote": ""
  },
  {
    "id": "2774900118",
    "name": "特別養護老人ホーム　錦織荘",
    "kana": "トクベツヨウゴロウジンホーム　ニシキオリソウ",
    "address": "大阪府富田林市錦織東三丁目４番１８号",
    "lat": 34.4777791914839,
    "lng": 135.585097809835,
    "tel": "0721-26-1187",
    "url": "http://tomiwakai.or.jp",
    "pref": "大阪府",
    "city": "富田林市",
    "category": "tokuyou",
    "serviceType": "介護老人福祉施設",
    "capacity": 0,
    "openDays": [],
    "openDaysNote": ""
  },
  {
    "id": "2774900621",
    "name": "富田林特別養護老人ホーム富美ヶ丘荘",
    "kana": "トンダバヤシトクベツヨウゴロウジンホーム　フミガオカソウ",
    "address": "大阪府富田林市向陽台一丁目3番22号",
    "lat": 34.5020810331781,
    "lng": 135.583032943517,
    "tel": "0721-29-1161",
    "url": "https://tondabayashi.saiseikai.or.jp/fumigaokasou/",
    "pref": "大阪府",
    "city": "富田林市",
    "category": "tokuyou",
    "serviceType": "介護老人福祉施設",
    "capacity": 0,
    "openDays": [],
    "openDaysNote": ""
  },
  {
    "id": "2774001297",
    "name": "特別養護老人ホーム　アリス千里",
    "kana": "トクベツヨウゴロウジンホーム　アリスセンリ",
    "address": "大阪府豊中市新千里北町1-18-2",
    "lat": 34.8153123,
    "lng": 135.4963917,
    "tel": "06-6155-0050",
    "url": "http://www.toyonakafamily.com/",
    "pref": "大阪府",
    "city": "豊中市",
    "category": "tokuyou",
    "serviceType": "介護老人福祉施設",
    "capacity": 0,
    "openDays": [],
    "openDaysNote": ""
  },
  {
    "id": "2774002584",
    "name": "特別養護老人ホーム　ふるる",
    "kana": "トクベツヨウゴロウジンホーム　フルル",
    "address": "大阪府豊中市小曽根4丁目5-1",
    "lat": 34.7564521,
    "lng": 135.484088,
    "tel": "06-6336-8850",
    "url": "http://www.fururu-home.com",
    "pref": "大阪府",
    "city": "豊中市",
    "category": "tokuyou",
    "serviceType": "介護老人福祉施設",
    "capacity": 0,
    "openDays": [],
    "openDaysNote": ""
  },
  {
    "id": "2774003541",
    "name": "特別養護老人ホーム　ロココ豊中",
    "kana": "トクベツヨウゴロウジンホーム　ロココトヨナカ",
    "address": "大阪府豊中市宝山町7番8号",
    "lat": 34.7802715,
    "lng": 135.4580647,
    "tel": "06-6858-1060",
    "url": "http://www.kouyukai.jp/",
    "pref": "大阪府",
    "city": "豊中市",
    "category": "tokuyou",
    "serviceType": "介護老人福祉施設",
    "capacity": 95,
    "openDays": [],
    "openDaysNote": ""
  },
  {
    "id": "2774001529",
    "name": "特別養護老人ホーム　豊泉家　北緑丘",
    "kana": "トクベツヨウゴロウジンホーム　ホウセンカ　キタミドリガオカ",
    "address": "大阪府豊中市北緑丘2丁目9番5号",
    "lat": 34.8182062,
    "lng": 135.4819983,
    "tel": "06-6152-1233",
    "url": "http://www.housenka.com",
    "pref": "大阪府",
    "city": "豊中市",
    "category": "tokuyou",
    "serviceType": "介護老人福祉施設",
    "capacity": 0,
    "openDays": [],
    "openDaysNote": ""
  },
  {
    "id": "2774001933",
    "name": "特別養護老人ホーム　豊中あいわ苑",
    "kana": "トクベツヨウゴロウジンホーム　トヨナカアイワエン",
    "address": "大阪府豊中市寺内1丁目1番10号",
    "lat": 34.7766165,
    "lng": 135.4917536,
    "tel": "06-6866-2941",
    "url": "http://www.aijinkai.or.jp/aiwaen/",
    "pref": "大阪府",
    "city": "豊中市",
    "category": "tokuyou",
    "serviceType": "介護老人福祉施設",
    "capacity": 0,
    "openDays": [],
    "openDaysNote": ""
  },
  {
    "id": "2774000414",
    "name": "特別養護老人ホーム　豊中グリーンヒル",
    "kana": "トクベツヨウゴロウジンホームトヨナカグリーンヒル",
    "address": "豊中市緑丘３－３３０－２",
    "lat": 34.8156176,
    "lng": 135.4875036,
    "tel": "06-6845-6667",
    "url": "https://www.syoujyukai.com/",
    "pref": "大阪府",
    "city": "豊中市",
    "category": "tokuyou",
    "serviceType": "介護老人福祉施設",
    "capacity": 105,
    "openDays": [],
    "openDaysNote": ""
  },
  {
    "id": "2774001719",
    "name": "特別養護老人ホームきらぼし",
    "kana": "トクベツヨウゴロウジンホームキラボシ",
    "address": "大阪府豊中市上新田２丁目１７番１号",
    "lat": 34.8066938,
    "lng": 135.5005972,
    "tel": "06-6835-6677",
    "url": "http://www.kiraboshi.jp",
    "pref": "大阪府",
    "city": "豊中市",
    "category": "tokuyou",
    "serviceType": "介護老人福祉施設",
    "capacity": 0,
    "openDays": [],
    "openDaysNote": ""
  },
  {
    "id": "2774000687",
    "name": "特別養護老人ホームほづみ",
    "kana": "トクベツヨウゴロウジンホームホヅミ",
    "address": "大阪府豊中市穂積一丁目9番1号",
    "lat": 34.7564603,
    "lng": 135.4714197,
    "tel": "06-6866-1125",
    "url": "https://www.shoujyukai.com/",
    "pref": "大阪府",
    "city": "豊中市",
    "category": "tokuyou",
    "serviceType": "介護老人福祉施設",
    "capacity": 0,
    "openDays": [],
    "openDaysNote": ""
  },
  {
    "id": "2774001495",
    "name": "特別養護老人ホームユーフォリア豊中",
    "kana": "トクベツヨウゴロウジンホームユーフォリアトヨナカ",
    "address": "大阪府豊中市勝部1-12-21ユーフォリア豊中 ユーフォリア豊中",
    "lat": 34.7737612,
    "lng": 135.4558345,
    "tel": "06-6844-3550",
    "url": "http://www.euphoria-toyonaka.com/",
    "pref": "大阪府",
    "city": "豊中市",
    "category": "tokuyou",
    "serviceType": "介護老人福祉施設",
    "capacity": 0,
    "openDays": [],
    "openDaysNote": ""
  },
  {
    "id": "2774000851",
    "name": "特別養護老人ホーム淳風とよなか",
    "kana": "トクベツヨウゴロウジンホームジュンプウトヨナカ",
    "address": "豊中市二葉町2-4-5",
    "lat": 34.7366288,
    "lng": 135.4633516,
    "tel": "06-6335-0785",
    "url": "http://junpu-kai.or.jp",
    "pref": "大阪府",
    "city": "豊中市",
    "category": "tokuyou",
    "serviceType": "介護老人福祉施設",
    "capacity": 60,
    "openDays": [],
    "openDaysNote": ""
  },
  {
    "id": "2774005074",
    "name": "特別養護老人ホーム清豊苑",
    "kana": "トクベツヨウゴロウジンホームセイホウエン",
    "address": "大阪府豊中市走井2-8-5",
    "lat": 34.7810296,
    "lng": 135.4499542,
    "tel": "06-6845-2525",
    "url": "http://seihoen.well-seikokai.jp/",
    "pref": "大阪府",
    "city": "豊中市",
    "category": "tokuyou",
    "serviceType": "介護老人福祉施設",
    "capacity": 144,
    "openDays": [],
    "openDaysNote": ""
  },
  {
    "id": "2774003491",
    "name": "特別養護老人ホーム美豊苑",
    "kana": "トクベツヨウゴロウジンホームビホウエン",
    "address": "大阪府豊中市箕輪2-13-12",
    "lat": 34.7863401,
    "lng": 135.4504873,
    "tel": "06-6840-7077",
    "url": "http://well-seikokai.jp/",
    "pref": "大阪府",
    "city": "豊中市",
    "category": "tokuyou",
    "serviceType": "介護老人福祉施設",
    "capacity": 45,
    "openDays": [],
    "openDaysNote": ""
  },
  {
    "id": "2774003327",
    "name": "特別養護老人ホーム豊寿荘",
    "kana": "トクベツヨウゴロウジンホームホウジュソウ",
    "address": "大阪府豊中市新千里西町二丁目7番2号",
    "lat": 34.8092265,
    "lng": 135.48509,
    "tel": "06-6831-7225",
    "url": "http://www.osj.or.jp/houju/",
    "pref": "大阪府",
    "city": "豊中市",
    "category": "tokuyou",
    "serviceType": "介護老人福祉施設",
    "capacity": 0,
    "openDays": [],
    "openDaysNote": ""
  },
  {
    "id": "2774700187",
    "name": "特別養護老人ホーム　のせの里",
    "kana": "トクベツヨウゴロウジンホーム　ノセノサト",
    "address": "大阪府豊能郡豊能町木代３３５",
    "lat": 34.9195005,
    "lng": 135.4972206,
    "tel": "072-739-2240",
    "url": "",
    "pref": "大阪府",
    "city": "豊能町",
    "category": "tokuyou",
    "serviceType": "介護老人福祉施設",
    "capacity": 0,
    "openDays": [],
    "openDaysNote": ""
  },
  {
    "id": "2774700682",
    "name": "特別養護老人ホーム祥雲館",
    "kana": "トクベツヨウゴロウジンホームショウウンカン",
    "address": "大阪府豊能郡豊能町吉川１８７－１",
    "lat": 34.9118783,
    "lng": 135.4475915,
    "tel": "072-733-2301",
    "url": "http://syownkan.jp",
    "pref": "大阪府",
    "city": "豊能町",
    "category": "tokuyou",
    "serviceType": "介護老人福祉施設",
    "capacity": 0,
    "openDays": [],
    "openDaysNote": ""
  },
  {
    "id": "2772400665",
    "name": "アイリス",
    "kana": "アイリス",
    "address": "大阪府枚方市春日東町2丁目12番10号",
    "lat": 34.8022425,
    "lng": 135.6935103,
    "tel": "072-858-1300",
    "url": "http://my-iris.jp/",
    "pref": "大阪府",
    "city": "枚方市",
    "category": "tokuyou",
    "serviceType": "介護老人福祉施設",
    "capacity": 0,
    "openDays": [],
    "openDaysNote": ""
  },
  {
    "id": "2772409468",
    "name": "いこいの里",
    "kana": "イコイノサト",
    "address": "大阪府枚方市交北二丁目10番1号",
    "lat": 34.8286855,
    "lng": 135.6764921,
    "tel": "072-898-2197",
    "url": "http://www.syoujukai.org",
    "pref": "大阪府",
    "city": "枚方市",
    "category": "tokuyou",
    "serviceType": "介護老人福祉施設",
    "capacity": 0,
    "openDays": [],
    "openDaysNote": ""
  },
  {
    "id": "2772400798",
    "name": "ピープルハウス枚方",
    "kana": "ピープルハウスヒラカタ",
    "address": "大阪府枚方市尊延寺１丁目４番１号",
    "lat": 34.805868,
    "lng": 135.7254094,
    "tel": "072-859-6800",
    "url": "http://www.koseikai.org",
    "pref": "大阪府",
    "city": "枚方市",
    "category": "tokuyou",
    "serviceType": "介護老人福祉施設",
    "capacity": 50,
    "openDays": [],
    "openDaysNote": ""
  },
  {
    "id": "2772400889",
    "name": "ひらかた聖徳園",
    "kana": "ヒラカタショウトクエン",
    "address": "大阪府枚方市香里ヶ丘3丁目15-1",
    "lat": 34.7927675,
    "lng": 135.6574859,
    "tel": "072-854-5826",
    "url": "http://www.shotokuen.or.jp/",
    "pref": "大阪府",
    "city": "枚方市",
    "category": "tokuyou",
    "serviceType": "介護老人福祉施設",
    "capacity": 120,
    "openDays": [],
    "openDaysNote": ""
  },
  {
    "id": "2772400483",
    "name": "介護老人福祉施設　安心苑",
    "kana": "カイゴロウジンフクシシセツ　アンシンエン",
    "address": "大阪府枚方市招提北町2-25-1",
    "lat": 34.8470317,
    "lng": 135.6875514,
    "tel": "072-866-2217",
    "url": "http://www.seishow.or.jp/",
    "pref": "大阪府",
    "city": "枚方市",
    "category": "tokuyou",
    "serviceType": "介護老人福祉施設",
    "capacity": 0,
    "openDays": [],
    "openDaysNote": ""
  },
  {
    "id": "2772408262",
    "name": "社会福祉法人希望会　特別養護老人ホームのぞみの杜",
    "kana": "シャカイフクシホウジンキボウカイ　トクベツヨウゴロウジンホームノゾミノモリ",
    "address": "大阪府枚方市東中振２丁目１７番１３号",
    "lat": 34.7963442,
    "lng": 135.6412454,
    "tel": "072-835-3337",
    "url": "http://kiboukai-nozomi.jp",
    "pref": "大阪府",
    "city": "枚方市",
    "category": "tokuyou",
    "serviceType": "介護老人福祉施設",
    "capacity": 0,
    "openDays": [],
    "openDaysNote": ""
  },
  {
    "id": "2772403735",
    "name": "特別養護老人ホーム　いこいの里",
    "kana": "トクベツヨウゴロウジンホーム　イコイノサト",
    "address": "大阪府枚方市交北二丁目10-1",
    "lat": 34.8285696,
    "lng": 135.6765362,
    "tel": "072-898-2197",
    "url": "http://www.syoujukai.org/",
    "pref": "大阪府",
    "city": "枚方市",
    "category": "tokuyou",
    "serviceType": "介護老人福祉施設",
    "capacity": 0,
    "openDays": [],
    "openDaysNote": ""
  },
  {
    "id": "2772404246",
    "name": "特別養護老人ホーム　うぐいすの里",
    "kana": "トクベツヨウゴロウジンホウム　ウグイスノサト",
    "address": "大阪府枚方市南中振3-8-20",
    "lat": 34.7907649,
    "lng": 135.6211025,
    "tel": "072-833-6000",
    "url": "https://uguisunosato.or.jp/",
    "pref": "大阪府",
    "city": "枚方市",
    "category": "tokuyou",
    "serviceType": "介護老人福祉施設",
    "capacity": 60,
    "openDays": [],
    "openDaysNote": ""
  },
  {
    "id": "2772402844",
    "name": "特別養護老人ホーム　サール・ナート",
    "kana": "トクベツヨウゴロウジンホーム　サール・ナート",
    "address": "大阪府枚方市高田２丁目４０－１",
    "lat": 34.777014,
    "lng": 135.6633187,
    "tel": "072-860-1117",
    "url": "http://www.valsta.jp",
    "pref": "大阪府",
    "city": "枚方市",
    "category": "tokuyou",
    "serviceType": "介護老人福祉施設",
    "capacity": 0,
    "openDays": [],
    "openDaysNote": ""
  },
  {
    "id": "2772400319",
    "name": "特別養護老人ホーム　津田荘",
    "kana": "トクベツヨウゴロウジンホーム　ツダソウ",
    "address": "大阪府枚方市津田東町２丁目１番１号",
    "lat": 34.8114421,
    "lng": 135.7111609,
    "tel": "072-858-1755",
    "url": "http://hirakataryoiku-med.or.jp",
    "pref": "大阪府",
    "city": "枚方市",
    "category": "tokuyou",
    "serviceType": "介護老人福祉施設",
    "capacity": 100,
    "openDays": [],
    "openDaysNote": ""
  },
  {
    "id": "2772403511",
    "name": "特別養護老人ホーム　夢心",
    "kana": "トクベツヨウゴロウジンホームユメゴコロ",
    "address": "枚方市長尾北町１丁目１７８５番２",
    "lat": 34.8351807,
    "lng": 135.7000256,
    "tel": "072-866-3939",
    "url": "http://www.seishow.or.jp",
    "pref": "大阪府",
    "city": "枚方市",
    "category": "tokuyou",
    "serviceType": "介護老人福祉施設",
    "capacity": 0,
    "openDays": [],
    "openDaysNote": ""
  },
  {
    "id": "2772400947",
    "name": "特別養護老人ホーム　悠々の苑",
    "kana": "トクベツヨウゴロウジンホーム　ユウユウノソノ",
    "address": "大阪府枚方市交北３－１－５０",
    "lat": 34.8346912,
    "lng": 135.6771221,
    "tel": "072-850-0038",
    "url": "https://care-net.biz/27/yuuyuunosono/",
    "pref": "大阪府",
    "city": "枚方市",
    "category": "tokuyou",
    "serviceType": "介護老人福祉施設",
    "capacity": 0,
    "openDays": [],
    "openDaysNote": ""
  },
  {
    "id": "2772402208",
    "name": "特別養護老人ホームしらかばホール",
    "kana": "トクベツヨウゴロウジンホームシラカバホール",
    "address": "大阪府枚方市出屋敷西町２丁目１番１号",
    "lat": 34.8211539,
    "lng": 135.6826137,
    "tel": "072-849-1146",
    "url": "http://www.misuzufukusikai.jp/",
    "pref": "大阪府",
    "city": "枚方市",
    "category": "tokuyou",
    "serviceType": "介護老人福祉施設",
    "capacity": 70,
    "openDays": [],
    "openDaysNote": ""
  },
  {
    "id": "2772402653",
    "name": "特別養護老人ホーム御殿山カーム",
    "kana": "トクベツヨウゴロウジンホームゴテンヤマカーム",
    "address": "大阪府枚方市渚西２丁目７番３０号",
    "lat": 34.8318025,
    "lng": 135.6526966,
    "tel": "072-890-0600",
    "url": "http://www.ojunkai.com",
    "pref": "大阪府",
    "city": "枚方市",
    "category": "tokuyou",
    "serviceType": "介護老人福祉施設",
    "capacity": 0,
    "openDays": [],
    "openDaysNote": ""
  },
  {
    "id": "2772410128",
    "name": "特別養護老人ホーム香里美来",
    "kana": "トクベツヨウゴロウジンホームコウリミライ",
    "address": "大阪府枚方市東香里1丁目18-12",
    "lat": 34.7797728060683,
    "lng": 135.654003,
    "tel": "072-853-1881",
    "url": "https://misugikai.jp",
    "pref": "大阪府",
    "city": "枚方市",
    "category": "tokuyou",
    "serviceType": "介護老人福祉施設",
    "capacity": null,
    "openDays": [],
    "openDaysNote": ""
  },
  {
    "id": "2772402166",
    "name": "特別養護老人ホーム美郷",
    "kana": "トクベツヨウゴロウジンホームミサト",
    "address": "大阪府枚方市西招提町1253番地",
    "lat": 34.8443208,
    "lng": 135.6811993,
    "tel": "072-866-7007",
    "url": "http://www.misugikai.jp/",
    "pref": "大阪府",
    "city": "枚方市",
    "category": "tokuyou",
    "serviceType": "介護老人福祉施設",
    "capacity": 70,
    "openDays": [],
    "openDaysNote": ""
  },
  {
    "id": "2772400905",
    "name": "特別養護老人ホーム里仁館",
    "kana": "トクベツヨウゴロウジンホームリジンカン",
    "address": "大阪府枚方市田口山2丁目5番1号",
    "lat": 34.8307613,
    "lng": 135.6909571,
    "tel": "072-856-6565",
    "url": "http://rijinkan.or.jp/",
    "pref": "大阪府",
    "city": "枚方市",
    "category": "tokuyou",
    "serviceType": "介護老人福祉施設",
    "capacity": 80,
    "openDays": [],
    "openDaysNote": ""
  },
  {
    "id": "2772400590",
    "name": "枚方市立特別養護老人ホーム",
    "kana": "ヒラカタシリツトクベツヨウゴロウジンホーム",
    "address": "大阪府枚方市交北３丁目１－５２",
    "lat": 34.8342274,
    "lng": 135.6775471,
    "tel": "072-851-9200",
    "url": "http://www.3poem.or.jp",
    "pref": "大阪府",
    "city": "枚方市",
    "category": "tokuyou",
    "serviceType": "介護老人福祉施設",
    "capacity": 0,
    "openDays": [],
    "openDaysNote": ""
  },
  {
    "id": "2771400302",
    "name": "あかつき特別養護老人ホーム",
    "kana": "アカツキトクベツヨウゴロウジンホーム",
    "address": "大阪府箕面市白島3-16-1",
    "lat": 34.8415596,
    "lng": 135.4891305,
    "tel": "072-722-3438",
    "url": "https://gyoukoukai.jp/",
    "pref": "大阪府",
    "city": "箕面市",
    "category": "tokuyou",
    "serviceType": "介護老人福祉施設",
    "capacity": 0,
    "openDays": [],
    "openDaysNote": ""
  },
  {
    "id": "2771400195",
    "name": "特別養護老人ホーム紅葉の郷",
    "kana": "モミジノサト",
    "address": "大阪府箕面市稲6-11-20",
    "lat": 34.8191228,
    "lng": 135.4814927,
    "tel": "072-726-7700",
    "url": "http://www.hijiri.or.jp",
    "pref": "大阪府",
    "city": "箕面市",
    "category": "tokuyou",
    "serviceType": "介護老人福祉施設",
    "capacity": 104,
    "openDays": [],
    "openDaysNote": ""
  },
  {
    "id": "2771400203",
    "name": "特別養護老人ホーム照葉の里",
    "kana": "トクベツヨウゴロウジンホームテリハノサト",
    "address": "大阪府箕面市下止々呂美561番地",
    "lat": 34.8851077,
    "lng": 135.4626515,
    "tel": "072-739-1186",
    "url": "http://www.terihanosato.com/",
    "pref": "大阪府",
    "city": "箕面市",
    "category": "tokuyou",
    "serviceType": "介護老人福祉施設",
    "capacity": 60,
    "openDays": [],
    "openDaysNote": ""
  },
  {
    "id": "2771400500",
    "name": "特別養護老人ホーム白島荘",
    "kana": "トクベツヨウゴロウジンホームハクシマソウ",
    "address": "大阪府箕面市白島三丁目５番５０号",
    "lat": 34.8388807983278,
    "lng": 135.490775406746,
    "tel": "072-724-5511",
    "url": "http://www.osj.or.jp/hakushima/",
    "pref": "大阪府",
    "city": "箕面市",
    "category": "tokuyou",
    "serviceType": "介護老人福祉施設",
    "capacity": 0,
    "openDays": [],
    "openDaysNote": ""
  },
  {
    "id": "2771400781",
    "name": "特別養護老人ホーム箕面の郷",
    "kana": "トクベツヨウゴロウジンホームミノオノサト",
    "address": "大阪府箕面市石丸1丁目14番1号",
    "lat": 34.8369768,
    "lng": 135.4996602,
    "tel": "072-749-2277",
    "url": "http://www.sanyoufukushikai.com/",
    "pref": "大阪府",
    "city": "箕面市",
    "category": "tokuyou",
    "serviceType": "介護老人福祉施設",
    "capacity": 0,
    "openDays": [],
    "openDaysNote": ""
  },
  {
    "id": "2771200058",
    "name": "淡輪園（特別養護老人ホーム）",
    "kana": "タンノワエン（トクベツヨウゴロウジンホーム）",
    "address": "大阪府泉南郡　岬町淡輪5635番地1",
    "lat": 34.3282327779365,
    "lng": 135.176396966348,
    "tel": "072-494-0900",
    "url": "http://www5.ocn.ne.jp/~tannowa/index.html",
    "pref": "大阪府",
    "city": "岬町",
    "category": "tokuyou",
    "serviceType": "介護老人福祉施設",
    "capacity": 0,
    "openDays": [],
    "openDaysNote": ""
  },
  {
    "id": "2772603649",
    "name": "ケアホームちどり",
    "kana": "ケアホーム　チドリ",
    "address": "大阪府門真市柳田町15番23号",
    "lat": 34.7309058765125,
    "lng": 135.589127123361,
    "tel": "06-6991-8361",
    "url": "http://www.chidori.or.jp",
    "pref": "大阪府",
    "city": "門真市",
    "category": "tokuyou",
    "serviceType": "介護老人福祉施設",
    "capacity": 80,
    "openDays": [],
    "openDaysNote": ""
  },
  {
    "id": "2772600223",
    "name": "ナーシングホーム智鳥",
    "kana": "ナーシングホームチドリ",
    "address": "大阪府門真市北島町12番20号",
    "lat": 34.7234676738229,
    "lng": 135.594651842992,
    "tel": "072-881-8201",
    "url": "https://www.chidori.or.jp",
    "pref": "大阪府",
    "city": "門真市",
    "category": "tokuyou",
    "serviceType": "介護老人福祉施設",
    "capacity": 80,
    "openDays": [],
    "openDaysNote": ""
  },
  {
    "id": "2772600470",
    "name": "特別養護老人ホーム　はるかの郷",
    "kana": "トクベツヨウゴロウジンホーム　ハルカノサト",
    "address": "大阪府門真市柳田町27番21号",
    "lat": 34.7288548,
    "lng": 135.5922402,
    "tel": "06-6906-6900",
    "url": "https://eastroad.jp",
    "pref": "大阪府",
    "city": "門真市",
    "category": "tokuyou",
    "serviceType": "介護老人福祉施設",
    "capacity": 0,
    "openDays": [],
    "openDaysNote": ""
  },
  {
    "id": "2772600926",
    "name": "特別養護老人ホーム　門真千寿園",
    "kana": "トクベツヨウゴロウジンホーム　カドマセンジュエン",
    "address": "大阪府門真市野口822",
    "lat": 34.7280107,
    "lng": 135.6047112,
    "tel": "072-884-7677",
    "url": "",
    "pref": "大阪府",
    "city": "門真市",
    "category": "tokuyou",
    "serviceType": "介護老人福祉施設",
    "capacity": 80,
    "openDays": [],
    "openDaysNote": ""
  },
  {
    "id": "2772600314",
    "name": "特別養護老人ホーム三養苑",
    "kana": "トクベツヨウゴロウジンホームサンヨウエン",
    "address": "大阪府門真市桑才町19番25号特別養護老人ホーム三養苑 特別養護老人ホーム三養苑",
    "lat": 34.7222222,
    "lng": 135.5917738,
    "tel": "072-882-3333",
    "url": "http://www.sanyofukushikai.com",
    "pref": "大阪府",
    "city": "門真市",
    "category": "tokuyou",
    "serviceType": "介護老人福祉施設",
    "capacity": 0,
    "openDays": [],
    "openDaysNote": ""
  },
  {
    "id": "2772600363",
    "name": "特別養護老人ホーム門真荘",
    "kana": "トクベツヨウゴロウジンホームカドマソウ",
    "address": "大阪府門真市堂山町２５－２０",
    "lat": 34.7447968746336,
    "lng": 135.5796742,
    "tel": "06-6901-8111",
    "url": "http://www.kadomasou.jp",
    "pref": "大阪府",
    "city": "門真市",
    "category": "tokuyou",
    "serviceType": "介護老人福祉施設",
    "capacity": 0,
    "openDays": [],
    "openDaysNote": ""
  },
  {
    "id": "2770500755",
    "name": "ピープルハウス和泉",
    "kana": "ピープルハウスイズミ",
    "address": "大阪府和泉市和気町２丁目１３番３５号",
    "lat": 34.4778833,
    "lng": 135.4189551,
    "tel": "0725-47-3353",
    "url": "http://www.koseikai.org",
    "pref": "大阪府",
    "city": "和泉市",
    "category": "tokuyou",
    "serviceType": "介護老人福祉施設",
    "capacity": 30,
    "openDays": [],
    "openDaysNote": ""
  },
  {
    "id": "2770504658",
    "name": "特別養護老人ホーム　ＦＬＯＲＡ",
    "kana": "トクベツヨウゴロウジンホーム　フローラ",
    "address": "大阪府和泉市内田町三丁目９番３８号",
    "lat": 34.4472209648418,
    "lng": 135.450874856437,
    "tel": "0725-51-1133",
    "url": "http://floraizumikai.com/",
    "pref": "大阪府",
    "city": "和泉市",
    "category": "tokuyou",
    "serviceType": "介護老人福祉施設",
    "capacity": 30,
    "openDays": [],
    "openDaysNote": ""
  },
  {
    "id": "2770500243",
    "name": "特別養護老人ホーム　ビオラ和泉",
    "kana": "トクベツヨウゴロウジンホーム　ビオライズミ",
    "address": "大阪府和泉市和気町３丁目５－１９",
    "lat": 34.4796387,
    "lng": 135.4255656,
    "tel": "0725-46-0460",
    "url": "http://viola-izumi.com/",
    "pref": "大阪府",
    "city": "和泉市",
    "category": "tokuyou",
    "serviceType": "介護老人福祉施設",
    "capacity": 80,
    "openDays": [],
    "openDaysNote": ""
  },
  {
    "id": "2770500250",
    "name": "特別養護老人ホーム　唐国園",
    "kana": "トクベツヨウゴロウジンホーム　カラクニエン",
    "address": "大阪府和泉市唐国町四丁目１５－５６",
    "lat": 34.4485566,
    "lng": 135.4445921,
    "tel": "0725-53-1126",
    "url": "http://ctaka81.moon.bindcloud.jp/",
    "pref": "大阪府",
    "city": "和泉市",
    "category": "tokuyou",
    "serviceType": "介護老人福祉施設",
    "capacity": 50,
    "openDays": [],
    "openDaysNote": ""
  },
  {
    "id": "2770500383",
    "name": "特別養護老人ホームひかりの園",
    "kana": "トクベツヨウゴロウジンホームヒカリノソノ",
    "address": "大阪府　和泉市　下宮町141番地1",
    "lat": 34.4320197,
    "lng": 135.4915245,
    "tel": "0725-92-1225",
    "url": "http://izumi-fukushikai.com/hikari/",
    "pref": "大阪府",
    "city": "和泉市",
    "category": "tokuyou",
    "serviceType": "介護老人福祉施設",
    "capacity": 0,
    "openDays": [],
    "openDaysNote": ""
  },
  {
    "id": "2770500706",
    "name": "特別養護老人ホーム光明荘",
    "kana": "トクベツヨウゴロウジンホームコウミョウソウ",
    "address": "大阪府和泉市伏屋町３丁目８番１号",
    "lat": 34.4765421,
    "lng": 135.4703004,
    "tel": "0725-56-1882",
    "url": "http://www.komyoso.jp/",
    "pref": "大阪府",
    "city": "和泉市",
    "category": "tokuyou",
    "serviceType": "介護老人福祉施設",
    "capacity": 120,
    "openDays": [],
    "openDaysNote": ""
  },
  {
    "id": "2770500920",
    "name": "和泉北信太特別養護老人ホーム",
    "kana": "イズミキタシノダトクベツヨウゴロウジンホーム",
    "address": "大阪府和泉市上町４０３番地の１",
    "lat": 34.5106267,
    "lng": 135.4496132,
    "tel": "0725-46-1211",
    "url": "http://www.itokukai.com",
    "pref": "大阪府",
    "city": "和泉市",
    "category": "tokuyou",
    "serviceType": "介護老人福祉施設",
    "capacity": 70,
    "openDays": [],
    "openDaysNote": ""
  }
]