[
  {
    "id": "2971700246",
    "name": "特別養護老人ホーム　もちの木",
    "kana": "トクベツヨウゴロウジンホーム　モチノキ",
    "address": "218番1",
    "lat": 41.116513,
    "lng": -87.72709,
    "tel": "0743-59-3977",
    "url": "info@mochinoki-nara.com",
    "pref": "奈良県",
    "city": "安堵町",
    "category": "tokuyou",
    "serviceType": "介護老人福祉施設",
    "capacity": null,
    "openDays": [],
    "openDaysNote": ""
  },
  {
    "id": "2971700014",
    "name": "老人総合福祉施設　あくなみ苑",
    "kana": "ロウジンソウゴウフクシシセツ　アクナミエン",
    "address": "奈良県生駒郡安堵町岡崎33-1",
    "lat": 34.6084467,
    "lng": 135.7672938,
    "tel": "0743-59-0070",
    "url": "http://akunami.hozanji-wel.org",
    "pref": "奈良県",
    "city": "安堵町",
    "category": "tokuyou",
    "serviceType": "介護老人福祉施設",
    "capacity": 50,
    "openDays": [],
    "openDaysNote": ""
  },
  {
    "id": "2972300012",
    "name": "ゆぁほうむ榛原",
    "kana": "ユァホウムハイバラ",
    "address": "奈良県宇陀市榛原長峯200番地の1",
    "lat": 34.5414637,
    "lng": 135.9642044,
    "tel": "0745-82-8111",
    "url": "http://www.e-yourhome.com",
    "pref": "奈良県",
    "city": "宇陀市",
    "category": "tokuyou",
    "serviceType": "介護老人福祉施設",
    "capacity": 0,
    "openDays": [],
    "openDaysNote": ""
  },
  {
    "id": "2972100024",
    "name": "大宇陀特別養護老人ホームラガール",
    "kana": "オオウダトクベツヨウゴロウジンホームラガール",
    "address": "奈良県宇陀市大宇陀拾生２５０－６",
    "lat": 34.4716571,
    "lng": 135.9267549,
    "tel": "0745-83-2080",
    "url": "http://www.koudoukai.or.jp/oouda/",
    "pref": "奈良県",
    "city": "宇陀市",
    "category": "tokuyou",
    "serviceType": "介護老人福祉施設",
    "capacity": 0,
    "openDays": [],
    "openDaysNote": ""
  },
  {
    "id": "2972400028",
    "name": "特別養護老人ホーム　室生園",
    "kana": "トクベツヨウゴロウジンホーム　ムロウエン",
    "address": "奈良県宇陀市室生下田口１２１６番地",
    "lat": 34.5249856775576,
    "lng": 136.051965314156,
    "tel": "0745-93-2525",
    "url": "http://www.murouen.jp/",
    "pref": "奈良県",
    "city": "宇陀市",
    "category": "tokuyou",
    "serviceType": "介護老人福祉施設",
    "capacity": 90,
    "openDays": [],
    "openDaysNote": ""
  },
  {
    "id": "2972200055",
    "name": "特別養護老人ホームやまびこ",
    "kana": "トクベツヨウゴリロウジンホーム　ヤマビコ",
    "address": "奈良県宇陀市菟田野平井135番地",
    "lat": 34.4895093,
    "lng": 135.9785044,
    "tel": "0745-84-9800",
    "url": "http://yamabiko.sub.jp/",
    "pref": "奈良県",
    "city": "宇陀市",
    "category": "tokuyou",
    "serviceType": "介護老人福祉施設",
    "capacity": 0,
    "openDays": [],
    "openDaysNote": ""
  },
  {
    "id": "2972300020",
    "name": "特別養護老人ホーム悠楽園",
    "kana": "トクベツヨウゴロウジンホーム　ユウラクエン",
    "address": "奈良県宇陀市榛原檜牧５８４番地",
    "lat": 34.5161586697346,
    "lng": 135.964367347746,
    "tel": "0745-82-7771",
    "url": "www.yuurakuen.jp",
    "pref": "奈良県",
    "city": "宇陀市",
    "category": "tokuyou",
    "serviceType": "介護老人福祉施設",
    "capacity": 0,
    "openDays": [],
    "openDaysNote": ""
  },
  {
    "id": "2973200476",
    "name": "特別養護老人ホームてんとう虫",
    "kana": "トクベツヨウゴロウジンホームテントウムシ",
    "address": "奈良県北葛城郡王寺町畠田8丁目1507番地",
    "lat": 34.5757742,
    "lng": 135.7013913,
    "tel": "0745-34-0980",
    "url": "https://hakujukai.or.jp/tokuyo/toku00.html",
    "pref": "奈良県",
    "city": "王寺町",
    "category": "tokuyou",
    "serviceType": "介護老人福祉施設",
    "capacity": 0,
    "openDays": [],
    "openDaysNote": ""
  },
  {
    "id": "2973700160",
    "name": "北野しもいち彩の里",
    "kana": "キタノシモイチイロドリノサト",
    "address": "奈良県吉野郡下市町阿知賀１１２２番１",
    "lat": 34.3800265,
    "lng": 135.7949711,
    "tel": "0747-52-0240",
    "url": "http://www.irodorinosato.com/",
    "pref": "奈良県",
    "city": "下市町",
    "category": "tokuyou",
    "serviceType": "介護老人福祉施設",
    "capacity": null,
    "openDays": [],
    "openDaysNote": ""
  },
  {
    "id": "2973400308",
    "name": "特別養護老人ホーム　大和の里",
    "kana": "トクベツヨウゴロウジンホーム　ヤマトノサト",
    "address": "奈良県北葛城郡河合町池部3丁目5番5号",
    "lat": 34.5776718,
    "lng": 135.7359216,
    "tel": "0745-58-2525",
    "url": "http://www.yamatonosato.com/",
    "pref": "奈良県",
    "city": "河合町",
    "category": "tokuyou",
    "serviceType": "介護老人福祉施設",
    "capacity": 0,
    "openDays": [],
    "openDaysNote": ""
  },
  {
    "id": "2973400431",
    "name": "特別養護老人ホームさみた",
    "kana": "トクベツヨウゴロウジンホームサミタ",
    "address": "奈良県北葛城郡河合町佐味田198-1",
    "lat": 34.5693308669179,
    "lng": 135.732785754136,
    "tel": "0745-58-3000",
    "url": "http://www.yamabikokai-samita.com/",
    "pref": "奈良県",
    "city": "河合町",
    "category": "tokuyou",
    "serviceType": "介護老人福祉施設",
    "capacity": null,
    "openDays": [],
    "openDaysNote": ""
  },
  {
    "id": "2970500076",
    "name": "桃寿園",
    "kana": "トウジュエン",
    "address": "奈良県橿原市北越智町345番地",
    "lat": 34.4740131,
    "lng": 135.7774921,
    "tel": "0744-27-7260",
    "url": "http://choseikai.or.jp",
    "pref": "奈良県",
    "city": "橿原市",
    "category": "tokuyou",
    "serviceType": "介護老人福祉施設",
    "capacity": 50,
    "openDays": [],
    "openDaysNote": ""
  },
  {
    "id": "2970501025",
    "name": "特別養護老人ホーム　橿原の郷",
    "kana": "トクベツヨウゴロウジンホーム　カシハラノサト",
    "address": "奈良県橿原市飯高町７－１",
    "lat": 34.5311449,
    "lng": 135.7798577,
    "tel": "0744-21-1111",
    "url": "http://www.sanyofukushikai.com/",
    "pref": "奈良県",
    "city": "橿原市",
    "category": "tokuyou",
    "serviceType": "介護老人福祉施設",
    "capacity": 0,
    "openDays": [],
    "openDaysNote": ""
  },
  {
    "id": "2970500035",
    "name": "特別養護老人ホームかなはし苑",
    "kana": "トクベツヨウゴロウジンホームカナハシエン",
    "address": "橿原市雲梯町９４－１",
    "lat": 34.5021375,
    "lng": 135.7679255,
    "tel": "0744-24-5551",
    "url": "http://kanahashien.iinaa.net/",
    "pref": "奈良県",
    "city": "橿原市",
    "category": "tokuyou",
    "serviceType": "介護老人福祉施設",
    "capacity": 0,
    "openDays": [],
    "openDaysNote": ""
  },
  {
    "id": "2970502114",
    "name": "特別養護老人ホームバンデ(絆)",
    "kana": "トクベツヨウゴロウジンホームバンデ（キズナ）",
    "address": "奈良県橿原市東竹田町１０４番１",
    "lat": 34.5257455526918,
    "lng": 135.824676404955,
    "tel": "0744-23-3223",
    "url": "http://www.bande.or.jp/",
    "pref": "奈良県",
    "city": "橿原市",
    "category": "tokuyou",
    "serviceType": "介護老人福祉施設",
    "capacity": 0,
    "openDays": [],
    "openDaysNote": ""
  },
  {
    "id": "2970500027",
    "name": "特別養護老人ホーム香久山インパレス",
    "kana": "トクベツヨウゴロウジンホームカグヤマインパレス",
    "address": "奈良県橿原市戒外町７番地",
    "lat": 34.4945838,
    "lng": 135.8234651,
    "tel": "0744-29-5001",
    "url": "http://shoufukukai.or.jp/",
    "pref": "奈良県",
    "city": "橿原市",
    "category": "tokuyou",
    "serviceType": "介護老人福祉施設",
    "capacity": 80,
    "openDays": [],
    "openDaysNote": ""
  },
  {
    "id": "2974800613",
    "name": "社会福祉法人陽幸会",
    "kana": "シャカイフクシホウジンヨウコウカイ",
    "address": "奈良県葛城市平岡４４１番地１",
    "lat": 34.4805493321099,
    "lng": 135.709495917722,
    "tel": "0745-44-8001",
    "url": "www.yo-ko-kai.or.jp",
    "pref": "奈良県",
    "city": "葛城市",
    "category": "tokuyou",
    "serviceType": "介護老人福祉施設",
    "capacity": 0,
    "openDays": [],
    "openDaysNote": ""
  },
  {
    "id": "2972900019",
    "name": "特別養護老人ホームウォームヴィラ新庄園",
    "kana": "トクベツヨウゴロウジンホームウォームウ゛ィラシンジョウエン",
    "address": "奈良県葛城市平岡528番地",
    "lat": 34.4733769998568,
    "lng": 135.705521988994,
    "tel": "0745-63-1150",
    "url": "http://www.geocities.jp/shinjyouen/",
    "pref": "奈良県",
    "city": "葛城市",
    "category": "tokuyou",
    "serviceType": "介護老人福祉施設",
    "capacity": 0,
    "openDays": [],
    "openDaysNote": ""
  },
  {
    "id": "2973000017",
    "name": "特別養護老人ホーム当麻園",
    "kana": "トクベツヨウゴロウジンホームタイマエン",
    "address": "奈良県葛城市南今市372番地",
    "lat": 34.5011227,
    "lng": 135.7119166,
    "tel": "0745-48-4418",
    "url": "http://www.taimaen.com/",
    "pref": "奈良県",
    "city": "葛城市",
    "category": "tokuyou",
    "serviceType": "介護老人福祉施設",
    "capacity": 0,
    "openDays": [],
    "openDaysNote": ""
  },
  {
    "id": "2973500024",
    "name": "吉野三町村老人福祉施設",
    "kana": "ヨシノサンチョウソンロウジンフクシシセツ",
    "address": "奈良県吉野郡吉野町楢井605-1",
    "lat": 34.3837253,
    "lng": 135.8881359,
    "tel": "0746-32-8950",
    "url": "http://www.yoshino-kouiki.jp/custom4.html",
    "pref": "奈良県",
    "city": "吉野町",
    "category": "tokuyou",
    "serviceType": "介護老人福祉施設",
    "capacity": 54,
    "openDays": [],
    "openDaysNote": ""
  },
  {
    "id": "2973500164",
    "name": "特別養護老人ホーム柳光",
    "kana": "トクベツヨウゴロウジンホームリュウコウ",
    "address": "奈良県吉野郡吉野町大字柳１３９５－１",
    "lat": 34.4177032443304,
    "lng": 135.918507546033,
    "tel": "０７４６－３５－９２９４",
    "url": "https://www.taiyounomura.org/",
    "pref": "奈良県",
    "city": "吉野町",
    "category": "tokuyou",
    "serviceType": "介護老人福祉施設",
    "capacity": 90,
    "openDays": [],
    "openDaysNote": ""
  },
  {
    "id": "2970700429",
    "name": "介護老人福祉施設　友喜苑",
    "kana": "カイゴロウジンフクシシセツ　ユウキエン",
    "address": "奈良県五條市住川町１１６５－４",
    "lat": 34.3879514924381,
    "lng": 135.726642564418,
    "tel": "0747-26-5577",
    "url": "http://www.sanju.or.jp/yukien/",
    "pref": "奈良県",
    "city": "五條市",
    "category": "tokuyou",
    "serviceType": "介護老人福祉施設",
    "capacity": 50,
    "openDays": [],
    "openDaysNote": ""
  },
  {
    "id": "2970700551",
    "name": "特別養護老人ホーム　ハートランド五條",
    "kana": "トクベツヨウゴロウジンホーム　ハートランドゴジョウ",
    "address": "奈良県五條市二見5丁目3番63号",
    "lat": 34.3404485754949,
    "lng": 135.691280991016,
    "tel": "0747-26-0005",
    "url": "http://www.heartland.or.jp/gojo/",
    "pref": "奈良県",
    "city": "五條市",
    "category": "tokuyou",
    "serviceType": "介護老人福祉施設",
    "capacity": 50,
    "openDays": [],
    "openDaysNote": ""
  },
  {
    "id": "2970700031",
    "name": "特別養護老人ホーム　まきの苑",
    "kana": "トクベツヨウゴロウジンホーム　マキノエン",
    "address": "奈良県五條市大沢町5番地25",
    "lat": 34.3619368,
    "lng": 135.6682425,
    "tel": "0747-22-5511",
    "url": "http://www.seiwakai-gojo.or.jp/",
    "pref": "奈良県",
    "city": "五條市",
    "category": "tokuyou",
    "serviceType": "介護老人福祉施設",
    "capacity": 0,
    "openDays": [],
    "openDaysNote": ""
  },
  {
    "id": "2970700064",
    "name": "特別養護老人ホーム水がたり",
    "kana": "トクベツヨウゴロウジンホームミズガタリ",
    "address": "五條市野原西３丁目３番４１号祥水園野原西village 祥水園野原西village",
    "lat": 34.34597701982,
    "lng": 135.702592776738,
    "tel": "0747-23-0615",
    "url": "http://www.shousuien.or.jp",
    "pref": "奈良県",
    "city": "五條市",
    "category": "tokuyou",
    "serviceType": "介護老人福祉施設",
    "capacity": 50,
    "openDays": [],
    "openDaysNote": ""
  },
  {
    "id": "2970700635",
    "name": "特別養護老人ホーム水杜",
    "kana": "トクベツヨウゴロウジンホームミズノモリ",
    "address": "奈良県五條市野原西3丁目3番41号祥水園野原西village 祥水園野原西village",
    "lat": 34.34599432335,
    "lng": 135.702478088886,
    "tel": "0747-23-0615",
    "url": "http://www.shousuien.or.jp/",
    "pref": "奈良県",
    "city": "五條市",
    "category": "tokuyou",
    "serviceType": "介護老人福祉施設",
    "capacity": 60,
    "openDays": [],
    "openDaysNote": ""
  },
  {
    "id": "2970800278",
    "name": "さうす国見",
    "kana": "サウスクニミ",
    "address": "奈良県御所市柏原1320",
    "lat": 34.4520129,
    "lng": 135.7649133,
    "tel": "0745-64-3020",
    "url": "http://www.jinnankai.jp/",
    "pref": "奈良県",
    "city": "御所市",
    "category": "tokuyou",
    "serviceType": "介護老人福祉施設",
    "capacity": 0,
    "openDays": [],
    "openDaysNote": ""
  },
  {
    "id": "2970800013",
    "name": "テンダーヒル御所",
    "kana": "テンダーヒルゴセ",
    "address": "奈良県御所市船路415",
    "lat": 34.4107779,
    "lng": 135.7201901,
    "tel": "0745-66-2500",
    "url": "http://www.tender.or.jp",
    "pref": "奈良県",
    "city": "御所市",
    "category": "tokuyou",
    "serviceType": "介護老人福祉施設",
    "capacity": 52,
    "openDays": [],
    "openDaysNote": ""
  },
  {
    "id": "2970800633",
    "name": "テンダーヒル御所みのり館",
    "kana": "テンダーヒルゴセミノリカン",
    "address": "奈良県御所市船路415番地",
    "lat": 34.4107585,
    "lng": 135.7201762,
    "tel": "0745－66－2500",
    "url": "http://www.tender.or.jp",
    "pref": "奈良県",
    "city": "御所市",
    "category": "tokuyou",
    "serviceType": "介護老人福祉施設",
    "capacity": 40,
    "openDays": [],
    "openDaysNote": ""
  },
  {
    "id": "2970800427",
    "name": "介護老人福祉施設　友幸苑",
    "kana": "カイゴロウジンフクシシセツ　ユウコウエン",
    "address": "奈良県御所市重阪７７１番１",
    "lat": 34.3884914,
    "lng": 135.7259289,
    "tel": "0747-26-1177",
    "url": "http://www.sanju.or.jp/",
    "pref": "奈良県",
    "city": "御所市",
    "category": "tokuyou",
    "serviceType": "介護老人福祉施設",
    "capacity": 0,
    "openDays": [],
    "openDaysNote": ""
  },
  {
    "id": "2970800021",
    "name": "国見苑",
    "kana": "クニミエン",
    "address": "奈良県御所市柏原１５９４－１",
    "lat": 34.4471968,
    "lng": 135.7655912,
    "tel": "0745-63-1102",
    "url": "http://www.jinnankai.jp",
    "pref": "奈良県",
    "city": "御所市",
    "category": "tokuyou",
    "serviceType": "介護老人福祉施設",
    "capacity": 0,
    "openDays": [],
    "openDaysNote": ""
  },
  {
    "id": "2970800682",
    "name": "特別養護老人ホームせせらぎの園",
    "kana": "トクベツヨウゴロウジンホームセセラギノソノ",
    "address": "増33-3",
    "lat": 34.4391029075109,
    "lng": 135.712487868787,
    "tel": "0745-43-5488",
    "url": "http://www.seseragikai.or.jp",
    "pref": "奈良県",
    "city": "御所市",
    "category": "tokuyou",
    "serviceType": "介護老人福祉施設",
    "capacity": 0,
    "openDays": [],
    "openDaysNote": ""
  },
  {
    "id": "2973300458",
    "name": "特別養護老人ホーム　おきなの杜",
    "kana": "トクベツヨウゴロウジンホーム　オキナノモリ",
    "address": "奈良県北葛城郡広陵町南郷84番地1",
    "lat": 34.5330634,
    "lng": 135.7544599,
    "tel": "0745-55-5551",
    "url": "https://carehouse.jp/",
    "pref": "奈良県",
    "city": "広陵町",
    "category": "tokuyou",
    "serviceType": "介護老人福祉施設",
    "capacity": 90,
    "openDays": [],
    "openDaysNote": ""
  },
  {
    "id": "2973300045",
    "name": "特別養護老人ホーム　大和園",
    "kana": "トクベツヨウゴロウジンホーム　ヤマトエン",
    "address": "奈良県北葛城郡広陵町大字三吉１６９番地",
    "lat": 34.5574187,
    "lng": 135.7456073,
    "tel": "0745-55-5383",
    "url": "http://www.yamatoen.or.jp",
    "pref": "奈良県",
    "city": "広陵町",
    "category": "tokuyou",
    "serviceType": "介護老人福祉施設",
    "capacity": 84,
    "openDays": [],
    "openDaysNote": ""
  },
  {
    "id": "2971000266",
    "name": "特別養護老人ホーム　すばる",
    "kana": "トクベツヨウゴロウジンホーム　スバル",
    "address": "奈良県香芝市鎌田157-1",
    "lat": 34.5218367,
    "lng": 135.7125633,
    "tel": "0745-71-7171",
    "url": "https://s-subaru.com",
    "pref": "奈良県",
    "city": "香芝市",
    "category": "tokuyou",
    "serviceType": "介護老人福祉施設",
    "capacity": 50,
    "openDays": [],
    "openDaysNote": ""
  },
  {
    "id": "2971000910",
    "name": "特別養護老人ホーム　ぬくもり香芝",
    "kana": "トクベツヨウゴロウジンホーム　ヌクモリカシバ",
    "address": "奈良県香芝市下田西2丁目7-61",
    "lat": 34.5438726,
    "lng": 135.7032585,
    "tel": "0745-78-6300",
    "url": "http://www.nukumori-group.jp/",
    "pref": "奈良県",
    "city": "香芝市",
    "category": "tokuyou",
    "serviceType": "介護老人福祉施設",
    "capacity": 50,
    "openDays": [],
    "openDaysNote": ""
  },
  {
    "id": "2971000043",
    "name": "特別養護老人ホーム大和園白鳳",
    "kana": "ヤマトエンハクホウ",
    "address": "奈良県香芝市尼寺５９４－２",
    "lat": 34.5707495,
    "lng": 135.6870761,
    "tel": "0745-79-5500",
    "url": "http://www.yamatoen.or.jp/",
    "pref": "奈良県",
    "city": "香芝市",
    "category": "tokuyou",
    "serviceType": "介護老人福祉施設",
    "capacity": 0,
    "openDays": [],
    "openDaysNote": ""
  },
  {
    "id": "2972700187",
    "name": "特別養護老人ホームたかとり",
    "kana": "トクベツヨウゴロウジンホームタカトリ",
    "address": "奈良県高市郡高取町大字兵庫196番地",
    "lat": 34.4471310814277,
    "lng": 135.776114354662,
    "tel": "0744-52-1500",
    "url": "http://www.heisei-fukushi.or.jp/index.html",
    "pref": "奈良県",
    "city": "高取町",
    "category": "tokuyou",
    "serviceType": "介護老人福祉施設",
    "capacity": 0,
    "openDays": [],
    "openDaysNote": ""
  },
  {
    "id": "2972700021",
    "name": "特別養護老人ホーム光明園",
    "kana": "トクベツヨウゴロウジンホーム　コウミョウエン",
    "address": "奈良県高市郡高取町清水谷150-5",
    "lat": 34.4418754,
    "lng": 135.7952276,
    "tel": "0744-52-2960",
    "url": "http://www.shutokukai.or.jp/koumyouen/index.html",
    "pref": "奈良県",
    "city": "高取町",
    "category": "tokuyou",
    "serviceType": "介護老人福祉施設",
    "capacity": 50,
    "openDays": [],
    "openDaysNote": ""
  },
  {
    "id": "2970600017",
    "name": "社会福祉法人　大和桜井園",
    "kana": "シャカイフクシホウジン　ヤマトサクライエン",
    "address": "奈良県桜井市大字阿部１０７３番地",
    "lat": 34.5013323031946,
    "lng": 135.844325786508,
    "tel": "0744-42-2090",
    "url": "http://www.sakuraien.jp/",
    "pref": "奈良県",
    "city": "桜井市",
    "category": "tokuyou",
    "serviceType": "介護老人福祉施設",
    "capacity": 0,
    "openDays": [],
    "openDaysNote": ""
  },
  {
    "id": "2970600561",
    "name": "特別養護老人ホーム　秀華苑",
    "kana": "トクベツヨウゴロウジンホーム　シュウカエン",
    "address": "奈良県桜井市出雲１６４２番地",
    "lat": 34.5216916237142,
    "lng": 135.895562669312,
    "tel": "0744-44-3201",
    "url": "http://www.seikoukai-fukushi.or.jp",
    "pref": "奈良県",
    "city": "桜井市",
    "category": "tokuyou",
    "serviceType": "介護老人福祉施設",
    "capacity": 0,
    "openDays": [],
    "openDaysNote": ""
  },
  {
    "id": "2970600918",
    "name": "特別養護老人ホームきび秀華苑",
    "kana": "トクベツヨウゴロウジンホーム　キビシュウカエン",
    "address": "奈良県桜井市吉備５４２番地の２",
    "lat": 34.5086382836987,
    "lng": 135.833266500664,
    "tel": "0744-44-2601",
    "url": "http://www.seikoukai-fukushi.or.jp",
    "pref": "奈良県",
    "city": "桜井市",
    "category": "tokuyou",
    "serviceType": "介護老人福祉施設",
    "capacity": 74,
    "openDays": [],
    "openDaysNote": ""
  },
  {
    "id": "2971500604",
    "name": "特別養護老人ホーム　ビオスの丘三郷",
    "kana": "トクベツヨウゴロウジンホーム　ビオスノオカサンゴウ",
    "address": "奈良県生駒郡三郷町信貴南畑１－７－２６特別養護老人ホーム　ビオスの丘三郷 特別養護老人ホーム　ビオスの丘三郷",
    "lat": 34.6047843,
    "lng": 135.6563163,
    "tel": "0745-33-3335",
    "url": "http://www.jinpu-kai.jp",
    "pref": "奈良県",
    "city": "三郷町",
    "category": "tokuyou",
    "serviceType": "介護老人福祉施設",
    "capacity": 0,
    "openDays": [],
    "openDaysNote": ""
  },
  {
    "id": "2971500042",
    "name": "特別養護老人ホーム三室園",
    "kana": "トクベツヨウゴロウジンホームミムロエン",
    "address": "奈良県生駒郡三郷町信貴南畑１丁目１番１号",
    "lat": 34.6039323,
    "lng": 135.6668825,
    "tel": "0745-72-2121",
    "url": "https://mimuroen.sakura.ne.jp",
    "pref": "奈良県",
    "city": "三郷町",
    "category": "tokuyou",
    "serviceType": "介護老人福祉施設",
    "capacity": 0,
    "openDays": [],
    "openDaysNote": ""
  },
  {
    "id": "2971300047",
    "name": "つつじの丘",
    "kana": "ツツジノオカ",
    "address": "奈良県山辺郡山添村大字大西1181番地",
    "lat": 34.681911,
    "lng": 136.0396342,
    "tel": "0743-85-1181",
    "url": "https://www.yamatokai-tsutsuji.com/",
    "pref": "奈良県",
    "city": "山添村",
    "category": "tokuyou",
    "serviceType": "介護老人福祉施設",
    "capacity": null,
    "openDays": [],
    "openDaysNote": ""
  },
  {
    "id": "2971300013",
    "name": "特別養護老人ホームせせらぎ苑",
    "kana": "トクベツヨウゴロウジンホウムセセラギエン",
    "address": "山辺郡山添村広瀬８２３",
    "lat": 34.6817505,
    "lng": 136.0816273,
    "tel": "0743-85-0602",
    "url": "",
    "pref": "奈良県",
    "city": "山添村",
    "category": "tokuyou",
    "serviceType": "介護老人福祉施設",
    "capacity": 0,
    "openDays": [],
    "openDaysNote": ""
  },
  {
    "id": "2974300127",
    "name": "十津川村特別養護老人ホーム高森の郷",
    "kana": "十津川村特別養護老人ホーム高森ノ郷",
    "address": "奈良県吉野郡十津川村大字猿飼308-2",
    "lat": 33.9341166304796,
    "lng": 135.764828164279,
    "tel": "0746-64-1800",
    "url": "http://www.maywakai.info",
    "pref": "奈良県",
    "city": "十津川村",
    "category": "tokuyou",
    "serviceType": "介護老人福祉施設",
    "capacity": null,
    "openDays": [],
    "openDaysNote": ""
  },
  {
    "id": "2973100056",
    "name": "特別養護老人ホーム　郁楽苑",
    "kana": "トクベツヨウゴロウジンホーム　イクラクエン",
    "address": "奈良県北葛城郡上牧町大字上牧4244番地",
    "lat": 34.5579979157178,
    "lng": 135.71027713356,
    "tel": "0745-43-6246",
    "url": "http://www.ikujikai.or.jp/",
    "pref": "奈良県",
    "city": "上牧町",
    "category": "tokuyou",
    "serviceType": "介護老人福祉施設",
    "capacity": 0,
    "openDays": [],
    "openDaysNote": ""
  },
  {
    "id": "2973100064",
    "name": "特別養護老人ホーム郁愛苑",
    "kana": "トクベツヨウゴロウジンホームイクアイエン",
    "address": "奈良県北葛城郡上牧町大字上牧４２４４番地",
    "lat": 34.558421,
    "lng": 135.7100798,
    "tel": "0745-43-6092",
    "url": "http://wwwikujikai.or.jp",
    "pref": "奈良県",
    "city": "上牧町",
    "category": "tokuyou",
    "serviceType": "介護老人福祉施設",
    "capacity": 0,
    "openDays": [],
    "openDaysNote": ""
  },
  {
    "id": "2973100049",
    "name": "特別養護老人ホーム郁慈苑",
    "kana": "トクベツヨウゴロウジンホーム　イクジエン",
    "address": "北葛城郡上牧町大字上牧4244番地",
    "lat": 34.5585678201925,
    "lng": 135.710126929855,
    "tel": "0745-43-6074",
    "url": "http://www.ikujikai.or.jp/",
    "pref": "奈良県",
    "city": "上牧町",
    "category": "tokuyou",
    "serviceType": "介護老人福祉施設",
    "capacity": 100,
    "openDays": [],
    "openDaysNote": ""
  },
  {
    "id": "2973100031",
    "name": "特別養護老人ホーム郁徳苑",
    "kana": "トクベツヨウゴロウジンホームイクトクエン",
    "address": "奈良県北葛城郡上牧町上牧４２４４",
    "lat": 34.558421,
    "lng": 135.7100798,
    "tel": "0745-43-6083",
    "url": "http://www.ikujikai.or.jp/",
    "pref": "奈良県",
    "city": "上牧町",
    "category": "tokuyou",
    "serviceType": "介護老人福祉施設",
    "capacity": 154,
    "openDays": [],
    "openDaysNote": ""
  },
  {
    "id": "2970900946",
    "name": "高山ちどり",
    "kana": "タカヤマチドリ",
    "address": "奈良県生駒市高山町8030番地",
    "lat": 34.7279288,
    "lng": 135.726281,
    "tel": "0743-70-1832",
    "url": "https://www.chidori.or.jp/facility/takayama/",
    "pref": "奈良県",
    "city": "生駒市",
    "category": "tokuyou",
    "serviceType": "介護老人福祉施設",
    "capacity": 50,
    "openDays": [],
    "openDaysNote": ""
  },
  {
    "id": "2970901738",
    "name": "高山ちどり別館",
    "kana": "タカヤマチドリベッカン",
    "address": "奈良県生駒市高山町8030",
    "lat": 34.7280649,
    "lng": 135.7263838,
    "tel": "0743-70-1832",
    "url": "https://www.chidori.or.jp/",
    "pref": "奈良県",
    "city": "生駒市",
    "category": "tokuyou",
    "serviceType": "介護老人福祉施設",
    "capacity": null,
    "openDays": [],
    "openDaysNote": ""
  },
  {
    "id": "2970900029",
    "name": "特別養護老人ホーム　フォレストホーム",
    "kana": "トクベツヨウゴロウジンホーム　フォレストホーム",
    "address": "生駒市北田原町2429-4",
    "lat": 34.7328586,
    "lng": 135.7107794,
    "tel": "0743-78-8116",
    "url": "http://www.cyomeisou.or.jp",
    "pref": "奈良県",
    "city": "生駒市",
    "category": "tokuyou",
    "serviceType": "介護老人福祉施設",
    "capacity": 74,
    "openDays": [],
    "openDaysNote": ""
  },
  {
    "id": "2970900292",
    "name": "特別養護老人ホーム　延寿",
    "kana": "トクベツヨウゴロウジンホームエンジュ",
    "address": "奈良県生駒市小瀬町１１００",
    "lat": 34.6646762,
    "lng": 135.7231709,
    "tel": "0743-76-2266",
    "url": "http://www.enju.net",
    "pref": "奈良県",
    "city": "生駒市",
    "category": "tokuyou",
    "serviceType": "介護老人福祉施設",
    "capacity": 84,
    "openDays": [],
    "openDaysNote": ""
  },
  {
    "id": "2970900102",
    "name": "特別養護老人ホーム梅寿荘",
    "kana": "トクベツヨウゴロウジンホームバイジュソウ",
    "address": "生駒市門前町８番7号",
    "lat": 34.6866853,
    "lng": 135.6889596,
    "tel": "0743-74-1175",
    "url": "http://www.baijyuso.or.jp/",
    "pref": "奈良県",
    "city": "生駒市",
    "category": "tokuyou",
    "serviceType": "介護老人福祉施設",
    "capacity": 80,
    "openDays": [],
    "openDaysNote": ""
  },
  {
    "id": "2970901290",
    "name": "萩の台ちどり",
    "kana": "ハギノダイチドリ",
    "address": "生駒市萩の台3丁目1-8",
    "lat": 34.6545104,
    "lng": 135.7101083,
    "tel": "0743-76-2211",
    "url": "http://www.chidori.or.jp",
    "pref": "奈良県",
    "city": "生駒市",
    "category": "tokuyou",
    "serviceType": "介護老人福祉施設",
    "capacity": 50,
    "openDays": [],
    "openDaysNote": ""
  },
  {
    "id": "2971800129",
    "name": "特別養護老人ホームゆいの里あすか",
    "kana": "トクベツヨウゴロウジンホームユイノサトアスカ",
    "address": "奈良県磯城郡川西町下永543番1",
    "lat": 34.5903489022276,
    "lng": 135.777373503106,
    "tel": "0745-43-2488",
    "url": "http://yuinosato-asuka.jp",
    "pref": "奈良県",
    "city": "川西町",
    "category": "tokuyou",
    "serviceType": "介護老人福祉施設",
    "capacity": 0,
    "openDays": [],
    "openDaysNote": ""
  },
  {
    "id": "2973600030",
    "name": "社会福祉法人綜合施設美吉野園　特養寮",
    "kana": "シャカイフクシホウジンソウゴウシセツミヨシノエン　特養寮",
    "address": "奈良県吉野郡大淀町下渕629番地",
    "lat": 34.3888172,
    "lng": 135.7805998,
    "tel": "0747-52-5555",
    "url": "http://www.miyoshinoen.jp/",
    "pref": "奈良県",
    "city": "大淀町",
    "category": "tokuyou",
    "serviceType": "介護老人福祉施設",
    "capacity": 0,
    "openDays": [],
    "openDaysNote": ""
  },
  {
    "id": "2970301194",
    "name": "あいの郷",
    "kana": "アイノサト",
    "address": "奈良県大和郡山市発志院町184-2",
    "lat": 34.6275293,
    "lng": 135.8031898,
    "tel": "0743-56-4846",
    "url": "http://ainosato-nara.com/",
    "pref": "奈良県",
    "city": "大和郡山市",
    "category": "tokuyou",
    "serviceType": "介護老人福祉施設",
    "capacity": 0,
    "openDays": [],
    "openDaysNote": ""
  },
  {
    "id": "2970300121",
    "name": "あすなら苑",
    "kana": "アスナラエン",
    "address": "奈良県大和郡山市宮堂町字青木160番7",
    "lat": 34.6019069,
    "lng": 135.7864811,
    "tel": "0743-58-4165",
    "url": "https://asunaraen.or.jp",
    "pref": "奈良県",
    "city": "大和郡山市",
    "category": "tokuyou",
    "serviceType": "介護老人福祉施設",
    "capacity": 0,
    "openDays": [],
    "openDaysNote": ""
  },
  {
    "id": "2970301475",
    "name": "特別養護老人ホーム　きづなの里",
    "kana": "トクベツヨウゴロウジンホーム　キヅナノサト",
    "address": "山田町３３７－２特別養護老人ホーム　きづなの里 特別養護老人ホーム　きづなの里",
    "lat": 34.6341947000631,
    "lng": 135.739422362102,
    "tel": "0743-52-1101",
    "url": "www.kidunanosato.com/",
    "pref": "奈良県",
    "city": "大和郡山市",
    "category": "tokuyou",
    "serviceType": "介護老人福祉施設",
    "capacity": 10,
    "openDays": [],
    "openDaysNote": ""
  },
  {
    "id": "2970301822",
    "name": "特別養護老人ホーム　千年希望の杜大和郡山",
    "kana": "トクベツヨウゴロウジンホーム　センネンキボウノモリヤマトコオリヤマ",
    "address": "奈良県大和郡山市矢田町６８６番１",
    "lat": 34.6498136773742,
    "lng": 135.754420431879,
    "tel": "0743-58-5787",
    "url": "http://keishukai.or.jp/",
    "pref": "奈良県",
    "city": "大和郡山市",
    "category": "tokuyou",
    "serviceType": "介護老人福祉施設",
    "capacity": 0,
    "openDays": [],
    "openDaysNote": ""
  },
  {
    "id": "2970301673",
    "name": "特別養護老人ホームウェルケアはるか",
    "kana": "トクベツヨウゴロウジンホームウェルケアハルカ",
    "address": "奈良県大和郡山市天井町227-1",
    "lat": 34.6388774,
    "lng": 135.7868508,
    "tel": "0743-23-0221",
    "url": "http://www.wellgroup.jp",
    "pref": "奈良県",
    "city": "大和郡山市",
    "category": "tokuyou",
    "serviceType": "介護老人福祉施設",
    "capacity": 50,
    "openDays": [],
    "openDaysNote": ""
  },
  {
    "id": "2970300162",
    "name": "特別養護老人ホーム瑞祥苑",
    "kana": "トクベツヨウゴロウジンホーム　ズイショウエン",
    "address": "奈良県大和郡山市矢田町4739番地の4",
    "lat": 34.6490312,
    "lng": 135.750169,
    "tel": "0743-54-6180",
    "url": "https://zuishouen.or.jp/",
    "pref": "奈良県",
    "city": "大和郡山市",
    "category": "tokuyou",
    "serviceType": "介護老人福祉施設",
    "capacity": 0,
    "openDays": [],
    "openDaysNote": ""
  },
  {
    "id": "2970300089",
    "name": "特別養護老人ホーム大和園平和",
    "kana": "トクベツヨウゴロウジンホーム　ヤマトエンヘイワ",
    "address": "奈良県大和郡山市美濃庄町236-1",
    "lat": 34.6393253,
    "lng": 135.8063422,
    "tel": "0743-58-2700",
    "url": "http://www.yamatoen.or.jp/",
    "pref": "奈良県",
    "city": "大和郡山市",
    "category": "tokuyou",
    "serviceType": "介護老人福祉施設",
    "capacity": 0,
    "openDays": [],
    "openDaysNote": ""
  },
  {
    "id": "2970300626",
    "name": "矢田の郷",
    "kana": "ヤタノサト",
    "address": "大和郡山市新町９９１",
    "lat": 34.6350154,
    "lng": 135.7386312,
    "tel": "0743-53-5552",
    "url": "https://fukushiin.or.jp",
    "pref": "奈良県",
    "city": "大和郡山市",
    "category": "tokuyou",
    "serviceType": "介護老人福祉施設",
    "capacity": 35,
    "openDays": [],
    "openDaysNote": ""
  },
  {
    "id": "2970200115",
    "name": "特別養護老人ホーム　慈光園",
    "kana": "トクベツヨウゴロウジンホーム　ジコウエン",
    "address": "大和高田市大字池田444番地",
    "lat": 34.5202905024252,
    "lng": 135.7316811,
    "tel": "0745-52-5001",
    "url": "http://www.jikohen.com",
    "pref": "奈良県",
    "city": "大和高田市",
    "category": "tokuyou",
    "serviceType": "介護老人福祉施設",
    "capacity": 0,
    "openDays": [],
    "openDaysNote": ""
  },
  {
    "id": "2970200750",
    "name": "和里（にこり）",
    "kana": "ニコリ",
    "address": "奈良県大和高田市野口325番3",
    "lat": 34.5250476,
    "lng": 135.7210262,
    "tel": "0745-52-0125",
    "url": "http://www.nicori.or.jp/",
    "pref": "奈良県",
    "city": "大和高田市",
    "category": "tokuyou",
    "serviceType": "介護老人福祉施設",
    "capacity": 0,
    "openDays": [],
    "openDaysNote": ""
  },
  {
    "id": "2970400095",
    "name": "社会福祉法人天寿会特別養護老人ホームひびきの郷",
    "kana": "シャカイフクシホウジンテンジュカイトクベツヨウゴロウジンホームヒビキノサト",
    "address": "天理市岸田町１１９９",
    "lat": 34.5662086,
    "lng": 135.8243138,
    "tel": "0743-66-1188",
    "url": "http://www.tenjukai.jp",
    "pref": "奈良県",
    "city": "天理市",
    "category": "tokuyou",
    "serviceType": "介護老人福祉施設",
    "capacity": null,
    "openDays": [],
    "openDaysNote": ""
  },
  {
    "id": "2970400137",
    "name": "天理市立特別養護老人ホームふるさと園",
    "kana": "テンリシリツトクベツヨウゴロウジンホームフルサトエン",
    "address": "天理市遠田町４７３",
    "lat": 34.5625201,
    "lng": 135.8229917,
    "tel": "0743-67-0161",
    "url": "http://www.tenrifurusatoen.or.jp/",
    "pref": "奈良県",
    "city": "天理市",
    "category": "tokuyou",
    "serviceType": "介護老人福祉施設",
    "capacity": 0,
    "openDays": [],
    "openDaysNote": ""
  },
  {
    "id": "2970400012",
    "name": "特別養護老人ホーム　清寿苑",
    "kana": "セイジュエン",
    "address": "奈良県天理市中之庄町532-1",
    "lat": 34.6365684,
    "lng": 135.8426861,
    "tel": "0743-65-3551",
    "url": "http://www/fureai-net.com",
    "pref": "奈良県",
    "city": "天理市",
    "category": "tokuyou",
    "serviceType": "介護老人福祉施設",
    "capacity": 54,
    "openDays": [],
    "openDaysNote": ""
  },
  {
    "id": "2970400020",
    "name": "特別養護老人ホームやすらぎ園",
    "kana": "トクベツヨウゴロウジンホームヤスラギエン",
    "address": "奈良県天理市福住町５５０４番地",
    "lat": 34.59829,
    "lng": 135.908993,
    "tel": "0743-69-2216",
    "url": "http://www.yasuragien.jp",
    "pref": "奈良県",
    "city": "天理市",
    "category": "tokuyou",
    "serviceType": "介護老人福祉施設",
    "capacity": 0,
    "openDays": [],
    "openDaysNote": ""
  },
  {
    "id": "2970400657",
    "name": "特別養護老人ホーム福住光明苑",
    "kana": "トクベツヨウゴロウジンホウム　フクスミコウミョウエン",
    "address": "奈良県天理市福住町6328番地",
    "lat": 34.6050198,
    "lng": 135.9180922,
    "tel": "0743-68-6500",
    "url": "http://fukusumikai.jp/",
    "pref": "奈良県",
    "city": "天理市",
    "category": "tokuyou",
    "serviceType": "介護老人福祉施設",
    "capacity": 0,
    "openDays": [],
    "openDaysNote": ""
  },
  {
    "id": "2972000612",
    "name": "特別養護老人ホームしきの郷",
    "kana": "トクベツヨウゴロウジンホームシキノサト",
    "address": "奈良県磯城郡田原本町西竹田２７番地の１",
    "lat": 34.5559364259282,
    "lng": 135.772256859663,
    "tel": "0744-33-8880",
    "url": "http://sikinosato.org/",
    "pref": "奈良県",
    "city": "田原本町",
    "category": "tokuyou",
    "serviceType": "介護老人福祉施設",
    "capacity": 50,
    "openDays": [],
    "openDaysNote": ""
  },
  {
    "id": "2972000893",
    "name": "特別養護老人ホームぬくもり磯城",
    "kana": "トクベツヨウゴロウジンホームヌクモリシキ",
    "address": "奈良県磯城郡田原本町宮古741-1",
    "lat": 34.5690127,
    "lng": 135.7801962,
    "tel": "0744-47-2860",
    "url": "https://nukumori-group.jp/",
    "pref": "奈良県",
    "city": "田原本町",
    "category": "tokuyou",
    "serviceType": "介護老人福祉施設",
    "capacity": 50,
    "openDays": [],
    "openDaysNote": ""
  },
  {
    "id": "2972000067",
    "name": "特別養護老人ホーム田原本園",
    "kana": "トクベツヨウゴロウジンホームタワラモトエン",
    "address": "奈良県磯城郡田原本町大字味間５２３－１",
    "lat": 34.5354676,
    "lng": 135.8166924,
    "tel": "0744-33-6066",
    "url": "https://tawaramotoen.jp",
    "pref": "奈良県",
    "city": "田原本町",
    "category": "tokuyou",
    "serviceType": "介護老人福祉施設",
    "capacity": 108,
    "openDays": [],
    "openDaysNote": ""
  },
  {
    "id": "2974700136",
    "name": "特別養護老人ホーム　オアシス東吉野",
    "kana": "トクベツヨウゴロウジンホーム　オアシスヒガシヨシノ",
    "address": "奈良県吉野郡東吉野村大字小394番1の2",
    "lat": 34.3918062,
    "lng": 135.9740983,
    "tel": "0746-42-0778",
    "url": "http://www.yasuraginosato2011.or.jp",
    "pref": "奈良県",
    "city": "東吉野村",
    "category": "tokuyou",
    "serviceType": "介護老人福祉施設",
    "capacity": 30,
    "openDays": [],
    "openDaysNote": ""
  },
  {
    "id": "2970100414",
    "name": "サンタ・マリア",
    "kana": "サンタ・マリア",
    "address": "奈良市朱雀４丁目３番地１０",
    "lat": 34.7210772,
    "lng": 135.7989413,
    "tel": "0742-71-7733",
    "url": "http://www.yozefu-home.or.jp/",
    "pref": "奈良県",
    "city": "奈良市",
    "category": "tokuyou",
    "serviceType": "介護老人福祉施設",
    "capacity": null,
    "openDays": [],
    "openDaysNote": ""
  },
  {
    "id": "2970108086",
    "name": "ユニット型　特別養護老人ホーム　平城園",
    "kana": "ユニットガタ　トクベツヨゴロウジンホーム　ヘイジョウエン",
    "address": "奈良市秋篠町1567番地",
    "lat": 34.7121351,
    "lng": 135.7792135,
    "tel": "0742-45-9588",
    "url": "http://fukujukai.or.jp/",
    "pref": "奈良県",
    "city": "奈良市",
    "category": "tokuyou",
    "serviceType": "介護老人福祉施設",
    "capacity": null,
    "openDays": [],
    "openDaysNote": ""
  },
  {
    "id": "2970105504",
    "name": "ル・エンゲージなかがわ3番館",
    "kana": "ル・エンゲージナカガワサンバンカン",
    "address": "奈良市奈良阪町167番地",
    "lat": 34.7089873,
    "lng": 135.8294806,
    "tel": "050-8885-7580",
    "url": "https://frei-stadt.com/",
    "pref": "奈良県",
    "city": "奈良市",
    "category": "tokuyou",
    "serviceType": "介護老人福祉施設",
    "capacity": 50,
    "openDays": [],
    "openDaysNote": ""
  },
  {
    "id": "2970101545",
    "name": "学園前西特別養護老人ホーム",
    "kana": "ガクエンマエニシトクベツヨウゴロウジンホーム",
    "address": "奈良市二名三丁目１１５１番地１",
    "lat": 34.7040559,
    "lng": 135.7260178,
    "tel": "0742-45-1243",
    "url": "https://www.naraen.or.jp",
    "pref": "奈良県",
    "city": "奈良市",
    "category": "tokuyou",
    "serviceType": "介護老人福祉施設",
    "capacity": 50,
    "openDays": [],
    "openDaysNote": ""
  },
  {
    "id": "2970106775",
    "name": "学園前西特別養護老人ホーム（ユニット型）",
    "kana": "ガクエンマエニシトクベツヨウゴロウジンホーム（ユニットガタ）",
    "address": "奈良県奈良市二名三丁目１１５１番地１",
    "lat": 34.7040559,
    "lng": 135.7260178,
    "tel": "0742-40-0810",
    "url": "https://www.naraen.or.jp",
    "pref": "奈良県",
    "city": "奈良市",
    "category": "tokuyou",
    "serviceType": "介護老人福祉施設",
    "capacity": 30,
    "openDays": [],
    "openDaysNote": ""
  },
  {
    "id": "2971200023",
    "name": "都祁すずらん苑",
    "kana": "ツゲスズランエン",
    "address": "奈良県奈良市都祁友田町１４３７番地",
    "lat": 34.6017347,
    "lng": 135.9456151,
    "tel": "0743-82-2822",
    "url": "https://www.yamatokai-suzuran.com",
    "pref": "奈良県",
    "city": "奈良市",
    "category": "tokuyou",
    "serviceType": "介護老人福祉施設",
    "capacity": 0,
    "openDays": [],
    "openDaysNote": ""
  },
  {
    "id": "2970100281",
    "name": "特別養護老人ホーム　あじさい園",
    "kana": "トクベツヨウゴロウジンホーム　アジサイエン",
    "address": "奈良市茗荷町808-1",
    "lat": 34.6570114,
    "lng": 135.9022247,
    "tel": "0742-81-0878",
    "url": "http://www.ajisaien.or.jp",
    "pref": "奈良県",
    "city": "奈良市",
    "category": "tokuyou",
    "serviceType": "介護老人福祉施設",
    "capacity": 0,
    "openDays": [],
    "openDaysNote": ""
  },
  {
    "id": "2970101289",
    "name": "特別養護老人ホーム　こがねの里",
    "kana": "トクベツヨウゴロウジンホーム　コガネノサト",
    "address": "奈良県奈良市西大寺赤田町1丁目7番1-2号",
    "lat": 34.6986882350508,
    "lng": 135.772042677246,
    "tel": "0742-52-4315",
    "url": "https://akishino-akane.com/",
    "pref": "奈良県",
    "city": "奈良市",
    "category": "tokuyou",
    "serviceType": "介護老人福祉施設",
    "capacity": 0,
    "openDays": [],
    "openDaysNote": ""
  },
  {
    "id": "2970106429",
    "name": "特別養護老人ホーム　こまどりと丘",
    "kana": "トクベツヨウゴロウジンホーム　コマドリトオカ",
    "address": "奈良県奈良市二名1丁目2356-1",
    "lat": 34.7067276108873,
    "lng": 135.7366048648,
    "tel": "0742-51-7351",
    "url": "http://www.komadoritooka.jp/",
    "pref": "奈良県",
    "city": "奈良市",
    "category": "tokuyou",
    "serviceType": "介護老人福祉施設",
    "capacity": 50,
    "openDays": [],
    "openDaysNote": ""
  },
  {
    "id": "2970104416",
    "name": "特別養護老人ホーム　トマトホーム",
    "kana": "トクベツヨウゴロウジンホームトマトホーム",
    "address": "奈良市横井町906-12",
    "lat": 34.656619,
    "lng": 135.850966,
    "tel": "0742-62-8880",
    "url": "https://www.tomato-home.or.jp",
    "pref": "奈良県",
    "city": "奈良市",
    "category": "tokuyou",
    "serviceType": "介護老人福祉施設",
    "capacity": 0,
    "openDays": [],
    "openDaysNote": ""
  },
  {
    "id": "2970103947",
    "name": "特別養護老人ホーム　リノ",
    "kana": "トクベツヨウゴロウジンホーム　リノ",
    "address": "奈良市窪之庄町１１６－１",
    "lat": 34.6386178,
    "lng": 135.8326009,
    "tel": "0742-64-3500",
    "url": "https://www.shimeikai.or.jp",
    "pref": "奈良県",
    "city": "奈良市",
    "category": "tokuyou",
    "serviceType": "介護老人福祉施設",
    "capacity": 85,
    "openDays": [],
    "openDaysNote": ""
  },
  {
    "id": "2970106411",
    "name": "特別養護老人ホーム　光の桜",
    "kana": "トクベツヨウゴロウジンホーム　ヒカリノサクラ",
    "address": "奈良県奈良市石木町715-1",
    "lat": 34.6671391327315,
    "lng": 135.761691450262,
    "tel": "0742-51-7537",
    "url": "http://nrayamakai.jp/",
    "pref": "奈良県",
    "city": "奈良市",
    "category": "tokuyou",
    "serviceType": "介護老人福祉施設",
    "capacity": 50,
    "openDays": [],
    "openDaysNote": ""
  },
  {
    "id": "2970100943",
    "name": "特別養護老人ホーム　西ノ京苑",
    "kana": "トクベツヨウゴロウジンホーム　ニシノキョウエン",
    "address": "奈良市六条西五丁目17番43号",
    "lat": 34.6646052,
    "lng": 135.765362,
    "tel": "0742-52-0888",
    "url": "https://nisinokyoen.org/",
    "pref": "奈良県",
    "city": "奈良市",
    "category": "tokuyou",
    "serviceType": "介護老人福祉施設",
    "capacity": 0,
    "openDays": [],
    "openDaysNote": ""
  },
  {
    "id": "2970100232",
    "name": "特別養護老人ホーム　長曽根寮",
    "kana": "トクベツヨウゴロウジンホーム　ナガソネリョウ",
    "address": "奈良市大倭町４番１号",
    "lat": 34.680781,
    "lng": 135.7581872,
    "tel": "0742-44-9346",
    "url": "https://www.asukaen.net/",
    "pref": "奈良県",
    "city": "奈良市",
    "category": "tokuyou",
    "serviceType": "介護老人福祉施設",
    "capacity": 0,
    "openDays": [],
    "openDaysNote": ""
  },
  {
    "id": "2970106866",
    "name": "特別養護老人ホームあじさい園宝",
    "kana": "トクベツヨウゴロウジンホーム　アジサイエンタカラ",
    "address": "奈良県奈良市南肘塚町99-1",
    "lat": 34.6658262766075,
    "lng": 135.831434469975,
    "tel": "0742-24-0878",
    "url": "http://www.ajisaien.or.jp",
    "pref": "奈良県",
    "city": "奈良市",
    "category": "tokuyou",
    "serviceType": "介護老人福祉施設",
    "capacity": 50,
    "openDays": [],
    "openDaysNote": ""
  },
  {
    "id": "2970103608",
    "name": "特別養護老人ホームかがやきの苑（かがやきのその）",
    "kana": "トクベツヨウゴロウジンホームカガヤキノソノ(カガヤキノソノ）",
    "address": "奈良市奈良阪町２７８９－１",
    "lat": 34.7033185,
    "lng": 135.8371162,
    "tel": "0742-25-2020",
    "url": "",
    "pref": "奈良県",
    "city": "奈良市",
    "category": "tokuyou",
    "serviceType": "介護老人福祉施設",
    "capacity": 0,
    "openDays": [],
    "openDaysNote": ""
  },
  {
    "id": "2970106874",
    "name": "特別養護老人ホームサンライフ西大寺",
    "kana": "トクベツヨウゴロウジンホームサンライフサイダイジ",
    "address": "奈良県奈良市西大寺南町1-28",
    "lat": 34.6939436761898,
    "lng": 135.781658109262,
    "tel": "0742-52-1177",
    "url": "http://www.seiwakai-group.or.jp/",
    "pref": "奈良県",
    "city": "奈良市",
    "category": "tokuyou",
    "serviceType": "介護老人福祉施設",
    "capacity": null,
    "openDays": [],
    "openDaysNote": ""
  },
  {
    "id": "2970103327",
    "name": "特別養護老人ホームサンライフ明日香",
    "kana": "トクベツヨウゴロウジンホーム　サンライフアスカ",
    "address": "奈良市紀寺町５５６－１",
    "lat": 34.6715334,
    "lng": 135.8345118,
    "tel": "742201177",
    "url": "http://www.seiwakai-group.or.jp/",
    "pref": "奈良県",
    "city": "奈良市",
    "category": "tokuyou",
    "serviceType": "介護老人福祉施設",
    "capacity": 0,
    "openDays": [],
    "openDaysNote": ""
  },
  {
    "id": "2970100190",
    "name": "特別養護老人ホームならやま園",
    "kana": "トクベツヨウゴロウジンホームナラヤマエン",
    "address": "奈良市山陵町1085",
    "lat": 34.7120704,
    "lng": 135.7822706,
    "tel": "0742-41-8088",
    "url": "http://fukujukai.or.jp",
    "pref": "奈良県",
    "city": "奈良市",
    "category": "tokuyou",
    "serviceType": "介護老人福祉施設",
    "capacity": 84,
    "openDays": [],
    "openDaysNote": ""
  },
  {
    "id": "2970101503",
    "name": "特別養護老人ホームなら清寿苑",
    "kana": "トクベツヨウゴロウジンホームナラセイジュエン",
    "address": "奈良市田中町６０２番１",
    "lat": 34.6383015,
    "lng": 135.8434416,
    "tel": "0742-50-3551",
    "url": "https://www.fureai-net.com",
    "pref": "奈良県",
    "city": "奈良市",
    "category": "tokuyou",
    "serviceType": "介護老人福祉施設",
    "capacity": 0,
    "openDays": [],
    "openDaysNote": ""
  },
  {
    "id": "2970103848",
    "name": "特別養護老人ホームらくじ苑",
    "kana": "トクベツヨウゴロウジンホームラクジエン",
    "address": "奈良県奈良市八条５丁目437-11",
    "lat": 34.6672196,
    "lng": 135.8000344,
    "tel": "0742-30-1800",
    "url": "http://s-rakuji.com",
    "pref": "奈良県",
    "city": "奈良市",
    "category": "tokuyou",
    "serviceType": "介護老人福祉施設",
    "capacity": 85,
    "openDays": [],
    "openDaysNote": ""
  },
  {
    "id": "2971100066",
    "name": "特別養護老人ホーム香梅苑",
    "kana": "トクベツヨウゴロウジンホームコウバイエン",
    "address": "奈良県奈良市月ヶ瀬尾山８１７番地５",
    "lat": 34.7148687,
    "lng": 136.0471171,
    "tel": "0743-92-2222",
    "url": "",
    "pref": "奈良県",
    "city": "奈良市",
    "category": "tokuyou",
    "serviceType": "介護老人福祉施設",
    "capacity": 0,
    "openDays": [],
    "openDaysNote": ""
  },
  {
    "id": "2970104200",
    "name": "特別養護老人ホーム梅花苑",
    "kana": "トクベツヨウゴロウジンホームバイカエン",
    "address": "奈良市大和田町2226番地",
    "lat": 34.6673793,
    "lng": 135.7437108,
    "tel": "0742-52-0221",
    "url": "http://www.wellconsul.co.jp/main/shisetu/tokubetuyougo.html",
    "pref": "奈良県",
    "city": "奈良市",
    "category": "tokuyou",
    "serviceType": "介護老人福祉施設",
    "capacity": 60,
    "openDays": [],
    "openDaysNote": ""
  },
  {
    "id": "2970100315",
    "name": "特別養護老人ホーム平城園",
    "kana": "トクベツヨウゴロウジンホームヘイジョウエン",
    "address": "奈良市秋篠町１５６７番地",
    "lat": 34.7121751,
    "lng": 135.7789239,
    "tel": "0742-45-9588",
    "url": "http://fukujukai.or.jp/heijyo",
    "pref": "奈良県",
    "city": "奈良市",
    "category": "tokuyou",
    "serviceType": "介護老人福祉施設",
    "capacity": 0,
    "openDays": [],
    "openDaysNote": ""
  },
  {
    "id": "2970100646",
    "name": "特別養護老人ホーム万葉苑",
    "kana": "トクベツヨウゴロウジンホームマンヨウエン",
    "address": "奈良市川上町875番地の1",
    "lat": 34.70238,
    "lng": 135.8440934,
    "tel": "0742-27-1887",
    "url": "http://www.manyoen.jp/",
    "pref": "奈良県",
    "city": "奈良市",
    "category": "tokuyou",
    "serviceType": "介護老人福祉施設",
    "capacity": 0,
    "openDays": [],
    "openDaysNote": ""
  },
  {
    "id": "2970101578",
    "name": "特別養護老人ホーム和楽園",
    "kana": "トクベツヨウゴロウジンホームワラクエン",
    "address": "奈良市古市町１８８６番地の１",
    "lat": 34.6650677,
    "lng": 135.842825,
    "tel": "0742-63-5502",
    "url": "https://www.warakuen.or.jp",
    "pref": "奈良県",
    "city": "奈良市",
    "category": "tokuyou",
    "serviceType": "介護老人福祉施設",
    "capacity": 84,
    "openDays": [],
    "openDaysNote": ""
  },
  {
    "id": "2971600537",
    "name": "特別養護老人ホーム　一樹",
    "kana": "トクベツヨウゴロウジンホーム　イチジュ",
    "address": "奈良県生駒郡斑鳩町目安3-4-36",
    "lat": 34.5950106273101,
    "lng": 135.73851462209,
    "tel": "0745-75-1212",
    "url": "http://www.ichiju.or.jp/",
    "pref": "奈良県",
    "city": "斑鳩町",
    "category": "tokuyou",
    "serviceType": "介護老人福祉施設",
    "capacity": 0,
    "openDays": [],
    "openDaysNote": ""
  },
  {
    "id": "2971600057",
    "name": "特別養護老人ホーム第二慈母園",
    "kana": "トクベツヨウゴロウジンホームダイニジボエン",
    "address": "奈良県生駒郡斑鳩町法隆寺2091-1",
    "lat": 34.6140648,
    "lng": 135.7297573,
    "tel": "0745-75-8888",
    "url": "http://www.shutokukai.or.jp",
    "pref": "奈良県",
    "city": "斑鳩町",
    "category": "tokuyou",
    "serviceType": "介護老人福祉施設",
    "capacity": 0,
    "openDays": [],
    "openDaysNote": ""
  },
  {
    "id": "2971400169",
    "name": "特別養護老人ホーム　グレースの里",
    "kana": "トクベツヨウゴロウジンホーム　グレースノサト",
    "address": "奈良県生駒郡平群町越木塚336-1",
    "lat": 34.6224022,
    "lng": 135.685953,
    "tel": "0745-45-0865",
    "url": "http://shinaikai.net/",
    "pref": "奈良県",
    "city": "平群町",
    "category": "tokuyou",
    "serviceType": "介護老人福祉施設",
    "capacity": 50,
    "openDays": [],
    "openDaysNote": ""
  },
  {
    "id": "2971400433",
    "name": "特別養護老人ホーム第二グレースの里",
    "kana": "トクベツヨウゴロウジンホームダイニグレースノサト",
    "address": "奈良県生駒郡平群町椿井244特別養護老人ホーム第二グレースの里 特別養護老人ホーム第二グレースの里",
    "lat": 34.6167002509192,
    "lng": 135.707831259386,
    "tel": "0745-46-2383",
    "url": "http://shinaikai.net",
    "pref": "奈良県",
    "city": "平群町",
    "category": "tokuyou",
    "serviceType": "介護老人福祉施設",
    "capacity": 0,
    "openDays": [],
    "openDaysNote": ""
  },
  {
    "id": "2972800045",
    "name": "特別養護老人ホームあすかの里",
    "kana": "トクベツヨウゴロウジンホームアスカノサト",
    "address": "奈良県高市郡明日香村大字越280番地",
    "lat": 34.465667,
    "lng": 135.7951547,
    "tel": "0744-54-5577",
    "url": "http://web1.kcn.jp/asukarakuen/",
    "pref": "奈良県",
    "city": "明日香村",
    "category": "tokuyou",
    "serviceType": "介護老人福祉施設",
    "capacity": 0,
    "openDays": [],
    "openDaysNote": ""
  },
  {
    "id": "2972800011",
    "name": "特別養護老人ホームあまがし苑",
    "kana": "トクベツヨウゴロウジンホ－ムアマガシエン",
    "address": "奈良県高市郡明日香村大字栗原４２１番地２",
    "lat": 34.455988,
    "lng": 135.8062651,
    "tel": "0744-54-5454",
    "url": "http://www.amagashien.com",
    "pref": "奈良県",
    "city": "明日香村",
    "category": "tokuyou",
    "serviceType": "介護老人福祉施設",
    "capacity": 0,
    "openDays": [],
    "openDaysNote": ""
  }
]