[
  {
    "id": "470300047",
    "name": "特別養護老人ホーム　清楽苑",
    "kana": "トクベツヨウゴロウジンホーム　セイラクエン",
    "address": "宮城県塩竈市清水沢一丁目12-1",
    "lat": 38.3254606,
    "lng": 141.0094973,
    "tel": "022-365-5100",
    "url": "http://www.chiganoura.jp/",
    "pref": "宮城県",
    "city": "塩竈市",
    "category": "tokuyou",
    "serviceType": "介護老人福祉施設",
    "capacity": null,
    "openDays": [],
    "openDaysNote": ""
  },
  {
    "id": "472800085",
    "name": "特別養護老人ホーム　やくらいサンホーム",
    "kana": "トクベツヨウゴロウジンホーム　ヤクライサンホーム",
    "address": "宮城県加美郡加美町字中原南143番地",
    "lat": 38.579677,
    "lng": 140.782019,
    "tel": "0229-67-7230",
    "url": "https://www.kamitamatsukurifukushikai.or.jp/",
    "pref": "宮城県",
    "city": "加美町",
    "category": "tokuyou",
    "serviceType": "介護老人福祉施設",
    "capacity": 54,
    "openDays": [],
    "openDaysNote": ""
  },
  {
    "id": "472800077",
    "name": "特別養護老人ホーム　青風園",
    "kana": "トクベツヨウゴロウジンホーム　セイフウエン",
    "address": "宮城県加美郡加美町菜切谷字原16-54",
    "lat": 38.5996798,
    "lng": 140.8604075,
    "tel": "0229-63-5519",
    "url": "https://www.kamitamatsukurifukushikai.or.jp/",
    "pref": "宮城県",
    "city": "加美町",
    "category": "tokuyou",
    "serviceType": "介護老人福祉施設",
    "capacity": 50,
    "openDays": [],
    "openDaysNote": ""
  },
  {
    "id": "472800580",
    "name": "特別養護老人ホームみやざき",
    "kana": "トクベツヨウゴロウジンホームミヤザキ",
    "address": "宮城県加美郡加美町宮崎字屋敷七番２９番",
    "lat": 38.6130753,
    "lng": 140.7540394,
    "tel": "0229-68-2201",
    "url": "http://www.sg-miyagikai.jp/office/90/",
    "pref": "宮城県",
    "city": "加美町",
    "category": "tokuyou",
    "serviceType": "介護老人福祉施設",
    "capacity": 60,
    "openDays": [],
    "openDaysNote": ""
  },
  {
    "id": "470800079",
    "name": "特別養護老人ホーム　　聖母の家",
    "kana": "トクベツヨウゴロウジンホーム　セイボノイエ",
    "address": "宮城県角田市横倉字丸山１番地",
    "lat": 37.9810373,
    "lng": 140.7648997,
    "tel": "0224-62-1731",
    "url": "http://www.akenohoshi.or.jp",
    "pref": "宮城県",
    "city": "角田市",
    "category": "tokuyou",
    "serviceType": "介護老人福祉施設",
    "capacity": 0,
    "openDays": [],
    "openDaysNote": ""
  },
  {
    "id": "470800434",
    "name": "特別養護老人ホーム　寛ぎの郷",
    "kana": "トクベツヨウゴロウジンホームクツロギノサト",
    "address": "宮城県角田市岡字駅前北１番１",
    "lat": 38.0198168,
    "lng": 140.7808404,
    "tel": "0224-51-8211",
    "url": "http://www.fukujunomori.com/",
    "pref": "宮城県",
    "city": "角田市",
    "category": "tokuyou",
    "serviceType": "介護老人福祉施設",
    "capacity": 0,
    "openDays": [],
    "openDaysNote": ""
  },
  {
    "id": "470800442",
    "name": "特別養護老人ホーム　和らぎの郷",
    "kana": "トクベツヨウゴロウジンホーム　ヤワラギノサト",
    "address": "宮城県角田市岡字駅前北１番１",
    "lat": 38.0198168,
    "lng": 140.7808404,
    "tel": "0224-51-8212",
    "url": "http://www.fukujunomori.com/",
    "pref": "宮城県",
    "city": "角田市",
    "category": "tokuyou",
    "serviceType": "介護老人福祉施設",
    "capacity": 40,
    "openDays": [],
    "openDaysNote": ""
  },
  {
    "id": "470800061",
    "name": "特別養護老人ホームみどり荘",
    "kana": "トクベツヨウゴロウジンホームミドリソウ",
    "address": "宮城県角田市佐倉字上土浮2-2",
    "lat": 37.9949107,
    "lng": 140.7895439,
    "tel": "0224-62-1093",
    "url": "http://www.miyagiryokufuukai.com/",
    "pref": "宮城県",
    "city": "角田市",
    "category": "tokuyou",
    "serviceType": "介護老人福祉施設",
    "capacity": 94,
    "openDays": [],
    "openDaysNote": ""
  },
  {
    "id": "472300011",
    "name": "特別養護老人ホーム仙南ジェロントピア",
    "kana": "トクベツヨウゴロウジンホームセンナンジェロントピア",
    "address": "宮城県伊具郡丸森町舘矢間松掛宮田67番地",
    "lat": 37.938162,
    "lng": 140.7589112,
    "tel": "0224-72-2860",
    "url": "http://www.welfare-sendai.or.jp/",
    "pref": "宮城県",
    "city": "丸森町",
    "category": "tokuyou",
    "serviceType": "介護老人福祉施設",
    "capacity": 0,
    "openDays": [],
    "openDaysNote": ""
  },
  {
    "id": "472300110",
    "name": "特別養護老人ホーム仙南ジェロントピア",
    "kana": "トクベツヨウゴロウジンホームセンナンジェロントピア",
    "address": "宮城県伊具郡丸森町舘矢間松掛字宮田67番地",
    "lat": 37.938162,
    "lng": 140.7589112,
    "tel": "0224-72-2860",
    "url": "http://www.welfare-sendai.or.jp/",
    "pref": "宮城県",
    "city": "丸森町",
    "category": "tokuyou",
    "serviceType": "介護老人福祉施設",
    "capacity": 0,
    "openDays": [],
    "openDaysNote": ""
  },
  {
    "id": "471100180",
    "name": "特別養護老人ホーム　チアフル岩沼",
    "kana": "トクベツヨウゴロウジンホーム　チアフルイワヌマ",
    "address": "宮城県岩沼市三色吉字中の原７５－1",
    "lat": 38.1229706,
    "lng": 140.8433086,
    "tel": "0223-25-5661",
    "url": "http://敬長福祉会.jp/",
    "pref": "宮城県",
    "city": "岩沼市",
    "category": "tokuyou",
    "serviceType": "介護老人福祉施設",
    "capacity": 0,
    "openDays": [],
    "openDaysNote": ""
  },
  {
    "id": "471100040",
    "name": "特別養護老人ホーム赤井江マリンホーム",
    "kana": "トクベツヨウゴロウジンホームアカイコウマリンホーム",
    "address": "宮城県岩沼市恵み野１丁目７番地の１",
    "lat": 38.1084420699316,
    "lng": 140.904131287592,
    "tel": "0223-29-2141",
    "url": "http://www.akaikoh.or.jp",
    "pref": "宮城県",
    "city": "岩沼市",
    "category": "tokuyou",
    "serviceType": "介護老人福祉施設",
    "capacity": 50,
    "openDays": [],
    "openDaysNote": ""
  },
  {
    "id": "473600021",
    "name": "社会福祉法人春圃会　特別養護老人ホーム春圃苑",
    "kana": "シャカイフクシホウジンシュンポカイ　トクベツヨウゴロウジンホームシュンポエン",
    "address": "宮城県気仙沼市本吉町中島358番地3",
    "lat": 38.77633,
    "lng": 141.5172468,
    "tel": "0226-42-3100",
    "url": "http://syunpo-kai.com/",
    "pref": "宮城県",
    "city": "気仙沼市",
    "category": "tokuyou",
    "serviceType": "介護老人福祉施設",
    "capacity": 0,
    "openDays": [],
    "openDaysNote": ""
  },
  {
    "id": "470500364",
    "name": "特別養護老人ホーム　恵心寮",
    "kana": "トクベツヨウゴロウジンホーム　ケイシンリョウ",
    "address": "宮城県気仙沼市下八瀬４２６番地８",
    "lat": 38.9165970165999,
    "lng": 141.520081746594,
    "tel": "0226-25-8727",
    "url": "https://nakatuumikai.or.jp",
    "pref": "宮城県",
    "city": "気仙沼市",
    "category": "tokuyou",
    "serviceType": "介護老人福祉施設",
    "capacity": 60,
    "openDays": [],
    "openDaysNote": ""
  },
  {
    "id": "470500752",
    "name": "特別養護老人ホーム　唐桑園",
    "kana": "トクベツヨウゴロウジンホーム　カラクワエン",
    "address": "宮城県気仙沼市唐桑町只越３４６－７",
    "lat": 38.9225171,
    "lng": 141.6375082,
    "tel": "0226-29-6301",
    "url": "http://kenshin-kai.jp",
    "pref": "宮城県",
    "city": "気仙沼市",
    "category": "tokuyou",
    "serviceType": "介護老人福祉施設",
    "capacity": 60,
    "openDays": [],
    "openDaysNote": ""
  },
  {
    "id": "470500521",
    "name": "特別養護老人ホームキングス・タウン",
    "kana": "トクベツヨウゴロウジンホームキングス・タウン",
    "address": "宮城県気仙沼市三日町3丁目1-1",
    "lat": 38.9058287,
    "lng": 141.5663173,
    "tel": "0226-24-3001",
    "url": "http://www.kingsgarden.or.jp",
    "pref": "宮城県",
    "city": "気仙沼市",
    "category": "tokuyou",
    "serviceType": "介護老人福祉施設",
    "capacity": 50,
    "openDays": [],
    "openDaysNote": ""
  },
  {
    "id": "470500042",
    "name": "特別養護老人ホーム恵潮苑",
    "kana": "トクベツヨウゴロウジンホームケイチョウエン",
    "address": "宮城県気仙沼市東新城二丁目２番地３",
    "lat": 38.9094392,
    "lng": 141.5483577,
    "tel": "０２２６－２１－１２２１",
    "url": "http://nakatuumikai.or.jp/",
    "pref": "宮城県",
    "city": "気仙沼市",
    "category": "tokuyou",
    "serviceType": "介護老人福祉施設",
    "capacity": 70,
    "openDays": [],
    "openDaysNote": ""
  },
  {
    "id": "471300806",
    "name": "特別養護老人ホーム　うぐいすの里",
    "kana": "トクベツヨウゴロウジンホーム　ウグイスノサト",
    "address": "宮城県栗原市鶯沢南郷広面４６番地",
    "lat": 38.8106374,
    "lng": 140.9489578,
    "tel": "0228-55-3888",
    "url": "http://www.miyafuku.jp/uguisuzawa/index",
    "pref": "宮城県",
    "city": "栗原市",
    "category": "tokuyou",
    "serviceType": "介護老人福祉施設",
    "capacity": 0,
    "openDays": [],
    "openDaysNote": ""
  },
  {
    "id": "471301143",
    "name": "特別養護老人ホーム　桂葉",
    "kana": "トクベツヨウゴロウジンホーム　カツラハ",
    "address": "宮城県栗原市高清水新桂葉２７８番地２",
    "lat": 38.6576858,
    "lng": 141.008755,
    "tel": "0228-59-3031",
    "url": "http://www.homeikai.or.jp/facilities/tokuyou_katuraha/tokuyou_katuraha.html",
    "pref": "宮城県",
    "city": "栗原市",
    "category": "tokuyou",
    "serviceType": "介護老人福祉施設",
    "capacity": 30,
    "openDays": [],
    "openDaysNote": ""
  },
  {
    "id": "471300038",
    "name": "特別養護老人ホーム　若藤園",
    "kana": "トクベツヨウゴロウジンホーム　ワカフジエン",
    "address": "宮城県栗原市若柳武鎗字藤貫沢85番地",
    "lat": 38.8071051,
    "lng": 141.1123066,
    "tel": "0228-32-5601",
    "url": "https://www.homeikai.or.jp/",
    "pref": "宮城県",
    "city": "栗原市",
    "category": "tokuyou",
    "serviceType": "介護老人福祉施設",
    "capacity": 50,
    "openDays": [],
    "openDaysNote": ""
  },
  {
    "id": "471300020",
    "name": "特別養護老人ホーム　千葉福寿園",
    "kana": "トクベツヨウゴロウジンホーム　チバフクジュエン",
    "address": "宮城県栗原市志波姫北郷大門８５－２",
    "lat": 38.7608034,
    "lng": 141.0760373,
    "tel": "0228-25-2255",
    "url": "http://kurihara-c.jp/",
    "pref": "宮城県",
    "city": "栗原市",
    "category": "tokuyou",
    "serviceType": "介護老人福祉施設",
    "capacity": 54,
    "openDays": [],
    "openDaysNote": ""
  },
  {
    "id": "471300012",
    "name": "特別養護老人ホーム　白鳥苑",
    "kana": "トクベツヨウゴロウジンホーム　ハクチョウエン",
    "address": "宮城県栗原市瀬峰根岸55番地2",
    "lat": 38.6516175104709,
    "lng": 141.071473944844,
    "tel": "0228-38-3625",
    "url": "http://www.hakuchoen.com/",
    "pref": "宮城県",
    "city": "栗原市",
    "category": "tokuyou",
    "serviceType": "介護老人福祉施設",
    "capacity": 0,
    "openDays": [],
    "openDaysNote": ""
  },
  {
    "id": "471300046",
    "name": "特別養護老人ホームいちょうの里",
    "kana": "トクベツヨウゴロウジンホームイチョウノサト",
    "address": "宮城県栗原市築館字下宮野館１０８番地",
    "lat": 38.7563499,
    "lng": 141.013227,
    "tel": "0228-22-7887",
    "url": "http://www.ityou.jp/",
    "pref": "宮城県",
    "city": "栗原市",
    "category": "tokuyou",
    "serviceType": "介護老人福祉施設",
    "capacity": 50,
    "openDays": [],
    "openDaysNote": ""
  },
  {
    "id": "471301952",
    "name": "特別養護老人ホームさくらの里若柳",
    "kana": "トクベツヨウゴロウジンホームサクラノサトワカヤナギ",
    "address": "宮城県栗原市若柳字川北塚原１５番地１",
    "lat": 38.7679474555132,
    "lng": 141.135797894116,
    "tel": "0228-32-7515",
    "url": "http://www.miyafuku.jp",
    "pref": "宮城県",
    "city": "栗原市",
    "category": "tokuyou",
    "serviceType": "介護老人福祉施設",
    "capacity": 40,
    "openDays": [],
    "openDaysNote": ""
  },
  {
    "id": "471300053",
    "name": "特別養護老人ホーム愛光園",
    "kana": "トクベツヨウゴロウジンホームアイコウエン",
    "address": "宮城県栗原市栗駒岩ヶ崎三島２５５番地",
    "lat": 38.8371574381469,
    "lng": 141.003500852779,
    "tel": "0228-45-2551",
    "url": "http://k-houjyukai.or.jp",
    "pref": "宮城県",
    "city": "栗原市",
    "category": "tokuyou",
    "serviceType": "介護老人福祉施設",
    "capacity": 50,
    "openDays": [],
    "openDaysNote": ""
  },
  {
    "id": "471300061",
    "name": "特別養護老人ホーム山王",
    "kana": "トクベツヨウゴロウジンホーム　サンノウ",
    "address": "宮城県栗原市一迫真坂字新道満３９",
    "lat": 38.7443808,
    "lng": 140.9502204,
    "tel": "0228-52-2880",
    "url": "http://www.miyafuku.jp",
    "pref": "宮城県",
    "city": "栗原市",
    "category": "tokuyou",
    "serviceType": "介護老人福祉施設",
    "capacity": 54,
    "openDays": [],
    "openDaysNote": ""
  },
  {
    "id": "472400084",
    "name": "特別養護老人ホームみやま荘",
    "kana": "トクベツヨウゴロウジンホームミヤマソウ",
    "address": "宮城県亘理郡山元町高瀬字合戦原111-11",
    "lat": 37.9418685,
    "lng": 140.8980559,
    "tel": "0223-37-3880",
    "url": "http://miyagi-seiwakai.jp/",
    "pref": "宮城県",
    "city": "山元町",
    "category": "tokuyou",
    "serviceType": "介護老人福祉施設",
    "capacity": 0,
    "openDays": [],
    "openDaysNote": ""
  },
  {
    "id": "472100122",
    "name": "特別養護老人ホームゆりの里七ヶ宿",
    "kana": "トクベツヨウゴロウジンホームユリノサトシチガシュク",
    "address": "宮城県刈田郡七ヶ宿町字矢立３番地1",
    "lat": 37.9835759,
    "lng": 140.463941,
    "tel": "0224-37-2855",
    "url": "http://www.miyafuku.jp/shichi/index",
    "pref": "宮城県",
    "city": "七ヶ宿町",
    "category": "tokuyou",
    "serviceType": "介護老人福祉施設",
    "capacity": 0,
    "openDays": [],
    "openDaysNote": ""
  },
  {
    "id": "472600048",
    "name": "特別養護老人ホーム第二清楽苑",
    "kana": "トクベツヨウゴロウジンホームダイニセイラクエン",
    "address": "宮城県宮城郡七ヶ浜町花渕浜字高山25番3",
    "lat": 38.2976749,
    "lng": 141.0708405,
    "tel": "022-357-6411",
    "url": "http://www.chiganoura.jp/",
    "pref": "宮城県",
    "city": "七ヶ浜町",
    "category": "tokuyou",
    "serviceType": "介護老人福祉施設",
    "capacity": 0,
    "openDays": [],
    "openDaysNote": ""
  },
  {
    "id": "472200104",
    "name": "特別養護老人ホーム　常盤園",
    "kana": "トクベツヨウゴロウジンホーム　トキワエン",
    "address": "宮城県柴田郡柴田町西船迫２丁目７番地4",
    "lat": 38.0618692496135,
    "lng": 140.759421027069,
    "tel": "0224-55-1411",
    "url": "http://www.tokiwa-fukushikai.or.jp",
    "pref": "宮城県",
    "city": "柴田町",
    "category": "tokuyou",
    "serviceType": "介護老人福祉施設",
    "capacity": 34,
    "openDays": [],
    "openDaysNote": ""
  },
  {
    "id": "472201458",
    "name": "特別養護老人ホーム　常盤園",
    "kana": "トクベツヨウゴロウジンホーム　トキワエン",
    "address": "宮城県柴田郡柴田町西船迫２丁目７番地4",
    "lat": 38.0618617505104,
    "lng": 140.759402603041,
    "tel": "0224-55-1411",
    "url": "http://www.tokiwa-fukushikai.or.jp",
    "pref": "宮城県",
    "city": "柴田町",
    "category": "tokuyou",
    "serviceType": "介護老人福祉施設",
    "capacity": 40,
    "openDays": [],
    "openDaysNote": ""
  },
  {
    "id": "472201037",
    "name": "特別養護老人ホーム第二常盤園",
    "kana": "トクベツヨウゴロウジンホームダイニトキワエン",
    "address": "宮城県柴田郡柴田町大字海老穴字丸山40-2",
    "lat": 38.0904611,
    "lng": 140.786995,
    "tel": "0224-56-5761",
    "url": "http://www.tokiwa-fukushikai.or.jp/",
    "pref": "宮城県",
    "city": "柴田町",
    "category": "tokuyou",
    "serviceType": "介護老人福祉施設",
    "capacity": 0,
    "openDays": [],
    "openDaysNote": ""
  },
  {
    "id": "472201045",
    "name": "特別養護老人ホーム第二常盤園",
    "kana": "トクベツヨウゴロウジンホームダイニトキワエン",
    "address": "宮城県柴田郡柴田町大字海老穴字丸山40-2",
    "lat": 38.0904611,
    "lng": 140.786995,
    "tel": "0224-56-5761",
    "url": "http://www.tokiwa-fukushikai.or.jp/",
    "pref": "宮城県",
    "city": "柴田町",
    "category": "tokuyou",
    "serviceType": "介護老人福祉施設",
    "capacity": 0,
    "openDays": [],
    "openDaysNote": ""
  },
  {
    "id": "473500155",
    "name": "特別養護老人ホーム　おながわ",
    "kana": "トクベツヨウゴロウジンホーム　オナガワ",
    "address": "宮城県牡鹿郡女川町浦宿浜字小屋ノ口1番地1",
    "lat": 38.4372837,
    "lng": 141.4270182,
    "tel": "0225-53-5181",
    "url": "http://www.eiraku.or.jp/",
    "pref": "宮城県",
    "city": "女川町",
    "category": "tokuyou",
    "serviceType": "介護老人福祉施設",
    "capacity": 50,
    "openDays": [],
    "openDaysNote": ""
  },
  {
    "id": "472600295",
    "name": "特別養護老人ホーム　松島長松苑",
    "kana": "トクベツヨウゴロウジンホーム　マツシマチョウショウエン",
    "address": "宮城県宮城郡松島町根廻字上山王6-27",
    "lat": 38.4085764805465,
    "lng": 141.058768335582,
    "tel": "022-355-1121",
    "url": "http://www.chiganoura.jp/",
    "pref": "宮城県",
    "city": "松島町",
    "category": "tokuyou",
    "serviceType": "介護老人福祉施設",
    "capacity": 0,
    "openDays": [],
    "openDaysNote": ""
  },
  {
    "id": "472800705",
    "name": "特別養護老人ホーム　芍薬の里色麻",
    "kana": "トクベツヨウゴロウジンホーム　シャクヤクノサトシカマ",
    "address": "宮城県加美郡色麻町四竃字東原1-4",
    "lat": 38.5297001873567,
    "lng": 140.860119089272,
    "tel": "0229-65-5510",
    "url": "http://www.miyafuku.jp",
    "pref": "宮城県",
    "city": "色麻町",
    "category": "tokuyou",
    "serviceType": "介護老人福祉施設",
    "capacity": 50,
    "openDays": [],
    "openDaysNote": ""
  },
  {
    "id": "472800713",
    "name": "特別養護老人ホーム　芍薬の里色麻",
    "kana": "トクベツヨウゴロウジンホーム　シャクヤクノサトシカマ",
    "address": "宮城県色麻町四竃字東原1-4",
    "lat": 38.5297547419093,
    "lng": 140.860199555542,
    "tel": "0229-65-5510",
    "url": "http://www.miyafuku.jp",
    "pref": "宮城県",
    "city": "色麻町",
    "category": "tokuyou",
    "serviceType": "介護老人福祉施設",
    "capacity": 50,
    "openDays": [],
    "openDaysNote": ""
  },
  {
    "id": "470202938",
    "name": "社会福祉法人　慶和会　特別養護老人ホーム　石巻花いちもんめ",
    "kana": "シャカイフクシホウジン　ケイワカイ　トクベツヨウゴロウジンホーム　イシノマキハナイチモンメ",
    "address": "宮城県石巻市鹿又字扇平５７",
    "lat": 38.4846819309388,
    "lng": 141.250876464982,
    "tel": "0225-98-9554",
    "url": "https://khanaichi.com",
    "pref": "宮城県",
    "city": "石巻市",
    "category": "tokuyou",
    "serviceType": "介護老人福祉施設",
    "capacity": 100,
    "openDays": [],
    "openDaysNote": ""
  },
  {
    "id": "470200312",
    "name": "特別養護老人ホーム　アゼイリア",
    "kana": "トクベツヨウゴロウジンホーム　アゼイリア",
    "address": "宮城県石巻市蛇田字小斎６１番地１",
    "lat": 38.4520296,
    "lng": 141.2567472,
    "tel": "0225-22-8261",
    "url": "http://care-net.biz/04/tsutsujikai",
    "pref": "宮城県",
    "city": "石巻市",
    "category": "tokuyou",
    "serviceType": "介護老人福祉施設",
    "capacity": 0,
    "openDays": [],
    "openDaysNote": ""
  },
  {
    "id": "470200965",
    "name": "特別養護老人ホーム　おしか清心苑",
    "kana": "トクベツヨウゴロウジンホーム　オシカセイシンエン",
    "address": "宮城県石巻市鮎川浜清崎山7番地",
    "lat": 38.2992606045485,
    "lng": 141.499631984795,
    "tel": "0225-44-1654",
    "url": "https://www.kyokujukai.or.jp/",
    "pref": "宮城県",
    "city": "石巻市",
    "category": "tokuyou",
    "serviceType": "介護老人福祉施設",
    "capacity": 50,
    "openDays": [],
    "openDaysNote": ""
  },
  {
    "id": "470200817",
    "name": "特別養護老人ホーム　一心苑",
    "kana": "トクベツヨウゴロウジンホーム　イッシンエン",
    "address": "宮城県石巻市北村字幕ヶ崎一１７番地２",
    "lat": 38.4855562807132,
    "lng": 141.191625146033,
    "tel": "0225-73-2323",
    "url": "https://www.kyokujukai.or.jp/",
    "pref": "宮城県",
    "city": "石巻市",
    "category": "tokuyou",
    "serviceType": "介護老人福祉施設",
    "capacity": 50,
    "openDays": [],
    "openDaysNote": ""
  },
  {
    "id": "470202086",
    "name": "特別養護老人ホーム　万葉苑",
    "kana": "トクベツヨウゴロウジンホーム　マンヨウエン",
    "address": "宮城県石巻市北村字下田三42番地",
    "lat": 38.4780640131703,
    "lng": 141.195267417722,
    "tel": "0225-73-5211",
    "url": "http://www.koyo-kai.jp",
    "pref": "宮城県",
    "city": "石巻市",
    "category": "tokuyou",
    "serviceType": "介護老人福祉施設",
    "capacity": 0,
    "openDays": [],
    "openDaysNote": ""
  },
  {
    "id": "470202094",
    "name": "特別養護老人ホーム　万葉苑",
    "kana": "トクベツヨウゴロウジンホーム　マンヨウエン",
    "address": "宮城県石巻市北村字下田三42番地",
    "lat": 38.4780514146226,
    "lng": 141.195256688885,
    "tel": "0225-73-5211",
    "url": "http://www.koyo-kai.jp",
    "pref": "宮城県",
    "city": "石巻市",
    "category": "tokuyou",
    "serviceType": "介護老人福祉施設",
    "capacity": 0,
    "openDays": [],
    "openDaysNote": ""
  },
  {
    "id": "470201583",
    "name": "特別養護老人ホームきたかみ",
    "kana": "トクベツヨウゴロウジンホームキタカミ",
    "address": "宮城県石巻市北上町橋浦字大須234",
    "lat": 38.5477235,
    "lng": 141.4106857,
    "tel": "0225-61-7201",
    "url": "http://www.sg-miyagikai.jp/office/79/",
    "pref": "宮城県",
    "city": "石巻市",
    "category": "tokuyou",
    "serviceType": "介護老人福祉施設",
    "capacity": 40,
    "openDays": [],
    "openDaysNote": ""
  },
  {
    "id": "470202722",
    "name": "特別養護老人ホームはしうら",
    "kana": "トクベツヨウゴロウジンホームハシウラ",
    "address": "宮城県石巻市北上町橋浦字大須88－1",
    "lat": 38.5493456,
    "lng": 141.4106912,
    "tel": "0225－25－7820",
    "url": "http://www.sg-miyagikai.jp/office/81/",
    "pref": "宮城県",
    "city": "石巻市",
    "category": "tokuyou",
    "serviceType": "介護老人福祉施設",
    "capacity": 100,
    "openDays": [],
    "openDaysNote": ""
  },
  {
    "id": "470200841",
    "name": "特別養護老人ホームファミリオ",
    "kana": "トクベツヨウゴロウジンホームファミリオ",
    "address": "宮城県石巻市桃生町中津山字八木４６番地３",
    "lat": 38.5638138,
    "lng": 141.2413664,
    "tel": "0225-76-5325",
    "url": "https://www.sendan.or.jp",
    "pref": "宮城県",
    "city": "石巻市",
    "category": "tokuyou",
    "serviceType": "介護老人福祉施設",
    "capacity": 0,
    "openDays": [],
    "openDaysNote": ""
  },
  {
    "id": "470200825",
    "name": "特別養護老人ホーム仁風園",
    "kana": "トクベツヨウゴロウジンホームジンプウエン",
    "address": "石巻市大森字内田１－２８",
    "lat": 38.4979121,
    "lng": 141.319533,
    "tel": "0225-62-3380",
    "url": "http://wajinfukusi.jp/",
    "pref": "宮城県",
    "city": "石巻市",
    "category": "tokuyou",
    "serviceType": "介護老人福祉施設",
    "capacity": 54,
    "openDays": [],
    "openDaysNote": ""
  },
  {
    "id": "470202110",
    "name": "特別養護老人ホーム仁風園",
    "kana": "トクベツヨウゴロウジンホームジンプウエン",
    "address": "石巻市大森字内田1－28",
    "lat": 38.4979121,
    "lng": 141.319533,
    "tel": "0225-62-3380",
    "url": "http://www.wajinfukusi.jp/",
    "pref": "宮城県",
    "city": "石巻市",
    "category": "tokuyou",
    "serviceType": "介護老人福祉施設",
    "capacity": 40,
    "openDays": [],
    "openDaysNote": ""
  },
  {
    "id": "470200072",
    "name": "特別養護老人ホーム第二和香園",
    "kana": "トクベツヨウゴロウジンホームダイニワコウエン",
    "address": "宮城県石巻市大瓜字箕輪１７番地",
    "lat": 38.4518843,
    "lng": 141.3192184,
    "tel": "0225-23-3811",
    "url": "http://www.wajinfukusi.jp/",
    "pref": "宮城県",
    "city": "石巻市",
    "category": "tokuyou",
    "serviceType": "介護老人福祉施設",
    "capacity": 50,
    "openDays": [],
    "openDaysNote": ""
  },
  {
    "id": "470200833",
    "name": "特別養護老人ホーム雄心苑",
    "kana": "トクベツヨウゴロウジンホームユウシンエン",
    "address": "宮城県石巻市雄勝町小島字和田１２３番地",
    "lat": 38.512023511458,
    "lng": 141.50040954418,
    "tel": "0225-57-3612",
    "url": "http://www.kyokujukai.or.jp/",
    "pref": "宮城県",
    "city": "石巻市",
    "category": "tokuyou",
    "serviceType": "介護老人福祉施設",
    "capacity": 50,
    "openDays": [],
    "openDaysNote": ""
  },
  {
    "id": "470200718",
    "name": "特別養護老人ホーム涼風園",
    "kana": "トクベツヨウゴロウジンホームリョウフウエン",
    "address": "宮城県石巻市流留字沖30番地3",
    "lat": 38.4246809,
    "lng": 141.3765687,
    "tel": "0225-24-5861",
    "url": "http://www.wajinfukusi.jp",
    "pref": "宮城県",
    "city": "石巻市",
    "category": "tokuyou",
    "serviceType": "介護老人福祉施設",
    "capacity": 47,
    "openDays": [],
    "openDaysNote": ""
  },
  {
    "id": "470200064",
    "name": "特別養護老人ホーム和香園",
    "kana": "トクベツヨウゴロウジンホームワコウエン",
    "address": "宮城県石巻市山下町一丁目11番22号",
    "lat": 38.4316960499224,
    "lng": 141.294003069204,
    "tel": "0225-93-8330",
    "url": "http://www.wajinfukusi.jp/",
    "pref": "宮城県",
    "city": "石巻市",
    "category": "tokuyou",
    "serviceType": "介護老人福祉施設",
    "capacity": 50,
    "openDays": [],
    "openDaysNote": ""
  },
  {
    "id": "475202727",
    "name": "介護老人福祉施設　田子のまち",
    "kana": "カイゴロウジンフクシシセツ　タゴノマチ",
    "address": "宮城県仙台市宮城野区田子字富里153",
    "lat": 38.2760236,
    "lng": 140.9554441,
    "tel": "022-388-9970",
    "url": "http://ns.kou-fuku.or.jp/tago/",
    "pref": "宮城県",
    "city": "仙台市宮城野区",
    "category": "tokuyou",
    "serviceType": "介護老人福祉施設",
    "capacity": 80,
    "openDays": [],
    "openDaysNote": ""
  },
  {
    "id": "475200150",
    "name": "特別養護老人ホーム　パルシア",
    "kana": "トクベツヨウゴロウジンホーム　パルシア",
    "address": "仙台市宮城野区燕沢東３－８－１０",
    "lat": 38.2883756,
    "lng": 140.9312703,
    "tel": "022-253-3301",
    "url": "http://www.palusia.or.jp",
    "pref": "宮城県",
    "city": "仙台市宮城野区",
    "category": "tokuyou",
    "serviceType": "介護老人福祉施設",
    "capacity": 0,
    "openDays": [],
    "openDaysNote": ""
  },
  {
    "id": "475202081",
    "name": "特別養護老人ホーム　リーフ鶴ケ谷",
    "kana": "トクベツヨウゴロウジンホーム　リーフツルガヤ",
    "address": "宮城県仙台市宮城野区鶴ケ谷字京原79番1",
    "lat": 38.2953244,
    "lng": 140.9205486,
    "tel": "022-388-3303",
    "url": "https://leaftsurugaya.co.jp/",
    "pref": "宮城県",
    "city": "仙台市宮城野区",
    "category": "tokuyou",
    "serviceType": "介護老人福祉施設",
    "capacity": 0,
    "openDays": [],
    "openDaysNote": ""
  },
  {
    "id": "475200143",
    "name": "特別養護老人ホーム　暁星園",
    "kana": "トクベツヨウゴロウジンホーム　ギョウセイエン",
    "address": "宮城県仙台市宮城野区東仙台６丁目２番１号",
    "lat": 38.2804532922808,
    "lng": 140.908891834563,
    "tel": "022-295-4751",
    "url": "http://catholicjido.org/gyouseien/",
    "pref": "宮城県",
    "city": "仙台市宮城野区",
    "category": "tokuyou",
    "serviceType": "介護老人福祉施設",
    "capacity": 120,
    "openDays": [],
    "openDaysNote": ""
  },
  {
    "id": "475201489",
    "name": "特別養護老人ホームＪ＆Ｂ",
    "kana": "トクベツヨウゴロウジンホーム　ジェイ　アンド　ビー",
    "address": "宮城県仙台市宮城野区清水沼3-7-8",
    "lat": 38.2684854,
    "lng": 140.9024108,
    "tel": "022-291-2216",
    "url": "https://www.kouyoukai-swc.jp",
    "pref": "宮城県",
    "city": "仙台市宮城野区",
    "category": "tokuyou",
    "serviceType": "介護老人福祉施設",
    "capacity": 0,
    "openDays": [],
    "openDaysNote": ""
  },
  {
    "id": "475203477",
    "name": "特別養護老人ホームいこいの郷・燕沢",
    "kana": "トクベツヨウゴロウジンホウムイコイノサトツバメサワ",
    "address": "仙台市宮城野区燕沢東2-1-35",
    "lat": 38.2857481,
    "lng": 140.9305122,
    "tel": "022-794-7740",
    "url": "http://www.mirakukai.com/",
    "pref": "宮城県",
    "city": "仙台市宮城野区",
    "category": "tokuyou",
    "serviceType": "介護老人福祉施設",
    "capacity": 80,
    "openDays": [],
    "openDaysNote": ""
  },
  {
    "id": "475200267",
    "name": "特別養護老人ホームかむりの里翔裕園",
    "kana": "トクベツヨウゴロウジンホーム　カムリノサトショウユウエン",
    "address": "宮城県仙台市宮城野区岩切字東河原352-3",
    "lat": 38.3008053,
    "lng": 140.9522038,
    "tel": "022-396-7522",
    "url": "http://www.morinomura.com/",
    "pref": "宮城県",
    "city": "仙台市宮城野区",
    "category": "tokuyou",
    "serviceType": "介護老人福祉施設",
    "capacity": 0,
    "openDays": [],
    "openDaysNote": ""
  },
  {
    "id": "475203394",
    "name": "特別養護老人ホームハートケア鶴ヶ谷",
    "kana": "トクベツヨウゴロウジンホームハートケアツルガヤ",
    "address": "宮城県仙台市宮城野区鶴ヶ谷2丁目1番地13特別養護老人ホームハートケア鶴ヶ谷 特別養護老人ホームハートケア鶴ヶ谷",
    "lat": 38.2868836,
    "lng": 140.913911,
    "tel": "022-357-0960",
    "url": "http://catholicjido.org/tsurugaya/",
    "pref": "宮城県",
    "city": "仙台市宮城野区",
    "category": "tokuyou",
    "serviceType": "介護老人福祉施設",
    "capacity": 0,
    "openDays": [],
    "openDaysNote": ""
  },
  {
    "id": "475203899",
    "name": "特別養護老人ホーム中野あおばの杜",
    "kana": "トクベツヨウゴロウジンホームナカノアオバノモリ",
    "address": "宮城県仙台市宮城野区中野5丁目7番8",
    "lat": 38.2697559651123,
    "lng": 140.985179273016,
    "tel": "022-290-9310",
    "url": "http://aoba-welfare.or.jp/",
    "pref": "宮城県",
    "city": "仙台市宮城野区",
    "category": "tokuyou",
    "serviceType": "介護老人福祉施設",
    "capacity": 110,
    "openDays": [],
    "openDaysNote": ""
  },
  {
    "id": "475301537",
    "name": "ライフの学校特別養護老人ホーム萩の風キャンパス",
    "kana": "ライフノガッコウトクベツヨウゴロウジンホームハギノカゼキャンパス",
    "address": "宮城県仙台市若林区上飯田字天神1番１",
    "lat": 38.2203218,
    "lng": 140.9207531,
    "tel": "022-289-8555",
    "url": "https://gakkou.life",
    "pref": "宮城県",
    "city": "仙台市若林区",
    "category": "tokuyou",
    "serviceType": "介護老人福祉施設",
    "capacity": 0,
    "openDays": [],
    "openDaysNote": ""
  },
  {
    "id": "475300083",
    "name": "特別養護老人ホーム　チアフル遠見塚",
    "kana": "トクベツヨウゴロウジンホーム　チアフルトオミヅカ",
    "address": "宮城県仙台市若林区遠見塚１丁目14-30",
    "lat": 38.2372696,
    "lng": 140.9096337,
    "tel": "022-286-2591",
    "url": "http://敬長福祉会.jp/",
    "pref": "宮城県",
    "city": "仙台市若林区",
    "category": "tokuyou",
    "serviceType": "介護老人福祉施設",
    "capacity": 50,
    "openDays": [],
    "openDaysNote": ""
  },
  {
    "id": "475300091",
    "name": "特別養護老人ホーム成仁杜の里仙台",
    "kana": "トクベツヨウゴロウジンホームセイジンモリノサトセンダイ",
    "address": "宮城県仙台市若林区荒井東二丁目１２番地の１",
    "lat": 38.2338095675022,
    "lng": 140.951709984933,
    "tel": "022-289-7111",
    "url": "https://morinosato.biz/",
    "pref": "宮城県",
    "city": "仙台市若林区",
    "category": "tokuyou",
    "serviceType": "介護老人福祉施設",
    "capacity": 130,
    "openDays": [],
    "openDaysNote": ""
  },
  {
    "id": "475100970",
    "name": "せんだんの里特別養護老人ホーム",
    "kana": "センダンノサトトクベツヨウゴロウジンホーム",
    "address": "宮城県仙台市青葉区国見ヶ丘６丁目１４９－１",
    "lat": 38.284787,
    "lng": 140.8346024,
    "tel": "022-303-7552",
    "url": "http://www.sendan.or.jp",
    "pref": "宮城県",
    "city": "仙台市青葉区",
    "category": "tokuyou",
    "serviceType": "介護老人福祉施設",
    "capacity": 160,
    "openDays": [],
    "openDaysNote": ""
  },
  {
    "id": "475100376",
    "name": "社会福祉法人　庄慶会　特別養護老人ホーム　洛風苑",
    "kana": "シャカイフクシホウジン　ショウケイカイ　トクベツヨウゴロウジンホーム　ラクフウエン",
    "address": "宮城県仙台市青葉区芋沢字新田56-2",
    "lat": 38.2754912,
    "lng": 140.7416493,
    "tel": "022-394-4555",
    "url": "http://www.shokei.info/rakufu/rakutop.htm",
    "pref": "宮城県",
    "city": "仙台市青葉区",
    "category": "tokuyou",
    "serviceType": "介護老人福祉施設",
    "capacity": 100,
    "openDays": [],
    "openDaysNote": ""
  },
  {
    "id": "475100392",
    "name": "社会福祉法人共和会特別養護老人ホーム思行園",
    "kana": "シャカイフクシヨウジンキョウワカイトクベツヨウゴロウジンホームシコウエン",
    "address": "宮城県仙台市青葉区大倉字大原新田26-12",
    "lat": 38.294515,
    "lng": 140.6941633,
    "tel": "022-393-2061",
    "url": "http://shikouen.com/",
    "pref": "宮城県",
    "city": "仙台市青葉区",
    "category": "tokuyou",
    "serviceType": "介護老人福祉施設",
    "capacity": 0,
    "openDays": [],
    "openDaysNote": ""
  },
  {
    "id": "475105193",
    "name": "青葉の郷",
    "kana": "アオバノサト",
    "address": "宮城県仙台市青葉区荒巻字青葉519番1162",
    "lat": 38.2467737,
    "lng": 140.8259716,
    "tel": "022-229-7890",
    "url": "http://aobano-sato.jp/",
    "pref": "宮城県",
    "city": "仙台市青葉区",
    "category": "tokuyou",
    "serviceType": "介護老人福祉施設",
    "capacity": 0,
    "openDays": [],
    "openDaysNote": ""
  },
  {
    "id": "475100426",
    "name": "特別養護老人ホーム　アルテイル青葉",
    "kana": "トクベツヨウゴロウジンホーム　アルテイルアオバ",
    "address": "宮城県仙台市青葉区荒巻字三居沢1番地の16",
    "lat": 38.2685724,
    "lng": 140.8381031,
    "tel": "022-214-0185",
    "url": "http://www.aofuku.or.jp",
    "pref": "宮城県",
    "city": "仙台市青葉区",
    "category": "tokuyou",
    "serviceType": "介護老人福祉施設",
    "capacity": 55,
    "openDays": [],
    "openDaysNote": ""
  },
  {
    "id": "475102760",
    "name": "特別養護老人ホーム　エコーが丘",
    "kana": "トクベツヨウゴロウジンホーム　エコーガオカ",
    "address": "仙台市青葉区芋沢字横前1番地の2",
    "lat": 38.291958,
    "lng": 140.7567136,
    "tel": "022-391-3371",
    "url": "https://www.yokofuku.or.jp/",
    "pref": "宮城県",
    "city": "仙台市青葉区",
    "category": "tokuyou",
    "serviceType": "介護老人福祉施設",
    "capacity": 80,
    "openDays": [],
    "openDaysNote": ""
  },
  {
    "id": "475105698",
    "name": "特別養護老人ホーム　スターレイク仙台",
    "kana": "トクベツヨウゴロウジンホーム　スターレイクセンダイ",
    "address": "宮城県仙台市青葉区錦町1丁目8-10特別養護老人ホーム　スターレイク仙台 特別養護老人ホーム　スターレイク仙台",
    "lat": 38.2690936,
    "lng": 140.8765379,
    "tel": "022-290-1360",
    "url": "https://ameblo.jp/slsendai181/entrylist.html",
    "pref": "宮城県",
    "city": "仙台市青葉区",
    "category": "tokuyou",
    "serviceType": "介護老人福祉施設",
    "capacity": 200,
    "openDays": [],
    "openDaysNote": ""
  },
  {
    "id": "475103560",
    "name": "特別養護老人ホーム　せんじゅユニット型",
    "kana": "トクベツヨウゴロウジンホーム　センジュユニットカタ",
    "address": "宮城県仙台市青葉区西勝山１４－１０",
    "lat": 38.2995464,
    "lng": 140.8375569,
    "tel": "022-277-9455",
    "url": "http://taiju-sendai.or.jp/",
    "pref": "宮城県",
    "city": "仙台市青葉区",
    "category": "tokuyou",
    "serviceType": "介護老人福祉施設",
    "capacity": 0,
    "openDays": [],
    "openDaysNote": ""
  },
  {
    "id": "475103578",
    "name": "特別養護老人ホーム　せんじゅ従来型",
    "kana": "トクベツヨウゴロウジンホーム　センジュジュウライカタ",
    "address": "宮城県仙台市青葉区西勝山14－10",
    "lat": 38.2995464,
    "lng": 140.8375569,
    "tel": "022-277-9455",
    "url": "http://taiju-sendai.or.jp/",
    "pref": "宮城県",
    "city": "仙台市青葉区",
    "category": "tokuyou",
    "serviceType": "介護老人福祉施設",
    "capacity": 40,
    "openDays": [],
    "openDaysNote": ""
  },
  {
    "id": "475100400",
    "name": "特別養護老人ホーム　自生苑",
    "kana": "トクベツヨウゴロウジンホーム　ジショウエン",
    "address": "宮城県仙台市青葉区芋沢字青野木５８１－１",
    "lat": 38.2873328879798,
    "lng": 140.723286641895,
    "tel": "022-394-5545",
    "url": "http://www.jisyoukai.net/",
    "pref": "宮城県",
    "city": "仙台市青葉区",
    "category": "tokuyou",
    "serviceType": "介護老人福祉施設",
    "capacity": 50,
    "openDays": [],
    "openDaysNote": ""
  },
  {
    "id": "475103693",
    "name": "特別養護老人ホーム　仙台楽生園",
    "kana": "トクベツヨウゴロウジンホーム　センダイラクセイエン",
    "address": "宮城県仙台市青葉区葉山町８－１　仙台楽生園",
    "lat": 38.2854043,
    "lng": 140.8625612,
    "tel": "022‐273-4920",
    "url": "http://rakuseien.jp",
    "pref": "宮城県",
    "city": "仙台市青葉区",
    "category": "tokuyou",
    "serviceType": "介護老人福祉施設",
    "capacity": 0,
    "openDays": [],
    "openDaysNote": ""
  },
  {
    "id": "475102570",
    "name": "特別養護老人ホーム　仙台敬寿園",
    "kana": "トクベツヨウゴロウジンホーム　センダイケイジュエン",
    "address": "宮城県仙台市青葉区下愛子字田中3番地1",
    "lat": 38.2630209,
    "lng": 140.7667175,
    "tel": "022-302-8338",
    "url": "http://www.keijuen.or.jp/",
    "pref": "宮城県",
    "city": "仙台市青葉区",
    "category": "tokuyou",
    "serviceType": "介護老人福祉施設",
    "capacity": 0,
    "openDays": [],
    "openDaysNote": ""
  },
  {
    "id": "475100442",
    "name": "特別養護老人ホーム　大石原苑",
    "kana": "トクベツヨウゴロウジンホーム　オオイシハラエン",
    "address": "宮城県仙台市青葉区南吉成七丁目１４番地１",
    "lat": 38.2819174,
    "lng": 140.8172126,
    "tel": "022-719-1717",
    "url": "http://www.oishigaharakai.or.jp/",
    "pref": "宮城県",
    "city": "仙台市青葉区",
    "category": "tokuyou",
    "serviceType": "介護老人福祉施設",
    "capacity": 50,
    "openDays": [],
    "openDaysNote": ""
  },
  {
    "id": "475100434",
    "name": "特別養護老人ホーム　寳樹苑",
    "kana": "トクベツヨウゴロウジンホーム　ホウジュエン",
    "address": "宮城県仙台市青葉区双葉ヶ丘２丁目９番２号",
    "lat": 38.3016805,
    "lng": 140.872042,
    "tel": "022-275-3786",
    "url": "https://www.mrjk.jp/houjuen/",
    "pref": "宮城県",
    "city": "仙台市青葉区",
    "category": "tokuyou",
    "serviceType": "介護老人福祉施設",
    "capacity": 0,
    "openDays": [],
    "openDaysNote": ""
  },
  {
    "id": "475100418",
    "name": "特別養護老人ホームシオンの園",
    "kana": "トクベツヨウゴロウジンホームシオンノソノ",
    "address": "仙台市青葉区小松島新堤７－１",
    "lat": 38.2865635,
    "lng": 140.8919161,
    "tel": "022-233-3293",
    "url": "http://scikujiin.or.jp/",
    "pref": "宮城県",
    "city": "仙台市青葉区",
    "category": "tokuyou",
    "serviceType": "介護老人福祉施設",
    "capacity": 0,
    "openDays": [],
    "openDaysNote": ""
  },
  {
    "id": "475103842",
    "name": "特別養護老人ホームせんだい郷六の杜",
    "kana": "トクベツヨウゴロウジンホームセンダイゴウロクノモリ",
    "address": "宮城県仙台市青葉区郷六字出戸２番地",
    "lat": 38.261753,
    "lng": 140.8128528,
    "tel": "022-395-5633",
    "url": "http://www.nanokakai.jp",
    "pref": "宮城県",
    "city": "仙台市青葉区",
    "category": "tokuyou",
    "serviceType": "介護老人福祉施設",
    "capacity": 120,
    "openDays": [],
    "openDaysNote": ""
  },
  {
    "id": "475101721",
    "name": "特別養護老人ホームせんだんの館",
    "kana": "トクベツヨウゴロウジンホームセンダンノヤカタ",
    "address": "宮城県仙台市青葉区水の森3丁目43-10",
    "lat": 38.2947086,
    "lng": 140.8544112,
    "tel": "022-303-0371",
    "url": "http://www.sendan.or.jp",
    "pref": "宮城県",
    "city": "仙台市青葉区",
    "category": "tokuyou",
    "serviceType": "介護老人福祉施設",
    "capacity": 100,
    "openDays": [],
    "openDaysNote": ""
  },
  {
    "id": "475100459",
    "name": "特別養護老人ホームリベラ荘",
    "kana": "トクベツヨウゴロウジンホームリベラソウ",
    "address": "宮城県仙台市青葉区国見ヶ丘７丁目１４１番地９",
    "lat": 38.2897503,
    "lng": 140.8347744,
    "tel": "022-277-1122",
    "url": "https://www.sendan.or.jp",
    "pref": "宮城県",
    "city": "仙台市青葉区",
    "category": "tokuyou",
    "serviceType": "介護老人福祉施設",
    "capacity": 36,
    "openDays": [],
    "openDaysNote": ""
  },
  {
    "id": "475100467",
    "name": "特別養護老人ホーム国見苑",
    "kana": "トクベツヨウゴロウジンホームクニミエン",
    "address": "宮城県仙台市青葉区国見6-40-35",
    "lat": 38.2766684,
    "lng": 140.8314088,
    "tel": "022-233-9235",
    "url": "http://kunimikai.or.jp/",
    "pref": "宮城県",
    "city": "仙台市青葉区",
    "category": "tokuyou",
    "serviceType": "介護老人福祉施設",
    "capacity": 1,
    "openDays": [],
    "openDaysNote": ""
  },
  {
    "id": "475105326",
    "name": "特別養護老人ホーム自生苑（ユニット型）",
    "kana": "トクベツヨウゴロウジンホームジショウエン（ユニットガタ）",
    "address": "芋沢字青野木581-1",
    "lat": 38.2871822,
    "lng": 140.7232716,
    "tel": "022-394-5545",
    "url": "https://www.jisyoukai.net",
    "pref": "宮城県",
    "city": "仙台市青葉区",
    "category": "tokuyou",
    "serviceType": "介護老人福祉施設",
    "capacity": 30,
    "openDays": [],
    "openDaysNote": ""
  },
  {
    "id": "475105425",
    "name": "特別養護老人ホーム青葉ふるさと村",
    "kana": "トクベツヨウゴロウジンホームアオバフルサトムラ",
    "address": "宮城県仙台市青葉区南吉成六丁目6番8",
    "lat": 38.286815586632,
    "lng": 140.812825741919,
    "tel": "022-725-6530",
    "url": "https://oishigaharakai.or.jp",
    "pref": "宮城県",
    "city": "仙台市青葉区",
    "category": "tokuyou",
    "serviceType": "介護老人福祉施設",
    "capacity": null,
    "openDays": [],
    "openDaysNote": ""
  },
  {
    "id": "475100384",
    "name": "特別養護老人ホーム仙台楽生園",
    "kana": "トクベツヨウゴロウジンホームセンダイラクセイエン",
    "address": "宮城県仙台市青葉区葉山町８－１",
    "lat": 38.2853802287004,
    "lng": 140.862497771689,
    "tel": "022-273-4920",
    "url": "http://rakuseien.jp",
    "pref": "宮城県",
    "city": "仙台市青葉区",
    "category": "tokuyou",
    "serviceType": "介護老人福祉施設",
    "capacity": 0,
    "openDays": [],
    "openDaysNote": ""
  },
  {
    "id": "475504015",
    "name": "介護老人福祉施設　泉ふるさと村",
    "kana": "カイゴロウジンフクシシセツ　イズミフルサトムラ",
    "address": "宮城県仙台市泉区松森字岡本前27番地",
    "lat": 38.3119862579282,
    "lng": 140.912660772353,
    "tel": "022-771-8085",
    "url": "http://www.oishigaharakai.or.jp",
    "pref": "宮城県",
    "city": "仙台市泉区",
    "category": "tokuyou",
    "serviceType": "介護老人福祉施設",
    "capacity": null,
    "openDays": [],
    "openDaysNote": ""
  },
  {
    "id": "475503884",
    "name": "特別養護老人ホーム　ラスール泉",
    "kana": "トクベツヨウゴロウジンホーム　ラスールイズミ",
    "address": "宮城県仙台市泉区西田中字萱場中43特別養護老人ホーム　ラスール泉 特別養護老人ホーム　ラスール泉",
    "lat": 38.3236025870272,
    "lng": 140.78861560846,
    "tel": "022-725-8323",
    "url": "http://koseikai-star.com/",
    "pref": "宮城県",
    "city": "仙台市泉区",
    "category": "tokuyou",
    "serviceType": "介護老人福祉施設",
    "capacity": 80,
    "openDays": [],
    "openDaysNote": ""
  },
  {
    "id": "475503827",
    "name": "特別養護老人ホーム　リズムタウン仙台",
    "kana": "トクベツヨウゴロウジンホーム　リズムタウンセンダイ",
    "address": "宮城県仙台市泉区古内字坂ノ上16-6",
    "lat": 38.3209858139923,
    "lng": 140.84413436218,
    "tel": "022-378-8050",
    "url": "http://kikoukai.or.jp",
    "pref": "宮城県",
    "city": "仙台市泉区",
    "category": "tokuyou",
    "serviceType": "介護老人福祉施設",
    "capacity": 80,
    "openDays": [],
    "openDaysNote": ""
  },
  {
    "id": "475500112",
    "name": "特別養護老人ホーム　愛泉荘",
    "kana": "トクベツヨウゴロウジンホーム　アイセンソウ",
    "address": "宮城県仙台市泉区七北田字道２４番地の2特別養護老人ホーム愛泉荘 特別養護老人ホーム愛泉荘",
    "lat": 38.3289249879915,
    "lng": 140.870230395618,
    "tel": "022-372-8078",
    "url": "http://www.aisenkai.or.jp/",
    "pref": "宮城県",
    "city": "仙台市泉区",
    "category": "tokuyou",
    "serviceType": "介護老人福祉施設",
    "capacity": 50,
    "openDays": [],
    "openDaysNote": ""
  },
  {
    "id": "475504247",
    "name": "特別養護老人ホーム　愛泉荘～きずな館～",
    "kana": "トクベツヨウゴロウジンホーム　アイセンソウ　～キズナカン～",
    "address": "宮城県仙台市泉区七北田字道24番地の2特別養護老人ホーム　愛泉荘～きずな館～ 特別養護老人ホーム　愛泉荘～きずな館～",
    "lat": 38.3289074,
    "lng": 140.8703088,
    "tel": "022-725-5300",
    "url": "http://www.aisenkai.or.jp/",
    "pref": "宮城県",
    "city": "仙台市泉区",
    "category": "tokuyou",
    "serviceType": "介護老人福祉施設",
    "capacity": 60,
    "openDays": [],
    "openDaysNote": ""
  },
  {
    "id": "475503595",
    "name": "特別養護老人ホーム　泉クラシック",
    "kana": "トクベツヨウゴロウジンホーム　イズミクラシック",
    "address": "宮城県仙台市泉区根白石字清水屋敷35番地の１",
    "lat": 38.3476818,
    "lng": 140.7936255,
    "tel": "022‐346-6041",
    "url": "http://www.f-kouseikai.or.jp",
    "pref": "宮城県",
    "city": "仙台市泉区",
    "category": "tokuyou",
    "serviceType": "介護老人福祉施設",
    "capacity": 100,
    "openDays": [],
    "openDaysNote": ""
  },
  {
    "id": "475503322",
    "name": "特別養護老人ホーム　泉音の郷",
    "kana": "トクベツヨウゴロウジンホーム　センネノサト",
    "address": "宮城県仙台市泉区泉中央南15番地望岳荘 望岳荘",
    "lat": 38.3209311048254,
    "lng": 140.870648642328,
    "tel": "022-347-3371",
    "url": "http://www.aisenkai.or.jp/chouonsou.html",
    "pref": "宮城県",
    "city": "仙台市泉区",
    "category": "tokuyou",
    "serviceType": "介護老人福祉施設",
    "capacity": 80,
    "openDays": [],
    "openDaysNote": ""
  },
  {
    "id": "475500534",
    "name": "特別養護老人ホーム　泉寿荘",
    "kana": "トクベツヨウゴロウジンホーム　センジュソウ",
    "address": "宮城県仙台市泉区上谷刈字長命１０番地",
    "lat": 38.3193474,
    "lng": 140.8562595,
    "tel": "022-777-7688",
    "url": "http://senjusou-izumi.jimdofree.com/",
    "pref": "宮城県",
    "city": "仙台市泉区",
    "category": "tokuyou",
    "serviceType": "介護老人福祉施設",
    "capacity": 95,
    "openDays": [],
    "openDaysNote": ""
  },
  {
    "id": "475500120",
    "name": "特別養護老人ホーム　泉和荘",
    "kana": "トクベツヨウゴロウジンホーム　センワソウ",
    "address": "宮城県仙台市泉区根白石字新坂上１６番地の１",
    "lat": 38.3382524,
    "lng": 140.8004863,
    "tel": "022-376-4301",
    "url": "http://www.senwakai-sendai.jp",
    "pref": "宮城県",
    "city": "仙台市泉区",
    "category": "tokuyou",
    "serviceType": "介護老人福祉施設",
    "capacity": 50,
    "openDays": [],
    "openDaysNote": ""
  },
  {
    "id": "475502738",
    "name": "特別養護老人ホーム　抱優館八乙女",
    "kana": "トクベツヨウゴロウジンホーム　ホウユウカンヤオトメ",
    "address": "宮城県仙台市泉区上谷刈字向原3番地の30",
    "lat": 38.3122157,
    "lng": 140.8809683,
    "tel": "022-772-3073",
    "url": "http://www.yamatomirai.or.jp",
    "pref": "宮城県",
    "city": "仙台市泉区",
    "category": "tokuyou",
    "serviceType": "介護老人福祉施設",
    "capacity": 0,
    "openDays": [],
    "openDaysNote": ""
  },
  {
    "id": "475500146",
    "name": "特別養護老人ホーム水泉荘",
    "kana": "トクベツヨウゴロウジンホームスイセンソウ",
    "address": "宮城県仙台市泉区実沢字橘川屋敷１番地",
    "lat": 38.3179852176498,
    "lng": 140.806248710451,
    "tel": "022-376-7050",
    "url": "https://f-kouseikai.or.jp",
    "pref": "宮城県",
    "city": "仙台市泉区",
    "category": "tokuyou",
    "serviceType": "介護老人福祉施設",
    "capacity": 100,
    "openDays": [],
    "openDaysNote": ""
  },
  {
    "id": "475500138",
    "name": "特別養護老人ホーム泉陵虹の苑",
    "kana": "トクベツヨウゴロウジンホームセンリョウニジノエン",
    "address": "宮城県仙台市泉区虹の丘1丁目10-6",
    "lat": 38.306805,
    "lng": 140.8733694,
    "tel": "022-373-6636",
    "url": "https://www.nijinoen.or.jp/",
    "pref": "宮城県",
    "city": "仙台市泉区",
    "category": "tokuyou",
    "serviceType": "介護老人福祉施設",
    "capacity": 50,
    "openDays": [],
    "openDaysNote": ""
  },
  {
    "id": "475503421",
    "name": "特別養護老人ホーム創生園泉大沢",
    "kana": "トクベツヨウゴロウジンホームソウセイエンイズミオオサワ",
    "address": "宮城県仙台市泉区大沢3丁目5-1",
    "lat": 38.3572492,
    "lng": 140.8743642,
    "tel": "022-772-5130",
    "url": "http://www.souseikai-izumiosawa.com/",
    "pref": "宮城県",
    "city": "仙台市泉区",
    "category": "tokuyou",
    "serviceType": "介護老人福祉施設",
    "capacity": 120,
    "openDays": [],
    "openDaysNote": ""
  },
  {
    "id": "475504064",
    "name": "特別養護老人ホーム八沢の杜",
    "kana": "トクベツヨウゴロウジンホームヤサワノモリ",
    "address": "宮城県仙台市泉区松森字八沢15-5",
    "lat": 38.3024050270318,
    "lng": 140.909445456837,
    "tel": "022-341-9015",
    "url": "http://nanokakai.jp/",
    "pref": "宮城県",
    "city": "仙台市泉区",
    "category": "tokuyou",
    "serviceType": "介護老人福祉施設",
    "capacity": null,
    "openDays": [],
    "openDaysNote": ""
  },
  {
    "id": "475500773",
    "name": "特別養護老人ホーム百合ヶ丘苑",
    "kana": "トクベツヨウゴロウジンホームユリガオカエン",
    "address": "宮城県仙台市泉区本田町20番15号",
    "lat": 38.3241986,
    "lng": 140.9048875,
    "tel": "022-218-3008",
    "url": "http://care-net.biz/04/shirayuri/sitemap.php",
    "pref": "宮城県",
    "city": "仙台市泉区",
    "category": "tokuyou",
    "serviceType": "介護老人福祉施設",
    "capacity": 0,
    "openDays": [],
    "openDaysNote": ""
  },
  {
    "id": "475404596",
    "name": "特別養護老人ホーム　ヴェール・ド・エクラ",
    "kana": "トクベツヨウゴロウジンホーム　ヴェール・ド・エクラ",
    "address": "宮城県仙台市太白区茂庭2丁目3-21",
    "lat": 38.2214882,
    "lng": 140.7925021,
    "tel": "022-738-8878",
    "url": "https://sryokuaikai.com/",
    "pref": "宮城県",
    "city": "仙台市太白区",
    "category": "tokuyou",
    "serviceType": "介護老人福祉施設",
    "capacity": null,
    "openDays": [],
    "openDaysNote": ""
  },
  {
    "id": "475403804",
    "name": "特別養護老人ホーム　オー・ド・エクラ",
    "kana": "トクベツヨウゴロウジンホーム　オー・ド・エクラ",
    "address": "宮城県仙台市太白区山田北前町８番１号",
    "lat": 38.2220665,
    "lng": 140.8303191,
    "tel": "022-724-7506",
    "url": "http://sryokuaikai.com/",
    "pref": "宮城県",
    "city": "仙台市太白区",
    "category": "tokuyou",
    "serviceType": "介護老人福祉施設",
    "capacity": 120,
    "openDays": [],
    "openDaysNote": ""
  },
  {
    "id": "475401139",
    "name": "特別養護老人ホーム　サン・つばき",
    "kana": "トクベツヨウゴロウジンホーム　サン・ツバキ",
    "address": "宮城県仙台市太白区越路7番7号",
    "lat": 38.246223,
    "lng": 140.877503,
    "tel": "022-722-2220",
    "url": "http://www.shokei.info/sun/suntop.htm",
    "pref": "宮城県",
    "city": "仙台市太白区",
    "category": "tokuyou",
    "serviceType": "介護老人福祉施設",
    "capacity": 0,
    "openDays": [],
    "openDaysNote": ""
  },
  {
    "id": "475403747",
    "name": "特別養護老人ホーム　まほろばの里向山",
    "kana": "トクベツヨウゴロウジンホーム　マホロバノサトムカイヤマ",
    "address": "宮城県仙台市太白区向山三丁目１１－３０",
    "lat": 38.2435482,
    "lng": 140.8702648,
    "tel": "022-796-7655",
    "url": "https://mahoroba-swc.or.jp/",
    "pref": "宮城県",
    "city": "仙台市太白区",
    "category": "tokuyou",
    "serviceType": "介護老人福祉施設",
    "capacity": null,
    "openDays": [],
    "openDaysNote": ""
  },
  {
    "id": "475402152",
    "name": "特別養護老人ホーム　春の森から",
    "kana": "トクベツヨウゴロウジンホーム　ハルノモリカラ",
    "address": "宮城県仙台市太白区東郡山二丁目34-5",
    "lat": 38.2175465,
    "lng": 140.9060071,
    "tel": "022-304-2750",
    "url": "http://www.f-mizuho.or.jp/index.html",
    "pref": "宮城県",
    "city": "仙台市太白区",
    "category": "tokuyou",
    "serviceType": "介護老人福祉施設",
    "capacity": 50,
    "openDays": [],
    "openDaysNote": ""
  },
  {
    "id": "475400180",
    "name": "特別養護老人ホーム　大東苑",
    "kana": "トクベツヨウゴロウジンホーム　ダイトウエン",
    "address": "宮城県仙台市太白区秋保町長袋字清水久保51-4",
    "lat": 38.2619343,
    "lng": 140.6607886,
    "tel": "022-399-2201",
    "url": "https://www.roufuku-miyagi.com",
    "pref": "宮城県",
    "city": "仙台市太白区",
    "category": "tokuyou",
    "serviceType": "介護老人福祉施設",
    "capacity": 50,
    "openDays": [],
    "openDaysNote": ""
  },
  {
    "id": "475404877",
    "name": "特別養護老人ホーム　第二茂庭苑",
    "kana": "トクベツヨウゴロウジンホーム　ダイニモニワエン",
    "address": "宮城県仙台市太白区茂庭台二丁目15番15号特別養護老人ホーム　第二茂庭苑 特別養護老人ホーム　第二茂庭苑",
    "lat": 38.2316491,
    "lng": 140.78204,
    "tel": "022-393-7705",
    "url": "https://www.moniwa2.com",
    "pref": "宮城県",
    "city": "仙台市太白区",
    "category": "tokuyou",
    "serviceType": "介護老人福祉施設",
    "capacity": 100,
    "openDays": [],
    "openDaysNote": ""
  },
  {
    "id": "475403762",
    "name": "特別養護老人ホームノテとみざわの里",
    "kana": "トクベツヨウゴロウジンホームノテトミザワノサト",
    "address": "宮城県仙台市太白区富沢西３丁目１０番地の１",
    "lat": 38.2091858215032,
    "lng": 140.855145987374,
    "tel": "022-226-7270",
    "url": "",
    "pref": "宮城県",
    "city": "仙台市太白区",
    "category": "tokuyou",
    "serviceType": "介護老人福祉施設",
    "capacity": 0,
    "openDays": [],
    "openDaysNote": ""
  },
  {
    "id": "475404505",
    "name": "特別養護老人ホームまるめろ",
    "kana": "トクベツヨウゴロウジンホームマルメロ",
    "address": "鈎取本町2丁目12番20",
    "lat": 38.225327,
    "lng": 140.8365682,
    "tel": "022-797-0273",
    "url": "https://sendai-marumero.jp/",
    "pref": "宮城県",
    "city": "仙台市太白区",
    "category": "tokuyou",
    "serviceType": "介護老人福祉施設",
    "capacity": 0,
    "openDays": [],
    "openDaysNote": ""
  },
  {
    "id": "475401824",
    "name": "特別養護老人ホーム一重の里",
    "kana": "トクベツヨウゴロウジンホームヒトエノサト",
    "address": "宮城県仙台市太白区秋保町湯元字上原３５の８",
    "lat": 38.2196529,
    "lng": 140.7338247,
    "tel": "022-397-3777",
    "url": "http://www.morinosato.biz",
    "pref": "宮城県",
    "city": "仙台市太白区",
    "category": "tokuyou",
    "serviceType": "介護老人福祉施設",
    "capacity": 0,
    "openDays": [],
    "openDaysNote": ""
  },
  {
    "id": "475402889",
    "name": "特別養護老人ホーム大年寺山ジェロントピア",
    "kana": "トクベツヨウゴロウジンホームダイネンジヤマジェロントピア",
    "address": "宮城県仙台市太白区茂ヶ崎三丁目12番1号",
    "lat": 38.2377294,
    "lng": 140.8734008,
    "tel": "022-262-1555",
    "url": "http://www.welfare-sendai.or.jp/",
    "pref": "宮城県",
    "city": "仙台市太白区",
    "category": "tokuyou",
    "serviceType": "介護老人福祉施設",
    "capacity": 0,
    "openDays": [],
    "openDaysNote": ""
  },
  {
    "id": "475400214",
    "name": "特別養護老人ホーム白東苑",
    "kana": "トクベツヨウゴロウジンホームハクトウエン",
    "address": "宮城県仙台市太白区四郎丸字大宮26-3",
    "lat": 38.1946151569886,
    "lng": 140.919582438098,
    "tel": "022-241-5990",
    "url": "https://sendai-venus.jp",
    "pref": "宮城県",
    "city": "仙台市太白区",
    "category": "tokuyou",
    "serviceType": "介護老人福祉施設",
    "capacity": 50,
    "openDays": [],
    "openDaysNote": ""
  },
  {
    "id": "475400198",
    "name": "特別養護老人ホーム八木山翠風苑",
    "kana": "トクベツヨウゴロウジンホームヤギヤマスイフウエン",
    "address": "宮城県仙台市太白区恵和町38-10特別養護老人ホーム八木山翠風苑 特別養護老人ホーム八木山翠風苑",
    "lat": 38.2353893040692,
    "lng": 140.851632308686,
    "tel": "022-395-7730",
    "url": "https://yagiyama.or.jp/",
    "pref": "宮城県",
    "city": "仙台市太白区",
    "category": "tokuyou",
    "serviceType": "介護老人福祉施設",
    "capacity": 0,
    "openDays": [],
    "openDaysNote": ""
  },
  {
    "id": "475400206",
    "name": "特別養護老人ホーム茂庭苑",
    "kana": "トクベツヨウゴロウジンホームモニワエン",
    "address": "宮城県仙台市太白区茂庭台２－１５－２０",
    "lat": 38.2325834005511,
    "lng": 140.781947593254,
    "tel": "022-281-1330",
    "url": "http://www.moniwaen.com",
    "pref": "宮城県",
    "city": "仙台市太白区",
    "category": "tokuyou",
    "serviceType": "介護老人福祉施設",
    "capacity": 100,
    "openDays": [],
    "openDaysNote": ""
  },
  {
    "id": "475404158",
    "name": "特別養護老人ホーム茂庭台あおばの杜",
    "kana": "トクベツヨウゴロウジンホームモニワダイアオバノモリ",
    "address": "宮城県仙台市太白区茂庭台2丁目15番25号",
    "lat": 38.2332316325423,
    "lng": 140.781840666132,
    "tel": "022-281-9456",
    "url": "http://aoba-welfare.or.jp/",
    "pref": "宮城県",
    "city": "仙台市太白区",
    "category": "tokuyou",
    "serviceType": "介護老人福祉施設",
    "capacity": 80,
    "openDays": [],
    "openDaysNote": ""
  },
  {
    "id": "472200112",
    "name": "特別養護老人ホーム　　釜房みどりの園",
    "kana": "トクベツヨウゴロウジンホーム　　　　カマフサミドリノソノ",
    "address": "宮城県柴田郡川崎町大字川内字芋の窪16-3-2",
    "lat": 38.211699,
    "lng": 140.6267188,
    "tel": "0224-84-4853",
    "url": "http://kakujukai.or.jp/index.php?id=53",
    "pref": "宮城県",
    "city": "川崎町",
    "category": "tokuyou",
    "serviceType": "介護老人福祉施設",
    "capacity": 30,
    "openDays": [],
    "openDaysNote": ""
  },
  {
    "id": "472100239",
    "name": "せせらぎのさと蔵王",
    "kana": "セセラギノサトザオウ",
    "address": "宮城県刈田郡蔵王町遠刈田温泉字小妻坂79-8",
    "lat": 38.1161609,
    "lng": 140.6132238,
    "tel": "0224-34-1511",
    "url": "http://mebuki.zao-fukusi.jp",
    "pref": "宮城県",
    "city": "蔵王町",
    "category": "tokuyou",
    "serviceType": "介護老人福祉施設",
    "capacity": 60,
    "openDays": [],
    "openDaysNote": ""
  },
  {
    "id": "472100189",
    "name": "特別養護老人ホームざおうの杜",
    "kana": "トクベツヨウゴロウジンホームザオウノモリ",
    "address": "宮城県刈田郡蔵王町大字曲竹字田中４８番１",
    "lat": 38.0772712,
    "lng": 140.6539234,
    "tel": "0224-22-7050",
    "url": "http://care-net.biz/04/zaonomori",
    "pref": "宮城県",
    "city": "蔵王町",
    "category": "tokuyou",
    "serviceType": "介護老人福祉施設",
    "capacity": 0,
    "openDays": [],
    "openDaysNote": ""
  },
  {
    "id": "472100205",
    "name": "特別養護老人ホームざおうの杜あおそ館",
    "kana": "トクベツヨウゴロウジンホームザオウノモリアオソカン",
    "address": "宮城県刈田郡蔵王町大字曲竹字道路西８番地１０",
    "lat": 38.0807987,
    "lng": 140.656023,
    "tel": "0224-22-7131",
    "url": "http://care-net.biz/04/zaonomori",
    "pref": "宮城県",
    "city": "蔵王町",
    "category": "tokuyou",
    "serviceType": "介護老人福祉施設",
    "capacity": 30,
    "openDays": [],
    "openDaysNote": ""
  },
  {
    "id": "472100288",
    "name": "特別養護老人ホーム楽園が丘",
    "kana": "トクベツヨウゴロウジンホームラクエンガオカ",
    "address": "宮城県刈田郡蔵王町宮字下別当72番地",
    "lat": 38.0698864,
    "lng": 140.6370452,
    "tel": "0224-32-2071",
    "url": "http://www.sg-miyagikai.jp/office/10867/",
    "pref": "宮城県",
    "city": "蔵王町",
    "category": "tokuyou",
    "serviceType": "介護老人福祉施設",
    "capacity": null,
    "openDays": [],
    "openDaysNote": ""
  },
  {
    "id": "472200120",
    "name": "特別養護老人ホーム柏松苑",
    "kana": "トクベツヨウゴロウジンホームハクショウエン",
    "address": "宮城県柴田郡村田町大字足立字上ケ戸17-5",
    "lat": 38.1364068,
    "lng": 140.7053374,
    "tel": "0224-83-5753",
    "url": "http://www.hakushokai.com/",
    "pref": "宮城県",
    "city": "村田町",
    "category": "tokuyou",
    "serviceType": "介護老人福祉施設",
    "capacity": 0,
    "openDays": [],
    "openDaysNote": ""
  },
  {
    "id": "470900036",
    "name": "特別養護老人ホーム多賀城苑",
    "kana": "トクベツヨウゴロウジンホームタガジョウエン",
    "address": "宮城県多賀城市高橋4丁目24番1号",
    "lat": 38.2888757365291,
    "lng": 140.977397842328,
    "tel": "022-309-3881",
    "url": "http://www.chiganoura.jp/",
    "pref": "宮城県",
    "city": "多賀城市",
    "category": "tokuyou",
    "serviceType": "介護老人福祉施設",
    "capacity": null,
    "openDays": [],
    "openDaysNote": ""
  },
  {
    "id": "472201250",
    "name": "特別養護老人ホーム　桜寿苑",
    "kana": "トクベツヨウゴロウジンホーム　オウジュエン",
    "address": "宮城県柴田郡大河原町大谷字上谷前220番地3",
    "lat": 38.0310667,
    "lng": 140.7314664,
    "tel": "0224-52-0211",
    "url": "http://www.tokiwa-fukushikai.or.jp/",
    "pref": "宮城県",
    "city": "大河原町",
    "category": "tokuyou",
    "serviceType": "介護老人福祉施設",
    "capacity": 30,
    "openDays": [],
    "openDaysNote": ""
  },
  {
    "id": "472200138",
    "name": "特別養護老人ホーム桜寿苑",
    "kana": "トクベツヨウゴロウジンホームオウジュエン",
    "address": "宮城県柴田郡大河原町大谷字上谷前220番地3",
    "lat": 38.0310667,
    "lng": 140.7314664,
    "tel": "0224-52-0211",
    "url": "http://www.tokiwa-fukushikai.or.jp/",
    "pref": "宮城県",
    "city": "大河原町",
    "category": "tokuyou",
    "serviceType": "介護老人福祉施設",
    "capacity": 66,
    "openDays": [],
    "openDaysNote": ""
  },
  {
    "id": "472700988",
    "name": "特別養護老人ホーム　ウィング",
    "kana": "トクベツヨウゴロウジンホーム　ウィング",
    "address": "宮城県黒川郡大郷町羽生字金井川94番1",
    "lat": 38.42486,
    "lng": 141.0164909,
    "tel": "022-359-8182",
    "url": "http://www.zenshunkai.jp/",
    "pref": "宮城県",
    "city": "大郷町",
    "category": "tokuyou",
    "serviceType": "介護老人福祉施設",
    "capacity": 90,
    "openDays": [],
    "openDaysNote": ""
  },
  {
    "id": "472700095",
    "name": "特別養護老人ホーム　郷和荘",
    "kana": "トクベツヨウゴロウジンホーム　キョウワソウ",
    "address": "宮城県黒川郡大郷町大松沢字鶴田山36-2",
    "lat": 38.4558615,
    "lng": 141.0056767,
    "tel": "022-359-5151",
    "url": "http://www.eiraku.or.jp/",
    "pref": "宮城県",
    "city": "大郷町",
    "category": "tokuyou",
    "serviceType": "介護老人福祉施設",
    "capacity": 0,
    "openDays": [],
    "openDaysNote": ""
  },
  {
    "id": "472700087",
    "name": "特別養護老人ホーム　七峰荘",
    "kana": "トクベツヨウゴロウジンホーム　シチホウソウ",
    "address": "宮城県黒川郡大衡村大瓜字長町77番地3",
    "lat": 38.4749548,
    "lng": 140.8484446,
    "tel": "022-345-0232",
    "url": "http://www.eiraku.or.jp",
    "pref": "宮城県",
    "city": "大衡村",
    "category": "tokuyou",
    "serviceType": "介護老人福祉施設",
    "capacity": 52,
    "openDays": [],
    "openDaysNote": ""
  },
  {
    "id": "472701168",
    "name": "特別養護老人ホーム　万葉の里",
    "kana": "トクベツヨウゴロウジンホーム　マンヨウノサト",
    "address": "宮城県黒川郡大衡村大衡字大童7-20",
    "lat": 38.4662922,
    "lng": 140.8692571,
    "tel": "022-347-2255",
    "url": "http://yutokukai.or.jp",
    "pref": "宮城県",
    "city": "大衡村",
    "category": "tokuyou",
    "serviceType": "介護老人福祉施設",
    "capacity": 0,
    "openDays": [],
    "openDaysNote": ""
  },
  {
    "id": "471501262",
    "name": "大崎市社会福祉協議会　特別養護老人ホーム楽々楽館",
    "kana": "オオサキシシャカイフクシキョウギカイ　トクベツヨウゴロウジンホームラララカン",
    "address": "宮城県大崎市古川保柳字中江5-2",
    "lat": 38.5856686,
    "lng": 140.8992656,
    "tel": "0229-36-1115",
    "url": "http://www.osaki-shakyo.com",
    "pref": "宮城県",
    "city": "大崎市",
    "category": "tokuyou",
    "serviceType": "介護老人福祉施設",
    "capacity": null,
    "openDays": [],
    "openDaysNote": ""
  },
  {
    "id": "471501270",
    "name": "大崎市社会福祉協議会　特別養護老人ホーム敬風園",
    "kana": "オオサキシシャカイフクシキョウギカイ　トクベツヨウゴロウジンホームケイフウエン",
    "address": "宮城県大崎市鹿島台平渡字上敷19番地７",
    "lat": 38.4853128387734,
    "lng": 141.089662859525,
    "tel": "0229-56-9400",
    "url": "",
    "pref": "宮城県",
    "city": "大崎市",
    "category": "tokuyou",
    "serviceType": "介護老人福祉施設",
    "capacity": 200,
    "openDays": [],
    "openDaysNote": ""
  },
  {
    "id": "471500074",
    "name": "特別養護老人ホーム　かごぼうの里",
    "kana": "トクベツヨウゴロウジンホーム　カゴボウノサト",
    "address": "宮城県大崎市田尻通木字中崎東24番地の２",
    "lat": 38.6015621,
    "lng": 141.0294222,
    "tel": "0229-38-1251",
    "url": "http://www.tajirifukushikai.com",
    "pref": "宮城県",
    "city": "大崎市",
    "category": "tokuyou",
    "serviceType": "介護老人福祉施設",
    "capacity": 54,
    "openDays": [],
    "openDaysNote": ""
  },
  {
    "id": "471500066",
    "name": "特別養護老人ホーム　岩出の郷",
    "kana": "トクベツヨウゴロウジンホーム　イワデノサト",
    "address": "宮城県大崎市岩出山字下川原町84－4",
    "lat": 38.6581101,
    "lng": 140.8685225,
    "tel": "0229-72-1201",
    "url": "https://www.kamitamatsukurifukushikai.or.jp/",
    "pref": "宮城県",
    "city": "大崎市",
    "category": "tokuyou",
    "serviceType": "介護老人福祉施設",
    "capacity": 54,
    "openDays": [],
    "openDaysNote": ""
  },
  {
    "id": "471500017",
    "name": "特別養護老人ホーム　寿楽苑",
    "kana": "トクベツヨウゴロウジンホーム　ジュラクエン",
    "address": "宮城県大崎市古川小野字上蝦沢５７番地特別養護老人ホーム寿楽苑 特別養護老人ホーム寿楽苑",
    "lat": 38.6348182,
    "lng": 140.9723781,
    "tel": "0229-28-1600",
    "url": "http://o-seishinkai.sakura.ne.jp",
    "pref": "宮城県",
    "city": "大崎市",
    "category": "tokuyou",
    "serviceType": "介護老人福祉施設",
    "capacity": 54,
    "openDays": [],
    "openDaysNote": ""
  },
  {
    "id": "471500025",
    "name": "特別養護老人ホーム　大崎ホーム",
    "kana": "トクベツヨウゴロウジンホーム　オオサキホーム",
    "address": "宮城県大崎市古川下中目字赤山廻５１番地",
    "lat": 38.5424244,
    "lng": 140.9992153,
    "tel": "0229-23-9831",
    "url": "",
    "pref": "宮城県",
    "city": "大崎市",
    "category": "tokuyou",
    "serviceType": "介護老人福祉施設",
    "capacity": 0,
    "openDays": [],
    "openDaysNote": ""
  },
  {
    "id": "471502377",
    "name": "特別養護老人ホームいろは",
    "kana": "トクベツヨウゴロウジンホームイロハ",
    "address": "宮城県大崎市古川稲葉2丁目4番22号",
    "lat": 38.5567136699134,
    "lng": 140.9510846705,
    "tel": "0229-25-5200",
    "url": "http://www.winslife.jp",
    "pref": "宮城県",
    "city": "大崎市",
    "category": "tokuyou",
    "serviceType": "介護老人福祉施設",
    "capacity": 80,
    "openDays": [],
    "openDaysNote": ""
  },
  {
    "id": "471500058",
    "name": "特別養護老人ホームりんどう苑",
    "kana": "トクベツヨウゴロウジンホームリンドウエン",
    "address": "宮城県大崎市鳴子温泉字石ノ梅３３番地",
    "lat": 38.7313726185349,
    "lng": 140.757880308598,
    "tel": "0229-84-7451",
    "url": "https://www.kamitamatsukurifukushikai.or.jp/",
    "pref": "宮城県",
    "city": "大崎市",
    "category": "tokuyou",
    "serviceType": "介護老人福祉施設",
    "capacity": 50,
    "openDays": [],
    "openDaysNote": ""
  },
  {
    "id": "472701051",
    "name": "特別養護老人ホーム　まほろばの里たいわ",
    "kana": "トクベツヨウゴロウジンホーム　マホロバノサトタイワ",
    "address": "宮城県黒川郡大和町吉岡まほろば2丁目2番地の4",
    "lat": 38.4369815,
    "lng": 140.8774463,
    "tel": "022-779-7785",
    "url": "https://mahoroba-swc.or.jp/",
    "pref": "宮城県",
    "city": "大和町",
    "category": "tokuyou",
    "serviceType": "介護老人福祉施設",
    "capacity": 0,
    "openDays": [],
    "openDaysNote": ""
  },
  {
    "id": "472701069",
    "name": "特別養護老人ホーム　まほろばの里たいわ",
    "kana": "トクベツヨウゴロウジンホーム　マホロバノサトタイワ",
    "address": "宮城県黒川郡大和町吉田字高田西34番地",
    "lat": 38.4369815,
    "lng": 140.8774463,
    "tel": "022-779-7785",
    "url": "https://www.mahoroba-swc.or.jp/",
    "pref": "宮城県",
    "city": "大和町",
    "category": "tokuyou",
    "serviceType": "介護老人福祉施設",
    "capacity": 0,
    "openDays": [],
    "openDaysNote": ""
  },
  {
    "id": "472700889",
    "name": "和風園",
    "kana": "ワフウエン",
    "address": "宮城県黒川郡大和町小野字前沢1番地",
    "lat": 38.3689007,
    "lng": 140.8607903,
    "tel": "022-346-2229",
    "url": "http://www.miyagi-sfk.net/nago/",
    "pref": "宮城県",
    "city": "大和町",
    "category": "tokuyou",
    "serviceType": "介護老人福祉施設",
    "capacity": 0,
    "openDays": [],
    "openDaysNote": ""
  },
  {
    "id": "471200055",
    "name": "特別養護老人ホーム　光風園",
    "kana": "トクベツヨウゴロウジンホーム　コウフウエン",
    "address": "宮城県登米市登米町寺池金沢山60番地３",
    "lat": 38.6481326,
    "lng": 141.2691548,
    "tel": "0220-52-3275",
    "url": "http://www.keisen-net.jp/",
    "pref": "宮城県",
    "city": "登米市",
    "category": "tokuyou",
    "serviceType": "介護老人福祉施設",
    "capacity": 50,
    "openDays": [],
    "openDaysNote": ""
  },
  {
    "id": "471200063",
    "name": "特別養護老人ホーム　松風園",
    "kana": "トクベツヨウゴロウジンホーム　ショウフウエン",
    "address": "宮城県登米市豊里町笑沢153番地62",
    "lat": 38.6134862,
    "lng": 141.2553522,
    "tel": "0225-76-0112",
    "url": "http://www.keisen-net.jp",
    "pref": "宮城県",
    "city": "登米市",
    "category": "tokuyou",
    "serviceType": "介護老人福祉施設",
    "capacity": 0,
    "openDays": [],
    "openDaysNote": ""
  },
  {
    "id": "471200071",
    "name": "特別養護老人ホーム　萩風園",
    "kana": "トクベツヨウゴロウジンホーム　シュウフウエン",
    "address": "宮城県登米市中田町浅水字長谷山３５２－４",
    "lat": 38.7061702174581,
    "lng": 141.28283246627,
    "tel": "0220-34-7000",
    "url": "",
    "pref": "宮城県",
    "city": "登米市",
    "category": "tokuyou",
    "serviceType": "介護老人福祉施設",
    "capacity": 50,
    "openDays": [],
    "openDaysNote": ""
  },
  {
    "id": "471201863",
    "name": "特別養護老人ホームきたかみ園",
    "kana": "トクベツヨウゴロウジンホームキタカミエン",
    "address": "宮城県登米市登米町寺池辺室山27",
    "lat": 38.659961,
    "lng": 141.272762,
    "tel": "0220-53-7227",
    "url": "https://www.tome-fukushi.net/",
    "pref": "宮城県",
    "city": "登米市",
    "category": "tokuyou",
    "serviceType": "介護老人福祉施設",
    "capacity": 0,
    "openDays": [],
    "openDaysNote": ""
  },
  {
    "id": "471200642",
    "name": "特別養護老人ホームさーらの樹",
    "kana": "トクベツヨウゴロウジンホームサーラノキ",
    "address": "宮城県登米市米山町字桜岡大又２３２－２",
    "lat": 38.6296523,
    "lng": 141.2155796,
    "tel": "0220-55-5155",
    "url": "",
    "pref": "宮城県",
    "city": "登米市",
    "category": "tokuyou",
    "serviceType": "介護老人福祉施設",
    "capacity": 0,
    "openDays": [],
    "openDaysNote": ""
  },
  {
    "id": "471200097",
    "name": "特別養護老人ホーム南風園",
    "kana": "トクベツヨウゴロウジンホームナンプウエン",
    "address": "宮城県登米市南方町高石6番地43",
    "lat": 38.6593717,
    "lng": 141.1503478,
    "tel": "0220-58-4777",
    "url": "http://www.keisen-net.jp/",
    "pref": "宮城県",
    "city": "登米市",
    "category": "tokuyou",
    "serviceType": "介護老人福祉施設",
    "capacity": null,
    "openDays": [],
    "openDaysNote": ""
  },
  {
    "id": "471200089",
    "name": "特別養護老人ホーム迫風園",
    "kana": "トクベツヨウゴロウジンホームハクフウエン",
    "address": "宮城県登米市迫町北方字大洞５６の６",
    "lat": 38.6961884,
    "lng": 141.177657,
    "tel": "0220-22-1020",
    "url": "http://www.keisen-net.jp/",
    "pref": "宮城県",
    "city": "登米市",
    "category": "tokuyou",
    "serviceType": "介護老人福祉施設",
    "capacity": 46,
    "openDays": [],
    "openDaysNote": ""
  },
  {
    "id": "471200246",
    "name": "特別養護老人ホーム柳風園",
    "kana": "トクベツヨウゴロウジンホームリュウフウエン",
    "address": "宮城県登米市津山町柳津字黄牛新山窪125番地",
    "lat": 38.6238338,
    "lng": 141.3095742,
    "tel": "0225-68-2175",
    "url": "https://seizankai-net.com/afaffafafsafa/cayeseeeaafafafaeyecaoe/",
    "pref": "宮城県",
    "city": "登米市",
    "category": "tokuyou",
    "serviceType": "介護老人福祉施設",
    "capacity": 0,
    "openDays": [],
    "openDaysNote": ""
  },
  {
    "id": "471400424",
    "name": "特別養護老人ホーム　やもと赤井の里",
    "kana": "トクベツヨウゴロウジンホーム　ヤモトアカイノサト",
    "address": "宮城県東松島市赤井字川前四番83番地",
    "lat": 38.4357698,
    "lng": 141.2347302,
    "tel": "0225-84-1888",
    "url": "http://hm-hukushikai.or.jp",
    "pref": "宮城県",
    "city": "東松島市",
    "category": "tokuyou",
    "serviceType": "介護老人福祉施設",
    "capacity": 30,
    "openDays": [],
    "openDaysNote": ""
  },
  {
    "id": "471400861",
    "name": "特別養護老人ホーム不老園",
    "kana": "トクベツヨウゴロウジンホームフロウエン",
    "address": "宮城県東松島市野蒜ケ丘三丁目27-1",
    "lat": 38.3788711,
    "lng": 141.1405598,
    "tel": "0225-98-7110",
    "url": "http://www.yasuragikai.or.jp",
    "pref": "宮城県",
    "city": "東松島市",
    "category": "tokuyou",
    "serviceType": "介護老人福祉施設",
    "capacity": 50,
    "openDays": [],
    "openDaysNote": ""
  },
  {
    "id": "471400036",
    "name": "特別養護老人ホーム矢本華の園",
    "kana": "トクベツヨウゴロウジンホームヤモトハナノエン",
    "address": "宮城県東松島市矢本字寺前247番地",
    "lat": 38.4134407480062,
    "lng": 141.194602199475,
    "tel": "0225-82-1165",
    "url": "http://yamoto-aiikukai.jp/",
    "pref": "宮城県",
    "city": "東松島市",
    "category": "tokuyou",
    "serviceType": "介護老人福祉施設",
    "capacity": 0,
    "openDays": [],
    "openDaysNote": ""
  },
  {
    "id": "473600443",
    "name": "特別養護老人ホーム　いこいの海・あらと",
    "kana": "トクベツヨウゴロウジンホーム　イコイノウミ・アラト",
    "address": "宮城県本吉郡南三陸町志津川字蒲の沢１９０番１",
    "lat": 38.6780158188913,
    "lng": 141.480859589549,
    "tel": "0226-46-1820",
    "url": "https://mirakukai.com/facility/arato/",
    "pref": "宮城県",
    "city": "南三陸町",
    "category": "tokuyou",
    "serviceType": "介護老人福祉施設",
    "capacity": 60,
    "openDays": [],
    "openDaysNote": ""
  },
  {
    "id": "473600088",
    "name": "特別養護老人ホーム　慈恵園",
    "kana": "トクベツヨウゴロウジンホーム　ジケイエン",
    "address": "宮城県本吉郡南三陸町入谷字童子下159番地2",
    "lat": 38.7082717324979,
    "lng": 141.415049121426,
    "tel": "0226-46-6046",
    "url": "http://kyokuhokai.jimdo.com/",
    "pref": "宮城県",
    "city": "南三陸町",
    "category": "tokuyou",
    "serviceType": "介護老人福祉施設",
    "capacity": 0,
    "openDays": [],
    "openDaysNote": ""
  },
  {
    "id": "470600081",
    "name": "特別養護老人ホーム　えんじゅ",
    "kana": "トクベツヨウゴロウジンホーム　エンジュ",
    "address": "宮城県白石市福岡蔵本字茶園６２－１",
    "lat": 38.0103403,
    "lng": 140.6030976,
    "tel": "0224-25-8885",
    "url": "http://www.enjyu.or.jp",
    "pref": "宮城県",
    "city": "白石市",
    "category": "tokuyou",
    "serviceType": "介護老人福祉施設",
    "capacity": 60,
    "openDays": [],
    "openDaysNote": ""
  },
  {
    "id": "470600495",
    "name": "特別養護老人ホームみずき",
    "kana": "トクベツヨウゴロウジンホームミズキ",
    "address": "宮城県白石市福岡蔵本字茶園62-5",
    "lat": 38.010082,
    "lng": 140.6017256,
    "tel": "0224-29-3139",
    "url": "http://www.enjyu.or.jp",
    "pref": "宮城県",
    "city": "白石市",
    "category": "tokuyou",
    "serviceType": "介護老人福祉施設",
    "capacity": 30,
    "openDays": [],
    "openDaysNote": ""
  },
  {
    "id": "470600073",
    "name": "特別養護老人ホーム八宮荘",
    "kana": "トクベツヨウゴロウジンホームヤツミヤソウ",
    "address": "宮城県白石市福岡八宮字川原１０番地３",
    "lat": 38.0259329,
    "lng": 140.6023857,
    "tel": "0224-24-5500",
    "url": "http://huboukai.or.jp/yatsumiyaso/",
    "pref": "宮城県",
    "city": "白石市",
    "category": "tokuyou",
    "serviceType": "介護老人福祉施設",
    "capacity": 85,
    "openDays": [],
    "openDaysNote": ""
  },
  {
    "id": "473100584",
    "name": "介護老人福祉施設　みさとの杜翔裕園",
    "kana": "カイゴロウジンフクシシセツ　ミサトノモリショウユウエン",
    "address": "宮城県遠田郡美里町駅東二丁目１７番地５",
    "lat": 38.5413583,
    "lng": 141.0700654,
    "tel": "0229-33-3255",
    "url": "http://www.morinomura.com/misato/",
    "pref": "宮城県",
    "city": "美里町",
    "category": "tokuyou",
    "serviceType": "介護老人福祉施設",
    "capacity": 60,
    "openDays": [],
    "openDaysNote": ""
  },
  {
    "id": "473100071",
    "name": "特別養護老人ホーム　いなほの里",
    "kana": "トクベツヨウゴロウジンホーム　イナホノサト",
    "address": "宮城県遠田郡美里町木間塚字原田７番地",
    "lat": 38.4901935,
    "lng": 141.1333684,
    "tel": "0229-58-0996",
    "url": "http://inahonosato.com/",
    "pref": "宮城県",
    "city": "美里町",
    "category": "tokuyou",
    "serviceType": "介護老人福祉施設",
    "capacity": null,
    "openDays": [],
    "openDaysNote": ""
  },
  {
    "id": "472701127",
    "name": "特別養護老人ホーム　せせらぎの里",
    "kana": "トクベツヨウゴロウジンホーム　セセラギノサト",
    "address": "宮城県富谷市成田一丁目5-7",
    "lat": 38.3636739,
    "lng": 140.8930674,
    "tel": "022-348-3822",
    "url": "https://hm-hukushikai.or.jp/",
    "pref": "宮城県",
    "city": "富谷市",
    "category": "tokuyou",
    "serviceType": "介護老人福祉施設",
    "capacity": 80,
    "openDays": [],
    "openDaysNote": ""
  },
  {
    "id": "472700285",
    "name": "特別養護老人ホーム　杜の風",
    "kana": "トクベツヨウゴロウジンホーム　モリノカゼ",
    "address": "富谷市富谷桜田１－１１",
    "lat": 38.396557,
    "lng": 140.9003906,
    "tel": "022-779-1580",
    "url": "http://www.eiraku.or.jp",
    "pref": "宮城県",
    "city": "富谷市",
    "category": "tokuyou",
    "serviceType": "介護老人福祉施設",
    "capacity": 0,
    "openDays": [],
    "openDaysNote": ""
  },
  {
    "id": "471600023",
    "name": "特別養護老人ホームアルシュ富谷",
    "kana": "トクベツヨウゴロウジンホウムアルシュトミヤ",
    "address": "宮城県富谷市明石台7丁目１－８",
    "lat": 38.3463895449465,
    "lng": 140.90072787719,
    "tel": "022-348-5240",
    "url": "http://tomiyafukushikai.com/",
    "pref": "宮城県",
    "city": "富谷市",
    "category": "tokuyou",
    "serviceType": "介護老人福祉施設",
    "capacity": 70,
    "openDays": [],
    "openDaysNote": ""
  },
  {
    "id": "470700170",
    "name": "特別養護老人ホーム　けやき",
    "kana": "トクベツヨウゴロウジンホーム　ケヤキ",
    "address": "宮城県名取市愛島小豆島字山ノ前４９－２",
    "lat": 38.1537101,
    "lng": 140.8681692,
    "tel": "022-384-8500",
    "url": "http://natori-ainosato.net/",
    "pref": "宮城県",
    "city": "名取市",
    "category": "tokuyou",
    "serviceType": "介護老人福祉施設",
    "capacity": 60,
    "openDays": [],
    "openDaysNote": ""
  },
  {
    "id": "470700519",
    "name": "特別養護老人ホーム　らんらん",
    "kana": "トクベツヨウゴロウジンホーム　ランラン",
    "address": "宮城県名取市愛島小豆島字島１番地の１",
    "lat": 38.1522069,
    "lng": 140.8675292,
    "tel": "０２２－３８１－１００７",
    "url": "http://natori-ainosato.net/",
    "pref": "宮城県",
    "city": "名取市",
    "category": "tokuyou",
    "serviceType": "介護老人福祉施設",
    "capacity": 30,
    "openDays": [],
    "openDaysNote": ""
  },
  {
    "id": "470700105",
    "name": "特別養護老人ホーム　松陽苑",
    "kana": "トクベツヨウゴロウジンホーム　ショウヨウエン",
    "address": "宮城県名取市手倉田字八幡８０番地の１",
    "lat": 38.1734654708517,
    "lng": 140.877137759874,
    "tel": "022-384-3663",
    "url": "http://www.miyafuku.jp",
    "pref": "宮城県",
    "city": "名取市",
    "category": "tokuyou",
    "serviceType": "介護老人福祉施設",
    "capacity": 0,
    "openDays": [],
    "openDaysNote": ""
  },
  {
    "id": "470701319",
    "name": "特別養護老人ホーム　松陽苑",
    "kana": "トクベツヨウゴロウジンホーム　ショウヨウエン",
    "address": "宮城県名取市手倉田字八幡８０番地の1特別養護老人ホーム　松陽苑 特別養護老人ホーム　松陽苑",
    "lat": 38.1741274,
    "lng": 140.8794752,
    "tel": "022-384-3663",
    "url": "http://www.miyafuku.jp",
    "pref": "宮城県",
    "city": "名取市",
    "category": "tokuyou",
    "serviceType": "介護老人福祉施設",
    "capacity": 0,
    "openDays": [],
    "openDaysNote": ""
  },
  {
    "id": "470700097",
    "name": "特別養護老人ホームうらやす",
    "kana": "トクベツヨウゴロウジンホームウラヤス",
    "address": "宮城県名取市下余田字鹿島86番地5",
    "lat": 38.1724159164908,
    "lng": 140.899809132016,
    "tel": "022-383-3750",
    "url": "http://www.f-mizuho.or.jp/",
    "pref": "宮城県",
    "city": "名取市",
    "category": "tokuyou",
    "serviceType": "介護老人福祉施設",
    "capacity": 50,
    "openDays": [],
    "openDaysNote": ""
  },
  {
    "id": "473100709",
    "name": "特別養護老人ホーム　ゆうらいふ",
    "kana": "トクベツヨウゴロウジンホーム　ユウライフ",
    "address": "宮城県遠田郡涌谷町涌谷字新下町浦１９２涌谷町高齢者福祉複合施設ゆうらいふ 涌谷町高齢者福祉複合施設ゆうらいふ",
    "lat": 38.5394129,
    "lng": 141.1411487,
    "tel": "0229-43-6662",
    "url": "http://www.wakuya-sfk.net/",
    "pref": "宮城県",
    "city": "涌谷町",
    "category": "tokuyou",
    "serviceType": "介護老人福祉施設",
    "capacity": 30,
    "openDays": [],
    "openDaysNote": ""
  },
  {
    "id": "473100907",
    "name": "特別養護老人ホーム万葉苑わくや",
    "kana": "トクベツヨウゴロウジンホームマンヨウエンワクヤ",
    "address": "宮城県遠田郡涌谷町上郡字上郡沢4－1",
    "lat": 38.5740733302428,
    "lng": 141.105711436385,
    "tel": "0229-43-6411",
    "url": "http://www.koyo-kai.jp",
    "pref": "宮城県",
    "city": "涌谷町",
    "category": "tokuyou",
    "serviceType": "介護老人福祉施設",
    "capacity": 90,
    "openDays": [],
    "openDaysNote": ""
  },
  {
    "id": "472600444",
    "name": "介護老人福祉施設　十符・風の音",
    "kana": "カイゴロウジンフクシシセツ　トフ・カゼノネ",
    "address": "宮城県宮城郡利府町葉山1-53",
    "lat": 38.3620982,
    "lng": 141.0220466,
    "tel": "022-767-3661",
    "url": "http://www.kou-fuku.or.jp/kaze/",
    "pref": "宮城県",
    "city": "利府町",
    "category": "tokuyou",
    "serviceType": "介護老人福祉施設",
    "capacity": 0,
    "openDays": [],
    "openDaysNote": ""
  },
  {
    "id": "472600782",
    "name": "特別養護老人ホーム壱ノ町",
    "kana": "トクベツヨウゴロウジンホームイチノマチ",
    "address": "宮城県宮城郡利府町赤沼字大貝９３番地１",
    "lat": 38.3662207847585,
    "lng": 141.027290143269,
    "tel": "022-356-5180",
    "url": "http://shiogama-haginosato.jp/",
    "pref": "宮城県",
    "city": "利府町",
    "category": "tokuyou",
    "serviceType": "介護老人福祉施設",
    "capacity": 0,
    "openDays": [],
    "openDaysNote": ""
  },
  {
    "id": "472400548",
    "name": "特別養護老人ホームけいけん荘",
    "kana": "トクベツヨウゴロウジンホームケイケンソウ",
    "address": "宮城県亘理郡亘理町逢隈牛袋字境119-1",
    "lat": 38.0762226,
    "lng": 140.8824418,
    "tel": "0223-34-8166",
    "url": "http://yunikea.com/",
    "pref": "宮城県",
    "city": "亘理町",
    "category": "tokuyou",
    "serviceType": "介護老人福祉施設",
    "capacity": 50,
    "openDays": [],
    "openDaysNote": ""
  },
  {
    "id": "472400670",
    "name": "特別養護老人ホーム第二けいけん荘",
    "kana": "トクベツヨウゴロウジンホームダイニケイケンソウ",
    "address": "宮城県亘理郡亘理町逢隈牛袋字境8",
    "lat": 38.0768392,
    "lng": 140.8817918,
    "tel": "0223-23-1988",
    "url": "http://yunikea.com./",
    "pref": "宮城県",
    "city": "亘理町",
    "category": "tokuyou",
    "serviceType": "介護老人福祉施設",
    "capacity": 60,
    "openDays": [],
    "openDaysNote": ""
  },
  {
    "id": "472400415",
    "name": "特別養護老人ホーム第二日就苑",
    "kana": "トクベツヨウゴロウジンホームダイニニッシュウエン",
    "address": "宮城県亘理郡亘理町逢隈鹿島字北鹿島406番地1",
    "lat": 38.0483386,
    "lng": 140.8484895,
    "tel": "0223-33-0855",
    "url": "http://www.nissyukai.or.jp/",
    "pref": "宮城県",
    "city": "亘理町",
    "category": "tokuyou",
    "serviceType": "介護老人福祉施設",
    "capacity": 50,
    "openDays": [],
    "openDaysNote": ""
  },
  {
    "id": "472400092",
    "name": "特別養護老人ホーム日就苑",
    "kana": "トクベツヨウゴロウジンホームニッシュウエン",
    "address": "宮城県亘理郡亘理町吉田字宮前5番地10",
    "lat": 38.0117099,
    "lng": 140.8563129,
    "tel": "0223-34-5329",
    "url": "http://www.nissyukai.or.jp",
    "pref": "宮城県",
    "city": "亘理町",
    "category": "tokuyou",
    "serviceType": "介護老人福祉施設",
    "capacity": 84,
    "openDays": [],
    "openDaysNote": ""
  }
]