[
  {
    "id": "4570900011",
    "name": "特別養護老人ホームあけぼの園",
    "kana": "トクベツヨウゴロウジンホームアケボノエン",
    "address": "宮崎県えびの市大字榎田５７９番地１０",
    "lat": 32.0656429539756,
    "lng": 130.8126896,
    "tel": "0984-35-2667",
    "url": "http://ebino-meiyukai.or.jp",
    "pref": "宮崎県",
    "city": "えびの市",
    "category": "tokuyou",
    "serviceType": "介護老人福祉施設",
    "capacity": 50,
    "openDays": [],
    "openDaysNote": ""
  },
  {
    "id": "4570900102",
    "name": "特別養護老人ホームえびの涼風園",
    "kana": "トクベツヨウゴロウジンホームエビノリョウフウエン",
    "address": "宮崎県えびの市大字岡松１番地",
    "lat": 32.0414603170392,
    "lng": 130.753911409509,
    "tel": "0984-37-1220",
    "url": "https://ryofuen.com",
    "pref": "宮崎県",
    "city": "えびの市",
    "category": "tokuyou",
    "serviceType": "介護老人福祉施設",
    "capacity": 80,
    "openDays": [],
    "openDaysNote": ""
  },
  {
    "id": "4570900425",
    "name": "特別養護老人ホーム八幡の里",
    "kana": "トクベツヨウゴロウジンホームハチマンノサト",
    "address": "宮崎県えびの市大字原田1403-27",
    "lat": 32.0309577533442,
    "lng": 130.878010672491,
    "tel": "0984-27-4165",
    "url": "http://www.all-souai.or.jp/akebonoen/index.htm",
    "pref": "宮崎県",
    "city": "えびの市",
    "category": "tokuyou",
    "serviceType": "介護老人福祉施設",
    "capacity": 80,
    "openDays": [],
    "openDaysNote": ""
  },
  {
    "id": "4571900192",
    "name": "特別養護老人ホームやすらぎの里",
    "kana": "トクベツヨウゴロウジンホームヤスラギノサト",
    "address": "宮崎県東諸県郡綾町大字南俣561番地",
    "lat": 31.9942969,
    "lng": 131.2553041,
    "tel": "0985-77-0501",
    "url": "http://yasuragi-sato.main.jp",
    "pref": "宮崎県",
    "city": "綾町",
    "category": "tokuyou",
    "serviceType": "介護老人福祉施設",
    "capacity": 0,
    "openDays": [],
    "openDaysNote": ""
  },
  {
    "id": "4570302218",
    "name": "特別養護老人ホーム　水明荘ユニット館",
    "kana": "トクベツヨウゴロウジンホーム　スイメイソウユニットカン",
    "address": "宮崎県延岡市鯛名町９０８番地１",
    "lat": 32.5064888,
    "lng": 131.6955461,
    "tel": "０９８２―３７―２２８６",
    "url": "http://kousei-kai.jp/",
    "pref": "宮崎県",
    "city": "延岡市",
    "category": "tokuyou",
    "serviceType": "介護老人福祉施設",
    "capacity": 0,
    "openDays": [],
    "openDaysNote": ""
  },
  {
    "id": "4572100404",
    "name": "特別養護老人ホームきたがわ荘",
    "kana": "トクベツヨウゴロウジンホームキタガワソウ",
    "address": "宮崎県延岡市北川町長井5565番地8",
    "lat": 32.6652781,
    "lng": 131.7046775,
    "tel": "0982-46-3065",
    "url": "http://www.kitagawa-houjukai.com",
    "pref": "宮崎県",
    "city": "延岡市",
    "category": "tokuyou",
    "serviceType": "介護老人福祉施設",
    "capacity": null,
    "openDays": [],
    "openDaysNote": ""
  },
  {
    "id": "4572100396",
    "name": "特別養護老人ホームひえいの郷",
    "kana": "トクベツヨウゴロウジンホームヒエイノサト",
    "address": "宮崎県延岡市北方町川水流卯1810番地86",
    "lat": 32.5726662,
    "lng": 131.5158851,
    "tel": "0982-47-2266",
    "url": "http://www.kawazurufukushikai.jp/",
    "pref": "宮崎県",
    "city": "延岡市",
    "category": "tokuyou",
    "serviceType": "介護老人福祉施設",
    "capacity": 0,
    "openDays": [],
    "openDaysNote": ""
  },
  {
    "id": "4570300337",
    "name": "特別養護老人ホームふれあいの里",
    "kana": "トクベツヨウゴロウジンホームフレアイノサト",
    "address": "宮崎県延岡市沖田町2240番地1",
    "lat": 32.5415321110103,
    "lng": 131.668551512828,
    "tel": "0982-35-0005",
    "url": "http://www.heart-fureai.jp",
    "pref": "宮崎県",
    "city": "延岡市",
    "category": "tokuyou",
    "serviceType": "介護老人福祉施設",
    "capacity": 85,
    "openDays": [],
    "openDaysNote": ""
  },
  {
    "id": "4570300311",
    "name": "特別養護老人ホームみのり園",
    "kana": "トクベツヨウゴロウジンホームミノリエン",
    "address": "宮崎県延岡市岡元町789番地3",
    "lat": 32.5678546918635,
    "lng": 131.559800739395,
    "tel": "0982-38-0306",
    "url": "https://www.minori-en.jp/",
    "pref": "宮崎県",
    "city": "延岡市",
    "category": "tokuyou",
    "serviceType": "介護老人福祉施設",
    "capacity": 0,
    "openDays": [],
    "openDaysNote": ""
  },
  {
    "id": "4570301962",
    "name": "特別養護老人ホームみのり園ユニット館",
    "kana": "トクベツヨウゴロウジンホームミノリエンユニットカン",
    "address": "宮崎県延岡市岡元町789番地1",
    "lat": 32.5677913994143,
    "lng": 131.559763188469,
    "tel": "0982-38-0306",
    "url": "",
    "pref": "宮崎県",
    "city": "延岡市",
    "category": "tokuyou",
    "serviceType": "介護老人福祉施設",
    "capacity": 0,
    "openDays": [],
    "openDaysNote": ""
  },
  {
    "id": "4570300352",
    "name": "特別養護老人ホーム敬寿園",
    "kana": "トクベツヨウゴロウジンホームケイジュエン",
    "address": "宮崎県延岡市昭和町３丁目９番地３",
    "lat": 32.5891448,
    "lng": 131.6837162,
    "tel": "0982-23-1655",
    "url": "//kousei-kai.jp/",
    "pref": "宮崎県",
    "city": "延岡市",
    "category": "tokuyou",
    "serviceType": "介護老人福祉施設",
    "capacity": 0,
    "openDays": [],
    "openDaysNote": ""
  },
  {
    "id": "4570300139",
    "name": "特別養護老人ホーム水明荘",
    "kana": "トクベツヨウゴロウジンホームスイメイソウ",
    "address": "宮崎県延岡市鯛名町908-1",
    "lat": 32.5064888,
    "lng": 131.6955461,
    "tel": "0982-37-2286",
    "url": "http://kousei-kai.jp/",
    "pref": "宮崎県",
    "city": "延岡市",
    "category": "tokuyou",
    "serviceType": "介護老人福祉施設",
    "capacity": 0,
    "openDays": [],
    "openDaysNote": ""
  },
  {
    "id": "4572100412",
    "name": "特別養護老人ホーム千寿園",
    "kana": "トクベツヨウゴロウジンホームセンジュエン",
    "address": "宮崎県延岡市北浦町古江２６９３",
    "lat": 32.7092214,
    "lng": 131.8165922,
    "tel": "0982-45-3737",
    "url": "https://www.senjuen.jp",
    "pref": "宮崎県",
    "city": "延岡市",
    "category": "tokuyou",
    "serviceType": "介護老人福祉施設",
    "capacity": 0,
    "openDays": [],
    "openDaysNote": ""
  },
  {
    "id": "4570300329",
    "name": "特別養護老人ホーム楓荘",
    "kana": "トクベツヨウゴロウジンホームカエデソウ",
    "address": "宮崎県延岡市無鹿町１丁目２０３１番地５",
    "lat": 32.6144374,
    "lng": 131.6833009,
    "tel": "0982-33-8572",
    "url": "http://www.mitubakai.jp/kaedesou",
    "pref": "宮崎県",
    "city": "延岡市",
    "category": "tokuyou",
    "serviceType": "介護老人福祉施設",
    "capacity": 0,
    "openDays": [],
    "openDaysNote": ""
  },
  {
    "id": "4571500265",
    "name": "星空の都さどわら",
    "kana": "ホシゾラノミヤコサドワラ",
    "address": "宮崎県宮崎市佐土原町下那珂３１６５番地１",
    "lat": 32.0018854,
    "lng": 131.4663314,
    "tel": "0985-73-5303",
    "url": "sadowara.info@fujimoto.or.jp",
    "pref": "宮崎県",
    "city": "宮崎市",
    "category": "tokuyou",
    "serviceType": "介護老人福祉施設",
    "capacity": 60,
    "openDays": [],
    "openDaysNote": ""
  },
  {
    "id": "4570101438",
    "name": "星空の都みやざき",
    "kana": "ホシゾラノミヤコミヤザキ",
    "address": "宮崎県宮崎市吉村町平塚甲1820番地",
    "lat": 31.9199204,
    "lng": 131.4383748,
    "tel": "0985-62-2700",
    "url": "http://www.fujimoto.or.jp",
    "pref": "宮崎県",
    "city": "宮崎市",
    "category": "tokuyou",
    "serviceType": "介護老人福祉施設",
    "capacity": 0,
    "openDays": [],
    "openDaysNote": ""
  },
  {
    "id": "4570100976",
    "name": "特別養護老人ホ－ム　住之江",
    "kana": "トクベツヨウゴロウジンホ-ム　スミノエ",
    "address": "宮崎県宮崎市大字島之内２７５２番地",
    "lat": 31.9937381,
    "lng": 131.4503165,
    "tel": "0985-37-0228",
    "url": "http://www.m-shinwakai.jp",
    "pref": "宮崎県",
    "city": "宮崎市",
    "category": "tokuyou",
    "serviceType": "介護老人福祉施設",
    "capacity": 0,
    "openDays": [],
    "openDaysNote": ""
  },
  {
    "id": "4570105884",
    "name": "特別養護老人ホーム　ふじ野園",
    "kana": "トクベツヨウゴロウジンホーム　フジノエン",
    "address": "宮崎県宮崎市宮崎駅東三丁目9番10",
    "lat": 31.9195160757816,
    "lng": 131.432350227647,
    "tel": "0985-27-6262",
    "url": "https://www.kowakai-f.jp",
    "pref": "宮崎県",
    "city": "宮崎市",
    "category": "tokuyou",
    "serviceType": "介護老人福祉施設",
    "capacity": 0,
    "openDays": [],
    "openDaysNote": ""
  },
  {
    "id": "4570106635",
    "name": "特別養護老人ホーム　城ケ崎小戸の家",
    "kana": "トクベツヨウゴロウジンホーム　ジョウガサキオドノイエ",
    "address": "宮崎市城ケ崎3丁目3番地3",
    "lat": 31.8978840501549,
    "lng": 131.432577919049,
    "tel": "0985-83-0017",
    "url": "https://jougasaki0d0noie.wixsite.com/home",
    "pref": "宮崎県",
    "city": "宮崎市",
    "category": "tokuyou",
    "serviceType": "介護老人福祉施設",
    "capacity": 0,
    "openDays": [],
    "openDaysNote": ""
  },
  {
    "id": "4570102881",
    "name": "特別養護老人ホームヴィラ・サザン",
    "kana": "トクベツヨウゴロウジンホームウ゛ィラ・サザン",
    "address": "宮崎県宮崎市本郷北方2717番地15",
    "lat": 31.8747732,
    "lng": 131.4094352,
    "tel": "0985-50-1700",
    "url": "http://www.villa-southern.net/",
    "pref": "宮崎県",
    "city": "宮崎市",
    "category": "tokuyou",
    "serviceType": "介護老人福祉施設",
    "capacity": 60,
    "openDays": [],
    "openDaysNote": ""
  },
  {
    "id": "4570107658",
    "name": "特別養護老人ホームかなえ",
    "kana": "トクベツヨウゴロウジンホームカナエ",
    "address": "宮崎県宮崎市大字恒久5311番地1",
    "lat": 31.8906748,
    "lng": 131.4127731,
    "tel": "0985-52-8001",
    "url": "http://www.kanae-kai.com",
    "pref": "宮崎県",
    "city": "宮崎市",
    "category": "tokuyou",
    "serviceType": "介護老人福祉施設",
    "capacity": null,
    "openDays": [],
    "openDaysNote": ""
  },
  {
    "id": "4570100943",
    "name": "特別養護老人ホームゴールデンレイク",
    "kana": "トクベツヨウゴロウジンホームゴールデンレイク",
    "address": "宮崎県宮崎市大字加江田４５１４－２",
    "lat": 31.8116514,
    "lng": 131.4450256,
    "tel": "0985-65-2828",
    "url": "aisinfukusikai.jp",
    "pref": "宮崎県",
    "city": "宮崎市",
    "category": "tokuyou",
    "serviceType": "介護老人福祉施設",
    "capacity": 0,
    "openDays": [],
    "openDaysNote": ""
  },
  {
    "id": "4570103830",
    "name": "特別養護老人ホームしらふじ",
    "kana": "トクベツヨウゴロウジンホームシラフジ",
    "address": "宮崎県宮崎市大字糸原400番地",
    "lat": 31.95795,
    "lng": 131.3686346,
    "tel": "0985-41-0012",
    "url": "http://www.ryoundo.or.jp/",
    "pref": "宮崎県",
    "city": "宮崎市",
    "category": "tokuyou",
    "serviceType": "介護老人福祉施設",
    "capacity": 0,
    "openDays": [],
    "openDaysNote": ""
  },
  {
    "id": "4570100927",
    "name": "特別養護老人ホームみやざき荘",
    "kana": "トクベツヨウゴロウジンホームミヤザキソウ",
    "address": "宮崎県宮崎市大字田吉４９７７－３７４",
    "lat": 31.8699745,
    "lng": 131.4469929,
    "tel": "0985-56-2510",
    "url": "http://www.m-sj.or.jp/miyazaki/",
    "pref": "宮崎県",
    "city": "宮崎市",
    "category": "tokuyou",
    "serviceType": "介護老人福祉施設",
    "capacity": 62,
    "openDays": [],
    "openDaysNote": ""
  },
  {
    "id": "4571500273",
    "name": "特別養護老人ホームめぐみの里",
    "kana": "トクベツヨウゴロウジンホームメグミノサト",
    "address": "宮崎県宮崎市佐土原町東上那珂12809-1",
    "lat": 32.0197853,
    "lng": 131.4341242,
    "tel": "0985-30-5241",
    "url": "https://www.megumi-village.jp",
    "pref": "宮崎県",
    "city": "宮崎市",
    "category": "tokuyou",
    "serviceType": "介護老人福祉施設",
    "capacity": 66,
    "openDays": [],
    "openDaysNote": ""
  },
  {
    "id": "4570100984",
    "name": "特別養護老人ホームリバーサイド学園木花",
    "kana": "トクベツヨウゴロウジンホームリバーサイドガクエンキバナ",
    "address": "宮崎県宮崎市大字鏡洲560番地",
    "lat": 31.8263961,
    "lng": 131.3992797,
    "tel": "0985-55-3210",
    "url": "http://www.riverside-gk.jp/",
    "pref": "宮崎県",
    "city": "宮崎市",
    "category": "tokuyou",
    "serviceType": "介護老人福祉施設",
    "capacity": 0,
    "openDays": [],
    "openDaysNote": ""
  },
  {
    "id": "4571500547",
    "name": "特別養護老人ホームわにつか荘",
    "kana": "トクベツヨウゴロウジンホームワニツカソウ",
    "address": "宮崎県宮崎市田野町乙１７４２番地３０",
    "lat": 31.8379007,
    "lng": 131.2766124,
    "tel": "0985-86-1323",
    "url": "http://www.fukushi-zenjinkai.jp/wanituka/w_index.html",
    "pref": "宮崎県",
    "city": "宮崎市",
    "category": "tokuyou",
    "serviceType": "介護老人福祉施設",
    "capacity": 0,
    "openDays": [],
    "openDaysNote": ""
  },
  {
    "id": "4570100950",
    "name": "特別養護老人ホーム栄光園",
    "kana": "トクベツヨウゴロウジンホームエイコウエン",
    "address": "宮崎県宮崎市古城町柳町5157-1",
    "lat": 31.8941989538523,
    "lng": 131.381443837282,
    "tel": "0985-59-5050",
    "url": "http://miyazaki-chojukai.com/",
    "pref": "宮崎県",
    "city": "宮崎市",
    "category": "tokuyou",
    "serviceType": "介護老人福祉施設",
    "capacity": 0,
    "openDays": [],
    "openDaysNote": ""
  },
  {
    "id": "4570102071",
    "name": "特別養護老人ホーム江南よしみ園",
    "kana": "トクベツヨウゴロウジンホームコウナンヨシミエン",
    "address": "宮崎県宮崎市古城町南川内６７６",
    "lat": 31.8856903086939,
    "lng": 131.402257162136,
    "tel": "0985-64-0688",
    "url": "http://www.kounanyoshimi.com/",
    "pref": "宮崎県",
    "city": "宮崎市",
    "category": "tokuyou",
    "serviceType": "介護老人福祉施設",
    "capacity": 0,
    "openDays": [],
    "openDaysNote": ""
  },
  {
    "id": "4570101008",
    "name": "特別養護老人ホーム皇寿園",
    "kana": "トクベツヨウゴロウジンホームコウジュエン",
    "address": "宮崎県宮崎市阿波岐原町前浜4276番地650",
    "lat": 31.9398452,
    "lng": 131.4625653,
    "tel": "0985-24-8518",
    "url": "http://www.hyugakosei.jp/",
    "pref": "宮崎県",
    "city": "宮崎市",
    "category": "tokuyou",
    "serviceType": "介護老人福祉施設",
    "capacity": 0,
    "openDays": [],
    "openDaysNote": ""
  },
  {
    "id": "4570100935",
    "name": "特別養護老人ホーム三愛園",
    "kana": "トクベツヨウゴロウジンホームサンアイエン",
    "address": "宮崎県宮崎市新別府町前浜１４０１番地２７１",
    "lat": 31.9226045968687,
    "lng": 131.459864527465,
    "tel": "0985-23-5282",
    "url": "http://www.shin-wa-kai.jp/",
    "pref": "宮崎県",
    "city": "宮崎市",
    "category": "tokuyou",
    "serviceType": "介護老人福祉施設",
    "capacity": 0,
    "openDays": [],
    "openDaysNote": ""
  },
  {
    "id": "4571500257",
    "name": "特別養護老人ホーム寿幸園",
    "kana": "トクベツヨウゴロウジンホームジュコウエン",
    "address": "宮崎県宮崎市清武町木原5232番地2",
    "lat": 31.8421003,
    "lng": 131.3995625,
    "tel": "0985-84-2141",
    "url": "http://www.koujikai.com",
    "pref": "宮崎県",
    "city": "宮崎市",
    "category": "tokuyou",
    "serviceType": "介護老人福祉施設",
    "capacity": 0,
    "openDays": [],
    "openDaysNote": ""
  },
  {
    "id": "4570106304",
    "name": "特別養護老人ホーム長生園",
    "kana": "トクベツヨウゴロウジンホームチョウセイエン",
    "address": "宮崎県宮崎市山崎町浜川37番地",
    "lat": 31.9573694286196,
    "lng": 131.465259816036,
    "tel": "0985-39-2560",
    "url": "https://www.choseien.jp",
    "pref": "宮崎県",
    "city": "宮崎市",
    "category": "tokuyou",
    "serviceType": "介護老人福祉施設",
    "capacity": 0,
    "openDays": [],
    "openDaysNote": ""
  },
  {
    "id": "4570100901",
    "name": "特別養護老人ホーム長生園",
    "kana": "トクベツヨウゴロウジンホームチョウセイエン",
    "address": "宮崎県宮崎市山崎町浜川37番地",
    "lat": 31.9573575498797,
    "lng": 131.465256818661,
    "tel": "0985-39-2560",
    "url": "https://www.choseien.jp",
    "pref": "宮崎県",
    "city": "宮崎市",
    "category": "tokuyou",
    "serviceType": "介護老人福祉施設",
    "capacity": 80,
    "openDays": [],
    "openDaysNote": ""
  },
  {
    "id": "4570100968",
    "name": "特別養護老人ホーム芳生苑",
    "kana": "トクベツヨウゴロウジンホームホウセイエン",
    "address": "宮崎県宮崎市大字大瀬町3190",
    "lat": 31.9842369,
    "lng": 131.3794856,
    "tel": "0985-41-0101",
    "url": "http://www.houseien.jp/",
    "pref": "宮崎県",
    "city": "宮崎市",
    "category": "tokuyou",
    "serviceType": "介護老人福祉施設",
    "capacity": 0,
    "openDays": [],
    "openDaysNote": ""
  },
  {
    "id": "4570100919",
    "name": "特別養護老人ホーム悠楽園",
    "kana": "トクベツヨウゴロウジンホームユウラクエン",
    "address": "宮崎県宮崎市大字跡江２３６６番地",
    "lat": 31.9379969,
    "lng": 131.3908067,
    "tel": "0985-47-5377",
    "url": "http://www.ryoundo.or.jp/",
    "pref": "宮崎県",
    "city": "宮崎市",
    "category": "tokuyou",
    "serviceType": "介護老人福祉施設",
    "capacity": 0,
    "openDays": [],
    "openDaysNote": ""
  },
  {
    "id": "4571900036",
    "name": "特別養護老人ホーム裕生園",
    "kana": "トクベツヨウゴロウジンホームユウセイエン",
    "address": "宮崎県宮崎市高岡町内山2407番地3",
    "lat": 31.968258,
    "lng": 131.2952745,
    "tel": "0985-82-0196",
    "url": "http://www.sin-ai-kai.jp",
    "pref": "宮崎県",
    "city": "宮崎市",
    "category": "tokuyou",
    "serviceType": "介護老人福祉施設",
    "capacity": 74,
    "openDays": [],
    "openDaysNote": ""
  },
  {
    "id": "4570108771",
    "name": "特別養護老人ホーム六角堂",
    "kana": "トクベツヨウゴロウジンホームロッカクドウ",
    "address": "宮崎県宮崎市大字島之内7391番地",
    "lat": 31.9837779,
    "lng": 131.4487005,
    "tel": "0985-88-7800",
    "url": "http://www.dojunkai.com",
    "pref": "宮崎県",
    "city": "宮崎市",
    "category": "tokuyou",
    "serviceType": "介護老人福祉施設",
    "capacity": 0,
    "openDays": [],
    "openDaysNote": ""
  },
  {
    "id": "4570700270",
    "name": "特別養護老人ホームゆうゆうの森",
    "kana": "トクベツヨウゴロウジンホームユウユウノモリ",
    "address": "宮崎県串間市大字串間１０９４",
    "lat": 31.496258,
    "lng": 131.2509038,
    "tel": "0987-72-3010",
    "url": "http://www.y-mori.com",
    "pref": "宮崎県",
    "city": "串間市",
    "category": "tokuyou",
    "serviceType": "介護老人福祉施設",
    "capacity": 0,
    "openDays": [],
    "openDaysNote": ""
  },
  {
    "id": "4570700106",
    "name": "特別養護老人ホーム寿楽園",
    "kana": "トクベツヨウゴロウジンホームジュラクエン",
    "address": "宮崎県串間市大字西方4341-1",
    "lat": 31.4701065875047,
    "lng": 131.229379784253,
    "tel": "0987-72-3130",
    "url": "https://kuroshiokai.com",
    "pref": "宮崎県",
    "city": "串間市",
    "category": "tokuyou",
    "serviceType": "介護老人福祉施設",
    "capacity": 0,
    "openDays": [],
    "openDaysNote": ""
  },
  {
    "id": "4570700254",
    "name": "特別養護老人ホーム望洋の郷",
    "kana": "トクベツヨウゴロウジンホームボウヨウノサト",
    "address": "宮崎県串間市大字南方字金谷城4201-1",
    "lat": 31.4645389,
    "lng": 131.2283032,
    "tel": "0987-71-1171",
    "url": "http://www.kuroshiokai.com",
    "pref": "宮崎県",
    "city": "串間市",
    "category": "tokuyou",
    "serviceType": "介護老人福祉施設",
    "capacity": null,
    "openDays": [],
    "openDaysNote": ""
  },
  {
    "id": "4572200139",
    "name": "特別養護老人ホームごかせ荘",
    "kana": "トクベツヨウゴロウジンホームゴカセソウ",
    "address": "宮崎県西臼杵郡五ヶ瀬町大字三ヶ所10725番地1",
    "lat": 32.685289,
    "lng": 131.1989201,
    "tel": "0982-73-5511",
    "url": "",
    "pref": "宮崎県",
    "city": "五ヶ瀬町",
    "category": "tokuyou",
    "serviceType": "介護老人福祉施設",
    "capacity": 0,
    "openDays": [],
    "openDaysNote": ""
  },
  {
    "id": "4571800152",
    "name": "特別養護老人ホーム　ミューズの虹高原",
    "kana": "トクベツヨウゴロウジンホーム　ミューズノニジタカハル",
    "address": "宮崎県西諸県郡高原町大字広原4961-7",
    "lat": 31.9276433999136,
    "lng": 130.994720259665,
    "tel": "0984-42-0605",
    "url": "http://hoshakai.com/",
    "pref": "宮崎県",
    "city": "高原町",
    "category": "tokuyou",
    "serviceType": "介護老人福祉施設",
    "capacity": 50,
    "openDays": [],
    "openDaysNote": ""
  },
  {
    "id": "4572200030",
    "name": "特別養護老人ホーム雲居都荘",
    "kana": "トクベツヨウゴロウジンホームクモイトソウ",
    "address": "宮崎県西臼杵郡高千穂町大字上野１７番地",
    "lat": 32.742048,
    "lng": 131.2998259,
    "tel": "0982-77-1034",
    "url": "http://www.takachiho-tenjyukai.jp/",
    "pref": "宮崎県",
    "city": "高千穂町",
    "category": "tokuyou",
    "serviceType": "介護老人福祉施設",
    "capacity": 0,
    "openDays": [],
    "openDaysNote": ""
  },
  {
    "id": "4572000596",
    "name": "特別養護老人ホーム鈴山荘",
    "kana": "トクベツヨウゴロウジンホームレイザンソウ",
    "address": "宮崎県児湯郡高鍋町大字上江6956番地2",
    "lat": 32.1227847,
    "lng": 131.4775821,
    "tel": "0983-22-0225",
    "url": "",
    "pref": "宮崎県",
    "city": "高鍋町",
    "category": "tokuyou",
    "serviceType": "介護老人福祉施設",
    "capacity": 0,
    "openDays": [],
    "openDaysNote": ""
  },
  {
    "id": "4571900184",
    "name": "特別養護老人ホームさくら苑",
    "kana": "トクベツヨウゴロウジンホームサクラエン",
    "address": "宮崎県東諸県郡国富町大字三名２６２１番地６",
    "lat": 32.0079701,
    "lng": 131.3496446,
    "tel": "0985-75-5213",
    "url": "http://www.keimeisw.or.jp",
    "pref": "宮崎県",
    "city": "国富町",
    "category": "tokuyou",
    "serviceType": "介護老人福祉施設",
    "capacity": 0,
    "openDays": [],
    "openDaysNote": ""
  },
  {
    "id": "4571700337",
    "name": "星空の都みまた",
    "kana": "ホシゾラノミヤコミマタ",
    "address": "宮崎県三股町大字長田1266番地1",
    "lat": 31.7438455,
    "lng": 131.1321916,
    "tel": "0986-52-8455",
    "url": "http://mimata.fujimoto.com",
    "pref": "宮崎県",
    "city": "三股町",
    "category": "tokuyou",
    "serviceType": "介護老人福祉施設",
    "capacity": 0,
    "openDays": [],
    "openDaysNote": ""
  },
  {
    "id": "4571701012",
    "name": "星空の都みまたハーモニー",
    "kana": "ホシゾラノミヤコミマタハーモニー",
    "address": "宮崎県三股町大字長田1266番地1",
    "lat": 31.743513943573,
    "lng": 131.132561002516,
    "tel": "0986-52-8455",
    "url": "http：//mimata.fujimoto.com",
    "pref": "宮崎県",
    "city": "三股町",
    "category": "tokuyou",
    "serviceType": "介護老人福祉施設",
    "capacity": 0,
    "openDays": [],
    "openDaysNote": ""
  },
  {
    "id": "4572100958",
    "name": "特別養護老人ホームもろつかせせらぎの里",
    "kana": "トクベツヨウゴロウジンホームモロツカセセラギノサト",
    "address": "宮崎県東臼杵郡諸塚村大字七ツ山５４番地特別養護老人ホーム　もろつかせせらぎの里 特別養護老人ホーム　もろつかせせらぎの里",
    "lat": 32.4935305,
    "lng": 131.3268308,
    "tel": "0982-65-1222",
    "url": "http://care-net.biz/45/seseragi/",
    "pref": "宮崎県",
    "city": "諸塚村",
    "category": "tokuyou",
    "serviceType": "介護老人福祉施設",
    "capacity": 0,
    "openDays": [],
    "openDaysNote": ""
  },
  {
    "id": "4570500894",
    "name": "ユニット型特別養護老人ホームきりしまの園",
    "kana": "ユニットガタトクベツヨウゴロウジンホームキリシマノソノ",
    "address": "野尻町三ヶ野山４３３６－７４",
    "lat": 31.963678,
    "lng": 131.0776781,
    "tel": "０９８４－４４－３１０８",
    "url": "www.kirisimanosono.com",
    "pref": "宮崎県",
    "city": "小林市",
    "category": "tokuyou",
    "serviceType": "介護老人福祉施設",
    "capacity": 0,
    "openDays": [],
    "openDaysNote": ""
  },
  {
    "id": "4571800053",
    "name": "特別養護老人ホームきりしまの園",
    "kana": "トクベツヨウゴロウジンホームキリシマノソノ",
    "address": "宮崎県小林市野尻町三ヶ野山４３３６番地７４",
    "lat": 31.963678,
    "lng": 131.0776781,
    "tel": "0984-44-3108",
    "url": "www.kirisimanosono.com",
    "pref": "宮崎県",
    "city": "小林市",
    "category": "tokuyou",
    "serviceType": "介護老人福祉施設",
    "capacity": 60,
    "openDays": [],
    "openDaysNote": ""
  },
  {
    "id": "4570500126",
    "name": "特別養護老人ホームひなもり園",
    "kana": "トクベツヨウゴロウジンホームヒナモリエン",
    "address": "宮崎県小林市堤4380番地",
    "lat": 31.9622381,
    "lng": 131.0108248,
    "tel": "0984-23-1478",
    "url": "http://www.tokiwa-kai.or.jp",
    "pref": "宮崎県",
    "city": "小林市",
    "category": "tokuyou",
    "serviceType": "介護老人福祉施設",
    "capacity": 85,
    "openDays": [],
    "openDaysNote": ""
  },
  {
    "id": "4571800020",
    "name": "特別養護老人ホーム美穂の里",
    "kana": "トクベツヨウゴロウジンホームミホノサト",
    "address": "宮崎県小林市北西方937-8",
    "lat": 32.0100376854534,
    "lng": 130.938436398715,
    "tel": "0984-27-3611",
    "url": "http://www.souai-kobayashi.or.jp",
    "pref": "宮崎県",
    "city": "小林市",
    "category": "tokuyou",
    "serviceType": "介護老人福祉施設",
    "capacity": 0,
    "openDays": [],
    "openDaysNote": ""
  },
  {
    "id": "4570500142",
    "name": "特別養護老人ホーム陽光の里",
    "kana": "トクベツヨウゴロウジンホームヨウコウノサト",
    "address": "宮崎県小林市真方5038番地1",
    "lat": 32.0013395,
    "lng": 130.9956548,
    "tel": "0984-23-5666",
    "url": "https://kosumosukai.or.jp",
    "pref": "宮崎県",
    "city": "小林市",
    "category": "tokuyou",
    "serviceType": "介護老人福祉施設",
    "capacity": 0,
    "openDays": [],
    "openDaysNote": ""
  },
  {
    "id": "4570500910",
    "name": "特別養護老人ホーム陽光の里　こもれび",
    "kana": "トクベツヨウゴロウジンホーム　ヨウコウノサト　コモレビ",
    "address": "宮崎県小林市真方5038-1",
    "lat": 32.0013395,
    "lng": 130.9956548,
    "tel": "0984-27-3622",
    "url": "",
    "pref": "宮崎県",
    "city": "小林市",
    "category": "tokuyou",
    "serviceType": "介護老人福祉施設",
    "capacity": 0,
    "openDays": [],
    "openDaysNote": ""
  },
  {
    "id": "4572001362",
    "name": "特別養護老人ﾎｰﾑ　しんとみ希望の里2号館",
    "kana": "トクベツヨウゴロウジンホーム　シントミキボウノサトニゴウカン",
    "address": "宮崎県児湯郡新富町大字下富田629番1",
    "lat": 32.0554368,
    "lng": 131.5000142,
    "tel": "0983-33-4561",
    "url": "www.kouseikai.biz/",
    "pref": "宮崎県",
    "city": "新富町",
    "category": "tokuyou",
    "serviceType": "介護老人福祉施設",
    "capacity": 30,
    "openDays": [],
    "openDaysNote": ""
  },
  {
    "id": "4572000273",
    "name": "特別養護老人ホームしんとみ希望の里",
    "kana": "トクベツヨウゴロウジンホウムシントミキボウノサト",
    "address": "宮崎県児湯郡新富町大字下富田字小島江629番5",
    "lat": 32.0553745793279,
    "lng": 131.499271649026,
    "tel": "0983-33-4561",
    "url": "http://www.kouseikai.biz/",
    "pref": "宮崎県",
    "city": "新富町",
    "category": "tokuyou",
    "serviceType": "介護老人福祉施設",
    "capacity": 54,
    "openDays": [],
    "openDaysNote": ""
  },
  {
    "id": "4570800138",
    "name": "特別養護老人ホームとのこおり荘",
    "kana": "トクベツヨウゴロウジンホームトノコオリソウ",
    "address": "宮崎県西都市大字岩爪１６４５",
    "lat": 32.0451788,
    "lng": 131.384021,
    "tel": "0983-44-6511",
    "url": "",
    "pref": "宮崎県",
    "city": "西都市",
    "category": "tokuyou",
    "serviceType": "介護老人福祉施設",
    "capacity": 0,
    "openDays": [],
    "openDaysNote": ""
  },
  {
    "id": "4570800120",
    "name": "特別養護老人ホーム幸楽荘",
    "kana": "トクベツヨウゴロウジンホームコウラクソウ",
    "address": "宮崎県西都市大字茶臼原字轟941番地1",
    "lat": 32.1401351835682,
    "lng": 131.417483113045,
    "tel": "0983-42-5369",
    "url": "http://www.m-shinwakai.jp/",
    "pref": "宮崎県",
    "city": "西都市",
    "category": "tokuyou",
    "serviceType": "介護老人福祉施設",
    "capacity": 32,
    "openDays": [],
    "openDaysNote": ""
  },
  {
    "id": "4570800609",
    "name": "特別養護老人ホーム幸楽荘花はな館",
    "kana": "トクベツヨウゴロウジンホームコウラクソウハナハナカン",
    "address": "宮崎県西都市大字茶臼原字轟941番地1",
    "lat": 32.1335369753646,
    "lng": 131.424605271994,
    "tel": "0983-42-5369",
    "url": "http://www.m-shinwakai.jp",
    "pref": "宮崎県",
    "city": "西都市",
    "category": "tokuyou",
    "serviceType": "介護老人福祉施設",
    "capacity": 33,
    "openDays": [],
    "openDaysNote": ""
  },
  {
    "id": "4570800351",
    "name": "特別養護老人ホーム三納の里",
    "kana": "トクベツヨウゴロウジンホームミノウノサト",
    "address": "西都市平郡598番地1",
    "lat": 32.0900693,
    "lng": 131.3749495,
    "tel": "0983-41-2311",
    "url": "https://sanseikai-sw.jp",
    "pref": "宮崎県",
    "city": "西都市",
    "category": "tokuyou",
    "serviceType": "介護老人福祉施設",
    "capacity": 0,
    "openDays": [],
    "openDaysNote": ""
  },
  {
    "id": "4572000364",
    "name": "特別養護老人ホーム天包荘",
    "kana": "トクベツヨウゴロウジンホームテンポウソウ",
    "address": "宮崎県児湯郡西米良村大字竹原４３２番地",
    "lat": 32.2410402711695,
    "lng": 131.152069791402,
    "tel": "0983-36-1022",
    "url": "",
    "pref": "宮崎県",
    "city": "西米良村",
    "category": "tokuyou",
    "serviceType": "介護老人福祉施設",
    "capacity": 0,
    "openDays": [],
    "openDaysNote": ""
  },
  {
    "id": "4572001156",
    "name": "特別養護老人ホームフェニックス",
    "kana": "トクベツヨウゴロウジンホームフェニックス",
    "address": "宮崎県児湯郡川南町大字川南17979番地87",
    "lat": 32.2160123,
    "lng": 131.5157851,
    "tel": "0983-27-5911",
    "url": "kawaminami-p.or.jp",
    "pref": "宮崎県",
    "city": "川南町",
    "category": "tokuyou",
    "serviceType": "介護老人福祉施設",
    "capacity": 60,
    "openDays": [],
    "openDaysNote": ""
  },
  {
    "id": "4572000299",
    "name": "特別養護老人ホーム鈴南の里",
    "kana": "トクベツヨウゴロウジンホームスズナミノサト",
    "address": "宮崎県児湯郡川南町大字川南12707番地",
    "lat": 32.2092444,
    "lng": 131.5383581,
    "tel": "0983-27-0969",
    "url": "http://www.suzunaminosato.com/",
    "pref": "宮崎県",
    "city": "川南町",
    "category": "tokuyou",
    "serviceType": "介護老人福祉施設",
    "capacity": 0,
    "openDays": [],
    "openDaysNote": ""
  },
  {
    "id": "4572100966",
    "name": "特別養護老人ホーム平寿園",
    "kana": "トクベツヨウゴロウジンホームヘイジュエン",
    "address": "宮崎県東臼杵郡椎葉村大字下福良５４－３３７",
    "lat": 32.4542209845339,
    "lng": 131.147573343733,
    "tel": "0982-67-2488",
    "url": "",
    "pref": "宮崎県",
    "city": "椎葉村",
    "category": "tokuyou",
    "serviceType": "介護老人福祉施設",
    "capacity": 0,
    "openDays": [],
    "openDaysNote": ""
  },
  {
    "id": "4570200420",
    "name": "星空の都なかごう",
    "kana": "ホシゾラノミヤコナカゴウ",
    "address": "宮崎県都城市豊満町2647",
    "lat": 31.7009318,
    "lng": 131.0948534,
    "tel": "0986-39-1111",
    "url": "http://www.joryokukai.com",
    "pref": "宮崎県",
    "city": "都城市",
    "category": "tokuyou",
    "serviceType": "介護老人福祉施設",
    "capacity": 0,
    "openDays": [],
    "openDaysNote": ""
  },
  {
    "id": "4570203275",
    "name": "星空の都なかごうハーモニー",
    "kana": "ホシゾラノミヤコナカゴウハーモニー",
    "address": "宮崎県都城市豊満町2647",
    "lat": 31.7009318,
    "lng": 131.0948534,
    "tel": "0986-39-1111",
    "url": "http://www.joryokukai.com",
    "pref": "宮崎県",
    "city": "都城市",
    "category": "tokuyou",
    "serviceType": "介護老人福祉施設",
    "capacity": null,
    "openDays": [],
    "openDaysNote": ""
  },
  {
    "id": "4570202525",
    "name": "特別養護老人ホーム　島津乃荘",
    "kana": "トクベツヨウゴロウジンホーム　シマヅノショウ",
    "address": "吉尾町２２００番地1特別養護老人ホーム　島津乃荘 特別養護老人ホーム　島津乃荘",
    "lat": 31.7516658925091,
    "lng": 131.073373845369,
    "tel": "0986-46-2155",
    "url": "http://keiwakaigroup.com/sf/institution/",
    "pref": "宮崎県",
    "city": "都城市",
    "category": "tokuyou",
    "serviceType": "介護老人福祉施設",
    "capacity": 131,
    "openDays": [],
    "openDaysNote": ""
  },
  {
    "id": "4571700360",
    "name": "特別養護老人ホームあさぎり園",
    "kana": "トクベツヨウゴロウジンホームアサギリエン",
    "address": "宮崎県都城市山田町中霧島2546-6",
    "lat": 31.7971356,
    "lng": 131.04584,
    "tel": "0986-64-3621",
    "url": "http//asagirien.jp",
    "pref": "宮崎県",
    "city": "都城市",
    "category": "tokuyou",
    "serviceType": "介護老人福祉施設",
    "capacity": 50,
    "openDays": [],
    "openDaysNote": ""
  },
  {
    "id": "4570200792",
    "name": "特別養護老人ホームほほえみの園",
    "kana": "トクベツヨウゴロウジンホームホホエミノソノ",
    "address": "宮崎県都城市丸谷町4670番地",
    "lat": 31.8114513,
    "lng": 131.0562329,
    "tel": "0986-45-3351",
    "url": "",
    "pref": "宮崎県",
    "city": "都城市",
    "category": "tokuyou",
    "serviceType": "介護老人福祉施設",
    "capacity": 50,
    "openDays": [],
    "openDaysNote": ""
  },
  {
    "id": "4570201642",
    "name": "特別養護老人ホームわかば",
    "kana": "トクベツヨウゴロウジンホームワカバ",
    "address": "宮崎県都城市上長飯町2687番地1",
    "lat": 31.7160137877817,
    "lng": 131.0877862452,
    "tel": "0986-21-6612",
    "url": "http://www.oyd-welfare.jp",
    "pref": "宮崎県",
    "city": "都城市",
    "category": "tokuyou",
    "serviceType": "介護老人福祉施設",
    "capacity": 55,
    "openDays": [],
    "openDaysNote": ""
  },
  {
    "id": "4570200446",
    "name": "特別養護老人ホーム恵寿苑",
    "kana": "トクベツヨウゴロウジンホームケイジュエン",
    "address": "宮崎県都城市太郎坊５６３－１",
    "lat": 31.7891627,
    "lng": 131.0935952,
    "tel": "0986-38-8800",
    "url": "http://www.keijuen.net",
    "pref": "宮崎県",
    "city": "都城市",
    "category": "tokuyou",
    "serviceType": "介護老人福祉施設",
    "capacity": null,
    "openDays": [],
    "openDaysNote": ""
  },
  {
    "id": "4571700378",
    "name": "特別養護老人ホーム高崎苑",
    "kana": "トクベツヨウゴロウジンホームタカサキエン",
    "address": "宮崎県都城市高崎町縄瀬１６２２番地17",
    "lat": 31.8526842,
    "lng": 131.0863321,
    "tel": "0986-62-5005",
    "url": "https://www.kenseikai-takasakien.com",
    "pref": "宮崎県",
    "city": "都城市",
    "category": "tokuyou",
    "serviceType": "介護老人福祉施設",
    "capacity": 0,
    "openDays": [],
    "openDaysNote": ""
  },
  {
    "id": "4571700352",
    "name": "特別養護老人ホーム高城園",
    "kana": "トクベツヨウゴロウジンホームタカジョウエン",
    "address": "宮崎県都城市高城町穂満坊3416番地",
    "lat": 31.8192249,
    "lng": 131.1272084,
    "tel": "0986-58-4550",
    "url": "https://www.takajyouen.jp/",
    "pref": "宮崎県",
    "city": "都城市",
    "category": "tokuyou",
    "serviceType": "介護老人福祉施設",
    "capacity": 50,
    "openDays": [],
    "openDaysNote": ""
  },
  {
    "id": "4570203283",
    "name": "特別養護老人ホーム高城園東館",
    "kana": "トクベツヨウゴロウジンホームタカジョウエンヒガシカン",
    "address": "宮崎県都城市高城町穂満坊3418番地1",
    "lat": 31.8189940646463,
    "lng": 131.127988533977,
    "tel": "0986-58-4581",
    "url": "https://www.takajyouen.jp/",
    "pref": "宮崎県",
    "city": "都城市",
    "category": "tokuyou",
    "serviceType": "介護老人福祉施設",
    "capacity": 0,
    "openDays": [],
    "openDaysNote": ""
  },
  {
    "id": "4570201022",
    "name": "特別養護老人ホーム長遊園",
    "kana": "トクベツヨウゴロウジンホームチョウユウエン",
    "address": "宮崎県都城市高野町２９００番地",
    "lat": 31.8112817,
    "lng": 130.9567489,
    "tel": "0986-45-5151",
    "url": "http://www.kanjikai.or.jp/",
    "pref": "宮崎県",
    "city": "都城市",
    "category": "tokuyou",
    "serviceType": "介護老人福祉施設",
    "capacity": 30,
    "openDays": [],
    "openDaysNote": ""
  },
  {
    "id": "4570200453",
    "name": "特別養護老人ホーム白寿園",
    "kana": "トクベツヨウゴロウジンホームハクジュエン",
    "address": "宮崎県都城市庄内町8673番地",
    "lat": 31.770065,
    "lng": 131.0215215,
    "tel": "0986-37-0887",
    "url": "http://www.mjfj.net/hakujuen/",
    "pref": "宮崎県",
    "city": "都城市",
    "category": "tokuyou",
    "serviceType": "介護老人福祉施設",
    "capacity": 50,
    "openDays": [],
    "openDaysNote": ""
  },
  {
    "id": "4570200438",
    "name": "特別養護老人ホーム豊望園",
    "kana": "トクベツヨウゴロウジンホームホウボウエン",
    "address": "宮崎県都城市安久町4995番地1",
    "lat": 31.7003201,
    "lng": 131.072002,
    "tel": "0986-39-3993",
    "url": "http://www.houei-group.or.jp/",
    "pref": "宮崎県",
    "city": "都城市",
    "category": "tokuyou",
    "serviceType": "介護老人福祉施設",
    "capacity": 100,
    "openDays": [],
    "openDaysNote": ""
  },
  {
    "id": "4571700345",
    "name": "特別養護老人ホーム霧島荘",
    "kana": "トクベツヨウゴロウジンホームキリシマソウ",
    "address": "宮崎県都城市山之口町花木2302-1",
    "lat": 31.7861788,
    "lng": 131.1555739,
    "tel": "0986-57-2165",
    "url": "http://www.m-sj.or.jp/kirishima/",
    "pref": "宮崎県",
    "city": "都城市",
    "category": "tokuyou",
    "serviceType": "介護老人福祉施設",
    "capacity": 0,
    "openDays": [],
    "openDaysNote": ""
  },
  {
    "id": "4572000307",
    "name": "特別養護老人ホーム尾鈴荘",
    "kana": "トクベツヨウゴロウジンホームオスズソウ",
    "address": "宮崎県児湯郡都農町大字川北18912番地10",
    "lat": 32.2773279418891,
    "lng": 131.563006171164,
    "tel": "0983-25-4061",
    "url": "",
    "pref": "宮崎県",
    "city": "都農町",
    "category": "tokuyou",
    "serviceType": "介護老人福祉施設",
    "capacity": 50,
    "openDays": [],
    "openDaysNote": ""
  },
  {
    "id": "4570600363",
    "name": "特別養護老人ホーム伊勢の郷",
    "kana": "トクベツヨウゴロウジンホームイセノサト",
    "address": "宮崎県日向市大字日知屋字深溝622番地116",
    "lat": 32.4155669285475,
    "lng": 131.656257048302,
    "tel": "0982-50-1710",
    "url": "https://hakuyou.or.jp/",
    "pref": "宮崎県",
    "city": "日向市",
    "category": "tokuyou",
    "serviceType": "介護老人福祉施設",
    "capacity": 0,
    "openDays": [],
    "openDaysNote": ""
  },
  {
    "id": "4570600181",
    "name": "特別養護老人ホーム永寿園",
    "kana": "トクベツヨウゴロウジンホームエイジュエン",
    "address": "宮崎県日向市大字富高字岩崎５４６番地１",
    "lat": 32.4206359,
    "lng": 131.6177158,
    "tel": "0982-53-4007",
    "url": "www.himawarikai.or.jp/",
    "pref": "宮崎県",
    "city": "日向市",
    "category": "tokuyou",
    "serviceType": "介護老人福祉施設",
    "capacity": 0,
    "openDays": [],
    "openDaysNote": ""
  },
  {
    "id": "4570601296",
    "name": "特別養護老人ホーム永寿園ユニット館",
    "kana": "トクベツヨウゴロウジンホームエイジュエンユニットカン",
    "address": "宮崎県日向市大字富高５４６番地１",
    "lat": 32.4207975315532,
    "lng": 131.617578889549,
    "tel": "0982-53-4007",
    "url": "https://www.himawarikai.or.jp/",
    "pref": "宮崎県",
    "city": "日向市",
    "category": "tokuyou",
    "serviceType": "介護老人福祉施設",
    "capacity": 0,
    "openDays": [],
    "openDaysNote": ""
  },
  {
    "id": "4572100388",
    "name": "特別養護老人ホーム牧水園",
    "kana": "トクベツヨウゴロウジンホームボクスイエン",
    "address": "宮崎県日向市東郷町山陰丙１４２２－２",
    "lat": 32.3941693,
    "lng": 131.5319882,
    "tel": "0982-69-3355",
    "url": "http://gyokuhou-kai.or.jp/",
    "pref": "宮崎県",
    "city": "日向市",
    "category": "tokuyou",
    "serviceType": "介護老人福祉施設",
    "capacity": 0,
    "openDays": [],
    "openDaysNote": ""
  },
  {
    "id": "4570600199",
    "name": "特別養護老人ホーム立縫の里",
    "kana": "トクベツヨウゴロウジンホームタチヌイノサト",
    "address": "宮崎県日向市美々津町4074番地",
    "lat": 32.3326636,
    "lng": 131.5973872,
    "tel": "0982-58-1100",
    "url": "http://www.tachinuikai.or.jp",
    "pref": "宮崎県",
    "city": "日向市",
    "category": "tokuyou",
    "serviceType": "介護老人福祉施設",
    "capacity": 0,
    "openDays": [],
    "openDaysNote": ""
  },
  {
    "id": "4571600032",
    "name": "特別養護老人ホームくろしおの里",
    "kana": "トクベツヨウゴロウジンホームクロシオノサト",
    "address": "宮崎県日南市南郷町中村乙7051番地111",
    "lat": 31.5216095,
    "lng": 131.3776322,
    "tel": "0987-64-3143",
    "url": "https://kurosionosato.or.jp/",
    "pref": "宮崎県",
    "city": "日南市",
    "category": "tokuyou",
    "serviceType": "介護老人福祉施設",
    "capacity": 60,
    "openDays": [],
    "openDaysNote": ""
  },
  {
    "id": "4570400145",
    "name": "特別養護老人ホームはまゆうの里",
    "kana": "トクベツヨウゴロウジンホームハマユウノサト",
    "address": "宮崎県日南市大字楠原１８４０番地",
    "lat": 31.6179051,
    "lng": 131.3426768,
    "tel": "0987-21-2080",
    "url": "http://tokueikai.lar.jp",
    "pref": "宮崎県",
    "city": "日南市",
    "category": "tokuyou",
    "serviceType": "介護老人福祉施設",
    "capacity": 0,
    "openDays": [],
    "openDaysNote": ""
  },
  {
    "id": "4571600073",
    "name": "特別養護老人ホーム河鹿の里",
    "kana": "トクベツヨウゴロウジンホームカジカノサト",
    "address": "宮崎県日南市北郷町大藤甲３１８６番地１",
    "lat": 31.6577249,
    "lng": 131.3814038,
    "tel": "0987-55-3738",
    "url": "http://www.aisenkai.jp/",
    "pref": "宮崎県",
    "city": "日南市",
    "category": "tokuyou",
    "serviceType": "介護老人福祉施設",
    "capacity": 0,
    "openDays": [],
    "openDaysNote": ""
  },
  {
    "id": "4570401242",
    "name": "特別養護老人ホーム昭寿園サンヒルズ",
    "kana": "トクベツヨウゴロウジンホームショウジュエンサンヒルズ",
    "address": "宮崎県日南市大字風田3224番地",
    "lat": 31.609199,
    "lng": 131.4188503,
    "tel": "0987-23-1045",
    "url": "https://www.shojuen.jp/",
    "pref": "宮崎県",
    "city": "日南市",
    "category": "tokuyou",
    "serviceType": "介護老人福祉施設",
    "capacity": 120,
    "openDays": [],
    "openDaysNote": ""
  },
  {
    "id": "4572200147",
    "name": "特別養護老人ホーム青雲荘",
    "kana": "トクベツヨウゴロウジンホームセイウンソウ",
    "address": "宮崎県西臼杵郡日之影町大字七折8826",
    "lat": 32.660346,
    "lng": 131.382824,
    "tel": "0982-73-7551",
    "url": "",
    "pref": "宮崎県",
    "city": "日之影町",
    "category": "tokuyou",
    "serviceType": "介護老人福祉施設",
    "capacity": 0,
    "openDays": [],
    "openDaysNote": ""
  },
  {
    "id": "4572100016",
    "name": "特別養護老人ホームシルバースターうなまの里",
    "kana": "トクベツヨウゴロウジンホームシルバースターウナマノサト",
    "address": "宮崎県東臼杵郡美郷町北郷宇納間170",
    "lat": 32.5049572,
    "lng": 131.4436881,
    "tel": "0982-62-6155",
    "url": "https://www.unamanosato.jp/",
    "pref": "宮崎県",
    "city": "美郷町",
    "category": "tokuyou",
    "serviceType": "介護老人福祉施設",
    "capacity": null,
    "openDays": [],
    "openDaysNote": ""
  },
  {
    "id": "4572100032",
    "name": "特別養護老人ホーム若宮荘",
    "kana": "トクベツヨウゴロウジンホームワカミヤソウ",
    "address": "宮崎県東臼杵郡美郷町西郷田代2208番地",
    "lat": 32.434251,
    "lng": 131.4240902,
    "tel": "0982-66-2018",
    "url": "http://www.wakamiyaso.jp/",
    "pref": "宮崎県",
    "city": "美郷町",
    "category": "tokuyou",
    "serviceType": "介護老人福祉施設",
    "capacity": 54,
    "openDays": [],
    "openDaysNote": ""
  },
  {
    "id": "4572100446",
    "name": "特別養護老人ホーム百済の園",
    "kana": "トクベツヨウゴロウジンホームクダラノソノ",
    "address": "宮崎県東臼杵郡美郷町南郷神門９６０番地",
    "lat": 32.3855597,
    "lng": 131.3291005,
    "tel": "0982-59-1098",
    "url": "http://www.nangoukai.com/",
    "pref": "宮崎県",
    "city": "美郷町",
    "category": "tokuyou",
    "serviceType": "介護老人福祉施設",
    "capacity": 30,
    "openDays": [],
    "openDaysNote": ""
  },
  {
    "id": "4572000281",
    "name": "特別養護老人ホーム新納荘",
    "kana": "トクベツヨウゴロウジンホームニイロソウ",
    "address": "宮崎県児湯郡木城町大字高城３０７８番地",
    "lat": 32.1667023,
    "lng": 131.4643429,
    "tel": "0983-32-2488",
    "url": "",
    "pref": "宮崎県",
    "city": "木城町",
    "category": "tokuyou",
    "serviceType": "介護老人福祉施設",
    "capacity": 0,
    "openDays": [],
    "openDaysNote": ""
  },
  {
    "id": "4572100370",
    "name": "特別養護老人ホーム大地",
    "kana": "トクベツヨウゴロウジンホームダイチ",
    "address": "宮崎県東臼杵郡門川町大字庵川2596番地2ふれあい地球館ビル ふれあい地球館ビル",
    "lat": 32.4843314,
    "lng": 131.6752229,
    "tel": "0982-68-1188",
    "url": "himawarikai.or.jp",
    "pref": "宮崎県",
    "city": "門川町",
    "category": "tokuyou",
    "serviceType": "介護老人福祉施設",
    "capacity": 0,
    "openDays": [],
    "openDaysNote": ""
  }
]