[
  {
    "id": "1670600111",
    "name": "特別養護老人ホームカモメ荘",
    "kana": "トクベツヨウゴロウジンホームカモメソウ",
    "address": "富山県滑川市吉浦13番地",
    "lat": 36.7925923,
    "lng": 137.3720422,
    "tel": "076-476-5666",
    "url": "https://care-net.biz/16/kouwakai/",
    "pref": "富山県",
    "city": "滑川市",
    "category": "tokuyou",
    "serviceType": "介護老人福祉施設",
    "capacity": null,
    "openDays": [],
    "openDaysNote": ""
  },
  {
    "id": "1670600384",
    "name": "特別養護老人ホームカモメ荘",
    "kana": "トクベツヨウゴロウジンホームカモメソウ",
    "address": "富山県滑川市吉浦13番地",
    "lat": 36.7925923,
    "lng": 137.3720422,
    "tel": "076-476-5666",
    "url": "https://care-net.biz/16/kouwakai/",
    "pref": "富山県",
    "city": "滑川市",
    "category": "tokuyou",
    "serviceType": "介護老人福祉施設",
    "capacity": null,
    "openDays": [],
    "openDaysNote": ""
  },
  {
    "id": "1670600046",
    "name": "特別養護老人ホーム清寿荘",
    "kana": "トクベツヨウゴロウジンホームセイジュソウ",
    "address": "富山県滑川市赤浜５７３番地の１",
    "lat": 36.735293,
    "lng": 137.3640236,
    "tel": "076-475-3600",
    "url": "care-net.biz/16/seijusou",
    "pref": "富山県",
    "city": "滑川市",
    "category": "tokuyou",
    "serviceType": "介護老人福祉施設",
    "capacity": 0,
    "openDays": [],
    "openDaysNote": ""
  },
  {
    "id": "1670400298",
    "name": "特別養護老人ホーム　　あんどの里",
    "kana": "トクベツヨウゴロウジンホーム　　アンドノサト",
    "address": "富山県魚津市仏田3468番地",
    "lat": 36.8418411,
    "lng": 137.4063948,
    "tel": "0765-22-8808",
    "url": "http://www.kaiboufukushi.com/",
    "pref": "富山県",
    "city": "魚津市",
    "category": "tokuyou",
    "serviceType": "介護老人福祉施設",
    "capacity": 50,
    "openDays": [],
    "openDaysNote": ""
  },
  {
    "id": "1670400678",
    "name": "特別養護老人ホーム　あんどの里",
    "kana": "トクベツヨウゴロウジンホーム　アンドノサト",
    "address": "富山県魚津市仏田3468番地",
    "lat": 36.8418411,
    "lng": 137.4063948,
    "tel": "0765-22-8808",
    "url": "http://www.kaiboufukushi.com/",
    "pref": "富山県",
    "city": "魚津市",
    "category": "tokuyou",
    "serviceType": "介護老人福祉施設",
    "capacity": 30,
    "openDays": [],
    "openDaysNote": ""
  },
  {
    "id": "1670400199",
    "name": "特別養護老人ホーム新川ヴィーラ",
    "kana": "トクベツヨウゴロウジンホームニイカワヴィーラ",
    "address": "富山県魚津市大光寺450",
    "lat": 36.8102051,
    "lng": 137.4102184,
    "tel": "0765-24-6126",
    "url": "http://www.niikawa-fukushi.net/",
    "pref": "富山県",
    "city": "魚津市",
    "category": "tokuyou",
    "serviceType": "介護老人福祉施設",
    "capacity": 0,
    "openDays": [],
    "openDaysNote": ""
  },
  {
    "id": "1670400660",
    "name": "特別養護老人ホーム新川ヴィーラ東館・新館ユニット",
    "kana": "トクベツヨウゴロウジンホームニイカワヴィーラヒガシカン・シンカンユニット",
    "address": "富山県魚津市大光寺450番地",
    "lat": 36.8102051,
    "lng": 137.4102184,
    "tel": "0765-24-6126",
    "url": "http://www.niikawa-fukushi.net/",
    "pref": "富山県",
    "city": "魚津市",
    "category": "tokuyou",
    "serviceType": "介護老人福祉施設",
    "capacity": 0,
    "openDays": [],
    "openDaysNote": ""
  },
  {
    "id": "1670202140",
    "name": "ユニット型特別養護老人ホーム　鳳鳴苑",
    "kana": "ユニットガタトクベツヨウゴロウジンホーム　ホウメイエン",
    "address": "富山県高岡市蔵野町３番地",
    "lat": 36.7229736,
    "lng": 136.9781604,
    "tel": "0766-31-4567",
    "url": "http://www.fukuhoukai.jp/",
    "pref": "富山県",
    "city": "高岡市",
    "category": "tokuyou",
    "serviceType": "介護老人福祉施設",
    "capacity": 60,
    "openDays": [],
    "openDaysNote": ""
  },
  {
    "id": "1670201597",
    "name": "志貴野長生寮",
    "kana": "シキノチョウセイリョウ",
    "address": "富山県高岡市滝新21番地1",
    "lat": 36.6778564,
    "lng": 137.0302807,
    "tel": "0766-36-8181",
    "url": "URL:http://www.shikino.or.jp/",
    "pref": "富山県",
    "city": "高岡市",
    "category": "tokuyou",
    "serviceType": "介護老人福祉施設",
    "capacity": 0,
    "openDays": [],
    "openDaysNote": ""
  },
  {
    "id": "1672100102",
    "name": "特別養護老人ホーム　アルテン赤丸",
    "kana": "トクベツヨウゴロウジンホーム　アルテンアカマル",
    "address": "富山県高岡市福岡町赤丸1103番地1",
    "lat": 36.7377992,
    "lng": 136.9323302,
    "tel": "0766-31-5222",
    "url": "http://www.aruten.or.jp/",
    "pref": "富山県",
    "city": "高岡市",
    "category": "tokuyou",
    "serviceType": "介護老人福祉施設",
    "capacity": 0,
    "openDays": [],
    "openDaysNote": ""
  },
  {
    "id": "1690200553",
    "name": "特別養護老人ホーム　だいご苑",
    "kana": "トクベツヨウゴロウジンホーム　ダイゴエン",
    "address": "富山県高岡市醍醐1257番地",
    "lat": 36.6959899880051,
    "lng": 136.962011133799,
    "tel": "0766-62-0010",
    "url": "daigoen@abeam.ocn.ne.jp",
    "pref": "富山県",
    "city": "高岡市",
    "category": "tokuyou",
    "serviceType": "介護老人福祉施設",
    "capacity": 0,
    "openDays": [],
    "openDaysNote": ""
  },
  {
    "id": "1670200292",
    "name": "特別養護老人ホーム　だいご苑",
    "kana": "トクベツヨウゴロウジンホーム　ダイゴエン",
    "address": "富山県高岡市醍醐1257番地",
    "lat": 36.6961986,
    "lng": 136.9616544,
    "tel": "0766-62-0010",
    "url": "http://www.daigoen.com",
    "pref": "富山県",
    "city": "高岡市",
    "category": "tokuyou",
    "serviceType": "介護老人福祉施設",
    "capacity": 80,
    "openDays": [],
    "openDaysNote": ""
  },
  {
    "id": "1670200797",
    "name": "特別養護老人ホーム　ふしき苑",
    "kana": "トクベツヨウゴロウジンホーム　フシキエン",
    "address": "富山県高岡市伏木国分１丁目１０番１０号",
    "lat": 36.8001945,
    "lng": 137.0539238,
    "tel": "0766-44-7878",
    "url": "http://www2.tcnet.ne.jp/fusikien/",
    "pref": "富山県",
    "city": "高岡市",
    "category": "tokuyou",
    "serviceType": "介護老人福祉施設",
    "capacity": 0,
    "openDays": [],
    "openDaysNote": ""
  },
  {
    "id": "1670200433",
    "name": "特別養護老人ホーム　雨晴苑",
    "kana": "トクベツヨウゴロウジンホーム　アマハラシエン",
    "address": "富山県高岡市太田５８番地",
    "lat": 36.8154082,
    "lng": 137.0148648,
    "tel": "0766-44-7370",
    "url": "http://www.amaharashien.jp/",
    "pref": "富山県",
    "city": "高岡市",
    "category": "tokuyou",
    "serviceType": "介護老人福祉施設",
    "capacity": 0,
    "openDays": [],
    "openDaysNote": ""
  },
  {
    "id": "1670200664",
    "name": "特別養護老人ホーム　藤園苑",
    "kana": "トクベツヨウゴロウジンホーム　フジソノエン",
    "address": "富山県高岡市早川390-1",
    "lat": 36.7465688,
    "lng": 136.9882882,
    "tel": "0766-27-8288",
    "url": "http://www.fujisonoen.or.jp/",
    "pref": "富山県",
    "city": "高岡市",
    "category": "tokuyou",
    "serviceType": "介護老人福祉施設",
    "capacity": 50,
    "openDays": [],
    "openDaysNote": ""
  },
  {
    "id": "1670200250",
    "name": "特別養護老人ホーム　鳳鳴苑",
    "kana": "トクベツヨウゴロウジンホーム　ホウメイエン",
    "address": "富山県高岡市蔵野町３番地",
    "lat": 36.7229736,
    "lng": 136.9781604,
    "tel": "0766-31-4567",
    "url": "http://www.fukuhoukai.jp/",
    "pref": "富山県",
    "city": "高岡市",
    "category": "tokuyou",
    "serviceType": "介護老人福祉施設",
    "capacity": 70,
    "openDays": [],
    "openDaysNote": ""
  },
  {
    "id": "1670201688",
    "name": "特別養護老人ホームあさひ苑",
    "kana": "トクベツヨウゴロウジンホームアサヒエン",
    "address": "富山県高岡市角５６１",
    "lat": 36.766045,
    "lng": 137.0372768,
    "tel": "0766-24-8800",
    "url": "http://akanekai.toyama.jp",
    "pref": "富山県",
    "city": "高岡市",
    "category": "tokuyou",
    "serviceType": "介護老人福祉施設",
    "capacity": 90,
    "openDays": [],
    "openDaysNote": ""
  },
  {
    "id": "1670202595",
    "name": "特別養護老人ホームあさひ苑アネックス",
    "kana": "トクベツヨウゴロウジンホームアサヒエンアネックス",
    "address": "鷲北新171番地特別養護老人ホームあさひ苑アネックス 特別養護老人ホームあさひ苑アネックス",
    "lat": 36.76669,
    "lng": 137.0378744,
    "tel": "0766-29-1212",
    "url": "http://akanekai.toyama.jp",
    "pref": "富山県",
    "city": "高岡市",
    "category": "tokuyou",
    "serviceType": "介護老人福祉施設",
    "capacity": 60,
    "openDays": [],
    "openDaysNote": ""
  },
  {
    "id": "1670202413",
    "name": "特別養護老人ホームかがやき",
    "kana": "トクベヨウゴロウジンホーム",
    "address": "富山県高岡市オフィスパーク3番",
    "lat": 36.6691007,
    "lng": 136.9986934,
    "tel": "0766-30-2028",
    "url": "httｐ//haｒukaze‐ｔakaoka.or.jｐ",
    "pref": "富山県",
    "city": "高岡市",
    "category": "tokuyou",
    "serviceType": "介護老人福祉施設",
    "capacity": 60,
    "openDays": [],
    "openDaysNote": ""
  },
  {
    "id": "1670201308",
    "name": "特別養護老人ホームのむら藤園苑",
    "kana": "トクベツヨウゴロウジンホームノムラフジソノエン",
    "address": "富山県高岡市野村921番地1",
    "lat": 36.7507468,
    "lng": 137.0361109,
    "tel": "0766-20-8900",
    "url": "http://www.fujisonoen.jp/",
    "pref": "富山県",
    "city": "高岡市",
    "category": "tokuyou",
    "serviceType": "介護老人福祉施設",
    "capacity": 0,
    "openDays": [],
    "openDaysNote": ""
  },
  {
    "id": "1670201472",
    "name": "特別養護老人ホームはるかぜ",
    "kana": "トクベツヨウゴロウジンホームハルカゼ",
    "address": "富山県高岡市オフィスパーク13番",
    "lat": 36.6720308,
    "lng": 136.9991016,
    "tel": "0766-63-8820",
    "url": "http://www.harukaze-takaoka.or.jp",
    "pref": "富山県",
    "city": "高岡市",
    "category": "tokuyou",
    "serviceType": "介護老人福祉施設",
    "capacity": 0,
    "openDays": [],
    "openDaysNote": ""
  },
  {
    "id": "1670200391",
    "name": "特別養護老人ホーム香野苑",
    "kana": "トクベツヨウゴロウジンホームカノエン",
    "address": "富山県高岡市上渡１６１番地",
    "lat": 36.7296946,
    "lng": 136.9578727,
    "tel": "0766-30-5610",
    "url": "https://tatenofukushikai-kanoen.com",
    "pref": "富山県",
    "city": "高岡市",
    "category": "tokuyou",
    "serviceType": "介護老人福祉施設",
    "capacity": 0,
    "openDays": [],
    "openDaysNote": ""
  },
  {
    "id": "1670200805",
    "name": "特別養護老人ホーム二上万葉苑",
    "kana": "トクベツヨウゴロウジンホームフタガミマンヨウエン",
    "address": "富山県高岡市二上町1004番地",
    "lat": 36.773994,
    "lng": 137.0081146,
    "tel": "0766-25-0808",
    "url": "http://www.imizu-manyoukai.or.jp/",
    "pref": "富山県",
    "city": "高岡市",
    "category": "tokuyou",
    "serviceType": "介護老人福祉施設",
    "capacity": 80,
    "openDays": [],
    "openDaysNote": ""
  },
  {
    "id": "1670700127",
    "name": "特別養護老人ホ－ム越之湖",
    "kana": "トクベツヨウゴロウジンホームコシノコ",
    "address": "富山県黒部市堀切1002番地",
    "lat": 36.8806373,
    "lng": 137.4246572,
    "tel": "0765-57-3511",
    "url": "http://koshinoko.e-294.net/",
    "pref": "富山県",
    "city": "黒部市",
    "category": "tokuyou",
    "serviceType": "介護老人福祉施設",
    "capacity": 0,
    "openDays": [],
    "openDaysNote": ""
  },
  {
    "id": "1671700159",
    "name": "特別養護老人ホームおらはうす宇奈月",
    "kana": "トクベツヨウゴロウジンホームオラハウスウナヅキ",
    "address": "富山県黒部市宇奈月町下立３７番地",
    "lat": 36.8642892,
    "lng": 137.5267138,
    "tel": "0765-65-1180",
    "url": "http://orahausu.jimdo.com/",
    "pref": "富山県",
    "city": "黒部市",
    "category": "tokuyou",
    "serviceType": "介護老人福祉施設",
    "capacity": 0,
    "openDays": [],
    "openDaysNote": ""
  },
  {
    "id": "1670700085",
    "name": "特別養護老人ホーム越野荘",
    "kana": "トクベツヨウゴロウジンホームコシノソウ",
    "address": "富山県黒部市若栗2111",
    "lat": 36.8658266,
    "lng": 137.488287,
    "tel": "0765-54-0622",
    "url": "http://koshinosou.e-294.net",
    "pref": "富山県",
    "city": "黒部市",
    "category": "tokuyou",
    "serviceType": "介護老人福祉施設",
    "capacity": 0,
    "openDays": [],
    "openDaysNote": ""
  },
  {
    "id": "1671900072",
    "name": "特別養護老人ホーム　こぶし園",
    "kana": "トクベツヨウゴロウジンホーム　コブシエン",
    "address": "富山県射水市中村20番地",
    "lat": 36.7229811,
    "lng": 137.0561602,
    "tel": "0766-52-6700",
    "url": "http://www/kobushi-en.com",
    "pref": "富山県",
    "city": "射水市",
    "category": "tokuyou",
    "serviceType": "介護老人福祉施設",
    "capacity": 0,
    "openDays": [],
    "openDaysNote": ""
  },
  {
    "id": "1671100459",
    "name": "特別養護老人ホーム　こぶし園",
    "kana": "トクベツヨウゴロウジンホームコブシエン",
    "address": "富山県射水市中村20番地ひいらぎの杜 ひいらぎの杜",
    "lat": 36.7229811,
    "lng": 137.0561602,
    "tel": "0766-52-6700",
    "url": "http://www.kobushi-en.com/",
    "pref": "富山県",
    "city": "射水市",
    "category": "tokuyou",
    "serviceType": "介護老人福祉施設",
    "capacity": 0,
    "openDays": [],
    "openDaysNote": ""
  },
  {
    "id": "1670300092",
    "name": "特別養護老人ホーム　七美ことぶき苑",
    "kana": "トクベツヨウゴロウジンホーム　シチミコトブキエン",
    "address": "富山県射水市七美８９１番地",
    "lat": 36.7522429,
    "lng": 137.1423728,
    "tel": "0766-86-2500",
    "url": "http://shitimi-kotobukien.com/",
    "pref": "富山県",
    "city": "射水市",
    "category": "tokuyou",
    "serviceType": "介護老人福祉施設",
    "capacity": 0,
    "openDays": [],
    "openDaysNote": ""
  },
  {
    "id": "1670300068",
    "name": "特別養護老人ホーム　射水万葉苑",
    "kana": "トクベツヨウゴロウジンホーム　イミズマンヨウエン",
    "address": "富山県射水市朴木２１１番地の１",
    "lat": 36.759302,
    "lng": 137.0786599,
    "tel": "0766-82-8282",
    "url": "http://www.imizu-manyoukai.or.jp",
    "pref": "富山県",
    "city": "射水市",
    "category": "tokuyou",
    "serviceType": "介護老人福祉施設",
    "capacity": 0,
    "openDays": [],
    "openDaysNote": ""
  },
  {
    "id": "1671100145",
    "name": "特別養護老人ホーム　太閤の杜",
    "kana": "トクベツヨウゴロウジンホーム　タイコウノモリ",
    "address": "富山県射水市中太閤山18丁目1番地の2",
    "lat": 36.6996346,
    "lng": 137.0894661,
    "tel": "0766-56-8727",
    "url": "http://kosugifukusikai.jp",
    "pref": "富山県",
    "city": "射水市",
    "category": "tokuyou",
    "serviceType": "介護老人福祉施設",
    "capacity": 50,
    "openDays": [],
    "openDaysNote": ""
  },
  {
    "id": "1671100467",
    "name": "特別養護老人ホーム　大江苑",
    "kana": "トクベツヨウゴロウジンホーム　オオゴエン",
    "address": "富山県射水市大江３３３番地の1",
    "lat": 36.7283197042109,
    "lng": 137.115194857672,
    "tel": "０７６６-５５-８８８８",
    "url": "http://kosugifukushikai．ｊｐ/",
    "pref": "富山県",
    "city": "射水市",
    "category": "tokuyou",
    "serviceType": "介護老人福祉施設",
    "capacity": 30,
    "openDays": [],
    "openDaysNote": ""
  },
  {
    "id": "1671900098",
    "name": "特別養護老人ホームエスポワールこすぎ",
    "kana": "トクベツヨウゴロウジンホームエスポワールコスギ",
    "address": "富山県射水市池多８２２いけだの里 いけだの里",
    "lat": 36.6849018706265,
    "lng": 137.109837452779,
    "tel": "0766-73-6339",
    "url": "http://kosugihukushikai.jp/",
    "pref": "富山県",
    "city": "射水市",
    "category": "tokuyou",
    "serviceType": "介護老人福祉施設",
    "capacity": null,
    "openDays": [],
    "openDaysNote": ""
  },
  {
    "id": "1671100442",
    "name": "特別養護老人ホームエスポワールこすぎ",
    "kana": "トクベツヨウゴロウジンホームエスポワールコスギ",
    "address": "富山県射水市池多８２２白鳥の里 白鳥の里",
    "lat": 36.6844329616214,
    "lng": 137.10964433373,
    "tel": "0766-73-6339",
    "url": "http://kosugihukushikai.jp/",
    "pref": "富山県",
    "city": "射水市",
    "category": "tokuyou",
    "serviceType": "介護老人福祉施設",
    "capacity": null,
    "openDays": [],
    "openDaysNote": ""
  },
  {
    "id": "1671900239",
    "name": "特別養護老人ホームすずらん",
    "kana": "トクベツヨウゴロウジンホームスズラン",
    "address": "富山県射水市大島北野３３",
    "lat": 36.7445059,
    "lng": 137.0529237,
    "tel": "0766-52-7520",
    "url": "https://suzuran-imizu.jp/",
    "pref": "富山県",
    "city": "射水市",
    "category": "tokuyou",
    "serviceType": "介護老人福祉施設",
    "capacity": 0,
    "openDays": [],
    "openDaysNote": ""
  },
  {
    "id": "1671900114",
    "name": "特別養護老人ホーム大江苑",
    "kana": "トクベツヨウゴロウジンホームオオゴエン",
    "address": "富山県射水市大江３３３番地の１",
    "lat": 36.7283541,
    "lng": 137.1151734,
    "tel": "0766-55-8888",
    "url": "https://kosugifukushikai.jp/oogoen/",
    "pref": "富山県",
    "city": "射水市",
    "category": "tokuyou",
    "serviceType": "介護老人福祉施設",
    "capacity": 50,
    "openDays": [],
    "openDaysNote": ""
  },
  {
    "id": "1671600318",
    "name": "特別養護老人ホーム　ふなはし荘",
    "kana": "トクベツヨウゴロウジンホーム　フナハシソウ",
    "address": "富山県中新川郡舟橋村舟橋５８番地１",
    "lat": 36.709439,
    "lng": 137.3109152,
    "tel": "076-462-9888",
    "url": "http://www.care-net.biz/16/funahashisou/",
    "pref": "富山県",
    "city": "舟橋村",
    "category": "tokuyou",
    "serviceType": "介護老人福祉施設",
    "capacity": null,
    "openDays": [],
    "openDaysNote": ""
  },
  {
    "id": "1671600813",
    "name": "特別養護老人ホームふなはし荘ユニットほっと",
    "kana": "トクベツヨウゴロウジンホームフナハシソウユニットホット",
    "address": "富山県中新川郡舟橋村舟橋58番地1",
    "lat": 36.709439,
    "lng": 137.3109152,
    "tel": "076-462-9888",
    "url": "http://www.care-net.biz/16/funahashisou/",
    "pref": "富山県",
    "city": "舟橋村",
    "category": "tokuyou",
    "serviceType": "介護老人福祉施設",
    "capacity": null,
    "openDays": [],
    "openDaysNote": ""
  },
  {
    "id": "1670900099",
    "name": "特別養護老人ホームほっとはうす千羽",
    "kana": "トクベツヨウゴロウジンホームホットハウスセンバ",
    "address": "富山県小矢部市浅地１２１",
    "lat": 36.6233822,
    "lng": 136.875473,
    "tel": "0766-61-8310",
    "url": "http://www.hot-senba.net/",
    "pref": "富山県",
    "city": "小矢部市",
    "category": "tokuyou",
    "serviceType": "介護老人福祉施設",
    "capacity": 50,
    "openDays": [],
    "openDaysNote": ""
  },
  {
    "id": "1670900537",
    "name": "特別養護老人ホームほっとはうす千羽ふたば館",
    "kana": "トクベツヨウゴロウジンホームホットハウスセンバフタバカン",
    "address": "富山県小矢部市浅地121番地",
    "lat": 36.6233822,
    "lng": 136.875473,
    "tel": "0766－61－8310",
    "url": "http://www.hot-senba.net/",
    "pref": "富山県",
    "city": "小矢部市",
    "category": "tokuyou",
    "serviceType": "介護老人福祉施設",
    "capacity": 0,
    "openDays": [],
    "openDaysNote": ""
  },
  {
    "id": "1670900115",
    "name": "特別養護老人ホーム清楽園",
    "kana": "トクベツヨウゴロウジンホームセイラクエン",
    "address": "富山県小矢部市法楽寺1800番地の1",
    "lat": 36.6946089,
    "lng": 136.8741878,
    "tel": "0766-67-6664",
    "url": "https://seirakuen.site/",
    "pref": "富山県",
    "city": "小矢部市",
    "category": "tokuyou",
    "serviceType": "介護老人福祉施設",
    "capacity": 0,
    "openDays": [],
    "openDaysNote": ""
  },
  {
    "id": "1671600193",
    "name": "特別養護老人ホーム常楽園",
    "kana": "トクベツヨウゴロウジンホウムジョウラクエン",
    "address": "富山県中新川郡上市町舘２０９",
    "lat": 36.6728135,
    "lng": 137.3631477,
    "tel": "076-472-3993",
    "url": "http://www.seimaria.jp/jyorakuen/",
    "pref": "富山県",
    "city": "上市町",
    "category": "tokuyou",
    "serviceType": "介護老人福祉施設",
    "capacity": 80,
    "openDays": [],
    "openDaysNote": ""
  },
  {
    "id": "1671700118",
    "name": "特別養護老人ホーム　有磯苑",
    "kana": "トクベツヨウゴロウジンホーム　アリソエン",
    "address": "富山県下新川郡朝日町泊555番地",
    "lat": 36.9620405,
    "lng": 137.5631932,
    "tel": "0765-82-2200",
    "url": "http://www.arisokai.jp/",
    "pref": "富山県",
    "city": "朝日町",
    "category": "tokuyou",
    "serviceType": "介護老人福祉施設",
    "capacity": 0,
    "openDays": [],
    "openDaysNote": ""
  },
  {
    "id": "1671700522",
    "name": "特別養護老人ホーム　有磯苑（ユニット型）",
    "kana": "トクベツヨウゴロウジンホーム　アリソエン（ユニットガタ）",
    "address": "富山県下新川郡朝日町泊555",
    "lat": 36.9620405,
    "lng": 137.5631932,
    "tel": "0765-82-2200",
    "url": "https://www.arisokai.jp/",
    "pref": "富山県",
    "city": "朝日町",
    "category": "tokuyou",
    "serviceType": "介護老人福祉施設",
    "capacity": 0,
    "openDays": [],
    "openDaysNote": ""
  },
  {
    "id": "1670800299",
    "name": "特別養護老人ホーム　砺波ふれあいの杜",
    "kana": "トクベツヨウゴロウジンホーム　トナミフレアイノモリ",
    "address": "富山県砺波市神島７５６－１",
    "lat": 36.6358074,
    "lng": 136.9393554,
    "tel": "0763-33-0802",
    "url": "http://www.furemori.com",
    "pref": "富山県",
    "city": "砺波市",
    "category": "tokuyou",
    "serviceType": "介護老人福祉施設",
    "capacity": 0,
    "openDays": [],
    "openDaysNote": ""
  },
  {
    "id": "1670800158",
    "name": "特別養護老人ホームやなぜ苑",
    "kana": "トクベツヨウゴロウジンホームヤナゼエン",
    "address": "富山県砺波市柳瀬３番地",
    "lat": 36.6471732,
    "lng": 136.9958472,
    "tel": "0763-32-3050",
    "url": "http://yanaze.org/",
    "pref": "富山県",
    "city": "砺波市",
    "category": "tokuyou",
    "serviceType": "介護老人福祉施設",
    "capacity": null,
    "openDays": [],
    "openDaysNote": ""
  },
  {
    "id": "1672100052",
    "name": "特別養護老人ホーム　やすらぎ荘",
    "kana": "トクベツヨウゴロウジンホーム　ヤスラギソウ",
    "address": "富山県南砺市天池１５７０番地",
    "lat": 36.5452554667631,
    "lng": 136.904051811399,
    "tel": "0763-52-6166",
    "url": "http://fukuju.jp/",
    "pref": "富山県",
    "city": "南砺市",
    "category": "tokuyou",
    "serviceType": "介護老人福祉施設",
    "capacity": 80,
    "openDays": [],
    "openDaysNote": ""
  },
  {
    "id": "1672000146",
    "name": "特別養護老人ホーム　福寿園",
    "kana": "トクベツヨウゴロウジンホーム　フクジュエン",
    "address": "富山県南砺市松原678番地1",
    "lat": 36.5962314,
    "lng": 136.9287433,
    "tel": "0763-22-3556",
    "url": "http://fukuju.jp/",
    "pref": "富山県",
    "city": "南砺市",
    "category": "tokuyou",
    "serviceType": "介護老人福祉施設",
    "capacity": 0,
    "openDays": [],
    "openDaysNote": ""
  },
  {
    "id": "1671000311",
    "name": "特別養護老人ホーム　福寿園",
    "kana": "トクベツヨウゴロウジンホーム　フクジュエン",
    "address": "富山県南砺市松原678番地1",
    "lat": 36.5962314,
    "lng": 136.9287433,
    "tel": "0763-22-3556",
    "url": "http://fukuju.jp/",
    "pref": "富山県",
    "city": "南砺市",
    "category": "tokuyou",
    "serviceType": "介護老人福祉施設",
    "capacity": 0,
    "openDays": [],
    "openDaysNote": ""
  },
  {
    "id": "1672000286",
    "name": "特別養護老人ホームいなみ",
    "kana": "トクベツヨウゴロウジンホームイナミ",
    "address": "富山県南砺市井波1310番地1",
    "lat": 36.5678305,
    "lng": 136.9760731,
    "tel": "0763-82-7040",
    "url": "http//fukuju.jp/",
    "pref": "富山県",
    "city": "南砺市",
    "category": "tokuyou",
    "serviceType": "介護老人福祉施設",
    "capacity": 80,
    "openDays": [],
    "openDaysNote": ""
  },
  {
    "id": "1671000329",
    "name": "特別養護老人ホームきらら",
    "kana": "トクベツヨウゴロウジンホームキララ",
    "address": "富山県南砺市理休247番地1",
    "lat": 36.5121062577294,
    "lng": 136.910321285319,
    "tel": "0763-62-2323",
    "url": "http://fukuju.jp",
    "pref": "富山県",
    "city": "南砺市",
    "category": "tokuyou",
    "serviceType": "介護老人福祉施設",
    "capacity": null,
    "openDays": [],
    "openDaysNote": ""
  },
  {
    "id": "1671700225",
    "name": "特別養護老人ホーム　おあしす新川",
    "kana": "トクベツヨウゴロウジンホーム　オアシスニイカワ",
    "address": "富山県下新川郡入善町上野２８０３",
    "lat": 36.9246901,
    "lng": 137.5023589,
    "tel": "0765-74-0800",
    "url": "http://oasis-niikawa.jp/",
    "pref": "富山県",
    "city": "入善町",
    "category": "tokuyou",
    "serviceType": "介護老人福祉施設",
    "capacity": 0,
    "openDays": [],
    "openDaysNote": ""
  },
  {
    "id": "1671700555",
    "name": "特別養護老人ホーム　おあしす新川　ユニット型",
    "kana": "トクベツヨウゴロウジンホーム　オアシスニイカワ　ユニットガタ",
    "address": "富山県下新川郡入善町上野２８０３",
    "lat": 36.924679,
    "lng": 137.5024838,
    "tel": "0765-74-0800",
    "url": "http://oasis-niikawa.jp/",
    "pref": "富山県",
    "city": "入善町",
    "category": "tokuyou",
    "serviceType": "介護老人福祉施設",
    "capacity": 0,
    "openDays": [],
    "openDaysNote": ""
  },
  {
    "id": "1671700126",
    "name": "特別養護老人ホーム舟見寿楽苑",
    "kana": "トクベツヨウゴロウジンホームフナミジュラクエン",
    "address": "富山県下新川郡入善町舟見１６６４番地",
    "lat": 36.8779188,
    "lng": 137.5595303,
    "tel": "0765-78-1935",
    "url": "http://www.funamijurakuen.jp/",
    "pref": "富山県",
    "city": "入善町",
    "category": "tokuyou",
    "serviceType": "介護老人福祉施設",
    "capacity": 0,
    "openDays": [],
    "openDaysNote": ""
  },
  {
    "id": "1670500295",
    "name": "特別養護老人ホーム　ほのぼの苑",
    "kana": "トクベツヨウゴロウジンホーム　ホノボノエン",
    "address": "富山県氷見市加納495-1",
    "lat": 36.8625246,
    "lng": 136.9716821,
    "tel": "0766-74-7500",
    "url": "http://www.hakuju-kai.jp/",
    "pref": "富山県",
    "city": "氷見市",
    "category": "tokuyou",
    "serviceType": "介護老人福祉施設",
    "capacity": 0,
    "openDays": [],
    "openDaysNote": ""
  },
  {
    "id": "1670500097",
    "name": "特別養護老人ホームすわ苑",
    "kana": "トクベツヨウゴロウジンホームスワエン",
    "address": "富山県氷見市柳田字諏訪野3892番地の1",
    "lat": 36.8299775,
    "lng": 136.9943557,
    "tel": "0766-91-2627",
    "url": "https://himifukushikai.com/",
    "pref": "富山県",
    "city": "氷見市",
    "category": "tokuyou",
    "serviceType": "介護老人福祉施設",
    "capacity": 72,
    "openDays": [],
    "openDaysNote": ""
  },
  {
    "id": "1670500089",
    "name": "特別養護老人ホームつまま園",
    "kana": "トクベツヨウゴロウジンホームツママエン",
    "address": "氷見市阿尾４１０番地",
    "lat": 36.887549,
    "lng": 136.9809856,
    "tel": "0766-72-4165",
    "url": "https://himifukushikai.com/",
    "pref": "富山県",
    "city": "氷見市",
    "category": "tokuyou",
    "serviceType": "介護老人福祉施設",
    "capacity": 0,
    "openDays": [],
    "openDaysNote": ""
  },
  {
    "id": "1670500683",
    "name": "特別養護老人ホームつまま園　たぶの里",
    "kana": "トクベツヨウゴロウジンホームツママエンタブノサト",
    "address": "阿尾４１０番地",
    "lat": 36.887549,
    "lng": 136.9809856,
    "tel": "0766-72-4165",
    "url": "https://himifukushikai.com/",
    "pref": "富山県",
    "city": "氷見市",
    "category": "tokuyou",
    "serviceType": "介護老人福祉施設",
    "capacity": 0,
    "openDays": [],
    "openDaysNote": ""
  },
  {
    "id": "1670500139",
    "name": "特別養護老人ホームはまなす苑氷見",
    "kana": "トクベツヨウゴロウジンホームハマナスエンヒミ",
    "address": "富山県氷見市島尾791番地",
    "lat": 36.8240264,
    "lng": 137.0106345,
    "tel": "0766-91-7700",
    "url": "https://www.hamanasu-himi.jp/",
    "pref": "富山県",
    "city": "氷見市",
    "category": "tokuyou",
    "serviceType": "介護老人福祉施設",
    "capacity": 0,
    "openDays": [],
    "openDaysNote": ""
  },
  {
    "id": "1670500428",
    "name": "特別養護老人ホーム氷見苑",
    "kana": "トクベツヨウゴロウジンホームヒミエン",
    "address": "富山県氷見市薮田2063番地",
    "lat": 36.8929735,
    "lng": 136.9977587,
    "tel": "0766-72-8900",
    "url": "https://www.himien.jp/",
    "pref": "富山県",
    "city": "氷見市",
    "category": "tokuyou",
    "serviceType": "介護老人福祉施設",
    "capacity": 0,
    "openDays": [],
    "openDaysNote": ""
  },
  {
    "id": "1670114493",
    "name": "アルペンハイツ",
    "kana": "アルペンハイツ",
    "address": "小西170",
    "lat": 36.7247758,
    "lng": 137.2578361,
    "tel": "076-451-1000",
    "url": "http://www.alpen.or.jp",
    "pref": "富山県",
    "city": "富山市",
    "category": "tokuyou",
    "serviceType": "介護老人福祉施設",
    "capacity": 0,
    "openDays": [],
    "openDaysNote": ""
  },
  {
    "id": "1670104213",
    "name": "ながれすぎ光風苑",
    "kana": "ナガレスギコウフウエン",
    "address": "富山市流杉７７番地",
    "lat": 36.6587632,
    "lng": 137.2720925,
    "tel": "076-424-7005",
    "url": "https://koufuukai.jp",
    "pref": "富山県",
    "city": "富山市",
    "category": "tokuyou",
    "serviceType": "介護老人福祉施設",
    "capacity": 0,
    "openDays": [],
    "openDaysNote": ""
  },
  {
    "id": "1670100641",
    "name": "にながわ光風苑",
    "kana": "ニナガワコウフウエン",
    "address": "富山市蜷川89番地",
    "lat": 36.6442948,
    "lng": 137.2104041,
    "tel": "076-429-7474",
    "url": "https://www.koufuukai.jp/",
    "pref": "富山県",
    "city": "富山市",
    "category": "tokuyou",
    "serviceType": "介護老人福祉施設",
    "capacity": 0,
    "openDays": [],
    "openDaysNote": ""
  },
  {
    "id": "1670100773",
    "name": "特別養護老人ホ－ム梨雲苑",
    "kana": "トクベツヨウゴロウジンホームリウンエン",
    "address": "富山県富山市吉作1725番地",
    "lat": 36.7122291,
    "lng": 137.1532702,
    "tel": "076-436-2002",
    "url": "http://www.riunen.com.",
    "pref": "富山県",
    "city": "富山市",
    "category": "tokuyou",
    "serviceType": "介護老人福祉施設",
    "capacity": 0,
    "openDays": [],
    "openDaysNote": ""
  },
  {
    "id": "1670102621",
    "name": "特別養護老人ホーム　あすなろの郷",
    "kana": "トクベツヨウゴロウジンホーム　アスナロノサト",
    "address": "富山市下新北町6-45",
    "lat": 36.717002,
    "lng": 137.2201223,
    "tel": "076-433-8800",
    "url": "http://www.asunaronosato.jp",
    "pref": "富山県",
    "city": "富山市",
    "category": "tokuyou",
    "serviceType": "介護老人福祉施設",
    "capacity": 70,
    "openDays": [],
    "openDaysNote": ""
  },
  {
    "id": "1670103819",
    "name": "特別養護老人ホーム　くれは苑",
    "kana": "トクベツヨウゴロウジンホーム　クレハエン",
    "address": "富山県富山市中老田845番地",
    "lat": 36.6999579,
    "lng": 137.1302142,
    "tel": "076-436-7805",
    "url": "http://www.youkou-fukushikai.or.jp/kurehaen/",
    "pref": "富山県",
    "city": "富山市",
    "category": "tokuyou",
    "serviceType": "介護老人福祉施設",
    "capacity": 70,
    "openDays": [],
    "openDaysNote": ""
  },
  {
    "id": "1671500179",
    "name": "特別養護老人ホーム　ささづ苑",
    "kana": "トクベツヨウゴロウジンホーム　ササヅエン",
    "address": "富山市下タ林141",
    "lat": 36.5633484,
    "lng": 137.2054348,
    "tel": "076-467-1000",
    "url": "https://osawano.com",
    "pref": "富山県",
    "city": "富山市",
    "category": "tokuyou",
    "serviceType": "介護老人福祉施設",
    "capacity": 0,
    "openDays": [],
    "openDaysNote": ""
  },
  {
    "id": "1670100831",
    "name": "特別養護老人ホーム　しらいわ苑",
    "kana": "トクベツヨウゴロウジンホーム　シライワエン",
    "address": "富山県富山市水橋新堀17-1",
    "lat": 36.7148715,
    "lng": 137.3041768,
    "tel": "076-479-2080",
    "url": "http://www.nijinokai.net/index.html",
    "pref": "富山県",
    "city": "富山市",
    "category": "tokuyou",
    "serviceType": "介護老人福祉施設",
    "capacity": 0,
    "openDays": [],
    "openDaysNote": ""
  },
  {
    "id": "1670103306",
    "name": "特別養護老人ホーム　ソレイユ",
    "kana": "トクベツヨウゴロウジンホーム　ソレイユ",
    "address": "富山県富山市下堀50-6",
    "lat": 36.6625096,
    "lng": 137.2284157,
    "tel": "076-425-6200",
    "url": "http://www.t-soleil.jp/",
    "pref": "富山県",
    "city": "富山市",
    "category": "tokuyou",
    "serviceType": "介護老人福祉施設",
    "capacity": 0,
    "openDays": [],
    "openDaysNote": ""
  },
  {
    "id": "1670112976",
    "name": "特別養護老人ホーム　たちばな荘",
    "kana": "トクベツヨウゴロウジンホームタチバナソウ",
    "address": "富山県富山市八尾町奥田79番地",
    "lat": 36.61825529088,
    "lng": 137.131490423296,
    "tel": "076-461-4580",
    "url": "http://keiju-kai.jp/",
    "pref": "富山県",
    "city": "富山市",
    "category": "tokuyou",
    "serviceType": "介護老人福祉施設",
    "capacity": 0,
    "openDays": [],
    "openDaysNote": ""
  },
  {
    "id": "1671800090",
    "name": "特別養護老人ホーム　のりみね苑",
    "kana": "トクベツヨウゴロウジンホーム　ノリミネエン",
    "address": "富山市八尾町乗嶺546番地",
    "lat": 36.555632,
    "lng": 137.1182346,
    "tel": "076-454-5350",
    "url": "http://keiju-kai.jp/",
    "pref": "富山県",
    "city": "富山市",
    "category": "tokuyou",
    "serviceType": "介護老人福祉施設",
    "capacity": null,
    "openDays": [],
    "openDaysNote": ""
  },
  {
    "id": "1670101888",
    "name": "特別養護老人ホーム　ふなん苑",
    "kana": "トクベツヨウゴロウジンホ-ム　フナンエン",
    "address": "富山市石屋237",
    "lat": 36.6525803,
    "lng": 137.2576967,
    "tel": "076-422-1200",
    "url": "http://www.funankai.jp/",
    "pref": "富山県",
    "city": "富山市",
    "category": "tokuyou",
    "serviceType": "介護老人福祉施設",
    "capacity": 80,
    "openDays": [],
    "openDaysNote": ""
  },
  {
    "id": "1671800355",
    "name": "特別養護老人ホーム　ふるさと敬寿苑",
    "kana": "トクベツヨウゴロウジンホーム　フルサトケイジュエン",
    "address": "富山県富山市婦中町羽根１０９２番２",
    "lat": 36.659941,
    "lng": 137.1405192,
    "tel": "076-469-1000",
    "url": "http://www.toyamajonankai.mutsumi-gr.jp/",
    "pref": "富山県",
    "city": "富山市",
    "category": "tokuyou",
    "serviceType": "介護老人福祉施設",
    "capacity": 0,
    "openDays": [],
    "openDaysNote": ""
  },
  {
    "id": "1671800140",
    "name": "特別養護老人ホーム　喜寿苑",
    "kana": "トクベツヨウゴロウジンホーム　キジュエン",
    "address": "富山県富山市婦中町塚原122番地",
    "lat": 36.6596672,
    "lng": 137.1844566,
    "tel": "076-466-3773",
    "url": "http://kijuen.or.jp",
    "pref": "富山県",
    "city": "富山市",
    "category": "tokuyou",
    "serviceType": "介護老人福祉施設",
    "capacity": 0,
    "openDays": [],
    "openDaysNote": ""
  },
  {
    "id": "1670100419",
    "name": "特別養護老人ホーム　三寿苑",
    "kana": "トクベツヨウゴロウジンホーム　サンジュエン",
    "address": "富山市大島3丁目147番地",
    "lat": 36.6740811,
    "lng": 137.2780304,
    "tel": "076-492-3081",
    "url": "http://www.sanjukai.jp/",
    "pref": "富山県",
    "city": "富山市",
    "category": "tokuyou",
    "serviceType": "介護老人福祉施設",
    "capacity": 100,
    "openDays": [],
    "openDaysNote": ""
  },
  {
    "id": "1671800397",
    "name": "特別養護老人ホーム　椿寿荘",
    "kana": "トクベツヨウゴロウジンホームチンジュソウ",
    "address": "富山県富山市八尾町奥田80番地",
    "lat": 36.6186518,
    "lng": 137.1311624,
    "tel": "076-455-3805",
    "url": "http://keiju-kai.jp/",
    "pref": "富山県",
    "city": "富山市",
    "category": "tokuyou",
    "serviceType": "介護老人福祉施設",
    "capacity": 50,
    "openDays": [],
    "openDaysNote": ""
  },
  {
    "id": "1670100690",
    "name": "特別養護老人ホーム　白光苑",
    "kana": "トクベツヨウゴロウジンホーム　ビャッコウエン",
    "address": "富山市山岸95番地",
    "lat": 36.7184513,
    "lng": 137.2019972,
    "tel": "076-433-8881",
    "url": "http://www.byakkouen.jp/",
    "pref": "富山県",
    "city": "富山市",
    "category": "tokuyou",
    "serviceType": "介護老人福祉施設",
    "capacity": 0,
    "openDays": [],
    "openDaysNote": ""
  },
  {
    "id": "1670100484",
    "name": "特別養護老人ホームすみれ苑",
    "kana": "トクベツヨウゴロウジンホームスミレエン",
    "address": "富山県富山市横越180番地",
    "lat": 36.7515253,
    "lng": 137.2837831,
    "tel": "076-437-6225",
    "url": "http://www.sumireen.jp",
    "pref": "富山県",
    "city": "富山市",
    "category": "tokuyou",
    "serviceType": "介護老人福祉施設",
    "capacity": 0,
    "openDays": [],
    "openDaysNote": ""
  },
  {
    "id": "1670114501",
    "name": "特別養護老人ホームすみれ苑",
    "kana": "トクベツヨウゴロウジンホームスミレエン",
    "address": "富山県富山市横越180番地",
    "lat": 36.7510215,
    "lng": 137.2838607,
    "tel": "076-437-6225",
    "url": "http://www.sumireen.jp",
    "pref": "富山県",
    "city": "富山市",
    "category": "tokuyou",
    "serviceType": "介護老人福祉施設",
    "capacity": null,
    "openDays": [],
    "openDaysNote": ""
  },
  {
    "id": "1671500187",
    "name": "特別養護老人ホームはなさき苑",
    "kana": "トクベツヨウゴロウジンホームハナサキエン",
    "address": "富山県富山市花崎80番地",
    "lat": 36.6100076,
    "lng": 137.2798627,
    "tel": "076-483-3111",
    "url": "http://www.hanasakien.or.jp",
    "pref": "富山県",
    "city": "富山市",
    "category": "tokuyou",
    "serviceType": "介護老人福祉施設",
    "capacity": 0,
    "openDays": [],
    "openDaysNote": ""
  },
  {
    "id": "1670112752",
    "name": "特別養護老人ホーム喜寿苑",
    "kana": "トクベツヨウゴロウジンホームキジュエン",
    "address": "富山県富山市婦中町塚原122番地",
    "lat": 36.6596672,
    "lng": 137.1844566,
    "tel": "076-466-3773",
    "url": "http://kijuen.or.jp",
    "pref": "富山県",
    "city": "富山市",
    "category": "tokuyou",
    "serviceType": "介護老人福祉施設",
    "capacity": 0,
    "openDays": [],
    "openDaysNote": ""
  },
  {
    "id": "1670100500",
    "name": "特別養護老人ホーム敬寿苑",
    "kana": "トクベツヨウゴロウジンホームケイジュエン",
    "address": "富山市今泉西部町１番地３",
    "lat": 36.673905,
    "lng": 137.2091452,
    "tel": "076-491-0066",
    "url": "http://www.toyamajonankai.jp/keijuen/",
    "pref": "富山県",
    "city": "富山市",
    "category": "tokuyou",
    "serviceType": "介護老人福祉施設",
    "capacity": 0,
    "openDays": [],
    "openDaysNote": ""
  },
  {
    "id": "1670100591",
    "name": "特別養護老人ホーム晴風荘",
    "kana": "トクベツヨウゴロウジンホームセイフウソウ",
    "address": "富山県富山市水橋辻",
    "lat": 36.7459844,
    "lng": 137.2978486,
    "tel": "076-478-3681",
    "url": "http://seifusou.e-294.net/",
    "pref": "富山県",
    "city": "富山市",
    "category": "tokuyou",
    "serviceType": "介護老人福祉施設",
    "capacity": 0,
    "openDays": [],
    "openDaysNote": ""
  },
  {
    "id": "1671500138",
    "name": "特別養護老人ホーム太陽苑",
    "kana": "トクベツヨウゴロウジンホームタイヨウエン",
    "address": "富山県富山市新村８７番地２",
    "lat": 36.6179227,
    "lng": 137.2148738,
    "tel": "076-467-0777",
    "url": "http://taiyouen１０１０.com/",
    "pref": "富山県",
    "city": "富山市",
    "category": "tokuyou",
    "serviceType": "介護老人福祉施設",
    "capacity": 50,
    "openDays": [],
    "openDaysNote": ""
  },
  {
    "id": "1670112661",
    "name": "特別養護老人ホーム梨雲苑ゆうゆう",
    "kana": "トクベツヨウゴロウジンンホームリウンエンユウユウ",
    "address": "富山県富山市野口南部121",
    "lat": 36.7133539405888,
    "lng": 137.152827663368,
    "tel": "076-436-6541",
    "url": "http://www.riunen.com",
    "pref": "富山県",
    "city": "富山市",
    "category": "tokuyou",
    "serviceType": "介護老人福祉施設",
    "capacity": 0,
    "openDays": [],
    "openDaysNote": ""
  },
  {
    "id": "1670100815",
    "name": "特別養護老人ホーム和合ハイツ",
    "kana": "トクベツヨウゴロウジンホームワゴウハイツ",
    "address": "富山市布目1966番地1",
    "lat": 36.7468618,
    "lng": 137.1904314,
    "tel": "076-435-3336",
    "url": "http://wagoufukusikai.com",
    "pref": "富山県",
    "city": "富山市",
    "category": "tokuyou",
    "serviceType": "介護老人福祉施設",
    "capacity": 80,
    "openDays": [],
    "openDaysNote": ""
  },
  {
    "id": "1671600227",
    "name": "特別養護老人ホーム竜ヶ浜荘",
    "kana": "トクベツヨウゴロウジンホームリュウガハマソウ",
    "address": "富山県中新川郡立山町末上野字竜ケ浜119番地",
    "lat": 36.650802494154,
    "lng": 137.334818246033,
    "tel": "076-462-2600",
    "url": "http://www.ryugahama.jp",
    "pref": "富山県",
    "city": "立山町",
    "category": "tokuyou",
    "serviceType": "介護老人福祉施設",
    "capacity": 0,
    "openDays": [],
    "openDaysNote": ""
  }
]