[
  {
    "id": "672300266",
    "name": "特別養護老人ホーム眺葉園",
    "kana": "トクベツヨウゴロウジンホームチョウヨウエン",
    "address": "山形県西村山郡河北町谷地字東680番地",
    "lat": 38.4247272263989,
    "lng": 140.322809744042,
    "tel": "0237-73-3890",
    "url": "http://www.tyoyoen.jp",
    "pref": "山形県",
    "city": "河北町",
    "category": "tokuyou",
    "serviceType": "介護老人福祉施設",
    "capacity": 60,
    "openDays": [],
    "openDaysNote": ""
  },
  {
    "id": "672300605",
    "name": "特別養護老人ホーム眺葉園",
    "kana": "トクベツヨウゴロウジンホームチョウヨウエン",
    "address": "山形県西村山郡河北町谷地字東680番地",
    "lat": 38.4247440368803,
    "lng": 140.322782921951,
    "tel": "0237-73-3890",
    "url": "http://www.tyoyoen.jp",
    "pref": "山形県",
    "city": "河北町",
    "category": "tokuyou",
    "serviceType": "介護老人福祉施設",
    "capacity": 40,
    "openDays": [],
    "openDaysNote": ""
  },
  {
    "id": "671200699",
    "name": "ユニット型特別養護老人ホーム長生園",
    "kana": "ユニットガタトクベツヨウゴロウジンホームチョウセイエン",
    "address": "山形県寒河江市大字柴橋2246番地の1",
    "lat": 38.3697883,
    "lng": 140.2543364,
    "tel": "0237-86-8868",
    "url": "https://www.chouseien.or.jp/",
    "pref": "山形県",
    "city": "寒河江市",
    "category": "tokuyou",
    "serviceType": "介護老人福祉施設",
    "capacity": 32,
    "openDays": [],
    "openDaysNote": ""
  },
  {
    "id": "671200368",
    "name": "特別養護老人ホーム　しらいわ",
    "kana": "トクベツヨウゴロウジンホーム　シライワ",
    "address": "山形県寒河江市大字白岩６３２４番地",
    "lat": 38.4099113,
    "lng": 140.2200383,
    "tel": "0237-87-5111",
    "url": "https://www.sagae-yuuyuukai.org/",
    "pref": "山形県",
    "city": "寒河江市",
    "category": "tokuyou",
    "serviceType": "介護老人福祉施設",
    "capacity": 0,
    "openDays": [],
    "openDaysNote": ""
  },
  {
    "id": "671200145",
    "name": "特別養護老人ホーム　長生園",
    "kana": "トクベツヨウゴロウジンホーム　チョウセイエン",
    "address": "寒河江市大字柴橋２２４６－１",
    "lat": 38.3697503,
    "lng": 140.2544496,
    "tel": "0237-86-8868",
    "url": "http://www.chouseien.or.jp",
    "pref": "山形県",
    "city": "寒河江市",
    "category": "tokuyou",
    "serviceType": "介護老人福祉施設",
    "capacity": 50,
    "openDays": [],
    "openDaysNote": ""
  },
  {
    "id": "671200152",
    "name": "特別養護老人ホームいずみ",
    "kana": "トクベツヨウゴロウジンホームイズミ",
    "address": "山形県寒河江市字上河原２４１番地",
    "lat": 38.4004807,
    "lng": 140.2788826,
    "tel": "0237-86-8880",
    "url": "http://www.sagae-yuuyuukai.org",
    "pref": "山形県",
    "city": "寒河江市",
    "category": "tokuyou",
    "serviceType": "介護老人福祉施設",
    "capacity": 0,
    "openDays": [],
    "openDaysNote": ""
  },
  {
    "id": "672500303",
    "name": "特別養護老人ホーム「みすぎ荘」",
    "kana": "トクベツヨウゴロウジンホーム「ミスギソウ」",
    "address": "山形県最上郡金山町大字金山字荒屋829番地1",
    "lat": 38.8777591,
    "lng": 140.317889,
    "tel": "0233-52-3300",
    "url": "https://www.kaneyamakouseikai.or.jp/",
    "pref": "山形県",
    "city": "金山町",
    "category": "tokuyou",
    "serviceType": "介護老人福祉施設",
    "capacity": 0,
    "openDays": [],
    "openDaysNote": ""
  },
  {
    "id": "672500402",
    "name": "特別養護老人ホ－ム　まごころ荘",
    "kana": "トクベツヨウゴロウジンホーム　マゴコロソウ",
    "address": "山形県最上郡戸沢村大字蔵岡２７５９番地",
    "lat": 38.7350822,
    "lng": 140.1744565,
    "tel": "0233-34-7011",
    "url": "http://www.seiryu-magokoro.or.jp/",
    "pref": "山形県",
    "city": "戸沢村",
    "category": "tokuyou",
    "serviceType": "介護老人福祉施設",
    "capacity": 80,
    "openDays": [],
    "openDaysNote": ""
  },
  {
    "id": "672600376",
    "name": "特別養護老人ホーム　たかはた荘",
    "kana": "トクベツヨウゴロウジンホーム　タカハタソウ",
    "address": "山形県東置賜郡高畠町大字高畠３０３番地の１",
    "lat": 38.0007004,
    "lng": 140.190549,
    "tel": "0238-52-5550",
    "url": "http://www.shoufukai.net/",
    "pref": "山形県",
    "city": "高畠町",
    "category": "tokuyou",
    "serviceType": "介護老人福祉施設",
    "capacity": 80,
    "openDays": [],
    "openDaysNote": ""
  },
  {
    "id": "672600095",
    "name": "特別養護老人ホーム　はとみね荘",
    "kana": "トクベツヨウゴロウジンホーム　ハトミネソウ",
    "address": "山形県東置賜郡高畠町大字高畠303番地",
    "lat": 38.0002755,
    "lng": 140.1904212,
    "tel": "0238-51-0001",
    "url": "http://www.shoufukai.net/",
    "pref": "山形県",
    "city": "高畠町",
    "category": "tokuyou",
    "serviceType": "介護老人福祉施設",
    "capacity": 0,
    "openDays": [],
    "openDaysNote": ""
  },
  {
    "id": "672600061",
    "name": "特別養護老人ホームまほろば荘",
    "kana": "トクベツヨウゴロウジンホームマホロバソウ",
    "address": "山形県東置賜郡高畠町大字福沢705-1",
    "lat": 37.9958165,
    "lng": 140.1542236,
    "tel": "0238-57-5000",
    "url": "https://www.shoufukai.net/",
    "pref": "山形県",
    "city": "高畠町",
    "category": "tokuyou",
    "serviceType": "介護老人福祉施設",
    "capacity": 80,
    "openDays": [],
    "openDaysNote": ""
  },
  {
    "id": "672500360",
    "name": "特別養護老人ホーム　紅梅荘",
    "kana": "トクベツヨウゴロウジンホーム　コウバイソウ",
    "address": "山形県最上郡最上町大字向町73番地の3",
    "lat": 38.7522881794224,
    "lng": 140.515395355038,
    "tel": "0233-43-3661",
    "url": "http://www.koubaisou.or.jp/",
    "pref": "山形県",
    "city": "最上町",
    "category": "tokuyou",
    "serviceType": "介護老人福祉施設",
    "capacity": 50,
    "openDays": [],
    "openDaysNote": ""
  },
  {
    "id": "672500865",
    "name": "特別養護老人ホーム紅梅荘（ユニット型）",
    "kana": "トクベツヨウゴロウジンホーム　コウバイソウ　（ユニットガタ）",
    "address": "山形県最上郡最上町大字向町73-3",
    "lat": 38.7522806490593,
    "lng": 140.515374970315,
    "tel": "0233-43-3661",
    "url": "http://www.koubaisou.or.jp/index.php",
    "pref": "山形県",
    "city": "最上町",
    "category": "tokuyou",
    "serviceType": "介護老人福祉施設",
    "capacity": 40,
    "openDays": [],
    "openDaysNote": ""
  },
  {
    "id": "672500394",
    "name": "特別養護老人ホームひめゆり荘",
    "kana": "トクベツヨウゴロウジンホームヒメユリソウ",
    "address": "山形県最上郡鮭川村大字石名坂５８９番７",
    "lat": 38.835377,
    "lng": 140.2874183,
    "tel": "0233-55-3480",
    "url": "",
    "pref": "山形県",
    "city": "鮭川村",
    "category": "tokuyou",
    "serviceType": "介護老人福祉施設",
    "capacity": 80,
    "openDays": [],
    "openDaysNote": ""
  },
  {
    "id": "673000352",
    "name": "指定介護老人福祉施設特別養護老人ホームなの花荘",
    "kana": "シテイカイゴロウジンフクシシセツトクベツヨウゴロウジンホームナノハナソウ",
    "address": "山形県東田川郡三川町大字横山字堤189番地2",
    "lat": 38.7817436,
    "lng": 139.8493075,
    "tel": "0235-66-4831",
    "url": "https://www.nanohanaso.or.jp",
    "pref": "山形県",
    "city": "三川町",
    "category": "tokuyou",
    "serviceType": "介護老人福祉施設",
    "capacity": 60,
    "openDays": [],
    "openDaysNote": ""
  },
  {
    "id": "670100734",
    "name": "指定介護老人福祉施設　ながまち荘",
    "kana": "シテイカイゴロウジンフクシシセツ　ナガマチソウ",
    "address": "山形市長町751番地",
    "lat": 38.2907628,
    "lng": 140.3338601,
    "tel": "023-684-2391",
    "url": "http://www.yamagata-saiseikai.org",
    "pref": "山形県",
    "city": "山形市",
    "category": "tokuyou",
    "serviceType": "介護老人福祉施設",
    "capacity": 0,
    "openDays": [],
    "openDaysNote": ""
  },
  {
    "id": "670100726",
    "name": "指定介護老人福祉施設みこころの園",
    "kana": "シテイカイゴロウジンフクシシセツミココロノソノ",
    "address": "山形県山形市大字沼木字下河原1129-1",
    "lat": 38.2507336302572,
    "lng": 140.285307104507,
    "tel": "023-644-7571",
    "url": "http://www.mikokoronosono.or.jp",
    "pref": "山形県",
    "city": "山形市",
    "category": "tokuyou",
    "serviceType": "介護老人福祉施設",
    "capacity": 84,
    "openDays": [],
    "openDaysNote": ""
  },
  {
    "id": "670100759",
    "name": "指定介護老人福祉施設菅沢荘",
    "kana": "シテイカイゴロウジンフクシシセツスゲサワソウ",
    "address": "山形市すげさわの丘４６番地",
    "lat": 38.2265453,
    "lng": 140.2676733,
    "tel": "023-646-1160",
    "url": "https://yamagatashi-sj.or.jp/",
    "pref": "山形県",
    "city": "山形市",
    "category": "tokuyou",
    "serviceType": "介護老人福祉施設",
    "capacity": 0,
    "openDays": [],
    "openDaysNote": ""
  },
  {
    "id": "670100783",
    "name": "特別養護老人ホーム　サンシャイン大森",
    "kana": "トクベツヨウゴロウジンホーム　サンシャインオオモリ",
    "address": "山形市大字大森２１３９番地１",
    "lat": 38.3069126,
    "lng": 140.3865776,
    "tel": "023-685-1225",
    "url": "http://s-oomori.jp/",
    "pref": "山形県",
    "city": "山形市",
    "category": "tokuyou",
    "serviceType": "介護老人福祉施設",
    "capacity": 0,
    "openDays": [],
    "openDaysNote": ""
  },
  {
    "id": "670100718",
    "name": "特別養護老人ホーム　愛日荘",
    "kana": "トクベツヨウゴロウジンホーム　アイニチソウ",
    "address": "山形県山形市大字妙見寺４番地",
    "lat": 38.2406166,
    "lng": 140.38119,
    "tel": "023-632-2791",
    "url": "http://www.yamagata-saiseikai.org",
    "pref": "山形県",
    "city": "山形市",
    "category": "tokuyou",
    "serviceType": "介護老人福祉施設",
    "capacity": 90,
    "openDays": [],
    "openDaysNote": ""
  },
  {
    "id": "670103282",
    "name": "特別養護老人ホーム　山静寿",
    "kana": "トクベツヨウゴロウジンホーム　サンセイジュ",
    "address": "山形市大字沼木字下河原１１３３－１",
    "lat": 38.252385,
    "lng": 140.283966,
    "tel": "023-646-3410",
    "url": "http://www.yamagata-saiseikai.org.",
    "pref": "山形県",
    "city": "山形市",
    "category": "tokuyou",
    "serviceType": "介護老人福祉施設",
    "capacity": 100,
    "openDays": [],
    "openDaysNote": ""
  },
  {
    "id": "670100791",
    "name": "特別養護老人ホーム　七日町こまくさ園",
    "kana": "トクベツヨウゴロウジンホーム　ナノカマチコマクサエン",
    "address": "山形市七日町四丁目５番２０号",
    "lat": 38.2529225,
    "lng": 140.3448985,
    "tel": "023-628-6000",
    "url": "http://www.nanokamachikomakusaen.or.jp",
    "pref": "山形県",
    "city": "山形市",
    "category": "tokuyou",
    "serviceType": "介護老人福祉施設",
    "capacity": 0,
    "openDays": [],
    "openDaysNote": ""
  },
  {
    "id": "670100742",
    "name": "特別養護老人ホーム　蔵王やすらぎの里",
    "kana": "トクベツヨウゴロウジンホーム　ザオウヤスラギノサト",
    "address": "山形県山形市蔵王上野920番地",
    "lat": 38.1759214,
    "lng": 140.3168542,
    "tel": "023-688-7022",
    "url": "http://care-net.biz/06/z-yasuragi/",
    "pref": "山形県",
    "city": "山形市",
    "category": "tokuyou",
    "serviceType": "介護老人福祉施設",
    "capacity": 0,
    "openDays": [],
    "openDaysNote": ""
  },
  {
    "id": "670100767",
    "name": "特別養護老人ホームいきいきの郷",
    "kana": "トクベツヨウゴロウジンホームイキイキノサト",
    "address": "山形市大字成安４２５番地２",
    "lat": 38.3233565,
    "lng": 140.3110423,
    "tel": "023-681-4765",
    "url": "https://kagayakinokai.or.jp/",
    "pref": "山形県",
    "city": "山形市",
    "category": "tokuyou",
    "serviceType": "介護老人福祉施設",
    "capacity": 100,
    "openDays": [],
    "openDaysNote": ""
  },
  {
    "id": "670103530",
    "name": "特別養護老人ホームさくらホーム山形",
    "kana": "トクベツヨウゴロウジンホームサクラホームヤマガタ",
    "address": "山形市嶋北三丁目14番24号",
    "lat": 38.2908403,
    "lng": 140.3195336,
    "tel": "023-674-7303",
    "url": "http://www.sakura-welfare.jp/",
    "pref": "山形県",
    "city": "山形市",
    "category": "tokuyou",
    "serviceType": "介護老人福祉施設",
    "capacity": 80,
    "openDays": [],
    "openDaysNote": ""
  },
  {
    "id": "670100775",
    "name": "特別養護老人ホームとかみ共生苑",
    "kana": "トクベツヨウゴロウジンホームトカミキョウセイエン",
    "address": "山形県山形市富神前6番地",
    "lat": 38.237519,
    "lng": 140.2633399,
    "tel": "023-646-5050",
    "url": "http:www.ｙ-shiminfukushikai.org/.",
    "pref": "山形県",
    "city": "山形市",
    "category": "tokuyou",
    "serviceType": "介護老人福祉施設",
    "capacity": 0,
    "openDays": [],
    "openDaysNote": ""
  },
  {
    "id": "670101047",
    "name": "特別養護老人ホームなごみの里",
    "kana": "トクベツヨウゴロウジンホームナゴミノサト",
    "address": "山形県山形市吉原三丁目10番8号",
    "lat": 38.2305487,
    "lng": 140.3068169,
    "tel": "023-647-8871",
    "url": "http://www.jifukai.org",
    "pref": "山形県",
    "city": "山形市",
    "category": "tokuyou",
    "serviceType": "介護老人福祉施設",
    "capacity": 0,
    "openDays": [],
    "openDaysNote": ""
  },
  {
    "id": "670103563",
    "name": "特別養護老人ホームみはらしの丘",
    "kana": "トクベツヨウゴロウジンホームミハラシノオカ",
    "address": "山形市みはらしの丘四丁目15番地3",
    "lat": 38.1822123986287,
    "lng": 140.289921721582,
    "tel": "023-688-3854",
    "url": "https://www.yuuai-kai.or.jp/",
    "pref": "山形県",
    "city": "山形市",
    "category": "tokuyou",
    "serviceType": "介護老人福祉施設",
    "capacity": 0,
    "openDays": [],
    "openDaysNote": ""
  },
  {
    "id": "670103688",
    "name": "特別養護老人ホーム福寿乃郷",
    "kana": "トクベツヨウゴロウジンホームフクジュノサト",
    "address": "山形県山形市飯田二丁目7番30号",
    "lat": 38.2166517779371,
    "lng": 140.326883447746,
    "tel": "023－625－5212",
    "url": "http://www.fukujukai.jp/",
    "pref": "山形県",
    "city": "山形市",
    "category": "tokuyou",
    "serviceType": "介護老人福祉施設",
    "capacity": 100,
    "openDays": [],
    "openDaysNote": ""
  },
  {
    "id": "670101740",
    "name": "六日町あいあい　特別養護老人ホーム",
    "kana": "ムイカマチアイアイ　トクベツヨウゴロウジンホーム",
    "address": "山形市六日町２番７号",
    "lat": 38.2604744,
    "lng": 140.3406848,
    "tel": "023-641-8421",
    "url": "https://aiai-yamagata.org/",
    "pref": "山形県",
    "city": "山形市",
    "category": "tokuyou",
    "serviceType": "介護老人福祉施設",
    "capacity": 0,
    "openDays": [],
    "openDaysNote": ""
  },
  {
    "id": "672200151",
    "name": "指定介護老人福祉施設やまのべ荘",
    "kana": "シテイカイゴロウジンフクシシセツヤマノベソウ",
    "address": "山形県東村山郡山辺町大字大塚８１４番地２",
    "lat": 38.2788934,
    "lng": 140.2746131,
    "tel": "023-665-7891",
    "url": "http://www.yamagata-saiseikai.org",
    "pref": "山形県",
    "city": "山辺町",
    "category": "tokuyou",
    "serviceType": "介護老人福祉施設",
    "capacity": 0,
    "openDays": [],
    "openDaysNote": ""
  },
  {
    "id": "670800416",
    "name": "特別養護老人ホーム　かたばみ荘",
    "kana": "トクベツヨウゴロウジンホーム　カタバミソウ",
    "address": "山形県酒田市北千日堂前字松境18番1",
    "lat": 38.9366504,
    "lng": 139.8345286,
    "tel": "0234-35-1451",
    "url": "https://www.katabamisou.jp/",
    "pref": "山形県",
    "city": "酒田市",
    "category": "tokuyou",
    "serviceType": "介護老人福祉施設",
    "capacity": 0,
    "openDays": [],
    "openDaysNote": ""
  },
  {
    "id": "670800390",
    "name": "特別養護老人ホーム　サン・シティ",
    "kana": "トクベツヨウゴロウジンホーム　サン・シティ",
    "address": "山形県酒田市曙町二丁目26番地の1",
    "lat": 38.9195529,
    "lng": 139.8643658,
    "tel": "0234-26-7788",
    "url": "http://www4.ocn.ne.jp/~suncity",
    "pref": "山形県",
    "city": "酒田市",
    "category": "tokuyou",
    "serviceType": "介護老人福祉施設",
    "capacity": 0,
    "openDays": [],
    "openDaysNote": ""
  },
  {
    "id": "670800382",
    "name": "特別養護老人ホーム　芙蓉荘",
    "kana": "トクベツヨウゴロウジンホーム　フヨウソウ",
    "address": "山形県酒田市宮野浦3-20-1",
    "lat": 38.9141242,
    "lng": 139.8112616,
    "tel": "0234-31-2525",
    "url": "http://www.koufukai.or.jp",
    "pref": "山形県",
    "city": "酒田市",
    "category": "tokuyou",
    "serviceType": "介護老人福祉施設",
    "capacity": 0,
    "openDays": [],
    "openDaysNote": ""
  },
  {
    "id": "673200259",
    "name": "特別養護老人ホームさくらホーム",
    "kana": "トクベツヨウゴロウジンホーム　サクラホーム",
    "address": "山形県酒田市中牧田字丸福171番地",
    "lat": 38.87521,
    "lng": 139.9395763,
    "tel": "0234-62-2941",
    "url": "http://www.sakura-welfare.jp/",
    "pref": "山形県",
    "city": "酒田市",
    "category": "tokuyou",
    "serviceType": "介護老人福祉施設",
    "capacity": null,
    "openDays": [],
    "openDaysNote": ""
  },
  {
    "id": "670800911",
    "name": "特別養護老人ホームさくらホーム広野",
    "kana": "トクベツヨウゴロウジンホーム　サクラホームヒロノ",
    "address": "山形県酒田市広野字末広１０２－１",
    "lat": 38.84888,
    "lng": 139.8472742,
    "tel": "0234-91-1233",
    "url": "http://www.sakura-welfare.jp/",
    "pref": "山形県",
    "city": "酒田市",
    "category": "tokuyou",
    "serviceType": "介護老人福祉施設",
    "capacity": 0,
    "openDays": [],
    "openDaysNote": ""
  },
  {
    "id": "670800408",
    "name": "特別養護老人ホームライフケア黒森",
    "kana": "トクベツヨウゴロウジンホームライフケアクロモリ",
    "address": "山形県酒田市黒森字葭葉山54番10",
    "lat": 38.8530683,
    "lng": 139.8171768,
    "tel": "0234-92-3355",
    "url": "http://syokaku-lc.com",
    "pref": "山形県",
    "city": "酒田市",
    "category": "tokuyou",
    "serviceType": "介護老人福祉施設",
    "capacity": 0,
    "openDays": [],
    "openDaysNote": ""
  },
  {
    "id": "673200242",
    "name": "特別養護老人ホーム幸楽荘",
    "kana": "トクベツヨウゴロウジンホームコウラクソウ",
    "address": "山形県酒田市小泉字前田50番地",
    "lat": 38.9693143,
    "lng": 139.9353164,
    "tel": "0234-64-3711",
    "url": "http://www.kourakusou/.or.jp",
    "pref": "山形県",
    "city": "酒田市",
    "category": "tokuyou",
    "serviceType": "介護老人福祉施設",
    "capacity": 80,
    "openDays": [],
    "openDaysNote": ""
  },
  {
    "id": "673200267",
    "name": "特別養護老人ホーム寿康園",
    "kana": "トクベツヨウゴロウジンホームジュコウエン",
    "address": "山形県酒田市楢橋字大柳3番地1",
    "lat": 38.8923249,
    "lng": 139.9502753,
    "tel": "0234-52-3413",
    "url": "www.hirata.or.jp/",
    "pref": "山形県",
    "city": "酒田市",
    "category": "tokuyou",
    "serviceType": "介護老人福祉施設",
    "capacity": 36,
    "openDays": [],
    "openDaysNote": ""
  },
  {
    "id": "670801737",
    "name": "特別養護老人ホーム寿康園",
    "kana": "トクベツヨウゴロウジンホームジュコウエン",
    "address": "山形県酒田市楢橋字大柳３番地１",
    "lat": 38.8923249,
    "lng": 139.9502753,
    "tel": "0234-52-3413",
    "url": "www.hirata.or.jp/",
    "pref": "山形県",
    "city": "酒田市",
    "category": "tokuyou",
    "serviceType": "介護老人福祉施設",
    "capacity": 44,
    "openDays": [],
    "openDaysNote": ""
  },
  {
    "id": "672500220",
    "name": "特別養護老人ホーム　えんじゅ荘",
    "kana": "トクベツヨウゴロウジンホーム　エンジュソウ",
    "address": "山形県最上郡舟形町長者原1712－1",
    "lat": 38.7001534817149,
    "lng": 140.299236625348,
    "tel": "0233-32-3550",
    "url": "http://shuwakai.jp/",
    "pref": "山形県",
    "city": "舟形町",
    "category": "tokuyou",
    "serviceType": "介護老人福祉施設",
    "capacity": 0,
    "openDays": [],
    "openDaysNote": ""
  },
  {
    "id": "672700150",
    "name": "特別養護老人ホームさいわい荘",
    "kana": "トクベツヨウゴロウジンホームサイワイソウ",
    "address": "山形県西置賜郡小国町大字岩井沢563番地1",
    "lat": 38.0582974,
    "lng": 139.7536692,
    "tel": "0238-62-3821",
    "url": "https://saiwaiso.jp/",
    "pref": "山形県",
    "city": "小国町",
    "category": "tokuyou",
    "serviceType": "介護老人福祉施設",
    "capacity": 0,
    "openDays": [],
    "openDaysNote": ""
  },
  {
    "id": "673000311",
    "name": "特別養護老人ホームソラーナ",
    "kana": "トクベツヨウゴロウジンホームソラーナ",
    "address": "山形県東田川郡庄内町南野字北野100-2",
    "lat": 38.8160276,
    "lng": 139.9420983,
    "tel": "0234-44-2011",
    "url": "http://www.minori-f.or.jp/",
    "pref": "山形県",
    "city": "庄内町",
    "category": "tokuyou",
    "serviceType": "介護老人福祉施設",
    "capacity": 0,
    "openDays": [],
    "openDaysNote": ""
  },
  {
    "id": "673000303",
    "name": "特別養護老人ホーム山水園",
    "kana": "トクベツヨウゴロウジンホームサンスイエン",
    "address": "山形県東田川郡庄内町狩川字笠山４３３番地３",
    "lat": 38.7823987,
    "lng": 139.9681306,
    "tel": "0234-56-3522",
    "url": "https://www.tk-kouseikai.or.jp/",
    "pref": "山形県",
    "city": "庄内町",
    "category": "tokuyou",
    "serviceType": "介護老人福祉施設",
    "capacity": 80,
    "openDays": [],
    "openDaysNote": ""
  },
  {
    "id": "671300200",
    "name": "特別養護老人ホームみずほの里",
    "kana": "トクベツヨウゴロウジンホームミズホノサト",
    "address": "山形県上山市牧野字清水２１－１",
    "lat": 38.1158696,
    "lng": 140.3016313,
    "tel": "023-674-3388",
    "url": "http://miyuki-fukushi.jp/",
    "pref": "山形県",
    "city": "上山市",
    "category": "tokuyou",
    "serviceType": "介護老人福祉施設",
    "capacity": 80,
    "openDays": [],
    "openDaysNote": ""
  },
  {
    "id": "671300150",
    "name": "特別養護老人ホーム蓬仙園",
    "kana": "トクベツヨウゴロウジンホームホウセンエン",
    "address": "山形県上山市金谷字藤木2401",
    "lat": 38.1646261269342,
    "lng": 140.300364633357,
    "tel": "023-679-2366",
    "url": "http://kaijukai.jp",
    "pref": "山形県",
    "city": "上山市",
    "category": "tokuyou",
    "serviceType": "介護老人福祉施設",
    "capacity": 0,
    "openDays": [],
    "openDaysNote": ""
  },
  {
    "id": "671100139",
    "name": "特別養護老人ホーム　新寿荘",
    "kana": "トクベツヨウゴロウジンホーム　シンジュソウ",
    "address": "新庄市大字本合海字福田界２６４５番地",
    "lat": 38.7650154,
    "lng": 140.3016084,
    "tel": "0233-26-2316",
    "url": "http://www.shinjyukai.or.jp/",
    "pref": "山形県",
    "city": "新庄市",
    "category": "tokuyou",
    "serviceType": "介護老人福祉施設",
    "capacity": 0,
    "openDays": [],
    "openDaysNote": ""
  },
  {
    "id": "671100287",
    "name": "特別養護老人ホーム「かつろくの里」",
    "kana": "トクベツヨウゴロウジンホーム「カツロクノサト」",
    "address": "山形県新庄市金沢字西ノ山3027-10",
    "lat": 38.7729627,
    "lng": 140.3374027,
    "tel": "0233-28-7870",
    "url": "https://katsuroku.jp",
    "pref": "山形県",
    "city": "新庄市",
    "category": "tokuyou",
    "serviceType": "介護老人福祉施設",
    "capacity": 0,
    "openDays": [],
    "openDaysNote": ""
  },
  {
    "id": "671101129",
    "name": "特別養護老人ホーム「かつろくの里」（ユニット型）",
    "kana": "トクベツヨウゴロウジンホーム「カツロクノサト」（ユニットガタ）",
    "address": "山形県新庄市金沢字西ノ山3027-10",
    "lat": 38.7729627,
    "lng": 140.3374027,
    "tel": "0233-28-7870",
    "url": "",
    "pref": "山形県",
    "city": "新庄市",
    "category": "tokuyou",
    "serviceType": "介護老人福祉施設",
    "capacity": 0,
    "openDays": [],
    "openDaysNote": ""
  },
  {
    "id": "671101111",
    "name": "特別養護老人ホーム「みどりの大地」",
    "kana": "トクベツヨウゴロウジンホームミドリノダイチ",
    "address": "山形県新庄市沖の町1-20",
    "lat": 38.7638225828163,
    "lng": 140.304277360713,
    "tel": "0233-32-0535",
    "url": "ｈｔｔｐｓ：//ｋａｔｓｕｒｏｋｕ.ｊｐ/ｄａｉｃｈｉ.ｈｔｍｌ",
    "pref": "山形県",
    "city": "新庄市",
    "category": "tokuyou",
    "serviceType": "介護老人福祉施設",
    "capacity": 0,
    "openDays": [],
    "openDaysNote": ""
  },
  {
    "id": "672500444",
    "name": "特別養護老人ホーム「悠悠」",
    "kana": "トクベツヨウゴロウジンホーム「ユウユウ」",
    "address": "山形県最上郡真室川町大字新町４６９番５",
    "lat": 38.8514722182844,
    "lng": 140.24774661842,
    "tel": "0233-62-3431",
    "url": "",
    "pref": "山形県",
    "city": "真室川町",
    "category": "tokuyou",
    "serviceType": "介護老人福祉施設",
    "capacity": 0,
    "openDays": [],
    "openDaysNote": ""
  },
  {
    "id": "672500378",
    "name": "特別養護老人ホーム福寿荘",
    "kana": "トクベツヨウゴロウジンホームフクジュソウ",
    "address": "山形県最上郡真室川町大字木ノ下1101番１",
    "lat": 38.8636527,
    "lng": 140.2404458,
    "tel": "0233-62-2396",
    "url": "",
    "pref": "山形県",
    "city": "真室川町",
    "category": "tokuyou",
    "serviceType": "介護老人福祉施設",
    "capacity": 0,
    "openDays": [],
    "openDaysNote": ""
  },
  {
    "id": "672300274",
    "name": "特別養護老人ホームケアハイツ西川",
    "kana": "トクベツヨウゴロウジンホームケアハイツニシカワ",
    "address": "山形県西村山郡西川町大字海味548",
    "lat": 38.4268296,
    "lng": 140.1461473,
    "tel": "0237-74-4065",
    "url": "https://care-h-n.or.jp/",
    "pref": "山形県",
    "city": "西川町",
    "category": "tokuyou",
    "serviceType": "介護老人福祉施設",
    "capacity": 0,
    "openDays": [],
    "openDaysNote": ""
  },
  {
    "id": "672600152",
    "name": "特別養護老人ホームそよ風の森",
    "kana": "トクベツヨウゴロウジンホームソヨカゼノモリ",
    "address": "山形県東置賜郡川西町大字時田　1417番地特別養護老人ホーム　　そよ風の森 特別養護老人ホーム　　そよ風の森",
    "lat": 37.9846291,
    "lng": 140.0637246,
    "tel": "0238-46-2121",
    "url": "https://soyokazenomori.jp/",
    "pref": "山形県",
    "city": "川西町",
    "category": "tokuyou",
    "serviceType": "介護老人福祉施設",
    "capacity": 0,
    "openDays": [],
    "openDaysNote": ""
  },
  {
    "id": "671400232",
    "name": "特別養護老人ホームひがしざわ",
    "kana": "トクベツヨウゴロウジンホームヒガシザワ",
    "address": "山形県村山市楯岡笛田二丁目１９番５７号",
    "lat": 38.4794836,
    "lng": 140.4036616,
    "tel": "0237-52-1511",
    "url": "http://kjg-net.jp/",
    "pref": "山形県",
    "city": "村山市",
    "category": "tokuyou",
    "serviceType": "介護老人福祉施設",
    "capacity": 0,
    "openDays": [],
    "openDaysNote": ""
  },
  {
    "id": "671400117",
    "name": "特別養護老人ホームふもと",
    "kana": "トクベツヨウゴロウジンホームフモト",
    "address": "村山市大字湯野沢956番地の3",
    "lat": 38.4621504,
    "lng": 140.3071552,
    "tel": "0237-54-2010",
    "url": "http://murayama-hikari-kouseikai.jp/",
    "pref": "山形県",
    "city": "村山市",
    "category": "tokuyou",
    "serviceType": "介護老人福祉施設",
    "capacity": 0,
    "openDays": [],
    "openDaysNote": ""
  },
  {
    "id": "672300308",
    "name": "特別養護老人ホームらふらんす大江",
    "kana": "トクベツヨウゴロウジンホームラフランスオオエ",
    "address": "山形県西村山郡大江町大字左沢１２７７番地",
    "lat": 38.3843888,
    "lng": 140.200496,
    "tel": "0237-83-4800",
    "url": "http://care-net.biz/06/lafrance-ooe/",
    "pref": "山形県",
    "city": "大江町",
    "category": "tokuyou",
    "serviceType": "介護老人福祉施設",
    "capacity": 92,
    "openDays": [],
    "openDaysNote": ""
  },
  {
    "id": "672300290",
    "name": "特別養護老人ホーム大寿荘",
    "kana": "トクベツヨウゴロウジンホームダイジュソウ",
    "address": "山形県西村山郡大江町大字藤田８３９－１",
    "lat": 38.3639111,
    "lng": 140.2057495,
    "tel": "0237-62-4328",
    "url": "https://www.ysj.or.jp",
    "pref": "山形県",
    "city": "大江町",
    "category": "tokuyou",
    "serviceType": "介護老人福祉施設",
    "capacity": 100,
    "openDays": [],
    "openDaysNote": ""
  },
  {
    "id": "672400041",
    "name": "特別養護老人ホーム仁風荘",
    "kana": "トクベツヨウゴロウジンホームジンプウソウ",
    "address": "山形県北村山郡大石田町大字大石田甲574番地",
    "lat": 38.599229933401,
    "lng": 140.376070212195,
    "tel": "0237-35-2126",
    "url": "https://keitennkai.or.jp",
    "pref": "山形県",
    "city": "大石田町",
    "category": "tokuyou",
    "serviceType": "介護老人福祉施設",
    "capacity": 54,
    "openDays": [],
    "openDaysNote": ""
  },
  {
    "id": "672400090",
    "name": "特別養護老人ホーム第二仁風荘",
    "kana": "トクベツヨウゴロウジンホームダイニジンプウソウ",
    "address": "山形県北村山郡大石田町大字大石田甲574",
    "lat": 38.5991963938129,
    "lng": 140.375984381506,
    "tel": "0237-35-2126",
    "url": "https://keitennkai.or.jp",
    "pref": "山形県",
    "city": "大石田町",
    "category": "tokuyou",
    "serviceType": "介護老人福祉施設",
    "capacity": 30,
    "openDays": [],
    "openDaysNote": ""
  },
  {
    "id": "672500386",
    "name": "特別養護老人ホーム　翠明荘",
    "kana": "トクベツヨウゴロウジンホームスイメイソウ",
    "address": "山形県最上郡大蔵村大字清水3137番地60",
    "lat": 38.694706,
    "lng": 140.2324962,
    "tel": "0233-75-2601",
    "url": "https://www.suimeisou.net",
    "pref": "山形県",
    "city": "大蔵村",
    "category": "tokuyou",
    "serviceType": "介護老人福祉施設",
    "capacity": 0,
    "openDays": [],
    "openDaysNote": ""
  },
  {
    "id": "672200169",
    "name": "中山ひまわり荘指定介護老人福祉施設",
    "kana": "ナカヤマヒマワリソウシテイカイゴロウジンフクシシセツ",
    "address": "山形県東村山郡中山町大字柳沢2333番地",
    "lat": 38.3292051,
    "lng": 140.2597557,
    "tel": "023-662-6633",
    "url": "",
    "pref": "山形県",
    "city": "中山町",
    "category": "tokuyou",
    "serviceType": "介護老人福祉施設",
    "capacity": 0,
    "openDays": [],
    "openDaysNote": ""
  },
  {
    "id": "672300282",
    "name": "特別養護老人ホームふれあい荘",
    "kana": "トクベツヨウゴロウジンホームフレアイソウ",
    "address": "山形県西村山郡朝日町大字四ノ沢870",
    "lat": 38.3062199,
    "lng": 140.1580358,
    "tel": "0237-67-3701",
    "url": "",
    "pref": "山形県",
    "city": "朝日町",
    "category": "tokuyou",
    "serviceType": "介護老人福祉施設",
    "capacity": 0,
    "openDays": [],
    "openDaysNote": ""
  },
  {
    "id": "672300670",
    "name": "盲特別養護老人ホーム　和合荘",
    "kana": "モウトクベツヨウゴロウジンホーム　ワゴウソウ",
    "address": "山形県西村山郡朝日町大字和合422番地1",
    "lat": 38.3282902331156,
    "lng": 140.166815480951,
    "tel": "0237-85-1672",
    "url": "https://wagousou.jp",
    "pref": "山形県",
    "city": "朝日町",
    "category": "tokuyou",
    "serviceType": "介護老人福祉施設",
    "capacity": 60,
    "openDays": [],
    "openDaysNote": ""
  },
  {
    "id": "671500122",
    "name": "特別養護老人ホーム慈光園",
    "kana": "トクベツヨウゴロウジンホームジコウエン",
    "address": "山形県長井市小出3453番地",
    "lat": 38.1093409,
    "lng": 140.0498673,
    "tel": "0238-88-2711",
    "url": "http://www2.jan.ne.jp/~jikouen1/",
    "pref": "山形県",
    "city": "長井市",
    "category": "tokuyou",
    "serviceType": "介護老人福祉施設",
    "capacity": 0,
    "openDays": [],
    "openDaysNote": ""
  },
  {
    "id": "671500213",
    "name": "特別養護老人ホーム寿泉荘",
    "kana": "トクベツヨウゴロウジンホームジュセンソウ",
    "address": "長井市今泉１８５７",
    "lat": 38.0581082442666,
    "lng": 140.054105943177,
    "tel": "0238-88-9127",
    "url": "http://www.ysj.or.jp/",
    "pref": "山形県",
    "city": "長井市",
    "category": "tokuyou",
    "serviceType": "介護老人福祉施設",
    "capacity": 0,
    "openDays": [],
    "openDaysNote": ""
  },
  {
    "id": "670701853",
    "name": "ユニット型　特別養護老人ホーム　桃寿荘",
    "kana": "ユニットガタ　トクベツヨウゴロウジンホーム　トウジュソウ",
    "address": "山形県鶴岡市たらのき代字桃平123番地",
    "lat": 38.6675743,
    "lng": 139.8988277,
    "tel": "0235-57-3222",
    "url": "http://kushibiki-fukujukai.or.jp",
    "pref": "山形県",
    "city": "鶴岡市",
    "category": "tokuyou",
    "serviceType": "介護老人福祉施設",
    "capacity": 0,
    "openDays": [],
    "openDaysNote": ""
  },
  {
    "id": "670701796",
    "name": "ユニット型特別養護老人ホームかみじ荘",
    "kana": "ユニットガタトクベツヨゴロウジンホームカミジソウ",
    "address": "山形県鶴岡市羽黒町手向字薬師沢１９８番地３",
    "lat": 38.7180786,
    "lng": 139.9411354,
    "tel": "0235-64-0224",
    "url": "https://www.kamiji.or.jp/",
    "pref": "山形県",
    "city": "鶴岡市",
    "category": "tokuyou",
    "serviceType": "介護老人福祉施設",
    "capacity": 30,
    "openDays": [],
    "openDaysNote": ""
  },
  {
    "id": "670700392",
    "name": "介護老人福祉施設池幸園",
    "kana": "カイゴロウジンフクシシセツチコウエン",
    "address": "山形県鶴岡市美原町4-40",
    "lat": 38.7220309,
    "lng": 139.821573,
    "tel": "0235-25-2881",
    "url": "http://ikkoukai.or.jp",
    "pref": "山形県",
    "city": "鶴岡市",
    "category": "tokuyou",
    "serviceType": "介護老人福祉施設",
    "capacity": 80,
    "openDays": [],
    "openDaysNote": ""
  },
  {
    "id": "670700384",
    "name": "特別養護老人ホーム　しおん荘",
    "kana": "トクベツヨウゴロウジンホーム　シオンソウ",
    "address": "山形県鶴岡市湯野浜1丁目17番35号",
    "lat": 38.7858995,
    "lng": 139.7572685,
    "tel": "0235-76-3735",
    "url": "https://www.sionkai.or.jp/index.php",
    "pref": "山形県",
    "city": "鶴岡市",
    "category": "tokuyou",
    "serviceType": "介護老人福祉施設",
    "capacity": 0,
    "openDays": [],
    "openDaysNote": ""
  },
  {
    "id": "673000329",
    "name": "特別養護老人ホーム　ふじの花荘",
    "kana": "トクベツヨウゴロウジンホーム　フジノハナソウ",
    "address": "山形県鶴岡市藤の花1丁目１８－１",
    "lat": 38.7730652,
    "lng": 139.9082303,
    "tel": "0235-64-5880",
    "url": "http://www.fujino-sato.or.jp",
    "pref": "山形県",
    "city": "鶴岡市",
    "category": "tokuyou",
    "serviceType": "介護老人福祉施設",
    "capacity": 100,
    "openDays": [],
    "openDaysNote": ""
  },
  {
    "id": "670702117",
    "name": "特別養護老人ホームおおやま",
    "kana": "トクベツヨウゴロウジンホームオオヤマ",
    "address": "鶴岡市大山三丁目34番1号",
    "lat": 38.7512063,
    "lng": 139.7642621,
    "tel": "0235-38-0250",
    "url": "https://www.shk01.jp/jigyo/jigyo2-2/",
    "pref": "山形県",
    "city": "鶴岡市",
    "category": "tokuyou",
    "serviceType": "介護老人福祉施設",
    "capacity": null,
    "openDays": [],
    "openDaysNote": ""
  },
  {
    "id": "673000360",
    "name": "特別養護老人ホームかたくり荘",
    "kana": "トクベツヨウゴロウジンホームカタクリソウ",
    "address": "山形県鶴岡市熊出字東村157-2",
    "lat": 38.6339028,
    "lng": 139.8500602,
    "tel": "0235-53-2300",
    "url": "http://care-net.biz/06/bunanoki/",
    "pref": "山形県",
    "city": "鶴岡市",
    "category": "tokuyou",
    "serviceType": "介護老人福祉施設",
    "capacity": 0,
    "openDays": [],
    "openDaysNote": ""
  },
  {
    "id": "670701846",
    "name": "特別養護老人ホームかたくり荘（ユニット型）",
    "kana": "トクベツヨウゴロウジンホームカタクリソウ（ユニットガタ）",
    "address": "山形県鶴岡市熊出字東村157－2",
    "lat": 38.6339112,
    "lng": 139.8500268,
    "tel": "0235-53-2300",
    "url": "http//care-net:biz/06/bunanoki",
    "pref": "山形県",
    "city": "鶴岡市",
    "category": "tokuyou",
    "serviceType": "介護老人福祉施設",
    "capacity": 30,
    "openDays": [],
    "openDaysNote": ""
  },
  {
    "id": "673000337",
    "name": "特別養護老人ホームかみじ荘",
    "kana": "トクベツヨウゴロウジンホームカミジソウ",
    "address": "山形県鶴岡市羽黒町手向字薬師沢１９８番地３",
    "lat": 38.7180786,
    "lng": 139.9411354,
    "tel": "0235-64-0224",
    "url": "https://www.kamiji.or.jp/",
    "pref": "山形県",
    "city": "鶴岡市",
    "category": "tokuyou",
    "serviceType": "介護老人福祉施設",
    "capacity": 50,
    "openDays": [],
    "openDaysNote": ""
  },
  {
    "id": "670700400",
    "name": "特別養護老人ホーム永寿荘",
    "kana": "トクベツヨウゴロウジンホームエイジュソウ",
    "address": "山形県鶴岡市茅原町２８番１０号",
    "lat": 38.7526249,
    "lng": 139.8424563,
    "tel": "0235-25-6111",
    "url": "http://www.keisen-swc.jp",
    "pref": "山形県",
    "city": "鶴岡市",
    "category": "tokuyou",
    "serviceType": "介護老人福祉施設",
    "capacity": 0,
    "openDays": [],
    "openDaysNote": ""
  },
  {
    "id": "673100079",
    "name": "特別養護老人ホーム温寿荘",
    "kana": "トクベツヨウゴロウジンホームオンジュソウ",
    "address": "山形県鶴岡市槙代丁53番地1",
    "lat": 38.6012141,
    "lng": 139.593908,
    "tel": "0235-43-2351",
    "url": "http://atumifukusikai.jp",
    "pref": "山形県",
    "city": "鶴岡市",
    "category": "tokuyou",
    "serviceType": "介護老人福祉施設",
    "capacity": 0,
    "openDays": [],
    "openDaysNote": ""
  },
  {
    "id": "673000345",
    "name": "特別養護老人ホーム桃寿荘",
    "kana": "トクベツヨウゴロウジンホームトウジュソウ",
    "address": "山形県鶴岡市たらのき代字桃平123番地",
    "lat": 38.6675743,
    "lng": 139.8988277,
    "tel": "0235-57-3222",
    "url": "http://kushibiki-fukujukai.or.jp",
    "pref": "山形県",
    "city": "鶴岡市",
    "category": "tokuyou",
    "serviceType": "介護老人福祉施設",
    "capacity": 0,
    "openDays": [],
    "openDaysNote": ""
  },
  {
    "id": "671600336",
    "name": "特別養護老人ホームあこがれ",
    "kana": "トクベツヨウゴロウジンホームアコガレ",
    "address": "天童市大字荒谷1973番地1345",
    "lat": 38.3273018,
    "lng": 140.3871247,
    "tel": "023-652-2711",
    "url": "",
    "pref": "山形県",
    "city": "天童市",
    "category": "tokuyou",
    "serviceType": "介護老人福祉施設",
    "capacity": 0,
    "openDays": [],
    "openDaysNote": ""
  },
  {
    "id": "671601011",
    "name": "特別養護老人ホームさくらホーム天童",
    "kana": "トクベツヨウゴロウジンホームサクラホームテンドウ",
    "address": "山形県天童市芳賀タウン南四丁目8番3号",
    "lat": 38.3406593633776,
    "lng": 140.358970703844,
    "tel": "023-651-8733",
    "url": "http://www.sakura-welfare.jp/",
    "pref": "山形県",
    "city": "天童市",
    "category": "tokuyou",
    "serviceType": "介護老人福祉施設",
    "capacity": 0,
    "openDays": [],
    "openDaysNote": ""
  },
  {
    "id": "671600203",
    "name": "特別養護老人ホーム清幸園",
    "kana": "トクベツヨウゴロウジンホームセイコウエン",
    "address": "天童市大清水４９１番地１",
    "lat": 38.3875423,
    "lng": 140.3527558,
    "tel": "023-651-3325",
    "url": "https://www.tendo-seikouen.org/",
    "pref": "山形県",
    "city": "天童市",
    "category": "tokuyou",
    "serviceType": "介護老人福祉施設",
    "capacity": 0,
    "openDays": [],
    "openDaysNote": ""
  },
  {
    "id": "671600237",
    "name": "特別養護老人ホーム明幸園",
    "kana": "トクベツヨウゴロウジンホームメイコウエン",
    "address": "山形県天童市大字矢野目150番地",
    "lat": 38.3531371,
    "lng": 140.350452,
    "tel": "023-653-3071",
    "url": "http://www.meikouen.or.jp",
    "pref": "山形県",
    "city": "天童市",
    "category": "tokuyou",
    "serviceType": "介護老人福祉施設",
    "capacity": 0,
    "openDays": [],
    "openDaysNote": ""
  },
  {
    "id": "671700607",
    "name": "特別養護老人ホームおおとみ",
    "kana": "トクベツヨウゴロウジンホームオオトミ",
    "address": "山形県東根市大字羽入2072番地1",
    "lat": 38.4082372014668,
    "lng": 140.36132430387,
    "tel": "0237-531250",
    "url": "http://utoria-kai.com/",
    "pref": "山形県",
    "city": "東根市",
    "category": "tokuyou",
    "serviceType": "介護老人福祉施設",
    "capacity": 60,
    "openDays": [],
    "openDaysNote": ""
  },
  {
    "id": "671700326",
    "name": "特別養護老人ホームおさなぎ",
    "kana": "トクベツヨウゴロウジンホームオサナギ",
    "address": "山形県東根市中島通り一丁目25号",
    "lat": 38.411682,
    "lng": 140.4028433,
    "tel": "0237-47-1234",
    "url": "https://ims-tohoku.com>osanagi",
    "pref": "山形県",
    "city": "東根市",
    "category": "tokuyou",
    "serviceType": "介護老人福祉施設",
    "capacity": 80,
    "openDays": [],
    "openDaysNote": ""
  },
  {
    "id": "671700433",
    "name": "特別養護老人ホームソーレ東根",
    "kana": "トクベツヨウゴロウジンホームソーレヒガシネ",
    "address": "山形県東根市温泉町二丁目５番３－５号",
    "lat": 38.4600765,
    "lng": 140.3881603,
    "tel": "0237-53-8800",
    "url": "https://www.taiyo-fukushikai.jp",
    "pref": "山形県",
    "city": "東根市",
    "category": "tokuyou",
    "serviceType": "介護老人福祉施設",
    "capacity": 100,
    "openDays": [],
    "openDaysNote": ""
  },
  {
    "id": "671700193",
    "name": "特別養護老人ホーム第二白水荘",
    "kana": "トクベツヨウゴロウジンホームダイニシロミズソウ",
    "address": "東根市大字蟹沢897-1",
    "lat": 38.4442363,
    "lng": 140.3693611,
    "tel": "0237-41-1121",
    "url": "http://www.shiromizu.org",
    "pref": "山形県",
    "city": "東根市",
    "category": "tokuyou",
    "serviceType": "介護老人福祉施設",
    "capacity": 0,
    "openDays": [],
    "openDaysNote": ""
  },
  {
    "id": "671700185",
    "name": "特別養護老人ホーム白水荘",
    "kana": "トクベツヨウゴロウジンホームシロミズソウ",
    "address": "山形県東根市大字野川2074番地の99",
    "lat": 38.4087471,
    "lng": 140.4315993,
    "tel": "0237-44-2366",
    "url": "http://www.higashine-fukushikai.org",
    "pref": "山形県",
    "city": "東根市",
    "category": "tokuyou",
    "serviceType": "介護老人福祉施設",
    "capacity": 0,
    "openDays": [],
    "openDaysNote": ""
  },
  {
    "id": "671900082",
    "name": "特別養護老人ホームこぶし荘",
    "kana": "トクベツヨウゴロウジンホームコブシソウ",
    "address": "山形県南陽市川樋508番地",
    "lat": 38.0948792,
    "lng": 140.1940284,
    "tel": "0238-49-2800",
    "url": "http://www.kobushiso.jp/",
    "pref": "山形県",
    "city": "南陽市",
    "category": "tokuyou",
    "serviceType": "介護老人福祉施設",
    "capacity": 0,
    "openDays": [],
    "openDaysNote": ""
  },
  {
    "id": "671900132",
    "name": "特別養護老人ホーム太陽の里ふたば",
    "kana": "トクベツヨウゴロウジンホームタイヨウノサトフタバ",
    "address": "山形県南陽市宮内２３８１番地",
    "lat": 38.072678,
    "lng": 140.1451079,
    "tel": "0238-59-4333",
    "url": "http://futaba-nanyo.sakura.ne.jp",
    "pref": "山形県",
    "city": "南陽市",
    "category": "tokuyou",
    "serviceType": "介護老人福祉施設",
    "capacity": 80,
    "openDays": [],
    "openDaysNote": ""
  },
  {
    "id": "672700143",
    "name": "特別養護老人ホーム白光園",
    "kana": "トクベツヨウゴロウジンホームハッコウエン",
    "address": "山形県西置賜郡白鷹町大字鮎貝１０８番地",
    "lat": 38.1831019996368,
    "lng": 140.065620480291,
    "tel": "0238-85-1511",
    "url": "http://www.shirafuku.jp/",
    "pref": "山形県",
    "city": "白鷹町",
    "category": "tokuyou",
    "serviceType": "介護老人福祉施設",
    "capacity": 120,
    "openDays": [],
    "openDaysNote": ""
  },
  {
    "id": "672700176",
    "name": "特別養護老人ホームひめさゆり荘",
    "kana": "トクベツヨウゴロウジンホームヒメサユリソウ",
    "address": "山形県西置賜郡飯豊町大字添川3514番地82",
    "lat": 38.0297904,
    "lng": 140.029609,
    "tel": "0238-74-2011",
    "url": "http://himesayurisou.jp",
    "pref": "山形県",
    "city": "飯豊町",
    "category": "tokuyou",
    "serviceType": "介護老人福祉施設",
    "capacity": 0,
    "openDays": [],
    "openDaysNote": ""
  },
  {
    "id": "671800274",
    "name": "特別養護老人ホーム　よつば荘",
    "kana": "トクベツヨウゴロウジンホーム　ヨツバソウ",
    "address": "山形県尾花沢市大字荻袋１２８７番地２０",
    "lat": 38.6243564375034,
    "lng": 140.381350426845,
    "tel": "0237-24-3678",
    "url": "https://www.yotsubasou-kaigo.com",
    "pref": "山形県",
    "city": "尾花沢市",
    "category": "tokuyou",
    "serviceType": "介護老人福祉施設",
    "capacity": 0,
    "openDays": [],
    "openDaysNote": ""
  },
  {
    "id": "671800241",
    "name": "特別養護老人ホームおばなざわ",
    "kana": "トクベツヨウゴロウジンホームオバナザワ",
    "address": "山形県尾花沢市大字五十沢186番地",
    "lat": 38.5852322,
    "lng": 140.4033835,
    "tel": "0237-23-3030",
    "url": "http://kjg-net.jp/index.php",
    "pref": "山形県",
    "city": "尾花沢市",
    "category": "tokuyou",
    "serviceType": "介護老人福祉施設",
    "capacity": 0,
    "openDays": [],
    "openDaysNote": ""
  },
  {
    "id": "671800092",
    "name": "特別養護老人ホーム長寿園",
    "kana": "トクベツヨウゴロウジンホームチョウジュエン",
    "address": "尾花沢市新町三丁目２番２１号",
    "lat": 38.6044689066694,
    "lng": 140.415172154631,
    "tel": "0237-22-1325",
    "url": "http://www.tokurakai.jp/",
    "pref": "山形県",
    "city": "尾花沢市",
    "category": "tokuyou",
    "serviceType": "介護老人福祉施設",
    "capacity": 82,
    "openDays": [],
    "openDaysNote": ""
  },
  {
    "id": "670400472",
    "name": "おいたまの郷指定介護老人福祉施設",
    "kana": "オイタマノサトシテイカイゴロウジンフクシシセツ",
    "address": "米沢市下新田２８番地",
    "lat": 37.9595032,
    "lng": 140.1482283,
    "tel": "0238-37-7788",
    "url": "http://oitamanosato.jp",
    "pref": "山形県",
    "city": "米沢市",
    "category": "tokuyou",
    "serviceType": "介護老人福祉施設",
    "capacity": 0,
    "openDays": [],
    "openDaysNote": ""
  },
  {
    "id": "670401694",
    "name": "おいたまの郷指定介護老人福祉施設",
    "kana": "オイタマノサトシテイカイゴロウジンフクシシセツ",
    "address": "米沢市下新田２８番地",
    "lat": 37.9595032,
    "lng": 140.1482283,
    "tel": "0238-37-7788",
    "url": "http://oitamanosato.jp",
    "pref": "山形県",
    "city": "米沢市",
    "category": "tokuyou",
    "serviceType": "介護老人福祉施設",
    "capacity": 0,
    "openDays": [],
    "openDaysNote": ""
  },
  {
    "id": "670400399",
    "name": "花の里指定介護老人福祉施設",
    "kana": "ハナノサトシテイカイゴロウジンフクシシセツ",
    "address": "山形県米沢市大字笹野１７０番地",
    "lat": 37.8769868,
    "lng": 140.1112515,
    "tel": "0238-38-5501",
    "url": "http://hana.yb-koudou.jp/",
    "pref": "山形県",
    "city": "米沢市",
    "category": "tokuyou",
    "serviceType": "介護老人福祉施設",
    "capacity": 0,
    "openDays": [],
    "openDaysNote": ""
  },
  {
    "id": "670400696",
    "name": "特別養護老人ホームサンファミリア米沢",
    "kana": "トクベツヨウゴロウジンホームサンファミリアヨネザワ",
    "address": "山形県米沢市塩井町塩野520",
    "lat": 37.928365898512,
    "lng": 140.110599586508,
    "tel": "0238-26-8255",
    "url": "http://www.y-kouwakai.jp",
    "pref": "山形県",
    "city": "米沢市",
    "category": "tokuyou",
    "serviceType": "介護老人福祉施設",
    "capacity": 0,
    "openDays": [],
    "openDaysNote": ""
  },
  {
    "id": "670401637",
    "name": "特別養護老人ホーム回春堂",
    "kana": "トクベツヨウゴロウジンホームカイシュンドウ",
    "address": "米沢市大字花沢2986番地の1",
    "lat": 37.9221709,
    "lng": 140.1238692,
    "tel": "0238-26-8850",
    "url": "https://kaisyundo.jp/",
    "pref": "山形県",
    "city": "米沢市",
    "category": "tokuyou",
    "serviceType": "介護老人福祉施設",
    "capacity": 0,
    "openDays": [],
    "openDaysNote": ""
  },
  {
    "id": "670400373",
    "name": "特別養護老人ホーム成島園",
    "kana": "トクベツヨウゴロウジンホームナルシマエン",
    "address": "山形県米沢市広幡町成島字窪平山2120番地5",
    "lat": 37.9346819,
    "lng": 140.0778455,
    "tel": "0238-37-2355",
    "url": "http://narusimaen.org/",
    "pref": "山形県",
    "city": "米沢市",
    "category": "tokuyou",
    "serviceType": "介護老人福祉施設",
    "capacity": 0,
    "openDays": [],
    "openDaysNote": ""
  },
  {
    "id": "670401702",
    "name": "特別養護老人ホーム成島園",
    "kana": "トクベツヨウゴロウジンホームナルシマエン",
    "address": "山形県米沢市広幡町成島字窪平山2120番地5",
    "lat": 37.9346819,
    "lng": 140.0778455,
    "tel": "0238-37-2355",
    "url": "http://narusimaen.org/",
    "pref": "山形県",
    "city": "米沢市",
    "category": "tokuyou",
    "serviceType": "介護老人福祉施設",
    "capacity": 0,
    "openDays": [],
    "openDaysNote": ""
  },
  {
    "id": "670400381",
    "name": "特別養護老人ホーム万世園",
    "kana": "トクベツヨウゴロウジンホームバンセイエン",
    "address": "山形県米沢市万世町牛森4172-5",
    "lat": 37.8853267,
    "lng": 140.2057705,
    "tel": "0238-28-1455",
    "url": "https://eikounosato.com",
    "pref": "山形県",
    "city": "米沢市",
    "category": "tokuyou",
    "serviceType": "介護老人福祉施設",
    "capacity": 85,
    "openDays": [],
    "openDaysNote": ""
  },
  {
    "id": "673200226",
    "name": "特別養護老人ホーム　松濤荘",
    "kana": "トクベツヨウゴロウジンホウム　マツナミソウ",
    "address": "飽海郡遊佐町菅里字菅野南山７番地１",
    "lat": 39.0467673,
    "lng": 139.878132,
    "tel": "0234-76-2103",
    "url": "http://www.ysj.or.jp/home/matsunami/inndex.html",
    "pref": "山形県",
    "city": "遊佐町",
    "category": "tokuyou",
    "serviceType": "介護老人福祉施設",
    "capacity": 0,
    "openDays": [],
    "openDaysNote": ""
  },
  {
    "id": "673200234",
    "name": "特別養護老人ホームゆうすい",
    "kana": "トクベツヨウゴロウジンホームユウスイ",
    "address": "山形県飽海郡遊佐町遊佐字木ノ下2",
    "lat": 39.0112776,
    "lng": 139.9190369,
    "tel": "0234-71-2133",
    "url": "https://www.yuzakouseikai.or.jp/yusui/",
    "pref": "山形県",
    "city": "遊佐町",
    "category": "tokuyou",
    "serviceType": "介護老人福祉施設",
    "capacity": 0,
    "openDays": [],
    "openDaysNote": ""
  },
  {
    "id": "673200523",
    "name": "特別養護老人ホームゆうすい",
    "kana": "トクベツヨウゴロウジンホームユウスイ",
    "address": "山形県飽海郡遊佐町遊佐字木ノ下2番地",
    "lat": 39.0112776,
    "lng": 139.9190369,
    "tel": "0234-71-2133",
    "url": "https://www.yuzakouseikai.or.jp/yusui/",
    "pref": "山形県",
    "city": "遊佐町",
    "category": "tokuyou",
    "serviceType": "介護老人福祉施設",
    "capacity": 0,
    "openDays": [],
    "openDaysNote": ""
  }
]