[
  {
    "id": "3578100350",
    "name": "特別養護老人ホーム　恵寿苑",
    "kana": "トクベツヨウゴロウジンホーム　ケイジュエン",
    "address": "山口県阿武郡阿武町大字木与10039番地5",
    "lat": 34.536138,
    "lng": 131.5058371,
    "tel": "08388-2-0088",
    "url": "http://abufukushi.com",
    "pref": "山口県",
    "city": "阿武町",
    "category": "tokuyou",
    "serviceType": "介護老人福祉施設",
    "capacity": null,
    "openDays": [],
    "openDaysNote": ""
  },
  {
    "id": "3570200364",
    "name": "特別養護老人ホーム　アスワン山荘",
    "kana": "トクベツヨウゴロウジンホーム　アスワンサンソウ",
    "address": "山口県宇部市二俣瀬山王坂40-221",
    "lat": 34.0634031144044,
    "lng": 131.280876676579,
    "tel": "0836-62-5151",
    "url": "http://www.asuwansansou.jp/",
    "pref": "山口県",
    "city": "宇部市",
    "category": "tokuyou",
    "serviceType": "介護老人福祉施設",
    "capacity": 0,
    "openDays": [],
    "openDaysNote": ""
  },
  {
    "id": "3570200240",
    "name": "特別養護老人ホーム　センチュリー21",
    "kana": "トクベツヨウゴロウジンホーム　センチュリー21",
    "address": "山口県宇部市大字山中126－1",
    "lat": 34.0598685,
    "lng": 131.332999,
    "tel": "0836-62-1021",
    "url": "http://www.ube-century21.jp/",
    "pref": "山口県",
    "city": "宇部市",
    "category": "tokuyou",
    "serviceType": "介護老人福祉施設",
    "capacity": 0,
    "openDays": [],
    "openDaysNote": ""
  },
  {
    "id": "3570203194",
    "name": "特別養護老人ホーム　センチュリー21　靖和園",
    "kana": "トクベツヨウゴロウジンホーム　センチュリーニジュウイチ　セイワエン",
    "address": "山口県宇部市大字山中126番の1",
    "lat": 34.0598685,
    "lng": 131.332999,
    "tel": "0836-62-1021",
    "url": "http://www.ube-century21.jp/",
    "pref": "山口県",
    "city": "宇部市",
    "category": "tokuyou",
    "serviceType": "介護老人福祉施設",
    "capacity": 0,
    "openDays": [],
    "openDaysNote": ""
  },
  {
    "id": "3570200422",
    "name": "特別養護老人ホーム　宇部あかり園",
    "kana": "トクベツヨウゴロウジンホーム　ウベアカリエン",
    "address": "宇部市大字西岐波229-105",
    "lat": 33.9665968,
    "lng": 131.3014987,
    "tel": "0836-51-1616",
    "url": "http://www.hakuaikai-yamaguchi.jp",
    "pref": "山口県",
    "city": "宇部市",
    "category": "tokuyou",
    "serviceType": "介護老人福祉施設",
    "capacity": 0,
    "openDays": [],
    "openDaysNote": ""
  },
  {
    "id": "3570200380",
    "name": "特別養護老人ホームむべの里",
    "kana": "トクベツヨウゴロウジンホームムベノサト",
    "address": "宇部市大字東須恵字大浴320-1",
    "lat": 33.9918928,
    "lng": 131.2094177,
    "tel": "0836-43-1735",
    "url": "http://www.mubenosato.com",
    "pref": "山口県",
    "city": "宇部市",
    "category": "tokuyou",
    "serviceType": "介護老人福祉施設",
    "capacity": 0,
    "openDays": [],
    "openDaysNote": ""
  },
  {
    "id": "3570200356",
    "name": "特別養護老人ホーム神原苑",
    "kana": "トウクベツヨウゴロウジンホームカミハラエン",
    "address": "宇部市神原町2丁目１－２２",
    "lat": 33.9488954,
    "lng": 131.2612877,
    "tel": "0836-34-2885",
    "url": "http://www.kamiharaen.com/",
    "pref": "山口県",
    "city": "宇部市",
    "category": "tokuyou",
    "serviceType": "介護老人福祉施設",
    "capacity": 15,
    "openDays": [],
    "openDaysNote": ""
  },
  {
    "id": "3577700085",
    "name": "特別養護老人ホーム楠園",
    "kana": "トクベツヨウゴロウジンホームクスノキエン",
    "address": "宇部市大字船木字向ヒ833番3",
    "lat": 34.0498868702749,
    "lng": 131.191794861935,
    "tel": "0836-67-1182",
    "url": "http://www.furoukai.jp",
    "pref": "山口県",
    "city": "宇部市",
    "category": "tokuyou",
    "serviceType": "介護老人福祉施設",
    "capacity": 80,
    "openDays": [],
    "openDaysNote": ""
  },
  {
    "id": "3570204341",
    "name": "特別養護老人ホーム日の山園",
    "kana": "トクベツヨウゴロウジンホームヒノヤマエン",
    "address": "山口県宇部市東岐波２２３番地",
    "lat": 33.9889872,
    "lng": 131.358121,
    "tel": "0836-58-2202",
    "url": "http://www.mubenosato.com",
    "pref": "山口県",
    "city": "宇部市",
    "category": "tokuyou",
    "serviceType": "介護老人福祉施設",
    "capacity": 0,
    "openDays": [],
    "openDaysNote": ""
  },
  {
    "id": "3570104970",
    "name": "ユニット型　特別養護老人ホーム　フェニックス",
    "kana": "ユニットガタ　トクベツヨウゴロウジンホーム　フェニックス",
    "address": "山口県下関市大字小野６４－１",
    "lat": 34.0353505,
    "lng": 130.9619617,
    "tel": "083-256-5336",
    "url": "http://www.akatsukikai.com",
    "pref": "山口県",
    "city": "下関市",
    "category": "tokuyou",
    "serviceType": "介護老人福祉施設",
    "capacity": 0,
    "openDays": [],
    "openDaysNote": ""
  },
  {
    "id": "3570100580",
    "name": "特別養護老人ホーム　アイユウの苑",
    "kana": "トクベツヨウゴロウジンホーム　アイユウノソノ",
    "address": "山口県下関市彦島迫町三丁目17番2号",
    "lat": 33.9383705,
    "lng": 130.9002994,
    "tel": "083-266-8287",
    "url": "http://www.shoubikai.or.jp",
    "pref": "山口県",
    "city": "下関市",
    "category": "tokuyou",
    "serviceType": "介護老人福祉施設",
    "capacity": 0,
    "openDays": [],
    "openDaysNote": ""
  },
  {
    "id": "3577800208",
    "name": "特別養護老人ホーム　きくがわ苑",
    "kana": "トクベツヨウゴロウジンホーム　キクガワエン",
    "address": "山口県下関市菊川町大字下岡枝1064番地",
    "lat": 34.1263641,
    "lng": 131.0415524,
    "tel": "083-287-1220",
    "url": "https://www.kikusuikai.jp/",
    "pref": "山口県",
    "city": "下関市",
    "category": "tokuyou",
    "serviceType": "介護老人福祉施設",
    "capacity": 54,
    "openDays": [],
    "openDaysNote": ""
  },
  {
    "id": "3570105001",
    "name": "特別養護老人ホーム　きくがわ苑（ユニット型）",
    "kana": "トクベツヨウゴロウジンホーム　キクガワエン　ユニットガタ",
    "address": "山口県下関市菊川町大字下岡枝1064",
    "lat": 34.1262668,
    "lng": 131.0415441,
    "tel": "083-287-1220",
    "url": "https://www.kikusuika.jp/",
    "pref": "山口県",
    "city": "下関市",
    "category": "tokuyou",
    "serviceType": "介護老人福祉施設",
    "capacity": 30,
    "openDays": [],
    "openDaysNote": ""
  },
  {
    "id": "3570100093",
    "name": "特別養護老人ホーム　はまゆう苑",
    "kana": "トクベツヨウゴロウジンホーム　ハマユウエン",
    "address": "下関市横野町3-15-10",
    "lat": 34.0351028,
    "lng": 130.9101126,
    "tel": "083-258-3800",
    "url": "http://www.syoutoukai.or.jp/",
    "pref": "山口県",
    "city": "下関市",
    "category": "tokuyou",
    "serviceType": "介護老人福祉施設",
    "capacity": 0,
    "openDays": [],
    "openDaysNote": ""
  },
  {
    "id": "3577800117",
    "name": "特別養護老人ホーム　ほたるホームとよた",
    "kana": "トクベツヨウゴロウジンホーム　ホタルホームトヨタ",
    "address": "下関市豊田町大字荒木10051番地2",
    "lat": 34.2528649,
    "lng": 131.0428159,
    "tel": "083-768-0051",
    "url": "http://houzyukai.jp/",
    "pref": "山口県",
    "city": "下関市",
    "category": "tokuyou",
    "serviceType": "介護老人福祉施設",
    "capacity": 50,
    "openDays": [],
    "openDaysNote": ""
  },
  {
    "id": "3570104996",
    "name": "特別養護老人ホーム　ほたるホームとよた（ユニット型）",
    "kana": "トクベツヨウゴロウジンホーム　ホタルホームトヨタ（ユニットガタ）",
    "address": "山口県下関市豊田町大字荒木10051番地2",
    "lat": 34.2528649,
    "lng": 131.0428159,
    "tel": "083-768-0051",
    "url": "http://houzyukai.jp/",
    "pref": "山口県",
    "city": "下関市",
    "category": "tokuyou",
    "serviceType": "介護老人福祉施設",
    "capacity": 30,
    "openDays": [],
    "openDaysNote": ""
  },
  {
    "id": "3570100440",
    "name": "特別養護老人ホーム　みどり園",
    "kana": "トクベツヨウゴロウジンホーム　ミドリエン",
    "address": "山口県下関市長府才川二丁目21-1",
    "lat": 34.0252383,
    "lng": 130.9995583,
    "tel": "083-248-3222",
    "url": "http://wwwcare-net.biz/35/houaikai/",
    "pref": "山口県",
    "city": "下関市",
    "category": "tokuyou",
    "serviceType": "介護老人福祉施設",
    "capacity": 93,
    "openDays": [],
    "openDaysNote": ""
  },
  {
    "id": "3570100663",
    "name": "特別養護老人ホーム　員光園",
    "kana": "トクベツヨウゴロウジンホーム　カジミツエン",
    "address": "山口県下関市大字員光１５４４番地",
    "lat": 34.0510493,
    "lng": 130.9840315,
    "tel": "083-248-5115",
    "url": "http://care-net.biz/35/yamabatokai/index.php",
    "pref": "山口県",
    "city": "下関市",
    "category": "tokuyou",
    "serviceType": "介護老人福祉施設",
    "capacity": 70,
    "openDays": [],
    "openDaysNote": ""
  },
  {
    "id": "3570104988",
    "name": "特別養護老人ホーム　員光園（ユニット型）",
    "kana": "トクベツヨウゴロウジンホーム　カジミツエン（ユニットカタ）",
    "address": "山口県下関市大字員光１５４４番地",
    "lat": 34.0510493,
    "lng": 130.9840315,
    "tel": "083-248-5175",
    "url": "http://care-net.biz/35/yamabatokai/index.php",
    "pref": "山口県",
    "city": "下関市",
    "category": "tokuyou",
    "serviceType": "介護老人福祉施設",
    "capacity": 60,
    "openDays": [],
    "openDaysNote": ""
  },
  {
    "id": "3570102198",
    "name": "特別養護老人ホーム　貴船園",
    "kana": "トクベツヨウゴロウジンホーム　キフネエン",
    "address": "下関市貴船町3丁目4-1",
    "lat": 33.9692601,
    "lng": 130.9425922,
    "tel": "083-223-0261",
    "url": "http://www.kifuneen.saiseikai.or.jp",
    "pref": "山口県",
    "city": "下関市",
    "category": "tokuyou",
    "serviceType": "介護老人福祉施設",
    "capacity": 0,
    "openDays": [],
    "openDaysNote": ""
  },
  {
    "id": "3570100465",
    "name": "特別養護老人ホーム　慈公園",
    "kana": "トクベツヨウゴロウジンホーム　ジコウエン",
    "address": "山口県下関市稗田中町8番38号",
    "lat": 33.9959854,
    "lng": 130.9260207,
    "tel": "083-252-7500",
    "url": "http://hieda-fukushikai.com/",
    "pref": "山口県",
    "city": "下関市",
    "category": "tokuyou",
    "serviceType": "介護老人福祉施設",
    "capacity": 50,
    "openDays": [],
    "openDaysNote": ""
  },
  {
    "id": "3570100606",
    "name": "特別養護老人ホーム　寿海荘",
    "kana": "トクベツヨウゴロウジンホーム　ジュカイソウ",
    "address": "下関市武久町２丁目５３－８",
    "lat": 33.9817949,
    "lng": 130.9166443,
    "tel": "083-253-5251",
    "url": "http://shoujuen.jp",
    "pref": "山口県",
    "city": "下関市",
    "category": "tokuyou",
    "serviceType": "介護老人福祉施設",
    "capacity": 121,
    "openDays": [],
    "openDaysNote": ""
  },
  {
    "id": "3577800083",
    "name": "特別養護老人ホーム　白滝荘",
    "kana": "トクベツヨウゴロウジンホーム　シラタキソウ",
    "address": "山口県下関市豊北町大字田耕12426番地1",
    "lat": 34.2714973,
    "lng": 130.9885365,
    "tel": "083-783-0056",
    "url": "http://care-net.biz/35/shirataki/index.php",
    "pref": "山口県",
    "city": "下関市",
    "category": "tokuyou",
    "serviceType": "介護老人福祉施設",
    "capacity": 0,
    "openDays": [],
    "openDaysNote": ""
  },
  {
    "id": "3570100630",
    "name": "特別養護老人ホームフェニックス",
    "kana": "トクベツヨウゴロウジンホームフェニックス",
    "address": "下関市大字小野64番地1",
    "lat": 34.0353505,
    "lng": 130.9619617,
    "tel": "083-256-5336",
    "url": "http://www.akatsukikai.com",
    "pref": "山口県",
    "city": "下関市",
    "category": "tokuyou",
    "serviceType": "介護老人福祉施設",
    "capacity": 0,
    "openDays": [],
    "openDaysNote": ""
  },
  {
    "id": "3570102883",
    "name": "特別養護老人ホーム豊寿苑",
    "kana": "トクベツヨウゴロウジンホームホウジュエン",
    "address": "山口県下関市豊浦町大字厚母郷10442番地",
    "lat": 34.1185461869657,
    "lng": 130.905848833205,
    "tel": "083-772-0107",
    "url": "http://care-net.biz/35/houjyu/",
    "pref": "山口県",
    "city": "下関市",
    "category": "tokuyou",
    "serviceType": "介護老人福祉施設",
    "capacity": null,
    "openDays": [],
    "openDaysNote": ""
  },
  {
    "id": "3570103477",
    "name": "特別養護老人ホーム梨花の里",
    "kana": "トクベツヨウゴロウジンホームリカノサト",
    "address": "下関市豊北町大字滝部11042番地1",
    "lat": 34.2925838,
    "lng": 130.9495771,
    "tel": "083-784-1000",
    "url": "http://houhokufukushikai.jp/",
    "pref": "山口県",
    "city": "下関市",
    "category": "tokuyou",
    "serviceType": "介護老人福祉施設",
    "capacity": 0,
    "openDays": [],
    "openDaysNote": ""
  },
  {
    "id": "3570700132",
    "name": "特別養護老人ホーム　ほしのさと",
    "kana": "トクベツヨウゴロウジンホーム　ホシノサト",
    "address": "山口県下松市生野屋南1丁目13番1号",
    "lat": 34.0314425,
    "lng": 131.8741191,
    "tel": "0833-45-3100",
    "url": "http://www.hoshinosato.jp/",
    "pref": "山口県",
    "city": "下松市",
    "category": "tokuyou",
    "serviceType": "介護老人福祉施設",
    "capacity": 0,
    "openDays": [],
    "openDaysNote": ""
  },
  {
    "id": "3570700173",
    "name": "特別養護老人ホーム　松寿苑",
    "kana": "トクベツヨウゴロウジンホーム　ショウジュエン",
    "address": "山口県下松市大字来巻９４４番地の１",
    "lat": 34.0238309,
    "lng": 131.9302866,
    "tel": "0833-47-1220",
    "url": "http://www.syojuen.com",
    "pref": "山口県",
    "city": "下松市",
    "category": "tokuyou",
    "serviceType": "介護老人福祉施設",
    "capacity": 80,
    "openDays": [],
    "openDaysNote": ""
  },
  {
    "id": "3570801922",
    "name": "介護老人福祉施設　ヴィータ",
    "kana": "カイゴロウジンフクシシセツ",
    "address": "山口県岩国市麻里布町3丁目5-30",
    "lat": 34.1701806,
    "lng": 132.222181,
    "tel": "0827-30-0001",
    "url": "http://www.nishiki-f.com/",
    "pref": "山口県",
    "city": "岩国市",
    "category": "tokuyou",
    "serviceType": "介護老人福祉施設",
    "capacity": 60,
    "openDays": [],
    "openDaysNote": ""
  },
  {
    "id": "3577200458",
    "name": "特別養護老人ホーム　ヴィラ本郷",
    "kana": "トクベツヨウゴロウジンホーム　ウ゛ィラホンゴウ",
    "address": "山口県岩国市本郷町本郷2086",
    "lat": 34.2935263,
    "lng": 132.0401041,
    "tel": "0827-78-1111",
    "url": "http://hongo.tokuyou.jp/",
    "pref": "山口県",
    "city": "岩国市",
    "category": "tokuyou",
    "serviceType": "介護老人福祉施設",
    "capacity": 30,
    "openDays": [],
    "openDaysNote": ""
  },
  {
    "id": "3570800585",
    "name": "特別養護老人ホーム　かなえ",
    "kana": "トクベツヨウゴロウジンホーム　カナエ",
    "address": "山口県岩国市錦見３丁目７番５５号",
    "lat": 34.1669171,
    "lng": 132.1986686,
    "tel": "0827-44-2233",
    "url": "www.kanaekai.jp/",
    "pref": "山口県",
    "city": "岩国市",
    "category": "tokuyou",
    "serviceType": "介護老人福祉施設",
    "capacity": 56,
    "openDays": [],
    "openDaysNote": ""
  },
  {
    "id": "3577200391",
    "name": "特別養護老人ホーム　錦苑",
    "kana": "トクベツヨウゴロウジンホーム　ニシキエン",
    "address": "山口県岩国市錦町広瀬758番地",
    "lat": 34.2569949,
    "lng": 131.9502922,
    "tel": "0827-72-3523",
    "url": "http://nishiki-f.com/",
    "pref": "山口県",
    "city": "岩国市",
    "category": "tokuyou",
    "serviceType": "介護老人福祉施設",
    "capacity": 60,
    "openDays": [],
    "openDaysNote": ""
  },
  {
    "id": "3570800908",
    "name": "特別養護老人ホーム　灘海園",
    "kana": "トクベツヨウゴロウジンホーム　ナダミエン",
    "address": "山口県岩国市愛宕町一丁目5番１",
    "lat": 34.1461280018079,
    "lng": 132.199594371164,
    "tel": "0827-32-0315",
    "url": "https://jigyodan-yg.jp/nadami/",
    "pref": "山口県",
    "city": "岩国市",
    "category": "tokuyou",
    "serviceType": "介護老人福祉施設",
    "capacity": 0,
    "openDays": [],
    "openDaysNote": ""
  },
  {
    "id": "3577200425",
    "name": "特別養護老人ホーム　美和苑",
    "kana": "トクベツヨウゴロウジンホーム　ミワエン",
    "address": "山口県岩国市美和町生見１２５３８",
    "lat": 34.2271004,
    "lng": 132.0683144,
    "tel": "0827-96-1130",
    "url": "http://miwafukushikai.jp",
    "pref": "山口県",
    "city": "岩国市",
    "category": "tokuyou",
    "serviceType": "介護老人福祉施設",
    "capacity": 70,
    "openDays": [],
    "openDaysNote": ""
  },
  {
    "id": "3577200383",
    "name": "特別養護老人ホーム　緑風荘",
    "kana": "トクベツヨウゴロウジンホーム　リョクフウソウ",
    "address": "山口県岩国市由宇町3018番地1",
    "lat": 34.0282774,
    "lng": 132.1632257,
    "tel": "0827-62-1122",
    "url": "http://ryokufuukai.net/",
    "pref": "山口県",
    "city": "岩国市",
    "category": "tokuyou",
    "serviceType": "介護老人福祉施設",
    "capacity": 0,
    "openDays": [],
    "openDaysNote": ""
  },
  {
    "id": "3577200284",
    "name": "特別養護老人ホーム玖珂苑",
    "kana": "トクベツヨウゴロウジンホームクガエン",
    "address": "山口県岩国市玖珂町3813番地6",
    "lat": 34.0818525,
    "lng": 132.0986224,
    "tel": "0827-82-0555",
    "url": "http://www.takamori-fukushikai.or.jp/",
    "pref": "山口県",
    "city": "岩国市",
    "category": "tokuyou",
    "serviceType": "介護老人福祉施設",
    "capacity": 0,
    "openDays": [],
    "openDaysNote": ""
  },
  {
    "id": "3570800239",
    "name": "特別養護老人ホーム光葉苑",
    "kana": "トクベツヨウゴロウジンホーム　コウヨウエン",
    "address": "山口県岩国市下317番地２",
    "lat": 34.15983,
    "lng": 132.0935116,
    "tel": "0827-47-3500",
    "url": "https://kouyouen-iwakuni.jimdo.com",
    "pref": "山口県",
    "city": "岩国市",
    "category": "tokuyou",
    "serviceType": "介護老人福祉施設",
    "capacity": 50,
    "openDays": [],
    "openDaysNote": ""
  },
  {
    "id": "3577200250",
    "name": "特別養護老人ホーム高森苑",
    "kana": "トクベツヨウゴロウジンホーム　タカモリエン",
    "address": "山口県岩国市周東町西長野621番地1",
    "lat": 34.0875034,
    "lng": 132.0279209,
    "tel": "0827-84-3747",
    "url": "http://www.takamori-fukushikai.or.jp/",
    "pref": "山口県",
    "city": "岩国市",
    "category": "tokuyou",
    "serviceType": "介護老人福祉施設",
    "capacity": 0,
    "openDays": [],
    "openDaysNote": ""
  },
  {
    "id": "3577200466",
    "name": "特別養護老人ホーム美川苑",
    "kana": "トクベツヨウゴロウジンホームミカワエン",
    "address": "山口県岩国市美川町小川437-1",
    "lat": 34.2422228,
    "lng": 132.000744,
    "tel": "0827-76-5008",
    "url": "http://mikawa-en.com/",
    "pref": "山口県",
    "city": "岩国市",
    "category": "tokuyou",
    "serviceType": "介護老人福祉施設",
    "capacity": 0,
    "openDays": [],
    "openDaysNote": ""
  },
  {
    "id": "3577300241",
    "name": "特別養護老人ホーム　やまと苑",
    "kana": "トクベツヨウゴロウジンホーム　ヤマトエン",
    "address": "山口県光市大字岩田２６７番地",
    "lat": 33.974638,
    "lng": 131.9886271,
    "tel": "0820-48-3333",
    "url": "http://www.yamatofukushikai.jp/",
    "pref": "山口県",
    "city": "光市",
    "category": "tokuyou",
    "serviceType": "介護老人福祉施設",
    "capacity": 0,
    "openDays": [],
    "openDaysNote": ""
  },
  {
    "id": "3571000094",
    "name": "特別養護老人ホーム　光寿苑",
    "kana": "トクベツヨウゴロウジンホーム　コウジュエン",
    "address": "光市室積沖田5番1号",
    "lat": 33.9347739786694,
    "lng": 131.97436382439,
    "tel": "0833-79-1700",
    "url": "https://koujyuen-top.jimdofree.com/",
    "pref": "山口県",
    "city": "光市",
    "category": "tokuyou",
    "serviceType": "介護老人福祉施設",
    "capacity": 0,
    "openDays": [],
    "openDaysNote": ""
  },
  {
    "id": "3571000102",
    "name": "特別養護老人ホーム　光富士白苑",
    "kana": "トクベツヨウゴロウジンホーム　ヒカリフジシロエン",
    "address": "光市虹ヶ浜2丁目5番7号",
    "lat": 33.9684448,
    "lng": 131.9186836,
    "tel": "0833-71-3090",
    "url": "http://www.h-fuji.com",
    "pref": "山口県",
    "city": "光市",
    "category": "tokuyou",
    "serviceType": "介護老人福祉施設",
    "capacity": 0,
    "openDays": [],
    "openDaysNote": ""
  },
  {
    "id": "3571000698",
    "name": "特別養護老人ホームひかり苑",
    "kana": "トクベツヨウゴロウジンホームヒカリエン",
    "address": "光市大字三井1056番地1",
    "lat": 33.9935383995618,
    "lng": 131.950935332541,
    "tel": "0833-76-1165",
    "url": "http://hikari-en.jp/",
    "pref": "山口県",
    "city": "光市",
    "category": "tokuyou",
    "serviceType": "介護老人福祉施設",
    "capacity": 0,
    "openDays": [],
    "openDaysNote": ""
  },
  {
    "id": "3570301386",
    "name": "賀宝の里白松苑",
    "kana": "カガホノサトハクショウエン",
    "address": "山口市佐山158番地",
    "lat": 34.0496921,
    "lng": 131.3502007,
    "tel": "083-988-2555",
    "url": "https://hakusyoen.jp/sayama/kagaho",
    "pref": "山口県",
    "city": "山口市",
    "category": "tokuyou",
    "serviceType": "介護老人福祉施設",
    "capacity": 30,
    "openDays": [],
    "openDaysNote": ""
  },
  {
    "id": "3570303101",
    "name": "済生会山口地域ケアセンター特別養護老人ホームおとどいの里",
    "kana": "サイセイカイヤマグチチイキケアセンタートクベツヨウゴロウジンホーム　オトドイノサト",
    "address": "山口県山口市朝倉町4番55号",
    "lat": 34.1761142742386,
    "lng": 131.452923596959,
    "tel": "083-922-0707",
    "url": "http://saiseikai-care-y.jp/",
    "pref": "山口県",
    "city": "山口市",
    "category": "tokuyou",
    "serviceType": "介護老人福祉施設",
    "capacity": 0,
    "openDays": [],
    "openDaysNote": ""
  },
  {
    "id": "3570300321",
    "name": "特別養護老人ホーム　温泉ホーム日吉台",
    "kana": "トクベツヨウゴロウジンホーム　オンセンホームヒヨシダイ",
    "address": "山口県山口市陶3968",
    "lat": 34.0983351,
    "lng": 131.4206661,
    "tel": "083-973-2030",
    "url": "http://www.hiyoshidai.or.jp",
    "pref": "山口県",
    "city": "山口市",
    "category": "tokuyou",
    "serviceType": "介護老人福祉施設",
    "capacity": 0,
    "openDays": [],
    "openDaysNote": ""
  },
  {
    "id": "3570300370",
    "name": "特別養護老人ホーム　山口あかり園",
    "kana": "トクベツヨウゴロウジンホーム　ヤマグチアカリエン",
    "address": "山口県山口市黒川３３６３番地",
    "lat": 34.1310547,
    "lng": 131.4387164,
    "tel": "083-921-1618",
    "url": "http://www.hakuaikai-yamaguchi.jp",
    "pref": "山口県",
    "city": "山口市",
    "category": "tokuyou",
    "serviceType": "介護老人福祉施設",
    "capacity": 57,
    "openDays": [],
    "openDaysNote": ""
  },
  {
    "id": "3577600194",
    "name": "特別養護老人ホーム　秋穂あかり園",
    "kana": "トクベツヨウゴロウジンホーム　アイオアカリエン",
    "address": "山口市秋穂東3980番地",
    "lat": 34.0142506,
    "lng": 131.4449924,
    "tel": "083-984-8300",
    "url": "http://www.hakuaikai-yamaguchi.jp/",
    "pref": "山口県",
    "city": "山口市",
    "category": "tokuyou",
    "serviceType": "介護老人福祉施設",
    "capacity": 0,
    "openDays": [],
    "openDaysNote": ""
  },
  {
    "id": "3577600145",
    "name": "特別養護老人ホーム　小郡・山手一番館",
    "kana": "トクベツヨウゴロウジンホーム　オゴオリ・ヤマテイチバンカン",
    "address": "山口市小郡尾崎町２番１号",
    "lat": 34.1094467024867,
    "lng": 131.395829974205,
    "tel": "083-974-0200",
    "url": "http：//yamate-ichiban.info/",
    "pref": "山口県",
    "city": "山口市",
    "category": "tokuyou",
    "serviceType": "介護老人福祉施設",
    "capacity": 0,
    "openDays": [],
    "openDaysNote": ""
  },
  {
    "id": "3570300339",
    "name": "特別養護老人ホーム　梅光苑",
    "kana": "トクベツヨウゴロウジンホーム　バイコウエン",
    "address": "山口市鋳銭司12361-3",
    "lat": 34.0667210133332,
    "lng": 131.439088827647,
    "tel": "083-986-2056",
    "url": "http//www.aikawaiin.or.jp/baikouen/",
    "pref": "山口県",
    "city": "山口市",
    "category": "tokuyou",
    "serviceType": "介護老人福祉施設",
    "capacity": 0,
    "openDays": [],
    "openDaysNote": ""
  },
  {
    "id": "3577500063",
    "name": "特別養護老人ホームとくぢ苑",
    "kana": "トクベツヨウゴロウジンホームトクヂエン",
    "address": "山口県山口市徳地八坂1330番地",
    "lat": 34.2341075,
    "lng": 131.6599683,
    "tel": "0835-56-1306",
    "url": "www.tokudien.jp",
    "pref": "山口県",
    "city": "山口市",
    "category": "tokuyou",
    "serviceType": "介護老人福祉施設",
    "capacity": 0,
    "openDays": [],
    "openDaysNote": ""
  },
  {
    "id": "3570300420",
    "name": "特別養護老人ホームよしき悠々苑",
    "kana": "トクベツヨウゴロウジンホ-ムヨシキユウユウエン",
    "address": "山口県山口市吉敷佐畑四丁目8番1号",
    "lat": 34.1687066,
    "lng": 131.4282438,
    "tel": "083-932-0232",
    "url": "yuujukai.hp.peraichi.com",
    "pref": "山口県",
    "city": "山口市",
    "category": "tokuyou",
    "serviceType": "介護老人福祉施設",
    "capacity": null,
    "openDays": [],
    "openDaysNote": ""
  },
  {
    "id": "3578100285",
    "name": "特別養護老人ホーム阿東園",
    "kana": "トクベツヨウゴロウジンホームアトウエン",
    "address": "山口県山口市阿東地福下２８８番地１",
    "lat": 34.3439371,
    "lng": 131.6312193,
    "tel": "083-952-1154",
    "url": "https://c-able.ne.jp",
    "pref": "山口県",
    "city": "山口市",
    "category": "tokuyou",
    "serviceType": "介護老人福祉施設",
    "capacity": 0,
    "openDays": [],
    "openDaysNote": ""
  },
  {
    "id": "3577600178",
    "name": "特別養護老人ホーム白松苑",
    "kana": "トクベツヨウゴロウジンホームハクショウエン",
    "address": "山口県山口市阿知須4167番地1",
    "lat": 34.0085950809705,
    "lng": 131.358172055196,
    "tel": "0836-65-2250",
    "url": "https://www.hakusyoen.jp/",
    "pref": "山口県",
    "city": "山口市",
    "category": "tokuyou",
    "serviceType": "介護老人福祉施設",
    "capacity": 100,
    "openDays": [],
    "openDaysNote": ""
  },
  {
    "id": "3577700093",
    "name": "特別養護老人ホーム　サンライフ山陽",
    "kana": "トクベツヨウゴロウジンホーム　サンライフサンヨウ",
    "address": "山陽小野田市大字埴生2156番地",
    "lat": 34.0448622,
    "lng": 131.0765575,
    "tel": "0836-76-3443",
    "url": "http://care-net.biz/35/sanraifu/",
    "pref": "山口県",
    "city": "山陽小野田市",
    "category": "tokuyou",
    "serviceType": "介護老人福祉施設",
    "capacity": 80,
    "openDays": [],
    "openDaysNote": ""
  },
  {
    "id": "3571600422",
    "name": "特別養護老人ホーム　フクシア",
    "kana": "トクベツヨウゴロウジンホーム　フクシア",
    "address": "山陽小野田市厚狭字埴生田503番1",
    "lat": 34.0532721097851,
    "lng": 131.173971495476,
    "tel": "0836-71-1200",
    "url": "http://asashion.wixsite.com/kenjinkai",
    "pref": "山口県",
    "city": "山陽小野田市",
    "category": "tokuyou",
    "serviceType": "介護老人福祉施設",
    "capacity": 0,
    "openDays": [],
    "openDaysNote": ""
  },
  {
    "id": "3570900153",
    "name": "特別養護老人ホーム　高千帆苑",
    "kana": "トクベツヨウゴロウジンホーム　タカチホエン",
    "address": "山陽小野田市大字有帆字佛石１０６６２番地８",
    "lat": 34.0286200333241,
    "lng": 131.197822692529,
    "tel": "0836-84-0317",
    "url": "http://otakaro.wixsite.com/my-site",
    "pref": "山口県",
    "city": "山陽小野田市",
    "category": "tokuyou",
    "serviceType": "介護老人福祉施設",
    "capacity": 0,
    "openDays": [],
    "openDaysNote": ""
  },
  {
    "id": "3570900096",
    "name": "特別養護老人ホーム　長寿園",
    "kana": "トクベツヨウゴロウジンホーム　チョウジュエン",
    "address": "山口県山陽小野田市大字小野田１１３２４番地10",
    "lat": 33.9913449149414,
    "lng": 131.183707315344,
    "tel": "0836-84-2424",
    "url": "http://care-net.biz/35/choujukai01/",
    "pref": "山口県",
    "city": "山陽小野田市",
    "category": "tokuyou",
    "serviceType": "介護老人福祉施設",
    "capacity": 82,
    "openDays": [],
    "openDaysNote": ""
  },
  {
    "id": "3571501224",
    "name": "特別養護老人ホーム　くりや苑",
    "kana": "トクベツヨウゴロウジンホーム　クリヤエン",
    "address": "周南市大字栗屋792番地の1",
    "lat": 34.0197122064129,
    "lng": 131.837991935088,
    "tel": "0834-25-2800",
    "url": "https://www.kuriyaen.jp",
    "pref": "山口県",
    "city": "周南市",
    "category": "tokuyou",
    "serviceType": "介護老人福祉施設",
    "capacity": 0,
    "openDays": [],
    "openDaysNote": ""
  },
  {
    "id": "3571501364",
    "name": "特別養護老人ホームつづみ園",
    "kana": "トクベツヨウゴロウジンホームツヅミエン",
    "address": "山口県周南市瀬戸見町12番30号",
    "lat": 34.0507770390218,
    "lng": 131.832914036246,
    "tel": "0834-28-2880",
    "url": "https://www.shunan-jigyodan.jp/",
    "pref": "山口県",
    "city": "周南市",
    "category": "tokuyou",
    "serviceType": "介護老人福祉施設",
    "capacity": 0,
    "openDays": [],
    "openDaysNote": ""
  },
  {
    "id": "3570500276",
    "name": "特別養護老人ホームやすらぎ苑",
    "kana": "トクベツヨウゴロウジンホームヤスラギエン",
    "address": "山口県周南市大字湯野１５８番地",
    "lat": 34.0918682,
    "lng": 131.6782669,
    "tel": "0834-83-3711",
    "url": "http://www.yasuragi-en.jp/",
    "pref": "山口県",
    "city": "周南市",
    "category": "tokuyou",
    "serviceType": "介護老人福祉施設",
    "capacity": null,
    "openDays": [],
    "openDaysNote": ""
  },
  {
    "id": "3577400058",
    "name": "特別養護老人ホームやまなみ荘",
    "kana": "トクベツヨウゴロウジンホームヤマナミソウ",
    "address": "山口県周南市大字鹿野上2755番地の１",
    "lat": 34.2296147,
    "lng": 131.8096681,
    "tel": "0834-68-4100",
    "url": "http://www.kanofukushikai.or.jp/",
    "pref": "山口県",
    "city": "周南市",
    "category": "tokuyou",
    "serviceType": "介護老人福祉施設",
    "capacity": 0,
    "openDays": [],
    "openDaysNote": ""
  },
  {
    "id": "3577300217",
    "name": "特別養護老人ホーム天王園",
    "kana": "トクベツヨウゴロウジンホーム　テンノウエン",
    "address": "山口県周南市大字大河内10518番地10",
    "lat": 34.0259922189028,
    "lng": 131.940889670361,
    "tel": "0833-91-5550",
    "url": "http://www.tennouen.com",
    "pref": "山口県",
    "city": "周南市",
    "category": "tokuyou",
    "serviceType": "介護老人福祉施設",
    "capacity": 82,
    "openDays": [],
    "openDaysNote": ""
  },
  {
    "id": "3571400062",
    "name": "特別養護老人ホーム福寿荘",
    "kana": "トクベツヨウゴロウジンホームフクジュソウ",
    "address": "山口県周南市大字米光３６１番地",
    "lat": 34.1369534,
    "lng": 131.7220452,
    "tel": "0834-67-2820",
    "url": "http://www.shinnanyofukushi.com",
    "pref": "山口県",
    "city": "周南市",
    "category": "tokuyou",
    "serviceType": "介護老人福祉施設",
    "capacity": 72,
    "openDays": [],
    "openDaysNote": ""
  },
  {
    "id": "3570500284",
    "name": "特別養護老人ホーム友愛園",
    "kana": "トクベツヨウゴロウジンホームユウアイエン",
    "address": "周南市大字須々万本郷28番地の１",
    "lat": 34.1232886,
    "lng": 131.8581132,
    "tel": "0834-88-2208",
    "url": "http://ryokuzankai.jp",
    "pref": "山口県",
    "city": "周南市",
    "category": "tokuyou",
    "serviceType": "介護老人福祉施設",
    "capacity": 0,
    "openDays": [],
    "openDaysNote": ""
  },
  {
    "id": "3577100179",
    "name": "特別養護老人ホーム　オレンジ苑",
    "kana": "トクベツヨウゴロウジンホーム　オレンジエン",
    "address": "大島郡周防大島町大字東安下庄７７４番地９",
    "lat": 33.8990826,
    "lng": 132.2926206,
    "tel": "0820-77-2065",
    "url": "",
    "pref": "山口県",
    "city": "周防大島町",
    "category": "tokuyou",
    "serviceType": "介護老人福祉施設",
    "capacity": 0,
    "openDays": [],
    "openDaysNote": ""
  },
  {
    "id": "3577100153",
    "name": "特別養護老人ホーム　やまびこ苑",
    "kana": "トクベツヨウゴロウジンホーム　ヤマビコエン",
    "address": "山口県大島郡周防大島町大字久賀5375-1",
    "lat": 33.9461137,
    "lng": 132.2587948,
    "tel": "0820-72-2880",
    "url": "",
    "pref": "山口県",
    "city": "周防大島町",
    "category": "tokuyou",
    "serviceType": "介護老人福祉施設",
    "capacity": 0,
    "openDays": [],
    "openDaysNote": ""
  },
  {
    "id": "3577100260",
    "name": "特別養護老人ホーム　白寿苑",
    "kana": "トクベツヨウゴロウジンホーム　ハクジュエン",
    "address": "山口県大島郡周防大島町大字西方　１６２３－３",
    "lat": 33.9001784,
    "lng": 132.3373128,
    "tel": "0820-78-1800",
    "url": "https://www.oshima-hakujukai.com/",
    "pref": "山口県",
    "city": "周防大島町",
    "category": "tokuyou",
    "serviceType": "介護老人福祉施設",
    "capacity": 83,
    "openDays": [],
    "openDaysNote": ""
  },
  {
    "id": "3577100187",
    "name": "特別養護老人ホームほのぼの苑",
    "kana": "トクベツヨウゴロウジンホームホノボノエン",
    "address": "大島郡周防大島町大字小松133番地1",
    "lat": 33.9275143,
    "lng": 132.1963563,
    "tel": "0820-74-2100",
    "url": "http://satsukikai-oshima.com/",
    "pref": "山口県",
    "city": "周防大島町",
    "category": "tokuyou",
    "serviceType": "介護老人福祉施設",
    "capacity": null,
    "openDays": [],
    "openDaysNote": ""
  },
  {
    "id": "3577300266",
    "name": "特別養護老人ホーム　かみのせき苑",
    "kana": "トクベツヨウゴロウジンホーム　カミノセキエン",
    "address": "熊毛郡上関町大字長島１５６１－１",
    "lat": 33.8152633,
    "lng": 132.0737511,
    "tel": "0820-65-5110",
    "url": "",
    "pref": "山口県",
    "city": "上関町",
    "category": "tokuyou",
    "serviceType": "介護老人福祉施設",
    "capacity": 30,
    "openDays": [],
    "openDaysNote": ""
  },
  {
    "id": "3578000121",
    "name": "特別養護老人ホーム　へき楽園",
    "kana": "トクベツヨウゴロウジンホーム　ヘキラクエン",
    "address": "山口県長門市日置上3114番地",
    "lat": 34.3968969,
    "lng": 131.1333837,
    "tel": "0837-37-4177",
    "url": "https://hekirakuen.or.jp",
    "pref": "山口県",
    "city": "長門市",
    "category": "tokuyou",
    "serviceType": "介護老人福祉施設",
    "capacity": 0,
    "openDays": [],
    "openDaysNote": ""
  },
  {
    "id": "3571100159",
    "name": "特別養護老人ホーム　吉祥苑",
    "kana": "トクベツヨウゴロウジンホーム　キッショウエン",
    "address": "長門市深川湯本１０６００番地1",
    "lat": 34.3390819,
    "lng": 131.1786246,
    "tel": "0837-22-7700",
    "url": "https://www.fukushoukai.or.jp",
    "pref": "山口県",
    "city": "長門市",
    "category": "tokuyou",
    "serviceType": "介護老人福祉施設",
    "capacity": 80,
    "openDays": [],
    "openDaysNote": ""
  },
  {
    "id": "3578000139",
    "name": "特別養護老人ホーム　明和苑",
    "kana": "トクベツヨウゴロウジンホーム　メイワエン",
    "address": "長門市三隅中1811番地",
    "lat": 34.3619474,
    "lng": 131.2652982,
    "tel": "0837-43-1234",
    "url": "http://meiwaen.jp/",
    "pref": "山口県",
    "city": "長門市",
    "category": "tokuyou",
    "serviceType": "介護老人福祉施設",
    "capacity": 0,
    "openDays": [],
    "openDaysNote": ""
  },
  {
    "id": "3578000154",
    "name": "特別養護老人ホーム　養寿苑",
    "kana": "トクベヨウゴロウジンホーム　ヨウジュエン",
    "address": "山口県長門市油谷向津具上10344番地",
    "lat": 34.3999046,
    "lng": 131.0028231,
    "tel": "0837-34-1577",
    "url": "https:.//www.youjyuen.com",
    "pref": "山口県",
    "city": "長門市",
    "category": "tokuyou",
    "serviceType": "介護老人福祉施設",
    "capacity": 0,
    "openDays": [],
    "openDaysNote": ""
  },
  {
    "id": "3571100100",
    "name": "特別養護老人ホーム恵光苑",
    "kana": "トクベツヨウゴロウジンホームケイコウエン",
    "address": "山口県長門市東深川堤山10062番地27",
    "lat": 34.3726977,
    "lng": 131.1882387,
    "tel": "0837-22-0723",
    "url": "http://www.keikouen.jp/",
    "pref": "山口県",
    "city": "長門市",
    "category": "tokuyou",
    "serviceType": "介護老人福祉施設",
    "capacity": 0,
    "openDays": [],
    "openDaysNote": ""
  },
  {
    "id": "3577300274",
    "name": "特別養護老人ホームたぶせ苑",
    "kana": "トクベツヨウゴロウジンホームタブセエン",
    "address": "山口県熊毛郡田布施町大字宿井４０６番地",
    "lat": 33.9655012,
    "lng": 132.0282905,
    "tel": "0820-53-1294",
    "url": "http://care-net.biz/35/shifuku/sitemap.php",
    "pref": "山口県",
    "city": "田布施町",
    "category": "tokuyou",
    "serviceType": "介護老人福祉施設",
    "capacity": 0,
    "openDays": [],
    "openDaysNote": ""
  },
  {
    "id": "3570400436",
    "name": "特別養護老人ホームオアシスはぎ園",
    "kana": "トクベツヨウゴロウジンホーム　オアシスハギエン",
    "address": "山口県萩市大井1723番地6",
    "lat": 34.473904,
    "lng": 131.4460884,
    "tel": "0838-28-0088",
    "url": "https://jigyodan-yg.jp/hagien/",
    "pref": "山口県",
    "city": "萩市",
    "category": "tokuyou",
    "serviceType": "介護老人福祉施設",
    "capacity": 0,
    "openDays": [],
    "openDaysNote": ""
  },
  {
    "id": "3578100244",
    "name": "特別養護老人ホームかわかみ苑",
    "kana": "トクベツヨウゴロウジンホームカワカミエン",
    "address": "山口県萩市川上４９２１番地の１",
    "lat": 34.3588305990177,
    "lng": 131.477498535582,
    "tel": "０８３８－５４－２０００",
    "url": "https://kawakamien.jp/",
    "pref": "山口県",
    "city": "萩市",
    "category": "tokuyou",
    "serviceType": "介護老人福祉施設",
    "capacity": null,
    "openDays": [],
    "openDaysNote": ""
  },
  {
    "id": "3578100277",
    "name": "特別養護老人ホームすさ苑",
    "kana": "トクベツヨウゴロウジンホームスサエン",
    "address": "萩市大字須佐1378-1",
    "lat": 34.6128762,
    "lng": 131.607869,
    "tel": "08387-6-3146",
    "url": "https://susaen.or.jp",
    "pref": "山口県",
    "city": "萩市",
    "category": "tokuyou",
    "serviceType": "介護老人福祉施設",
    "capacity": 50,
    "openDays": [],
    "openDaysNote": ""
  },
  {
    "id": "3578100327",
    "name": "特別養護老人ホームちはるえん",
    "kana": "トクベツヨウゴロウジンホームチハルエン",
    "address": "萩市大字明木４７８１番地の１",
    "lat": 34.3596736,
    "lng": 131.420324,
    "tel": "0838-55-0333",
    "url": "",
    "pref": "山口県",
    "city": "萩市",
    "category": "tokuyou",
    "serviceType": "介護老人福祉施設",
    "capacity": 0,
    "openDays": [],
    "openDaysNote": ""
  },
  {
    "id": "3578100269",
    "name": "特別養護老人ホームむつみ園",
    "kana": "トクベツヨウゴロウジンホームムツミエン",
    "address": "山口県萩市大字吉部上3301-1",
    "lat": 34.4374346,
    "lng": 131.57447,
    "tel": "08388-6-0301",
    "url": "http://siunkai.jp/",
    "pref": "山口県",
    "city": "萩市",
    "category": "tokuyou",
    "serviceType": "介護老人福祉施設",
    "capacity": 50,
    "openDays": [],
    "openDaysNote": ""
  },
  {
    "id": "3578100301",
    "name": "特別養護老人ホーム阿北苑",
    "kana": "トクベツヨウゴロウジンホームアホクエン",
    "address": "山口県萩市大字上小川東分1406番地",
    "lat": 34.5894553,
    "lng": 131.6717395,
    "tel": "08387-4-0231",
    "url": "http://www.ahoku.or.jp/",
    "pref": "山口県",
    "city": "萩市",
    "category": "tokuyou",
    "serviceType": "介護老人福祉施設",
    "capacity": 0,
    "openDays": [],
    "openDaysNote": ""
  },
  {
    "id": "3578100236",
    "name": "特別養護老人ホーム紫福園",
    "kana": "トクベツヨウゴロウジンホームシブキエン",
    "address": "山口県萩市大字紫福６６０６－１",
    "lat": 34.4612984,
    "lng": 131.5157797,
    "tel": "0838-53-0231",
    "url": "http://siunkai.jp/",
    "pref": "山口県",
    "city": "萩市",
    "category": "tokuyou",
    "serviceType": "介護老人福祉施設",
    "capacity": 0,
    "openDays": [],
    "openDaysNote": ""
  },
  {
    "id": "3570400360",
    "name": "萩市特別養護老人ホームかがやき",
    "kana": "ハギシトクベツヨウゴロウジンホームカガヤキ",
    "address": "山口県萩市大字椿字門田3460-2",
    "lat": 34.3975725220059,
    "lng": 131.394090626814,
    "tel": "0838-24-4111",
    "url": "http://hagi-kagayaki.or.jp",
    "pref": "山口県",
    "city": "萩市",
    "category": "tokuyou",
    "serviceType": "介護老人福祉施設",
    "capacity": 0,
    "openDays": [],
    "openDaysNote": ""
  },
  {
    "id": "3577900065",
    "name": "特別養護老人ホーム　みとう悠々苑",
    "kana": "トクベツヨウゴロウジンホーム　ミトウユウユウエン",
    "address": "山口県美祢市美東町大田5378番地1",
    "lat": 34.2158783,
    "lng": 131.3467544,
    "tel": "08396-2-1100",
    "url": "https：/mitou-uu.wixsite.com/mitou-uu",
    "pref": "山口県",
    "city": "美祢市",
    "category": "tokuyou",
    "serviceType": "介護老人福祉施設",
    "capacity": 0,
    "openDays": [],
    "openDaysNote": ""
  },
  {
    "id": "3577900073",
    "name": "特別養護老人ホーム　青景園",
    "kana": "トクベツヨウゴロウジンホーム　アオカゲエン",
    "address": "美祢市秋芳町青景1873番地",
    "lat": 34.2719531,
    "lng": 131.278329,
    "tel": "0837-65-2244",
    "url": "https://aokage52.jp",
    "pref": "山口県",
    "city": "美祢市",
    "category": "tokuyou",
    "serviceType": "介護老人福祉施設",
    "capacity": 0,
    "openDays": [],
    "openDaysNote": ""
  },
  {
    "id": "3571300072",
    "name": "特別養護老人ホームみのり園",
    "kana": "トクベツヨウゴロウジンホームミノリエン",
    "address": "山口県美祢市於福町上4017-1",
    "lat": 34.2521472,
    "lng": 131.2066728,
    "tel": "0837-56-1171",
    "url": "http://wwwf-doho.com",
    "pref": "山口県",
    "city": "美祢市",
    "category": "tokuyou",
    "serviceType": "介護老人福祉施設",
    "capacity": 0,
    "openDays": [],
    "openDaysNote": ""
  },
  {
    "id": "3571300064",
    "name": "特別養護老人ホーム幸嶺園",
    "kana": "トクベツヨウゴロウジンホームコウリョウエン",
    "address": "山口県美祢市伊佐町伊佐字下田5656-1",
    "lat": 34.1640336264375,
    "lng": 131.199784215474,
    "tel": "0837-52-4555",
    "url": "http://www.shubikai.com/shisetu01/index.html",
    "pref": "山口県",
    "city": "美祢市",
    "category": "tokuyou",
    "serviceType": "介護老人福祉施設",
    "capacity": 90,
    "openDays": [],
    "openDaysNote": ""
  },
  {
    "id": "3577300209",
    "name": "特別養護老人ホームつつじ苑",
    "kana": "トクベツヨウゴロウジンホームツツジエン",
    "address": "山口県熊毛郡平生町大字曽根10126-2",
    "lat": 33.9204370000004,
    "lng": 132.065200473541,
    "tel": "0820-56-1050",
    "url": "http://www.uchiumikai.or.jp/",
    "pref": "山口県",
    "city": "平生町",
    "category": "tokuyou",
    "serviceType": "介護老人福祉施設",
    "capacity": 0,
    "openDays": [],
    "openDaysNote": ""
  },
  {
    "id": "3570602155",
    "name": "特別養護老人ホーム　サンハート香月",
    "kana": "トクベツヨウゴロウジンホーム　サンハートカツキ",
    "address": "山口県防府市岸津２丁目２５番１号",
    "lat": 34.0501465,
    "lng": 131.5930458,
    "tel": "0835-27-1500",
    "url": "http://www.shuyou.jp/",
    "pref": "山口県",
    "city": "防府市",
    "category": "tokuyou",
    "serviceType": "介護老人福祉施設",
    "capacity": 30,
    "openDays": [],
    "openDaysNote": ""
  },
  {
    "id": "3570600688",
    "name": "特別養護老人ホーム　まめ舎",
    "kana": "トクベツヨウゴロウジンホーム　マメジャ",
    "address": "山口県防府市大字新田６７２番地",
    "lat": 34.0324780313848,
    "lng": 131.56317926568,
    "tel": "0835-26-0303",
    "url": "http://www.c-able.ne.jp/~keiten/",
    "pref": "山口県",
    "city": "防府市",
    "category": "tokuyou",
    "serviceType": "介護老人福祉施設",
    "capacity": 0,
    "openDays": [],
    "openDaysNote": ""
  },
  {
    "id": "3570600274",
    "name": "特別養護老人ホーム　ライフケア高砂",
    "kana": "トクベツヨウゴロウジンホーム　ライフケアタカサゴ",
    "address": "防府市大字上右田３３４",
    "lat": 34.0951635885841,
    "lng": 131.58084267601,
    "tel": "０８３５－２２－５５００",
    "url": "life-care-takasago.jp",
    "pref": "山口県",
    "city": "防府市",
    "category": "tokuyou",
    "serviceType": "介護老人福祉施設",
    "capacity": 90,
    "openDays": [],
    "openDaysNote": ""
  },
  {
    "id": "3570600233",
    "name": "特別養護老人ホーム　岸津苑",
    "kana": "トクベツヨウゴロウジンホーム　キシヅエン",
    "address": "防府市岸津二丁目２４番２０号",
    "lat": 34.0496799,
    "lng": 131.5936069,
    "tel": "0835-24-0511",
    "url": "http://www.shuyou.jp/",
    "pref": "山口県",
    "city": "防府市",
    "category": "tokuyou",
    "serviceType": "介護老人福祉施設",
    "capacity": 80,
    "openDays": [],
    "openDaysNote": ""
  },
  {
    "id": "3570600258",
    "name": "特別養護老人ホーム防府あかり園",
    "kana": "トクベツヨウゴロウジンホームホウフアカリエン",
    "address": "防府市大字台道１６５５番地",
    "lat": 34.0698294,
    "lng": 131.492829,
    "tel": "0835-32-0730",
    "url": "http://www.hakuaikai-yamaguchi.jp/",
    "pref": "山口県",
    "city": "防府市",
    "category": "tokuyou",
    "serviceType": "介護老人福祉施設",
    "capacity": 132,
    "openDays": [],
    "openDaysNote": ""
  },
  {
    "id": "3571200470",
    "name": "特別養護老人ホーム　四季の里",
    "kana": "トクベツヨウゴロウジンホーム　シキノサト",
    "address": "柳井市日積３２１０－５",
    "lat": 34.0058471,
    "lng": 132.1741559,
    "tel": "0820-28-1770",
    "url": "http://www.saisyokai.or.jp",
    "pref": "山口県",
    "city": "柳井市",
    "category": "tokuyou",
    "serviceType": "介護老人福祉施設",
    "capacity": 0,
    "openDays": [],
    "openDaysNote": ""
  },
  {
    "id": "3571200488",
    "name": "特別養護老人ホーム伊保庄園",
    "kana": "トクベツヨウゴロウジンホームイホノショウエン",
    "address": "山口県柳井市伊保庄1番地２",
    "lat": 33.9108729,
    "lng": 132.1298844,
    "tel": "0820-27-0840",
    "url": "https://jigyodan-yg.jp/ihonosyou/",
    "pref": "山口県",
    "city": "柳井市",
    "category": "tokuyou",
    "serviceType": "介護老人福祉施設",
    "capacity": 100,
    "openDays": [],
    "openDaysNote": ""
  },
  {
    "id": "3571200116",
    "name": "特別養護老人ホーム松風苑",
    "kana": "トクベツヨウゴロウジンホームショウフウエン",
    "address": "柳井市余田3762番地の1",
    "lat": 33.9601415,
    "lng": 132.0652355,
    "tel": "0820-23-6363",
    "url": "http://shoueikai.or.jp/shoueikai.or.jp/wp-sf/",
    "pref": "山口県",
    "city": "柳井市",
    "category": "tokuyou",
    "serviceType": "介護老人福祉施設",
    "capacity": 0,
    "openDays": [],
    "openDaysNote": ""
  },
  {
    "id": "3577200292",
    "name": "特別養護老人ホーム大畠苑",
    "kana": "トクベツヨウゴロウジンホームオオバタケエン",
    "address": "山口県柳井市遠崎１０４１２番地４",
    "lat": 33.9586658145005,
    "lng": 132.157815523619,
    "tel": "0820-45-3838",
    "url": "https://senjukai-oobatakeen.jp/",
    "pref": "山口県",
    "city": "柳井市",
    "category": "tokuyou",
    "serviceType": "介護老人福祉施設",
    "capacity": 0,
    "openDays": [],
    "openDaysNote": ""
  },
  {
    "id": "3577200300",
    "name": "特別養護老人ホームわきあいあい苑",
    "kana": "トクベツヨウゴロウジンホームワキアイアイエン",
    "address": "玖珂郡和木町瀬田４丁目１－１",
    "lat": 34.1919204,
    "lng": 132.2245524,
    "tel": "0827-54-0345",
    "url": "https://aiaien.hp.gogo.jp",
    "pref": "山口県",
    "city": "和木町",
    "category": "tokuyou",
    "serviceType": "介護老人福祉施設",
    "capacity": 53,
    "openDays": [],
    "openDaysNote": ""
  }
]