[
  {
    "id": "1972200099",
    "name": "特別養護老人ホーム　ヒルズ勝沼",
    "kana": "トクベツヨウゴロウジンホーム　ヒルズカツヌマ",
    "address": "山梨県甲州市勝沼町下岩崎２０９１",
    "lat": 35.653255,
    "lng": 138.7189011,
    "tel": "0553-44-5581",
    "url": "http://www.hills-katsunuma.com",
    "pref": "山梨県",
    "city": "甲州市",
    "category": "tokuyou",
    "serviceType": "介護老人福祉施設",
    "capacity": 70,
    "openDays": [],
    "openDaysNote": ""
  },
  {
    "id": "1970300149",
    "name": "特別養護老人ホーム　緑風苑",
    "kana": "トクベツヨウゴロウジンホーム　リョクフウエン",
    "address": "山梨県甲州市塩山下於曽１２５６番地",
    "lat": 35.6970111,
    "lng": 138.7252604,
    "tel": "0553-32-4165",
    "url": "http://www.ryokufuuen.com",
    "pref": "山梨県",
    "city": "甲州市",
    "category": "tokuyou",
    "serviceType": "介護老人福祉施設",
    "capacity": null,
    "openDays": [],
    "openDaysNote": ""
  },
  {
    "id": "1970300016",
    "name": "特別養護老人ホーム光風園",
    "kana": "トクベツヨウゴロウジンホームコウフウエン",
    "address": "甲州市塩山西野原603",
    "lat": 35.6891181,
    "lng": 138.7361517,
    "tel": "0553-33-7511",
    "url": "http://www.koufuukai-yamanashi.or.jp/",
    "pref": "山梨県",
    "city": "甲州市",
    "category": "tokuyou",
    "serviceType": "介護老人福祉施設",
    "capacity": 0,
    "openDays": [],
    "openDaysNote": ""
  },
  {
    "id": "1970800221",
    "name": "介護老人福祉施設　敷島荘",
    "kana": "カイゴロウジンフクシシセツ　シキシマソウ",
    "address": "山梨県甲斐市大久保1357",
    "lat": 35.6933058,
    "lng": 138.515519,
    "tel": "055-277-8811",
    "url": "shikishimasou.net",
    "pref": "山梨県",
    "city": "甲斐市",
    "category": "tokuyou",
    "serviceType": "介護老人福祉施設",
    "capacity": 54,
    "openDays": [],
    "openDaysNote": ""
  },
  {
    "id": "1970800189",
    "name": "特別養護老人ホームめぐみ荘",
    "kana": "トクベツヨウゴロウジンホームメグミソウ",
    "address": "山梨県甲斐市竜王644-5",
    "lat": 35.6716075,
    "lng": 138.5075163,
    "tel": "055-278-0881",
    "url": "",
    "pref": "山梨県",
    "city": "甲斐市",
    "category": "tokuyou",
    "serviceType": "介護老人福祉施設",
    "capacity": null,
    "openDays": [],
    "openDaysNote": ""
  },
  {
    "id": "1971700206",
    "name": "特別養護老人ホームゆめみどり",
    "kana": "トクベツヨウゴロウジンホームユメミドリ",
    "address": "山梨県甲斐市玉川１７００－１",
    "lat": 35.6331636,
    "lng": 138.5227571,
    "tel": "055-278-2800",
    "url": "http://www.kashinokai.or.jp/",
    "pref": "山梨県",
    "city": "甲斐市",
    "category": "tokuyou",
    "serviceType": "介護老人福祉施設",
    "capacity": 70,
    "openDays": [],
    "openDaysNote": ""
  },
  {
    "id": "1970104376",
    "name": "とくべつようごろうじんほーむそれいゆこうふ",
    "kana": "特別養護老人ホームソレイユ甲府",
    "address": "西高橋町277番ソレイユ甲府 ソレイユ甲府",
    "lat": 35.6398333,
    "lng": 138.5969642,
    "tel": "055－236-2266",
    "url": "http://www.fujikoseikai.or.jp",
    "pref": "山梨県",
    "city": "甲府市",
    "category": "tokuyou",
    "serviceType": "介護老人福祉施設",
    "capacity": null,
    "openDays": [],
    "openDaysNote": ""
  },
  {
    "id": "1970100200",
    "name": "トリアス",
    "kana": "トリアス",
    "address": "山梨県甲府市国玉町９５１－１",
    "lat": 35.6465584,
    "lng": 138.5986866,
    "tel": "055-223-3303",
    "url": "http://www.torias.or.jp",
    "pref": "山梨県",
    "city": "甲府市",
    "category": "tokuyou",
    "serviceType": "介護老人福祉施設",
    "capacity": 0,
    "openDays": [],
    "openDaysNote": ""
  },
  {
    "id": "1970100150",
    "name": "奥湯村指定介護老人福祉施設",
    "kana": "オクユムラシテイカイゴロウジンフクシシセツ",
    "address": "甲府市羽黒町1657-5",
    "lat": 35.6926428,
    "lng": 138.5504209,
    "tel": "055-253-1165",
    "url": "htt@p://okuyumura.or.jp/",
    "pref": "山梨県",
    "city": "甲府市",
    "category": "tokuyou",
    "serviceType": "介護老人福祉施設",
    "capacity": null,
    "openDays": [],
    "openDaysNote": ""
  },
  {
    "id": "1970100184",
    "name": "快晴苑",
    "kana": "カイセイエン",
    "address": "山梨県甲府市大津町３３３",
    "lat": 35.6090356,
    "lng": 138.5638618,
    "tel": "055-243-3939",
    "url": "https://daijukai-y.or.jp/",
    "pref": "山梨県",
    "city": "甲府市",
    "category": "tokuyou",
    "serviceType": "介護老人福祉施設",
    "capacity": null,
    "openDays": [],
    "openDaysNote": ""
  },
  {
    "id": "1970500581",
    "name": "指定介護老人福祉施設コスモ",
    "kana": "シテイカイゴロウジンフクシシセツ　コスモ",
    "address": "山梨県甲府市下向山町１２８０－１",
    "lat": 35.5893734,
    "lng": 138.5808953,
    "tel": "055-266-8000",
    "url": "http://www17.ocn.ne.jp/~cosumo.1/",
    "pref": "山梨県",
    "city": "甲府市",
    "category": "tokuyou",
    "serviceType": "介護老人福祉施設",
    "capacity": null,
    "openDays": [],
    "openDaysNote": ""
  },
  {
    "id": "1970101166",
    "name": "特別養護老人ホーム　ロイヤルあかし",
    "kana": "トクベツヨウゴロウジンホーム　ロイヤルアカシ",
    "address": "甲府市上町２４７３",
    "lat": 35.6366689,
    "lng": 138.5869844,
    "tel": "055-226-6580",
    "url": "www.akashi.or.jp",
    "pref": "山梨県",
    "city": "甲府市",
    "category": "tokuyou",
    "serviceType": "介護老人福祉施設",
    "capacity": 0,
    "openDays": [],
    "openDaysNote": ""
  },
  {
    "id": "1970100192",
    "name": "特別養護老人ホーム　桜井寮",
    "kana": "トクベツヨウゴロウジンホーム　サクライリョウ",
    "address": "山梨県甲府市桜井町558番地",
    "lat": 35.6577311,
    "lng": 138.6177451,
    "tel": "055-232-8261",
    "url": "http://www.sakurai-ryo.com",
    "pref": "山梨県",
    "city": "甲府市",
    "category": "tokuyou",
    "serviceType": "介護老人福祉施設",
    "capacity": 80,
    "openDays": [],
    "openDaysNote": ""
  },
  {
    "id": "1970100176",
    "name": "特別養護老人ホーム　尚古園",
    "kana": "トクベツヨウゴロウジンホーム　ショウコエン",
    "address": "山梨県甲府市和田町2948番地の6",
    "lat": 35.6875623,
    "lng": 138.5615484,
    "tel": "055-253-7231",
    "url": "https://www.zenrinkai.or.jp",
    "pref": "山梨県",
    "city": "甲府市",
    "category": "tokuyou",
    "serviceType": "介護老人福祉施設",
    "capacity": 0,
    "openDays": [],
    "openDaysNote": ""
  },
  {
    "id": "1970100994",
    "name": "特別養護老人ホーム　清栄なでしこ荘",
    "kana": "トクベツヨウゴロウジンホームセイエイナデシコソウ",
    "address": "山梨県甲府市横根町５５４",
    "lat": 35.6575986,
    "lng": 138.6151137,
    "tel": "055-221-1200",
    "url": "",
    "pref": "山梨県",
    "city": "甲府市",
    "category": "tokuyou",
    "serviceType": "介護老人福祉施設",
    "capacity": 0,
    "openDays": [],
    "openDaysNote": ""
  },
  {
    "id": "1970101901",
    "name": "特別養護老人ホーム　風林荘",
    "kana": "トクベツヨウゴロウジンホーム　フウリンソウ",
    "address": "山梨県甲府市宮原町１１９１",
    "lat": 35.6176865,
    "lng": 138.5572068,
    "tel": "055-241-5656",
    "url": "http://fuurinsou.com",
    "pref": "山梨県",
    "city": "甲府市",
    "category": "tokuyou",
    "serviceType": "介護老人福祉施設",
    "capacity": 60,
    "openDays": [],
    "openDaysNote": ""
  },
  {
    "id": "1970100119",
    "name": "特別養護老人ホーム　和久園",
    "kana": "トクベツヨウゴロウジンホーム　ワキュウエン",
    "address": "甲府市中村町11-18",
    "lat": 35.6655743145865,
    "lng": 138.534890638227,
    "tel": "055-226-3280",
    "url": "https://www.wakouwelfare.or.jp",
    "pref": "山梨県",
    "city": "甲府市",
    "category": "tokuyou",
    "serviceType": "介護老人福祉施設",
    "capacity": 0,
    "openDays": [],
    "openDaysNote": ""
  },
  {
    "id": "1970100044",
    "name": "特別養護老人ホーム春光園",
    "kana": "トクベツヨウゴロウジンホーム　シュンコウエン",
    "address": "山梨県甲府市増坪町681",
    "lat": 35.6344728,
    "lng": 138.5942952,
    "tel": "055-241-3111",
    "url": "http://shinwakai1979.or.jp",
    "pref": "山梨県",
    "city": "甲府市",
    "category": "tokuyou",
    "serviceType": "介護老人福祉施設",
    "capacity": 50,
    "openDays": [],
    "openDaysNote": ""
  },
  {
    "id": "1970200141",
    "name": "恵信ロジェ山梨",
    "kana": "ケイシンロジェヤマナシ",
    "address": "山梨県山梨市南１３３５",
    "lat": 35.70064,
    "lng": 138.6855859,
    "tel": "0553-20-1711",
    "url": "http://www.keishin-group.net/roger/index.htm",
    "pref": "山梨県",
    "city": "山梨市",
    "category": "tokuyou",
    "serviceType": "介護老人福祉施設",
    "capacity": null,
    "openDays": [],
    "openDaysNote": ""
  },
  {
    "id": "1970200646",
    "name": "個室ユニット型特別養護老人ホーム桃源荘",
    "kana": "コシツユニットガタトクベツヨウゴロウジンホームトウゲンソウ",
    "address": "山梨県山梨市一町田中155",
    "lat": 35.6626045,
    "lng": 138.6757852,
    "tel": "0553-22-2361",
    "url": "http://www.yfj.or.jp/tougenso/",
    "pref": "山梨県",
    "city": "山梨市",
    "category": "tokuyou",
    "serviceType": "介護老人福祉施設",
    "capacity": 74,
    "openDays": [],
    "openDaysNote": ""
  },
  {
    "id": "1970400147",
    "name": "特別養護老人ホーム　笛吹荘",
    "kana": "トクベツヨウゴロウジンホーム　フエフキソウ",
    "address": "山梨県山梨市牧丘町室伏２４５２番地",
    "lat": 35.7525594,
    "lng": 138.7216456,
    "tel": "0553-35-5522",
    "url": "https//:jyukokai.jp",
    "pref": "山梨県",
    "city": "山梨市",
    "category": "tokuyou",
    "serviceType": "介護老人福祉施設",
    "capacity": 0,
    "openDays": [],
    "openDaysNote": ""
  },
  {
    "id": "1970200018",
    "name": "特別養護老人ホーム桃源荘",
    "kana": "トクベツヨウゴロウジンホームトウゲンソウ",
    "address": "山梨県山梨市一町田中１５５",
    "lat": 35.6626045,
    "lng": 138.6757852,
    "tel": "0553-22-2361",
    "url": "http://www.yfj.or.jp/",
    "pref": "山梨県",
    "city": "山梨市",
    "category": "tokuyou",
    "serviceType": "介護老人福祉施設",
    "capacity": null,
    "openDays": [],
    "openDaysNote": ""
  },
  {
    "id": "1970600316",
    "name": "介護老人福祉施設　りんどうの里",
    "kana": "カイゴロウジンフクシシセツ　リンドウノサト",
    "address": "山梨県西八代郡市川三郷町高田３０４３",
    "lat": 35.5543635,
    "lng": 138.4869313,
    "tel": "055-272-3355",
    "url": "",
    "pref": "山梨県",
    "city": "市川三郷町",
    "category": "tokuyou",
    "serviceType": "介護老人福祉施設",
    "capacity": 60,
    "openDays": [],
    "openDaysNote": ""
  },
  {
    "id": "1970600035",
    "name": "清珠荘",
    "kana": "セイジュソウ",
    "address": "山梨県西八代郡市川三郷町岩間5000",
    "lat": 35.4863248,
    "lng": 138.4589789,
    "tel": "0556-32-3838",
    "url": "http://www10.ocn.ne.jp/~seijusou",
    "pref": "山梨県",
    "city": "市川三郷町",
    "category": "tokuyou",
    "serviceType": "介護老人福祉施設",
    "capacity": null,
    "openDays": [],
    "openDaysNote": ""
  },
  {
    "id": "1970800163",
    "name": "昭寿荘",
    "kana": "ショウジュソウ",
    "address": "山梨県中巨摩郡昭和町西条２６０５",
    "lat": 35.6423465540041,
    "lng": 138.538925018385,
    "tel": "055-275-5551",
    "url": "http://syowakai.jp",
    "pref": "山梨県",
    "city": "昭和町",
    "category": "tokuyou",
    "serviceType": "介護老人福祉施設",
    "capacity": 70,
    "openDays": [],
    "openDaysNote": ""
  },
  {
    "id": "1972000036",
    "name": "フェリーチェ上野原",
    "kana": "フェリーチェウエノハラ",
    "address": "山梨県上野原市大椚６１１番地",
    "lat": 35.634576,
    "lng": 139.0907511,
    "tel": "0554-63-0294",
    "url": "http://www.heisei294.org",
    "pref": "山梨県",
    "city": "上野原市",
    "category": "tokuyou",
    "serviceType": "介護老人福祉施設",
    "capacity": null,
    "openDays": [],
    "openDaysNote": ""
  },
  {
    "id": "1971500028",
    "name": "特別養護老人ホーム　桜荘",
    "kana": "トクベツヨウゴロウジンホーム　サクラソウ",
    "address": "山梨県上野原市大野２５４１",
    "lat": 35.6216308,
    "lng": 139.0535594,
    "tel": "0554-66-2351",
    "url": "",
    "pref": "山梨県",
    "city": "上野原市",
    "category": "tokuyou",
    "serviceType": "介護老人福祉施設",
    "capacity": null,
    "openDays": [],
    "openDaysNote": ""
  },
  {
    "id": "1970600183",
    "name": "特別養護老人ホームしもべ荘",
    "kana": "トクベツヨウゴロウジンホームシモベソウ",
    "address": "山梨県南巨摩郡身延町常葉7058番地1",
    "lat": 35.4287004,
    "lng": 138.4783974,
    "tel": "0556-20-3111",
    "url": "",
    "pref": "山梨県",
    "city": "身延町",
    "category": "tokuyou",
    "serviceType": "介護老人福祉施設",
    "capacity": 0,
    "openDays": [],
    "openDaysNote": ""
  },
  {
    "id": "1970700058",
    "name": "特別養護老人ホームみのぶ荘",
    "kana": "トクベツヨウゴロウジンホームミノブソウ",
    "address": "山梨県南巨摩郡身延町梅平2483番地122",
    "lat": 35.3703628,
    "lng": 138.4447434,
    "tel": "0556-62-3131",
    "url": "http://www.jsyamanashi.jp/minobusanfukushikai/",
    "pref": "山梨県",
    "city": "身延町",
    "category": "tokuyou",
    "serviceType": "介護老人福祉施設",
    "capacity": null,
    "openDays": [],
    "openDaysNote": ""
  },
  {
    "id": "1971400021",
    "name": "大月富士見苑",
    "kana": "オオツキフジミエン",
    "address": "山梨県大月市大月町真木４６６０",
    "lat": 35.6190499,
    "lng": 138.9065677,
    "tel": "0554-23-0294",
    "url": "http://www.heisei294.org",
    "pref": "山梨県",
    "city": "大月市",
    "category": "tokuyou",
    "serviceType": "介護老人福祉施設",
    "capacity": 0,
    "openDays": [],
    "openDaysNote": ""
  },
  {
    "id": "1971400245",
    "name": "特別養護老人ホーム志仁也",
    "kana": "トクベツヨウゴロウジンホームシニア",
    "address": "山梨県大月市初狩町下初狩４１４６－１０",
    "lat": 35.5804987,
    "lng": 138.8766935,
    "tel": "0554-20-2552",
    "url": "http://www.hujikousei.or.jp",
    "pref": "山梨県",
    "city": "大月市",
    "category": "tokuyou",
    "serviceType": "介護老人福祉施設",
    "capacity": 0,
    "openDays": [],
    "openDaysNote": ""
  },
  {
    "id": "1970800114",
    "name": "特別養護老人ホーム　田富荘",
    "kana": "トクベツヨウゴロージンホーム　タトミソウ",
    "address": "山梨県中央市西花輪499番地",
    "lat": 35.5830514,
    "lng": 138.5209502,
    "tel": "055-274-5000",
    "url": "http://www.jsyamanashi.jp/tatomisou/",
    "pref": "山梨県",
    "city": "中央市",
    "category": "tokuyou",
    "serviceType": "介護老人福祉施設",
    "capacity": 54,
    "openDays": [],
    "openDaysNote": ""
  },
  {
    "id": "1970800932",
    "name": "特別養護老人ホーム「らくえん」",
    "kana": "ラクエン",
    "address": "山梨県中央市極楽寺748番地",
    "lat": 35.6018336,
    "lng": 138.5573804,
    "tel": "055-274-1294",
    "url": "http://www.rakuen1294.com/",
    "pref": "山梨県",
    "city": "中央市",
    "category": "tokuyou",
    "serviceType": "介護老人福祉施設",
    "capacity": 0,
    "openDays": [],
    "openDaysNote": ""
  },
  {
    "id": "1970500102",
    "name": "小山荘",
    "kana": "コヤマソウ",
    "address": "山梨県笛吹市八代町北760",
    "lat": 35.6191011,
    "lng": 138.6520206,
    "tel": "055-265-3377",
    "url": "http//misakikai.ec-net.jp",
    "pref": "山梨県",
    "city": "笛吹市",
    "category": "tokuyou",
    "serviceType": "介護老人福祉施設",
    "capacity": null,
    "openDays": [],
    "openDaysNote": ""
  },
  {
    "id": "1970500052",
    "name": "特別養護老人ホーム　壽ノ家",
    "kana": "トクベツヨウゴロウジンホーム　コトブキノイエ",
    "address": "山梨県笛吹市石和町四日市場２０３１",
    "lat": 35.6463337,
    "lng": 138.6265543,
    "tel": "055-263-1232",
    "url": "http://www.krg.ne.jp/kt.html",
    "pref": "山梨県",
    "city": "笛吹市",
    "category": "tokuyou",
    "serviceType": "介護老人福祉施設",
    "capacity": 0,
    "openDays": [],
    "openDaysNote": ""
  },
  {
    "id": "1970400014",
    "name": "特別養護老人ホーム春日居荘",
    "kana": "トクベツヨウゴロウジンホームカスガイソウ",
    "address": "山梨県笛吹市春日居町国府436",
    "lat": 35.6591707123326,
    "lng": 138.651189752254,
    "tel": "0553-26-2838",
    "url": "http.//www.kasugaisou.jp/",
    "pref": "山梨県",
    "city": "笛吹市",
    "category": "tokuyou",
    "serviceType": "介護老人福祉施設",
    "capacity": 50,
    "openDays": [],
    "openDaysNote": ""
  },
  {
    "id": "1971100100",
    "name": "特別養護老人ホーム　　　　　　　　回生荘",
    "kana": "トクベツヨウゴロウジンホーム　　　カイセイソウ",
    "address": "山梨県都留市境36番地",
    "lat": 35.5286905,
    "lng": 138.8635479,
    "tel": "0554-45-5211",
    "url": "http://www.office@kaisei-so.jp",
    "pref": "山梨県",
    "city": "都留市",
    "category": "tokuyou",
    "serviceType": "介護老人福祉施設",
    "capacity": null,
    "openDays": [],
    "openDaysNote": ""
  },
  {
    "id": "1971100217",
    "name": "特別養護老人ホーム　もりの郷",
    "kana": "トクベツヨウゴロウジンホーム　モリノサト",
    "address": "山梨県都留市与縄７１６－１",
    "lat": 35.5592295,
    "lng": 138.9495727,
    "tel": "0554-46-1165",
    "url": "http://care-net.biz/19/morinosato/",
    "pref": "山梨県",
    "city": "都留市",
    "category": "tokuyou",
    "serviceType": "介護老人福祉施設",
    "capacity": null,
    "openDays": [],
    "openDaysNote": ""
  },
  {
    "id": "1971100019",
    "name": "特別養護老人ホーム　よこぶき荘",
    "kana": "トクベツヨウゴロウジンホーム　ヨコブキソウ",
    "address": "都留市川茂３２８－４",
    "lat": 35.5756331,
    "lng": 138.9152707,
    "tel": "0554-45-4165",
    "url": "http:///www.yokobukiso.or.jp",
    "pref": "山梨県",
    "city": "都留市",
    "category": "tokuyou",
    "serviceType": "介護老人福祉施設",
    "capacity": 0,
    "openDays": [],
    "openDaysNote": ""
  },
  {
    "id": "1970800155",
    "name": "櫛形荘介護老人福祉施設",
    "kana": "クシガタソウカイゴロウジンフクシシセツ",
    "address": "山梨県南アルプス市上宮地１４０８",
    "lat": 35.6141961,
    "lng": 138.4440511,
    "tel": "055-284-0020",
    "url": "https://www.kushigatasou.com/",
    "pref": "山梨県",
    "city": "南アルプス市",
    "category": "tokuyou",
    "serviceType": "介護老人福祉施設",
    "capacity": 0,
    "openDays": [],
    "openDaysNote": ""
  },
  {
    "id": "1970800197",
    "name": "特別養護老人ホーム花菱荘",
    "kana": "トクベツヨウゴロージンホームハナビシソウ",
    "address": "山梨県南アルプス市田島1108",
    "lat": 35.5930268,
    "lng": 138.4874239,
    "tel": "055-280-1300",
    "url": "",
    "pref": "山梨県",
    "city": "南アルプス市",
    "category": "tokuyou",
    "serviceType": "介護老人福祉施設",
    "capacity": 54,
    "openDays": [],
    "openDaysNote": ""
  },
  {
    "id": "1971600232",
    "name": "特別養護老人ホーム南岳荘",
    "kana": "トクベツヨウゴロウジンホウムナンガクソウ",
    "address": "山梨県南アルプス市徳永４３６－１",
    "lat": 35.6549538,
    "lng": 138.4950493,
    "tel": "055-280-5281",
    "url": "http://www.nangakusou.or.jp/",
    "pref": "山梨県",
    "city": "南アルプス市",
    "category": "tokuyou",
    "serviceType": "介護老人福祉施設",
    "capacity": 0,
    "openDays": [],
    "openDaysNote": ""
  },
  {
    "id": "1970800676",
    "name": "特別養護老人ホーム白根聖明園",
    "kana": "トクベツヨウゴロウジンホームシラネセイメイエン",
    "address": "山梨県南アルプス市在家塚１３０５",
    "lat": 35.6414295,
    "lng": 138.4674428,
    "tel": "055-284-2201",
    "url": "http://www8.ocn.ne.jp/seimeien/",
    "pref": "山梨県",
    "city": "南アルプス市",
    "category": "tokuyou",
    "serviceType": "介護老人福祉施設",
    "capacity": 0,
    "openDays": [],
    "openDaysNote": ""
  },
  {
    "id": "1970700074",
    "name": "介護老人福祉施設慈生園",
    "kana": "カイゴロウジンフクシシセツジセイエン",
    "address": "山梨県南巨摩郡南部町中野２８４７",
    "lat": 35.3018108,
    "lng": 138.4506062,
    "tel": "0556-64-2024",
    "url": "http://www.kyonan.jp/",
    "pref": "山梨県",
    "city": "南部町",
    "category": "tokuyou",
    "serviceType": "介護老人福祉施設",
    "capacity": 0,
    "openDays": [],
    "openDaysNote": ""
  },
  {
    "id": "1970700421",
    "name": "特別養護老人ホーム　ネオライフとみざわ",
    "kana": "トクベツヨウゴロウジンホーム　ネオライフトミザワ",
    "address": "山梨県南巨摩郡南部町福士２６８８－３",
    "lat": 35.2422603,
    "lng": 138.4821151,
    "tel": "0556-66-3500",
    "url": "http://www.fujikoseikai.or.jp/neolife",
    "pref": "山梨県",
    "city": "南部町",
    "category": "tokuyou",
    "serviceType": "介護老人福祉施設",
    "capacity": 0,
    "openDays": [],
    "openDaysNote": ""
  },
  {
    "id": "1970900203",
    "name": "特別養護老人ホーム　穴山の杜",
    "kana": "トクベツヨウゴロウジンホーム　アナヤマノモリ",
    "address": "山梨県韮崎市穴山町5390",
    "lat": 35.7595907,
    "lng": 138.4144021,
    "tel": "0551-25-6100",
    "url": "http://www.sip-shinwakai.jp",
    "pref": "山梨県",
    "city": "韮崎市",
    "category": "tokuyou",
    "serviceType": "介護老人福祉施設",
    "capacity": null,
    "openDays": [],
    "openDaysNote": ""
  },
  {
    "id": "1971300262",
    "name": "特別養護老人ホーム　いちいの木",
    "kana": "トクベツヨウゴロウジンホーム　イチイノキ",
    "address": "山梨県南都留郡忍野村内野中賀背3572番1",
    "lat": 35.460098,
    "lng": 138.8478614,
    "tel": "0555-84-1215",
    "url": "",
    "pref": "山梨県",
    "city": "忍野村",
    "category": "tokuyou",
    "serviceType": "介護老人福祉施設",
    "capacity": null,
    "openDays": [],
    "openDaysNote": ""
  },
  {
    "id": "1971200298",
    "name": "特別養護老人ホーム慶和荘",
    "kana": "トクベツヨウゴロウジンホームケイワソウ",
    "address": "山梨県富士吉田市上吉田字熊穴４５８４",
    "lat": 35.4764754,
    "lng": 138.785229,
    "tel": "0555-23-3000",
    "url": "http://www.mswc.or.jp",
    "pref": "山梨県",
    "city": "富士吉田市",
    "category": "tokuyou",
    "serviceType": "介護老人福祉施設",
    "capacity": 0,
    "openDays": [],
    "openDaysNote": ""
  },
  {
    "id": "1971200025",
    "name": "特別養護老人ホーム芙蓉荘",
    "kana": "トクベツヨウゴロウジンホームフヨウソウ",
    "address": "山梨県　富士吉田市　松山1613",
    "lat": 35.4810441,
    "lng": 138.7779378,
    "tel": "0555-22-5524",
    "url": "http://www.snhfuyoso.com",
    "pref": "山梨県",
    "city": "富士吉田市",
    "category": "tokuyou",
    "serviceType": "介護老人福祉施設",
    "capacity": 0,
    "openDays": [],
    "openDaysNote": ""
  },
  {
    "id": "1971200215",
    "name": "富士吉田市特別養護老人ホーム寿荘",
    "kana": "フジヨシダシトクベツヨウゴロウジンホームコトブキソウ",
    "address": "山梨県富士吉田市下吉田9-9-10",
    "lat": 35.4972097782089,
    "lng": 138.811149595923,
    "tel": "0555-20-1727",
    "url": "",
    "pref": "山梨県",
    "city": "富士吉田市",
    "category": "tokuyou",
    "serviceType": "介護老人福祉施設",
    "capacity": null,
    "openDays": [],
    "openDaysNote": ""
  },
  {
    "id": "1970700025",
    "name": "特別養護老人ホーム　福寿荘",
    "kana": "トクベツヨウゴロウジンホーム　フクジュソウ",
    "address": "山梨県南巨摩郡富士川町小室1241",
    "lat": 35.5407657,
    "lng": 138.4304618,
    "tel": "0556-22-5501",
    "url": "http://www.togawakai.sakura.ne.jp",
    "pref": "山梨県",
    "city": "富士川町",
    "category": "tokuyou",
    "serviceType": "介護老人福祉施設",
    "capacity": 0,
    "openDays": [],
    "openDaysNote": ""
  },
  {
    "id": "1970700900",
    "name": "特別養護老人ホーム　福寿荘きらきら",
    "kana": "トクベツヨウゴロウジンホーム　フクジュソウキラキラ",
    "address": "山梨県南巨摩郡富士川町最勝寺１３０７－１",
    "lat": 35.5526429,
    "lng": 138.4610411,
    "tel": "0556-22-7531",
    "url": "http://www5.ocn.ne.jp/~togawa/",
    "pref": "山梨県",
    "city": "富士川町",
    "category": "tokuyou",
    "serviceType": "介護老人福祉施設",
    "capacity": null,
    "openDays": [],
    "openDaysNote": ""
  },
  {
    "id": "1970700066",
    "name": "特別養護老人ホーム富士川荘",
    "kana": "トクベツヨウゴロウジンホームフジカワソウ",
    "address": "山梨県南巨摩郡富士川町鰍沢1807番地",
    "lat": 35.5438605,
    "lng": 138.458237,
    "tel": "0556-22-4466",
    "url": "http://fujikawasou.or.jp",
    "pref": "山梨県",
    "city": "富士川町",
    "category": "tokuyou",
    "serviceType": "介護老人福祉施設",
    "capacity": null,
    "openDays": [],
    "openDaysNote": ""
  },
  {
    "id": "1971000250",
    "name": "特別養護老人ホーム　みのる荘",
    "kana": "トクベツヨウゴロウジンホーム　ミノルソウ",
    "address": "山梨県北杜市高根町箕輪２２７０－１",
    "lat": 35.8208328676503,
    "lng": 138.426755426984,
    "tel": "0551-47-5400",
    "url": "https://care-net.biz/19/minoru/",
    "pref": "山梨県",
    "city": "北杜市",
    "category": "tokuyou",
    "serviceType": "介護老人福祉施設",
    "capacity": 70,
    "openDays": [],
    "openDaysNote": ""
  },
  {
    "id": "1971000011",
    "name": "特別養護老人ホーム仁生園",
    "kana": "トクベツヨウゴロウジンホームジンセイエン",
    "address": "山梨県北杜市長坂町小荒間菅間1293番地",
    "lat": 35.8742571713104,
    "lng": 138.348198583606,
    "tel": "0551-32-3340",
    "url": "http://www.aijyukai.com",
    "pref": "山梨県",
    "city": "北杜市",
    "category": "tokuyou",
    "serviceType": "介護老人福祉施設",
    "capacity": null,
    "openDays": [],
    "openDaysNote": ""
  },
  {
    "id": "1971000037",
    "name": "特別養護老人ホーム長寿荘",
    "kana": "トクベツヨウゴロウジンホームチョウジュソウ",
    "address": "山梨県北杜市須玉町若神子2169-1",
    "lat": 35.7921354033377,
    "lng": 138.421925393774,
    "tel": "0551-30-7732",
    "url": "http://www.yuushin.or.jp",
    "pref": "山梨県",
    "city": "北杜市",
    "category": "tokuyou",
    "serviceType": "介護老人福祉施設",
    "capacity": 10,
    "openDays": [],
    "openDaysNote": ""
  },
  {
    "id": "1971000029",
    "name": "特別養護老人ホーム明山荘",
    "kana": "トクベツヨウゴロウジンホームメイザンソウ",
    "address": "山梨県北杜市明野町上手５２０",
    "lat": 35.7702452,
    "lng": 138.4293923,
    "tel": "0551-25-2512",
    "url": "http://www.ryokuju.com",
    "pref": "山梨県",
    "city": "北杜市",
    "category": "tokuyou",
    "serviceType": "介護老人福祉施設",
    "capacity": 103,
    "openDays": [],
    "openDaysNote": ""
  },
  {
    "id": "1971300023",
    "name": "富士山荘指定介護老人福祉施設",
    "kana": "フジサンソウシテイカイゴロウジンフクシシセツ",
    "address": "山梨県南都留郡鳴沢村5061",
    "lat": 35.4754244,
    "lng": 138.7243043,
    "tel": "0555-85-2878",
    "url": "http://www.eiju.or.jp/",
    "pref": "山梨県",
    "city": "鳴沢村",
    "category": "tokuyou",
    "serviceType": "介護老人福祉施設",
    "capacity": 31,
    "openDays": [],
    "openDaysNote": ""
  }
]