[
  {
    "id": "2172500049",
    "name": "特別養護老人ホ－ムあすわ苑",
    "kana": "トクベツヨウゴロウジンホ－ムアスワエン",
    "address": "岐阜県安八郡安八町中須４１０番地の１",
    "lat": 35.3305326,
    "lng": 136.6521107,
    "tel": "0584-64-5505",
    "url": "http://asuwaen-sub.co-site.jp/",
    "pref": "岐阜県",
    "city": "安八町",
    "category": "tokuyou",
    "serviceType": "介護老人福祉施設",
    "capacity": 70,
    "openDays": [],
    "openDaysNote": ""
  },
  {
    "id": "2172500213",
    "name": "特別養護老人ホーム　サンライズ長良",
    "kana": "トクベツヨウゴロウジンホーム　サンライズナガラ",
    "address": "岐阜県安八郡安八町森部1875-1",
    "lat": 35.3388936519964,
    "lng": 136.676170550926,
    "tel": "0584-64-2328",
    "url": "http://www14.plala.or.jp/sunrise-nagara/",
    "pref": "岐阜県",
    "city": "安八町",
    "category": "tokuyou",
    "serviceType": "介護老人福祉施設",
    "capacity": 110,
    "openDays": [],
    "openDaysNote": ""
  },
  {
    "id": "2170401372",
    "name": "介護老人福祉施設ジョイフル羽島",
    "kana": "カイゴロウジンフクシシセツジョイフルハシマ",
    "address": "岐阜県羽島市下中町城屋敷　318-5",
    "lat": 35.2874288,
    "lng": 136.7041445,
    "tel": "０５８－３９７－１９１１",
    "url": "https://sun-vision.or.jp/",
    "pref": "岐阜県",
    "city": "羽島市",
    "category": "tokuyou",
    "serviceType": "介護老人福祉施設",
    "capacity": 0,
    "openDays": [],
    "openDaysNote": ""
  },
  {
    "id": "2170401190",
    "name": "特別養護老人ホーム　光輝苑",
    "kana": "トクベツヨウゴロウジンホーム　コウキエン",
    "address": "岐阜県羽島市桑原町東方２８７番地１",
    "lat": 35.2865881893701,
    "lng": 136.679286430148,
    "tel": "０５８-３９８-１８１１",
    "url": "http://www.shahuku-hashima.jp/",
    "pref": "岐阜県",
    "city": "羽島市",
    "category": "tokuyou",
    "serviceType": "介護老人福祉施設",
    "capacity": 0,
    "openDays": [],
    "openDaysNote": ""
  },
  {
    "id": "2170400408",
    "name": "特別養護老人ホーム　寿光苑",
    "kana": "トクベツヨウゴロウジンホーム　ジュコウエン",
    "address": "岐阜県羽島市小熊町２丁目７５０番地",
    "lat": 35.3492708,
    "lng": 136.7104678,
    "tel": "058-394-1211",
    "url": "http://www.shahuku-hashima.jp/",
    "pref": "岐阜県",
    "city": "羽島市",
    "category": "tokuyou",
    "serviceType": "介護老人福祉施設",
    "capacity": 0,
    "openDays": [],
    "openDaysNote": ""
  },
  {
    "id": "2170401398",
    "name": "特別養護老人ホームことほぎ苑",
    "kana": "トクベツヨウゴロウジンホーム　コトホギエン",
    "address": "岐阜県羽島市堀津町前谷８６番地１",
    "lat": 35.3037310848047,
    "lng": 136.674530134173,
    "tel": "０５８－３９７－０８２０",
    "url": "https://kotohogien.jp/",
    "pref": "岐阜県",
    "city": "羽島市",
    "category": "tokuyou",
    "serviceType": "介護老人福祉施設",
    "capacity": 50,
    "openDays": [],
    "openDaysNote": ""
  },
  {
    "id": "2170400119",
    "name": "特別養護老人ホームやすらぎ苑",
    "kana": "トクベツヨウゴロウジンホームヤスラギエン",
    "address": "岐阜県羽島市下中町石田687番地",
    "lat": 35.2759428,
    "lng": 136.6989347,
    "tel": "058-398-7138",
    "url": "https://www.denshinkai.jp",
    "pref": "岐阜県",
    "city": "羽島市",
    "category": "tokuyou",
    "serviceType": "介護老人福祉施設",
    "capacity": 80,
    "openDays": [],
    "openDaysNote": ""
  },
  {
    "id": "2170400812",
    "name": "特別養護老人ホーム美輝苑",
    "kana": "トクベツヨウゴロウジンホームミキエン",
    "address": "岐阜県羽島市桑原町大須２丁目１５７番地１",
    "lat": 35.2638856,
    "lng": 136.6768541,
    "tel": "058-397-1511",
    "url": "http://www.shahuku-hashima.jp/",
    "pref": "岐阜県",
    "city": "羽島市",
    "category": "tokuyou",
    "serviceType": "介護老人福祉施設",
    "capacity": 0,
    "openDays": [],
    "openDaysNote": ""
  },
  {
    "id": "2172800308",
    "name": "特別養護老人ホームあさぎりサニーランド",
    "kana": "トクベツヨウゴロウジンホームアサギリサニーランド",
    "address": "岐阜県下呂市萩原町羽根2710番地3あさぎりサニーランド あさぎりサニーランド",
    "lat": 35.8805626,
    "lng": 137.2059047,
    "tel": "0576-52-1279",
    "url": "http://www.sunnyland.or.jp",
    "pref": "岐阜県",
    "city": "下呂市",
    "category": "tokuyou",
    "serviceType": "介護老人福祉施設",
    "capacity": 0,
    "openDays": [],
    "openDaysNote": ""
  },
  {
    "id": "2172800316",
    "name": "特別養護老人ホームかなやまサニーランド",
    "kana": "トクベツヨウゴロウジンホームカナヤマサニーランド",
    "address": "岐阜県下呂市金山町金山973番地7",
    "lat": 35.6670503,
    "lng": 137.1460011,
    "tel": "0576-32-4800",
    "url": "",
    "pref": "岐阜県",
    "city": "下呂市",
    "category": "tokuyou",
    "serviceType": "介護老人福祉施設",
    "capacity": 0,
    "openDays": [],
    "openDaysNote": ""
  },
  {
    "id": "2172800514",
    "name": "特別養護老人ホームさわやかナーシング下呂",
    "kana": "トクベツヨウゴロウジンホームサワヤカナーシングゲロ",
    "address": "岐阜県下呂市乗政1267-5",
    "lat": 35.7861264,
    "lng": 137.2848328,
    "tel": "0576-26-3630",
    "url": "http://www.jikeikai-sawayaka.jp",
    "pref": "岐阜県",
    "city": "下呂市",
    "category": "tokuyou",
    "serviceType": "介護老人福祉施設",
    "capacity": 80,
    "openDays": [],
    "openDaysNote": ""
  },
  {
    "id": "2173100567",
    "name": "チェリーヴィラ広見苑",
    "kana": "チェリーウ゛ィラヒロミエン",
    "address": "岐阜県可児市広見1362",
    "lat": 35.4171663,
    "lng": 137.0649524,
    "tel": "0574-61-2215",
    "url": "http://www.cherryvilla.or.jp/",
    "pref": "岐阜県",
    "city": "可児市",
    "category": "tokuyou",
    "serviceType": "介護老人福祉施設",
    "capacity": 80,
    "openDays": [],
    "openDaysNote": ""
  },
  {
    "id": "2173100732",
    "name": "特別養護老人ホーム　瀬田の杜",
    "kana": "トクベツヨウゴロウジンホーム　セタノモリ",
    "address": "岐阜県可児市瀬田８８番地",
    "lat": 35.4238828,
    "lng": 137.0775095,
    "tel": "0574-60-0025",
    "url": "http://www.setano-mori.com",
    "pref": "岐阜県",
    "city": "可児市",
    "category": "tokuyou",
    "serviceType": "介護老人福祉施設",
    "capacity": 110,
    "openDays": [],
    "openDaysNote": ""
  },
  {
    "id": "2173100922",
    "name": "特別養護老人ホームフローレ川合",
    "kana": "トクベツヨウゴロウジンホームフローレカワイ",
    "address": "岐阜県可児市川合793-1特別養護老人ホームフローレ川合 特別養護老人ホームフローレ川合",
    "lat": 35.4364504,
    "lng": 137.0604604,
    "tel": "0574-60-2600",
    "url": "http://www.flore-kawai.com/",
    "pref": "岐阜県",
    "city": "可児市",
    "category": "tokuyou",
    "serviceType": "介護老人福祉施設",
    "capacity": 0,
    "openDays": [],
    "openDaysNote": ""
  },
  {
    "id": "2173100054",
    "name": "特別養護老人ホーム春里苑",
    "kana": "トクベツヨウゴロウジンホームハルサトエン",
    "address": "岐阜県可児市塩河2709番地1",
    "lat": 35.3953982,
    "lng": 137.0423799,
    "tel": "0574-61-1120",
    "url": "http://www.harusatoen.or.jp",
    "pref": "岐阜県",
    "city": "可児市",
    "category": "tokuyou",
    "serviceType": "介護老人福祉施設",
    "capacity": 0,
    "openDays": [],
    "openDaysNote": ""
  },
  {
    "id": "2172200251",
    "name": "特別養護老人ホーム　長寿の里・南濃",
    "kana": "トクベツヨウゴロウジンホーム　チョウジュノサト・ナンノウ",
    "address": "岐阜県海津市南濃町志津719番地１",
    "lat": 35.2447162,
    "lng": 136.5616652,
    "tel": "0584-58-0294",
    "url": "http://www.aisankai.jp/",
    "pref": "岐阜県",
    "city": "海津市",
    "category": "tokuyou",
    "serviceType": "介護老人福祉施設",
    "capacity": 100,
    "openDays": [],
    "openDaysNote": ""
  },
  {
    "id": "2172200699",
    "name": "特別養護老人ホームしょうふう海津",
    "kana": "トクベツヨウゴロウジンホームショウフウカイヅ",
    "address": "岐阜県海津市海津町福江656‐1",
    "lat": 35.1719086,
    "lng": 136.6605009,
    "tel": "0584‐54‐5614",
    "url": "https://www.houjyukai.jp/",
    "pref": "岐阜県",
    "city": "海津市",
    "category": "tokuyou",
    "serviceType": "介護老人福祉施設",
    "capacity": null,
    "openDays": [],
    "openDaysNote": ""
  },
  {
    "id": "2170500074",
    "name": "特別養護老人ホーム　カーサ・レスペート",
    "kana": "トクベツヨウゴロウジンホーム　カーサ・レスペート",
    "address": "岐阜県各務原市蘇原東栄町1丁目50番",
    "lat": 35.4110867349896,
    "lng": 136.875052163575,
    "tel": "058-371-3900",
    "url": "http://www.casa.or.jp/",
    "pref": "岐阜県",
    "city": "各務原市",
    "category": "tokuyou",
    "serviceType": "介護老人福祉施設",
    "capacity": 90,
    "openDays": [],
    "openDaysNote": ""
  },
  {
    "id": "2170502039",
    "name": "特別養護老人ホームジョイフル各務原",
    "kana": "トクベツヨウゴロウジンホームジョイフルカカミガハラ",
    "address": "岐阜県各務原市鵜沼小伊木町3-170-1",
    "lat": 35.3887208,
    "lng": 136.9231022,
    "tel": "058-379-5411",
    "url": "https://sun-vision.or.jp/",
    "pref": "岐阜県",
    "city": "各務原市",
    "category": "tokuyou",
    "serviceType": "介護老人福祉施設",
    "capacity": null,
    "openDays": [],
    "openDaysNote": ""
  },
  {
    "id": "2170500066",
    "name": "特別養護老人ホームつつじ苑",
    "kana": "トクベツヨウゴロウジンホームツツジエン",
    "address": "岐阜県各務原市大佐野町２丁目５８番地",
    "lat": 35.3854516,
    "lng": 136.8418907,
    "tel": "058-371-5141",
    "url": "https://www.tutujien.jp/nursinghome/",
    "pref": "岐阜県",
    "city": "各務原市",
    "category": "tokuyou",
    "serviceType": "介護老人福祉施設",
    "capacity": 60,
    "openDays": [],
    "openDaysNote": ""
  },
  {
    "id": "2170600122",
    "name": "特別養護老人ホームリバーサイド川島園",
    "kana": "トクベツヨウゴロウジンホームリバーサイドカワシマエン",
    "address": "岐阜県各務原市川島河田町1348番地",
    "lat": 35.3601354,
    "lng": 136.8231767,
    "tel": "0586-89-5611",
    "url": "http://www.h-fukujyu.or.jp/kawashima/",
    "pref": "岐阜県",
    "city": "各務原市",
    "category": "tokuyou",
    "serviceType": "介護老人福祉施設",
    "capacity": 100,
    "openDays": [],
    "openDaysNote": ""
  },
  {
    "id": "2170501940",
    "name": "特別養護老人ホーム菜の花",
    "kana": "トクベツヨウゴロウジンホームナノハナ",
    "address": "岐阜県各務原市鵜沼山崎町4丁目1番地１",
    "lat": 35.3990278542643,
    "lng": 136.94633377791,
    "tel": "058-322-2080",
    "url": "http://unuma-seikoukai.or.jp/",
    "pref": "岐阜県",
    "city": "各務原市",
    "category": "tokuyou",
    "serviceType": "介護老人福祉施設",
    "capacity": 60,
    "openDays": [],
    "openDaysNote": ""
  },
  {
    "id": "2170500306",
    "name": "特別養護老人ホーム飛鳥美谷苑",
    "kana": "トクベツヨウゴロウジンホームアスカミタニエン",
    "address": "岐阜県各務原市那加西市場町７丁目２８５－１",
    "lat": 35.417525,
    "lng": 136.8379038,
    "tel": "058-380-3102",
    "url": "https://www.mitanikai.com",
    "pref": "岐阜県",
    "city": "各務原市",
    "category": "tokuyou",
    "serviceType": "介護老人福祉施設",
    "capacity": 0,
    "openDays": [],
    "openDaysNote": ""
  },
  {
    "id": "2170600593",
    "name": "特別養護老人ホームリバーサイド笠松園",
    "kana": "トクベツヨウゴロウジンホームリバーサイドカサマツエン",
    "address": "岐阜県羽島郡笠松町田代６２１番地の１",
    "lat": 35.3598837,
    "lng": 136.7524682,
    "tel": "058-388-5222",
    "url": "http://h-fukujyu.or.jp",
    "pref": "岐阜県",
    "city": "笠松町",
    "category": "tokuyou",
    "serviceType": "介護老人福祉施設",
    "capacity": null,
    "openDays": [],
    "openDaysNote": ""
  },
  {
    "id": "2172400059",
    "name": "特別養護老人ホーム優・悠・邑",
    "kana": "トクベツヨウゴロウジンホームユウ・ユウ・ユウ",
    "address": "岐阜県不破郡関ケ原町大字今須782-1",
    "lat": 35.3308311,
    "lng": 136.4176122,
    "tel": "0584-43-3155",
    "url": "http://www.sugiwakai.jp",
    "pref": "岐阜県",
    "city": "関ヶ原町",
    "category": "tokuyou",
    "serviceType": "介護老人福祉施設",
    "capacity": 0,
    "openDays": [],
    "openDaysNote": ""
  },
  {
    "id": "2170200832",
    "name": "介護老人福祉施設　ゴールドヴィレッジほらど",
    "kana": "カイゴロウジンフクシシセツ　ゴールドウ゛ィレッジホラド",
    "address": "岐阜県関市洞戸通元寺261番地",
    "lat": 35.6073577,
    "lng": 136.8194195,
    "tel": "0581-58-2211",
    "url": "http://miwakai.or.jp/",
    "pref": "岐阜県",
    "city": "関市",
    "category": "tokuyou",
    "serviceType": "介護老人福祉施設",
    "capacity": 100,
    "openDays": [],
    "openDaysNote": ""
  },
  {
    "id": "2170200527",
    "name": "特別養護老人ホームあかつき",
    "kana": "トクベツヨウゴロウジンホームアカツキ",
    "address": "岐阜県関市下白金912番地1",
    "lat": 35.4768014,
    "lng": 136.851906,
    "tel": "0575-27-3077",
    "url": "http://www.shounkai.or.jp",
    "pref": "岐阜県",
    "city": "関市",
    "category": "tokuyou",
    "serviceType": "介護老人福祉施設",
    "capacity": 60,
    "openDays": [],
    "openDaysNote": ""
  },
  {
    "id": "2170201038",
    "name": "特別養護老人ホームあかつき　別館",
    "kana": "トクベツヨウゴロウジンホームアカツキ　ベッカン",
    "address": "岐阜県関市下白金913番地6",
    "lat": 35.4769578683209,
    "lng": 136.85202646627,
    "tel": "0575-46-8110",
    "url": "http://www.shounkai.or.jp",
    "pref": "岐阜県",
    "city": "関市",
    "category": "tokuyou",
    "serviceType": "介護老人福祉施設",
    "capacity": 0,
    "openDays": [],
    "openDaysNote": ""
  },
  {
    "id": "2170201343",
    "name": "特別養護老人ホームせきこもれび",
    "kana": "トクベツヨウゴロウジンホームセキコモレビ",
    "address": "岐阜県関市肥田瀬4027番2",
    "lat": 35.470341019214,
    "lng": 136.936623065854,
    "tel": "0575-46-8000",
    "url": "http://www.seki-komorebi.jp",
    "pref": "岐阜県",
    "city": "関市",
    "category": "tokuyou",
    "serviceType": "介護老人福祉施設",
    "capacity": 0,
    "openDays": [],
    "openDaysNote": ""
  },
  {
    "id": "2170200675",
    "name": "特別養護老人ホームハートタウン平成の杜",
    "kana": "トクベツヨウゴロウジンホームハートタウンヘイセイノモリ",
    "address": "岐阜県関市中之保4517-2",
    "lat": 35.5732181661779,
    "lng": 137.02664215097,
    "tel": "0575-40-0310",
    "url": "http://www.daiwa-center.jp/",
    "pref": "岐阜県",
    "city": "関市",
    "category": "tokuyou",
    "serviceType": "介護老人福祉施設",
    "capacity": 90,
    "openDays": [],
    "openDaysNote": ""
  },
  {
    "id": "2170200188",
    "name": "特別養護老人ホームハートフル",
    "kana": "トクベツヨウゴロウジンホームハートフル",
    "address": "岐阜県関市下有知５３６７番地４",
    "lat": 35.5109415,
    "lng": 136.9189388,
    "tel": "0575-23-7001",
    "url": "https://swct.or.jp/swch.html",
    "pref": "岐阜県",
    "city": "関市",
    "category": "tokuyou",
    "serviceType": "介護老人福祉施設",
    "capacity": 70,
    "openDays": [],
    "openDaysNote": ""
  },
  {
    "id": "2170200196",
    "name": "特別養護老人ホームほほえみ福寿の家",
    "kana": "トクベツヨウゴロウジンホーム　ホホエミフクジュノイエ",
    "address": "岐阜県関市稲口字柳洞845番地",
    "lat": 35.470019,
    "lng": 136.9267502,
    "tel": "0575-24-9570",
    "url": "https://www.hohoemi.or.jp",
    "pref": "岐阜県",
    "city": "関市",
    "category": "tokuyou",
    "serviceType": "介護老人福祉施設",
    "capacity": 90,
    "openDays": [],
    "openDaysNote": ""
  },
  {
    "id": "2170900084",
    "name": "特別養護老人ホーム寿和苑",
    "kana": "トクベツヨウゴロウジンホームジュワエン",
    "address": "岐阜県関市武芸川町跡部１５５５番地１",
    "lat": 35.5119808,
    "lng": 136.8496784,
    "tel": "0575-46-1131",
    "url": "http://www.juwaen.or.jp",
    "pref": "岐阜県",
    "city": "関市",
    "category": "tokuyou",
    "serviceType": "介護老人福祉施設",
    "capacity": 80,
    "openDays": [],
    "openDaysNote": ""
  },
  {
    "id": "2170600791",
    "name": "岐南仙寿うれし野",
    "kana": "ギナンセンジュウレシノ",
    "address": "岐阜県羽島郡岐南町伏屋8丁目33番地",
    "lat": 35.3788573,
    "lng": 136.7917493,
    "tel": "058-259-3300",
    "url": "http://www.ureshino.or.jp",
    "pref": "岐阜県",
    "city": "岐南町",
    "category": "tokuyou",
    "serviceType": "介護老人福祉施設",
    "capacity": 100,
    "openDays": [],
    "openDaysNote": ""
  },
  {
    "id": "2170601377",
    "name": "特別養護老人ホームさくらの舞本館",
    "kana": "トクベツヨウゴロウジンホームサクラノマイホンカン",
    "address": "岐阜県羽島郡岐南町伏屋9丁目88番地",
    "lat": 35.3809582177013,
    "lng": 136.787426407359,
    "tel": "058-240-0390",
    "url": "https://sakurayuki.or.jp/",
    "pref": "岐阜県",
    "city": "岐南町",
    "category": "tokuyou",
    "serviceType": "介護老人福祉施設",
    "capacity": 0,
    "openDays": [],
    "openDaysNote": ""
  },
  {
    "id": "2170100297",
    "name": "さくら苑",
    "kana": "サクラエン",
    "address": "岐阜県岐阜市奥２丁目２８番地１",
    "lat": 35.5247863,
    "lng": 136.6988003,
    "tel": "058-239-9766",
    "url": "http://www.inoguchikai.jp/",
    "pref": "岐阜県",
    "city": "岐阜市",
    "category": "tokuyou",
    "serviceType": "介護老人福祉施設",
    "capacity": 0,
    "openDays": [],
    "openDaysNote": ""
  },
  {
    "id": "2170102012",
    "name": "ナーシングケア寺田",
    "kana": "ナーシングケアテラダ",
    "address": "岐阜県岐阜市寺田７丁目８５番地",
    "lat": 35.4192647,
    "lng": 136.7006986,
    "tel": "058-255-5550",
    "url": "http://www.wakokai.or.jp",
    "pref": "岐阜県",
    "city": "岐阜市",
    "category": "tokuyou",
    "serviceType": "介護老人福祉施設",
    "capacity": 100,
    "openDays": [],
    "openDaysNote": ""
  },
  {
    "id": "2170114074",
    "name": "介護老人福祉施設ジョイフル岐阜駅",
    "kana": "カイゴロウジンフクシシセツ　ジョイフルギフエキ",
    "address": "岐阜県岐阜市高砂町一丁目１７番地岐阜イーストライジング24 岐阜イーストライジング24",
    "lat": 35.4101011,
    "lng": 136.7594115,
    "tel": "058-264-2811",
    "url": "https://sun-vision.or.jp/",
    "pref": "岐阜県",
    "city": "岐阜市",
    "category": "tokuyou",
    "serviceType": "介護老人福祉施設",
    "capacity": 100,
    "openDays": [],
    "openDaysNote": ""
  },
  {
    "id": "2170114330",
    "name": "岐阜県立寿楽苑",
    "kana": "ギフケンリツジュラクエン",
    "address": "岐阜県岐阜市中２丁目４７０番地",
    "lat": 35.4689124,
    "lng": 136.7082075,
    "tel": "058-239-8830",
    "url": "https://gifu-fukushi.jp/",
    "pref": "岐阜県",
    "city": "岐阜市",
    "category": "tokuyou",
    "serviceType": "介護老人福祉施設",
    "capacity": 0,
    "openDays": [],
    "openDaysNote": ""
  },
  {
    "id": "2170100271",
    "name": "瑞光苑",
    "kana": "ズイコウエン",
    "address": "岐阜県岐阜市奥１丁目１００番地",
    "lat": 35.5185675,
    "lng": 136.6957842,
    "tel": "058-239-9721",
    "url": "http://www.inoguchikai.jp",
    "pref": "岐阜県",
    "city": "岐阜市",
    "category": "tokuyou",
    "serviceType": "介護老人福祉施設",
    "capacity": 80,
    "openDays": [],
    "openDaysNote": ""
  },
  {
    "id": "2170100255",
    "name": "第三岐阜老人ホーム",
    "kana": "ダイサンギフロウジンホーム",
    "address": "岐阜県岐阜市日野東5丁目1番1号",
    "lat": 35.4337544889965,
    "lng": 136.819214024518,
    "tel": "058-244-3500",
    "url": "",
    "pref": "岐阜県",
    "city": "岐阜市",
    "category": "tokuyou",
    "serviceType": "介護老人福祉施設",
    "capacity": 0,
    "openDays": [],
    "openDaysNote": ""
  },
  {
    "id": "2170102004",
    "name": "特別養護老人ホーム　コート・スマイル",
    "kana": "トクベツヨウゴロウジンホーム　コート・スマイル",
    "address": "岐阜県岐阜市芥見野畑１丁目２５番地",
    "lat": 35.4406111,
    "lng": 136.8429719,
    "tel": "058-241-2100",
    "url": "http://www.court-smile.jp/",
    "pref": "岐阜県",
    "city": "岐阜市",
    "category": "tokuyou",
    "serviceType": "介護老人福祉施設",
    "capacity": 0,
    "openDays": [],
    "openDaysNote": ""
  },
  {
    "id": "2170110478",
    "name": "特別養護老人ホーム　ナーシングケア加納",
    "kana": "トクベツヨウゴロウジンホーム　ナーシングケアカノウ",
    "address": "岐阜県岐阜市加納愛宕町18番地2",
    "lat": 35.408981836931,
    "lng": 136.750966708073,
    "tel": "058-214-6010",
    "url": "http://www.wakokai.or.jp",
    "pref": "岐阜県",
    "city": "岐阜市",
    "category": "tokuyou",
    "serviceType": "介護老人福祉施設",
    "capacity": 0,
    "openDays": [],
    "openDaysNote": ""
  },
  {
    "id": "2170111724",
    "name": "特別養護老人ホーム　ハートステージ鳳",
    "kana": "トクベツヨウゴロウジンホーム　ハートステージオオトリ",
    "address": "岐阜県岐阜市長旗町2-18",
    "lat": 35.414067726464,
    "lng": 136.761874108589,
    "tel": "058-264-8880",
    "url": "",
    "pref": "岐阜県",
    "city": "岐阜市",
    "category": "tokuyou",
    "serviceType": "介護老人福祉施設",
    "capacity": 0,
    "openDays": [],
    "openDaysNote": ""
  },
  {
    "id": "2170103499",
    "name": "特別養護老人ホーム　みたほら苑",
    "kana": "トクベツヨウゴロウジンホーム　ミタホラエン",
    "address": "岐阜県岐阜市三田洞東４丁目９番1号",
    "lat": 35.4730861,
    "lng": 136.7966154,
    "tel": "058-237-1200",
    "url": "http://gifu-shinwakai.org/",
    "pref": "岐阜県",
    "city": "岐阜市",
    "category": "tokuyou",
    "serviceType": "介護老人福祉施設",
    "capacity": 0,
    "openDays": [],
    "openDaysNote": ""
  },
  {
    "id": "2170111013",
    "name": "特別養護老人ホーム　るぴなすビラ",
    "kana": "トクベツヨウゴロウジンホーム　ルピナスビラ",
    "address": "岐阜県岐阜市須賀2丁目5番1号",
    "lat": 35.3881025,
    "lng": 136.7205354,
    "tel": "058-272-5551",
    "url": "http://lupinusvilla.jp/",
    "pref": "岐阜県",
    "city": "岐阜市",
    "category": "tokuyou",
    "serviceType": "介護老人福祉施設",
    "capacity": 80,
    "openDays": [],
    "openDaysNote": ""
  },
  {
    "id": "2170100289",
    "name": "特別養護老人ホーム　光の園",
    "kana": "トクベツヨウゴロウジンホーム　ヒカリノソノ",
    "address": "岐阜県岐阜市三輪７７６番地２",
    "lat": 35.5047581073295,
    "lng": 136.845426167459,
    "tel": "058-229-3224",
    "url": "http://miwakai.or.jp/",
    "pref": "岐阜県",
    "city": "岐阜市",
    "category": "tokuyou",
    "serviceType": "介護老人福祉施設",
    "capacity": 0,
    "openDays": [],
    "openDaysNote": ""
  },
  {
    "id": "2170104109",
    "name": "特別養護老人ホームあんきの家細畑",
    "kana": "トクベツヨウゴロウジンホウムアンキノイエホソバタ",
    "address": "岐阜県岐阜市細畑3丁目16番8号",
    "lat": 35.4035869,
    "lng": 136.7899294,
    "tel": "058-259-3577",
    "url": "http://gifu-min.jp/fukushi/",
    "pref": "岐阜県",
    "city": "岐阜市",
    "category": "tokuyou",
    "serviceType": "介護老人福祉施設",
    "capacity": 89,
    "openDays": [],
    "openDaysNote": ""
  },
  {
    "id": "2170100313",
    "name": "特別養護老人ホームサンライフ彦坂",
    "kana": "トクベツヨウゴロウジンホームサンライフヒコサカ",
    "address": "岐阜県岐阜市彦坂川北２３０番地",
    "lat": 35.4992456,
    "lng": 136.7387178,
    "tel": "058-238-8800",
    "url": "http://www.houjyukai.jp/",
    "pref": "岐阜県",
    "city": "岐阜市",
    "category": "tokuyou",
    "serviceType": "介護老人福祉施設",
    "capacity": 0,
    "openDays": [],
    "openDaysNote": ""
  },
  {
    "id": "2170104075",
    "name": "特別養護老人ホームやすらぎの里川部苑本館",
    "kana": "トクベツヨウゴロウジンホームヤスラギノサトカワベエン　ホンカン",
    "address": "岐阜県岐阜市川部３丁目４３番地",
    "lat": 35.4347599,
    "lng": 136.7092913,
    "tel": "058-293-5522",
    "url": "http://www.care-kawabe.jp/",
    "pref": "岐阜県",
    "city": "岐阜市",
    "category": "tokuyou",
    "serviceType": "介護老人福祉施設",
    "capacity": 0,
    "openDays": [],
    "openDaysNote": ""
  },
  {
    "id": "2170100263",
    "name": "特別養護老人ホーム喜久寿苑",
    "kana": "トクベツヨウゴロウジンホームキクジュエン",
    "address": "岐阜県岐阜市河渡２丁目４５番地",
    "lat": 35.4088354,
    "lng": 136.6978882,
    "tel": "058-251-5561",
    "url": "https://chiyodakai.or.jp",
    "pref": "岐阜県",
    "city": "岐阜市",
    "category": "tokuyou",
    "serviceType": "介護老人福祉施設",
    "capacity": 80,
    "openDays": [],
    "openDaysNote": ""
  },
  {
    "id": "2170100321",
    "name": "特別養護老人ホーム黒野あそか苑",
    "kana": "トクベツヨウゴロウジンホームクロノアソカエン",
    "address": "岐阜県岐阜市黒野404番地1",
    "lat": 35.4600589,
    "lng": 136.719405,
    "tel": "058-234-2376",
    "url": "http://www.k-asoka.jp",
    "pref": "岐阜県",
    "city": "岐阜市",
    "category": "tokuyou",
    "serviceType": "介護老人福祉施設",
    "capacity": 0,
    "openDays": [],
    "openDaysNote": ""
  },
  {
    "id": "2170103556",
    "name": "特別養護老人ホーム燦燦（さんさん）",
    "kana": "トクベツヨウゴロウジンホームサンサン",
    "address": "岐阜県岐阜市鏡島南1丁目2番30号",
    "lat": 35.4077833,
    "lng": 136.7170548,
    "tel": "058-254-1533",
    "url": "http://www.koukikai.gr.jp",
    "pref": "岐阜県",
    "city": "岐阜市",
    "category": "tokuyou",
    "serviceType": "介護老人福祉施設",
    "capacity": 0,
    "openDays": [],
    "openDaysNote": ""
  },
  {
    "id": "2170100305",
    "name": "特別養護老人ホーム大洞岐協苑",
    "kana": "トクベツヨウゴロウジンホームオオボラギキョウエン",
    "address": "岐阜県岐阜市大洞3丁目3番1号",
    "lat": 35.4599933597101,
    "lng": 136.874931790738,
    "tel": "058-241-7676",
    "url": "http://www.gikyoen.jp",
    "pref": "岐阜県",
    "city": "岐阜市",
    "category": "tokuyou",
    "serviceType": "介護老人福祉施設",
    "capacity": 100,
    "openDays": [],
    "openDaysNote": ""
  },
  {
    "id": "2170101659",
    "name": "特別養護老人ホーム養生訓園",
    "kana": "トクベツヨウゴロウジンホームヨウジョウクンエン",
    "address": "岐阜県岐阜市雄総柳町2丁目60番地",
    "lat": 35.4424932,
    "lng": 136.7910031,
    "tel": "058-297-2525",
    "url": "http://www.youjoukunen.com/",
    "pref": "岐阜県",
    "city": "岐阜市",
    "category": "tokuyou",
    "serviceType": "介護老人福祉施設",
    "capacity": null,
    "openDays": [],
    "openDaysNote": ""
  },
  {
    "id": "2171000660",
    "name": "介護老人福祉施設アットホームしろとり",
    "kana": "カイゴロウジンフクシシセツアットホームシロトリ",
    "address": "岐阜県郡上市白鳥町為真１８７８－１",
    "lat": 35.8735309,
    "lng": 136.8711517,
    "tel": "0575-83-0266",
    "url": "http://attohome.or.jp/",
    "pref": "岐阜県",
    "city": "郡上市",
    "category": "tokuyou",
    "serviceType": "介護老人福祉施設",
    "capacity": 100,
    "openDays": [],
    "openDaysNote": ""
  },
  {
    "id": "2171000603",
    "name": "郡上偕楽園",
    "kana": "グジョウカイラクエン",
    "address": "岐阜県郡上市大和町島２３４７－６",
    "lat": 35.7874724,
    "lng": 136.911637,
    "tel": "0575-88-2048",
    "url": "",
    "pref": "岐阜県",
    "city": "郡上市",
    "category": "tokuyou",
    "serviceType": "介護老人福祉施設",
    "capacity": 0,
    "openDays": [],
    "openDaysNote": ""
  },
  {
    "id": "2171000801",
    "name": "特別養護老人ホーム　アルプス",
    "kana": "トクベツヨウゴロウジンホームアルプス",
    "address": "岐阜県郡上市白鳥町白鳥414番地3",
    "lat": 35.8874959,
    "lng": 136.8596606,
    "tel": "0575-83-0331",
    "url": "",
    "pref": "岐阜県",
    "city": "郡上市",
    "category": "tokuyou",
    "serviceType": "介護老人福祉施設",
    "capacity": 50,
    "openDays": [],
    "openDaysNote": ""
  },
  {
    "id": "2171000140",
    "name": "特別養護老人ホームせせらぎ緑風苑",
    "kana": "トクベツヨウゴロウジンホームセセラギリョクフウエン",
    "address": "岐阜県郡上市八幡町旭663番地６",
    "lat": 35.7715423,
    "lng": 136.9934981,
    "tel": "0575-67-2011",
    "url": "http://www.seseragi-r.com",
    "pref": "岐阜県",
    "city": "郡上市",
    "category": "tokuyou",
    "serviceType": "介護老人福祉施設",
    "capacity": 0,
    "openDays": [],
    "openDaysNote": ""
  },
  {
    "id": "2171700657",
    "name": "特別養護老人ホーム　こころの丘",
    "kana": "トクベツヨウゴロウジンホーム　ココロノオカ",
    "address": "岐阜県恵那市岩村町2453-123",
    "lat": 35.3683337408825,
    "lng": 137.428757890121,
    "tel": "0573-43-0556",
    "url": "http://www.keiyu-kai.com/",
    "pref": "岐阜県",
    "city": "恵那市",
    "category": "tokuyou",
    "serviceType": "介護老人福祉施設",
    "capacity": 0,
    "openDays": [],
    "openDaysNote": ""
  },
  {
    "id": "2171701135",
    "name": "特別養護老人ホーム福寿苑（ユニット型）",
    "kana": "トクベツヨウゴロウジンホームフクジュエン（ユニットガタ）",
    "address": "岐阜県恵那市上矢作町下723番地1",
    "lat": 35.2748075914972,
    "lng": 137.47449502632,
    "tel": "0573-48-3161",
    "url": "https://keihoku.or.jp/",
    "pref": "岐阜県",
    "city": "恵那市",
    "category": "tokuyou",
    "serviceType": "介護老人福祉施設",
    "capacity": 30,
    "openDays": [],
    "openDaysNote": ""
  },
  {
    "id": "2171700459",
    "name": "特別養護老人ホーム福寿苑（従来型）",
    "kana": "トクベツヨウゴロウジンホームフクジュエン（ジュウライガタ）",
    "address": "岐阜県恵那市上矢作町下723番地1",
    "lat": 35.274635,
    "lng": 137.4746482,
    "tel": "0573-48-3161",
    "url": "https://keihoku.or.jp/",
    "pref": "岐阜県",
    "city": "恵那市",
    "category": "tokuyou",
    "serviceType": "介護老人福祉施設",
    "capacity": 40,
    "openDays": [],
    "openDaysNote": ""
  },
  {
    "id": "2171700046",
    "name": "特別養護老人ホーム万年青苑",
    "kana": "トクベツヨウゴロウジンホームオモトエン",
    "address": "岐阜県恵那市長島町永田３８１番地４９",
    "lat": 35.4456002,
    "lng": 137.4055284,
    "tel": "0573-26-3021",
    "url": "http://www.keiwakai.or.jp/",
    "pref": "岐阜県",
    "city": "恵那市",
    "category": "tokuyou",
    "serviceType": "介護老人福祉施設",
    "capacity": 100,
    "openDays": [],
    "openDaysNote": ""
  },
  {
    "id": "2171700996",
    "name": "特別養護老人ホーム明日香苑",
    "kana": "トクベツヨウゴロウジンホームアスカエン",
    "address": "岐阜県恵那市三郷町佐々良木1470-1",
    "lat": 35.405139,
    "lng": 137.3561893,
    "tel": "0573-28-3210",
    "url": "http://www.keiwakai.or.jp",
    "pref": "岐阜県",
    "city": "恵那市",
    "category": "tokuyou",
    "serviceType": "介護老人福祉施設",
    "capacity": 0,
    "openDays": [],
    "openDaysNote": ""
  },
  {
    "id": "2171400134",
    "name": "特別養護老人ホーム　さわやかナーシングみたけ",
    "kana": "トクベツヨウゴロウジンホーム　サワヤカナーシングミタケ",
    "address": "岐阜県可児郡御嵩町井尻65番地1",
    "lat": 35.4306906,
    "lng": 137.1483389,
    "tel": "0574-67-8325",
    "url": "http://www.jikeikai-sawayaka.jp",
    "pref": "岐阜県",
    "city": "御嵩町",
    "category": "tokuyou",
    "serviceType": "介護老人福祉施設",
    "capacity": 80,
    "openDays": [],
    "openDaysNote": ""
  },
  {
    "id": "2172701308",
    "name": "こころの丘高山",
    "kana": "ココロノオカタカヤマ",
    "address": "岐阜県高山市赤保木町1164-1",
    "lat": 36.1606824,
    "lng": 137.2313437,
    "tel": "0577-33-0556",
    "url": "http://www.keiyu-kai.com",
    "pref": "岐阜県",
    "city": "高山市",
    "category": "tokuyou",
    "serviceType": "介護老人福祉施設",
    "capacity": 80,
    "openDays": [],
    "openDaysNote": ""
  },
  {
    "id": "2172700086",
    "name": "特別養護老人ホーム新宮園",
    "kana": "トクベツヨウゴロウジンホームシングウエン",
    "address": "岐阜県高山市新宮町1322番地1",
    "lat": 36.1351856,
    "lng": 137.2092774,
    "tel": "0577-36-5565",
    "url": "http://www.seitokukai.or.jp",
    "pref": "岐阜県",
    "city": "高山市",
    "category": "tokuyou",
    "serviceType": "介護老人福祉施設",
    "capacity": 100,
    "openDays": [],
    "openDaysNote": ""
  },
  {
    "id": "2172700730",
    "name": "特別養護老人ホーム丹生川苑",
    "kana": "トクベツヨウゴロウジンホーム　ニュウカワエン",
    "address": "岐阜県高山市丹生川町町方98-1",
    "lat": 36.1719193,
    "lng": 137.308236,
    "tel": "0577-78-3177",
    "url": "http://www.hachijukai.com/",
    "pref": "岐阜県",
    "city": "高山市",
    "category": "tokuyou",
    "serviceType": "介護老人福祉施設",
    "capacity": 0,
    "openDays": [],
    "openDaysNote": ""
  },
  {
    "id": "2172700524",
    "name": "特別養護老人ホーム南風園",
    "kana": "トクベツヨウゴロウジンホームナンプウエン",
    "address": "岐阜県高山市千島町1257-2",
    "lat": 36.1150645582839,
    "lng": 137.242376150926,
    "tel": "0577-33-3730",
    "url": "http://www.seitokukai.or.jp",
    "pref": "岐阜県",
    "city": "高山市",
    "category": "tokuyou",
    "serviceType": "介護老人福祉施設",
    "capacity": 100,
    "openDays": [],
    "openDaysNote": ""
  },
  {
    "id": "2172900322",
    "name": "特別養護老人ホーム八光苑",
    "kana": "トクベツヨウゴロウジンホームハッコウエン",
    "address": "岐阜県高山市久々野町久々野１２０２番地八光苑 八光苑",
    "lat": 36.0591307,
    "lng": 137.2748117,
    "tel": "0577-52-2211",
    "url": "http://www.hachijukai.com/",
    "pref": "岐阜県",
    "city": "高山市",
    "category": "tokuyou",
    "serviceType": "介護老人福祉施設",
    "capacity": 80,
    "openDays": [],
    "openDaysNote": ""
  },
  {
    "id": "2172700078",
    "name": "特別養護老人ホーム豊楽園",
    "kana": "トクベツヨウゴロウジンホウムホウラクエン",
    "address": "岐阜県高山市三福寺町1110番地の5",
    "lat": 36.1548368,
    "lng": 137.2653048,
    "tel": "0577-32-5565",
    "url": "http://www.seitokukai.or.jp",
    "pref": "岐阜県",
    "city": "高山市",
    "category": "tokuyou",
    "serviceType": "介護老人福祉施設",
    "capacity": 0,
    "openDays": [],
    "openDaysNote": ""
  },
  {
    "id": "2171300722",
    "name": "さわやかナーシングさかほぎ",
    "kana": "サワヤカナーシングサカホギ",
    "address": "岐阜県加茂郡坂祝町黒岩149番地2",
    "lat": 35.4402101,
    "lng": 136.9788706,
    "tel": "0574-26-8534",
    "url": "http://www.jikeikai-sawayaka.jp",
    "pref": "岐阜県",
    "city": "坂祝町",
    "category": "tokuyou",
    "serviceType": "介護老人福祉施設",
    "capacity": 30,
    "openDays": [],
    "openDaysNote": ""
  },
  {
    "id": "2170800466",
    "name": "介護老人福祉施設オレンジヒルズやまがた",
    "kana": "カイゴロウジンフクシセツオレンジヒルズヤマガタ",
    "address": "岐阜県山県市高木1367-1",
    "lat": 35.5068838658297,
    "lng": 136.78313489644,
    "tel": "0581-32-9501",
    "url": "http://miwakai.or.jp",
    "pref": "岐阜県",
    "city": "山県市",
    "category": "tokuyou",
    "serviceType": "介護老人福祉施設",
    "capacity": 0,
    "openDays": [],
    "openDaysNote": ""
  },
  {
    "id": "2170800185",
    "name": "特別養護老人ホーム　山県グリーンビレッジ",
    "kana": "トクベツヨウゴロウジンホーム　ヤマガタグリーンビレッジ",
    "address": "岐阜県山県市大門803",
    "lat": 35.5390714,
    "lng": 136.725382,
    "tel": "0581-36-1050",
    "url": "https://yuuaikai-gifu.or.jp/",
    "pref": "岐阜県",
    "city": "山県市",
    "category": "tokuyou",
    "serviceType": "介護老人福祉施設",
    "capacity": 90,
    "openDays": [],
    "openDaysNote": ""
  },
  {
    "id": "2170800045",
    "name": "特別養護老人ホーム椿野苑",
    "kana": "トクベツヨウゴロウジンホームツバキノエン",
    "address": "岐阜県山県市大桑3615番地１",
    "lat": 35.5497018,
    "lng": 136.7690158,
    "tel": "0581-22-6001",
    "url": "http://www.douhoukai.com",
    "pref": "岐阜県",
    "city": "山県市",
    "category": "tokuyou",
    "serviceType": "介護老人福祉施設",
    "capacity": 60,
    "openDays": [],
    "openDaysNote": ""
  },
  {
    "id": "2172500189",
    "name": "特別養護老人ホーム　ラック",
    "kana": "トクベツヨウゴロウジンホーム　ラック",
    "address": "岐阜県安八郡神戸町北一色10番地",
    "lat": 35.4288388397408,
    "lng": 136.586974205791,
    "tel": "0584-28-1300",
    "url": "http://www.zenshinkai.or.jp",
    "pref": "岐阜県",
    "city": "神戸町",
    "category": "tokuyou",
    "serviceType": "介護老人福祉施設",
    "capacity": 60,
    "openDays": [],
    "openDaysNote": ""
  },
  {
    "id": "2172400349",
    "name": "いぶき苑別館",
    "kana": "イブキエンベッカン",
    "address": "岐阜県不破郡垂井町府中１９４７番地の１",
    "lat": 35.3765113588714,
    "lng": 136.520894581584,
    "tel": "０５８４-２２-５７０１",
    "url": "https://www.ibukien.jp",
    "pref": "岐阜県",
    "city": "垂井町",
    "category": "tokuyou",
    "serviceType": "介護老人福祉施設",
    "capacity": 0,
    "openDays": [],
    "openDaysNote": ""
  },
  {
    "id": "2172400042",
    "name": "特別養護老人ホーム　いぶき苑",
    "kana": "トクベツヨウゴロウジンホーム　イブキエン",
    "address": "岐阜県不破郡垂井町岩手４５３８",
    "lat": 35.3762889,
    "lng": 136.5197635,
    "tel": "0584-22-5211",
    "url": "https://www.ibukien.jp",
    "pref": "岐阜県",
    "city": "垂井町",
    "category": "tokuyou",
    "serviceType": "介護老人福祉施設",
    "capacity": 60,
    "openDays": [],
    "openDaysNote": ""
  },
  {
    "id": "2172400240",
    "name": "特別養護老人ホームゆのきがわ",
    "kana": "トクベツヨウゴロウジンホームユノキガワ",
    "address": "岐阜県不破郡垂井町宮代1155-2",
    "lat": 35.3538055,
    "lng": 136.5333213,
    "tel": "0584-24-1213",
    "url": "http://www.hakuaikai.jp",
    "pref": "岐阜県",
    "city": "垂井町",
    "category": "tokuyou",
    "serviceType": "介護老人福祉施設",
    "capacity": 80,
    "openDays": [],
    "openDaysNote": ""
  },
  {
    "id": "2173200276",
    "name": "特別養護老人ホーム　サンビレッジ瑞穂",
    "kana": "トクベツヨウゴロウジンホーム　サンビレッジミズホ",
    "address": "岐阜県瑞穂市只越219番地2",
    "lat": 35.4008631564884,
    "lng": 136.674405092746,
    "tel": "058-322-5200",
    "url": "https://www.sun-village.jp/",
    "pref": "岐阜県",
    "city": "瑞穂市",
    "category": "tokuyou",
    "serviceType": "介護老人福祉施設",
    "capacity": 72,
    "openDays": [],
    "openDaysNote": ""
  },
  {
    "id": "2170700104",
    "name": "特別養護老人ホームほづみ園",
    "kana": "トクベツヨウゴロウジンホームホヅミエン",
    "address": "岐阜県瑞穂市宝江５７６－１",
    "lat": 35.370842,
    "lng": 136.6712362,
    "tel": "058-326-8008",
    "url": "https://www.sinwakai-hozumien.jp/",
    "pref": "岐阜県",
    "city": "瑞穂市",
    "category": "tokuyou",
    "serviceType": "介護老人福祉施設",
    "capacity": 0,
    "openDays": [],
    "openDaysNote": ""
  },
  {
    "id": "2171600147",
    "name": "特別養護老人ホーム　千寿の里",
    "kana": "トクベツヨウゴロウジンホーム　センジュノサト",
    "address": "岐阜県瑞浪市山田町1018番地の1",
    "lat": 35.3427507,
    "lng": 137.2516036,
    "tel": "0572-68-1248",
    "url": "https://www.senjyukai.or.jp/",
    "pref": "岐阜県",
    "city": "瑞浪市",
    "category": "tokuyou",
    "serviceType": "介護老人福祉施設",
    "capacity": 80,
    "openDays": [],
    "openDaysNote": ""
  },
  {
    "id": "2171600436",
    "name": "特別養護老人ホームみずなみ瀬戸の里",
    "kana": "トクベツヨウゴロウジンホームミズナミセトノサト",
    "address": "岐阜県瑞浪市稲津町小里2723-1",
    "lat": 35.327735,
    "lng": 137.2911184,
    "tel": "0572-67-3003",
    "url": "http://www.gojoukai.or.jp",
    "pref": "岐阜県",
    "city": "瑞浪市",
    "category": "tokuyou",
    "serviceType": "介護老人福祉施設",
    "capacity": 80,
    "openDays": [],
    "openDaysNote": ""
  },
  {
    "id": "2171600089",
    "name": "特別養護老人ホームみずなみ陶生苑",
    "kana": "トクベツヨウゴロウジンホームミズナミトウセイエン",
    "address": "岐阜県瑞浪市釜戸町833番地",
    "lat": 35.3997005,
    "lng": 137.2836147,
    "tel": "0572-63-2843",
    "url": "",
    "pref": "岐阜県",
    "city": "瑞浪市",
    "category": "tokuyou",
    "serviceType": "介護老人福祉施設",
    "capacity": 50,
    "openDays": [],
    "openDaysNote": ""
  },
  {
    "id": "2171300151",
    "name": "特別養護老人ホームさわやかナーシング川辺",
    "kana": "トクベツヨウゴロウジンホームサワヤカナーシングカワベ",
    "address": "岐阜県加茂郡川辺町上川辺930-1",
    "lat": 35.5125789,
    "lng": 137.0804072,
    "tel": "0574-53-6711",
    "url": "http://www.jikeikai-sawayaka.jp/",
    "pref": "岐阜県",
    "city": "川辺町",
    "category": "tokuyou",
    "serviceType": "介護老人福祉施設",
    "capacity": 60,
    "openDays": [],
    "openDaysNote": ""
  },
  {
    "id": "2171100858",
    "name": "介護老人福祉施設　清凉苑",
    "kana": "カイゴロウジンフクシシセツ　セイリョウエン",
    "address": "岐阜県多治見市旭ヶ丘7-17-1",
    "lat": 35.3667422,
    "lng": 137.1006373,
    "tel": "0572-29-1185",
    "url": "https://www.seiryouen.or.jp",
    "pref": "岐阜県",
    "city": "多治見市",
    "category": "tokuyou",
    "serviceType": "介護老人福祉施設",
    "capacity": 90,
    "openDays": [],
    "openDaysNote": ""
  },
  {
    "id": "2171102268",
    "name": "介護老人福祉施設ジョイフル多治見",
    "kana": "カイゴロウジンフクシシセツジョイフルタジミ",
    "address": "岐阜県多治見市音羽町一丁目235番地",
    "lat": 35.3364898229995,
    "lng": 137.119131207271,
    "tel": "0572-21-1711",
    "url": "https://sun-vision.or.jp/",
    "pref": "岐阜県",
    "city": "多治見市",
    "category": "tokuyou",
    "serviceType": "介護老人福祉施設",
    "capacity": 0,
    "openDays": [],
    "openDaysNote": ""
  },
  {
    "id": "2171100551",
    "name": "特別養護老人ホーム　エバーグリーン",
    "kana": "トクベツヨウゴロウジンホームエバーグリーン",
    "address": "岐阜県多治見市小名田町西ヶ洞1-325",
    "lat": 35.3659651,
    "lng": 137.1174909,
    "tel": "0572-21-5135",
    "url": "http://www.i-jinjukai.or.jp/evergreen/",
    "pref": "岐阜県",
    "city": "多治見市",
    "category": "tokuyou",
    "serviceType": "介護老人福祉施設",
    "capacity": 90,
    "openDays": [],
    "openDaysNote": ""
  },
  {
    "id": "2171900075",
    "name": "特別養護老人ホームかさはら陶生苑",
    "kana": "トクベツヨウゴロウジンホーム　カサハラトウセイエン",
    "address": "岐阜県多治見市笠原町２８５４－１",
    "lat": 35.3029293,
    "lng": 137.1546216,
    "tel": "0572-45-2181",
    "url": "http://www.toseien.com/",
    "pref": "岐阜県",
    "city": "多治見市",
    "category": "tokuyou",
    "serviceType": "介護老人福祉施設",
    "capacity": null,
    "openDays": [],
    "openDaysNote": ""
  },
  {
    "id": "2171100114",
    "name": "特別養護老人ホームたじみ陶生苑",
    "kana": "トクベツヨウゴロウジンホームタジミトウセイエン",
    "address": "岐阜県多治見市小名田町小滝５－４１１",
    "lat": 35.3764531,
    "lng": 137.1220678,
    "tel": "0572-25-6997",
    "url": "https://www.toseien.com/",
    "pref": "岐阜県",
    "city": "多治見市",
    "category": "tokuyou",
    "serviceType": "介護老人福祉施設",
    "capacity": 0,
    "openDays": [],
    "openDaysNote": ""
  },
  {
    "id": "2171100247",
    "name": "特別養護老人ホームビアンカ",
    "kana": "トクベツヨウゴロウジンホームビアンカ",
    "address": "岐阜県多治見市上山町１－９７－２",
    "lat": 35.3395467,
    "lng": 137.1377981,
    "tel": "0572-25-0780",
    "url": "http://bitokukai.com",
    "pref": "岐阜県",
    "city": "多治見市",
    "category": "tokuyou",
    "serviceType": "介護老人福祉施設",
    "capacity": 0,
    "openDays": [],
    "openDaysNote": ""
  },
  {
    "id": "2171100122",
    "name": "特別養護老人ホームベルツリー",
    "kana": "トクベツヨウゴロウジンホームベルツリー",
    "address": "岐阜県多治見市脇之島町３－１６－１",
    "lat": 35.3167815,
    "lng": 137.1192143,
    "tel": "0572-22-4434",
    "url": "http://www.belltree.or.jp/",
    "pref": "岐阜県",
    "city": "多治見市",
    "category": "tokuyou",
    "serviceType": "介護老人福祉施設",
    "capacity": 50,
    "openDays": [],
    "openDaysNote": ""
  },
  {
    "id": "2172101376",
    "name": "大垣市くすのき苑",
    "kana": "オオガキシクスノキエン",
    "address": "岐阜県大垣市多芸島4丁目64番地1",
    "lat": 35.3236653,
    "lng": 136.5948929,
    "tel": "0584-89-8100",
    "url": "https://ogaki-fukushi.jp",
    "pref": "岐阜県",
    "city": "大垣市",
    "category": "tokuyou",
    "serviceType": "介護老人福祉施設",
    "capacity": 110,
    "openDays": [],
    "openDaysNote": ""
  },
  {
    "id": "2172100758",
    "name": "特別養護老人ホーム　サンヴェール大垣",
    "kana": "トクベツヨウゴロウジンホーム　サンウ゛ェールオオガキ",
    "address": "岐阜県大垣市東町4丁目43-2",
    "lat": 35.3697139,
    "lng": 136.6476907,
    "tel": "0584-77-7010",
    "url": "http://www.sunvale.net",
    "pref": "岐阜県",
    "city": "大垣市",
    "category": "tokuyou",
    "serviceType": "介護老人福祉施設",
    "capacity": 90,
    "openDays": [],
    "openDaysNote": ""
  },
  {
    "id": "2172102036",
    "name": "特別養護老人ホーム　すいと大垣",
    "kana": "トクベツヨウゴロウジンホーム　スイトオオガキ",
    "address": "岐阜県大垣市北方町５丁目２５番地１",
    "lat": 35.3955912,
    "lng": 136.6188018,
    "tel": "0584-47-7123",
    "url": "http://www.inoguchikai.jp/",
    "pref": "岐阜県",
    "city": "大垣市",
    "category": "tokuyou",
    "serviceType": "介護老人福祉施設",
    "capacity": 80,
    "openDays": [],
    "openDaysNote": ""
  },
  {
    "id": "2172101111",
    "name": "特別養護老人ホーム　清心苑",
    "kana": "トクベツヨウゴロウジンホーム　セイシンエン",
    "address": "岐阜県大垣市矢道町１丁目３０３番地",
    "lat": 35.3720979,
    "lng": 136.5600236,
    "tel": "0584-93-0510",
    "url": "https://seishinkai.heart-gp.org/tokuyou/",
    "pref": "岐阜県",
    "city": "大垣市",
    "category": "tokuyou",
    "serviceType": "介護老人福祉施設",
    "capacity": 0,
    "openDays": [],
    "openDaysNote": ""
  },
  {
    "id": "2172102382",
    "name": "特別養護老人ホーム　静風苑",
    "kana": "トクベツヨウゴロウジンホーム　セイフウエン",
    "address": "岐阜県大垣市林町七丁目字恵比寿堂６１８－１",
    "lat": 35.3763717400509,
    "lng": 136.622894643969,
    "tel": "0584-81-5100",
    "url": "http://ogaki-seifuen.jp/",
    "pref": "岐阜県",
    "city": "大垣市",
    "category": "tokuyou",
    "serviceType": "介護老人福祉施設",
    "capacity": 80,
    "openDays": [],
    "openDaysNote": ""
  },
  {
    "id": "2172102317",
    "name": "特別養護老人ホーム　優・悠・邑　和合",
    "kana": "トクベツヨウゴロウジンホーム　ユウ・ユウ・ユウ　ワゴウ",
    "address": "岐阜県大垣市和合本町2丁目114-1特別養護老人ホーム　優・悠・邑　和合 特別養護老人ホーム　優・悠・邑　和合",
    "lat": 35.3743140935749,
    "lng": 136.647583057846,
    "tel": "0584-73-6110",
    "url": "http://www.sugiwakai.jp/",
    "pref": "岐阜県",
    "city": "大垣市",
    "category": "tokuyou",
    "serviceType": "介護老人福祉施設",
    "capacity": 90,
    "openDays": [],
    "openDaysNote": ""
  },
  {
    "id": "2172103083",
    "name": "特別養護老人ホーム　優心苑",
    "kana": "トクベツヨウゴロウジンホーム　ユウシンエン",
    "address": "岐阜県大垣市矢道町1丁目255番地1",
    "lat": 35.372641,
    "lng": 136.5598741,
    "tel": "0584-93-0506",
    "url": "https://seishinkai.heart-gp.org/",
    "pref": "岐阜県",
    "city": "大垣市",
    "category": "tokuyou",
    "serviceType": "介護老人福祉施設",
    "capacity": null,
    "openDays": [],
    "openDaysNote": ""
  },
  {
    "id": "2172100147",
    "name": "特別養護老人ホームゴールドライフ大東",
    "kana": "トクベツヨウゴロウジンホームゴールドライフダイトウ",
    "address": "岐阜県大垣市東前１丁目７９番地",
    "lat": 35.3507245,
    "lng": 136.6302317,
    "tel": "0584-82-2800",
    "url": "http://294.or.jp",
    "pref": "岐阜県",
    "city": "大垣市",
    "category": "tokuyou",
    "serviceType": "介護老人福祉施設",
    "capacity": 0,
    "openDays": [],
    "openDaysNote": ""
  },
  {
    "id": "2172101046",
    "name": "特別養護老人ホームパサーダ",
    "kana": "トクベツヨウゴロウジンホームパサーダ",
    "address": "岐阜県大垣市北方町二丁目７０番１",
    "lat": 35.3964656,
    "lng": 136.6105058,
    "tel": "0584-78-2984",
    "url": "http://www.haroro.com/hokushin",
    "pref": "岐阜県",
    "city": "大垣市",
    "category": "tokuyou",
    "serviceType": "介護老人福祉施設",
    "capacity": 0,
    "openDays": [],
    "openDaysNote": ""
  },
  {
    "id": "2172100139",
    "name": "特別養護老人ホーム友和苑",
    "kana": "トクベツヨウゴロウジンホーム　ユウワエン",
    "address": "岐阜県大垣市入方3丁目70番地1",
    "lat": 35.3243626,
    "lng": 136.5982979,
    "tel": "0584-88-1567",
    "url": "http://www.yuuwaen.jp",
    "pref": "岐阜県",
    "city": "大垣市",
    "category": "tokuyou",
    "serviceType": "介護老人福祉施設",
    "capacity": 0,
    "openDays": [],
    "openDaysNote": ""
  },
  {
    "id": "2172601060",
    "name": "特別養護老人ホーム　ぎふ愛の里",
    "kana": "トクベツヨウゴロウジンホームギフアイノサト",
    "address": "岐阜県揖斐郡大野町大字大野742-14",
    "lat": 35.4799964,
    "lng": 136.6398388,
    "tel": "0585-35-7717",
    "url": "https://www.gifu-ainosato.jp",
    "pref": "岐阜県",
    "city": "大野町",
    "category": "tokuyou",
    "serviceType": "介護老人福祉施設",
    "capacity": 50,
    "openDays": [],
    "openDaysNote": ""
  },
  {
    "id": "2172600708",
    "name": "特別養護老人ホームまほろば",
    "kana": "トクベツヨウゴロウジンホームマホロバ",
    "address": "岐阜県揖斐郡大野町南方石ノ上356番地1",
    "lat": 35.4524711901919,
    "lng": 136.61886583464,
    "tel": "0585-35-0058",
    "url": "http://www.plaza21oono.jp/koujinkai",
    "pref": "岐阜県",
    "city": "大野町",
    "category": "tokuyou",
    "serviceType": "介護老人福祉施設",
    "capacity": 0,
    "openDays": [],
    "openDaysNote": ""
  },
  {
    "id": "2172601177",
    "name": "リハビリセンター白鳥",
    "kana": "リハビリセンターシロトリ",
    "address": "岐阜県揖斐郡池田町白鳥３８６番地",
    "lat": 35.444767,
    "lng": 136.590963,
    "tel": "0585-45-3133",
    "url": "https://www.sun-village.jp/publics/index/92/",
    "pref": "岐阜県",
    "city": "池田町",
    "category": "tokuyou",
    "serviceType": "介護老人福祉施設",
    "capacity": 30,
    "openDays": [],
    "openDaysNote": ""
  },
  {
    "id": "2172600070",
    "name": "特別養護老人ホーム　サンビレッジ新生苑",
    "kana": "トクベツヨウゴロウジンホーム　サンビレッジシンセイエン",
    "address": "岐阜県揖斐郡池田町本郷１５０１",
    "lat": 35.4440335,
    "lng": 136.5755478,
    "tel": "0585-45-5545",
    "url": "https://www.sun-village.jp/",
    "pref": "岐阜県",
    "city": "池田町",
    "category": "tokuyou",
    "serviceType": "介護老人福祉施設",
    "capacity": 138,
    "openDays": [],
    "openDaysNote": ""
  },
  {
    "id": "2171500602",
    "name": "特別養護老人ホーム　ふくろうの杜",
    "kana": "トクベツヨウゴロウジンホーム　フクロウノモリ",
    "address": "岐阜県中津川市苗木4002",
    "lat": 35.5119179,
    "lng": 137.4592841,
    "tel": "0573-62-1250",
    "url": "http://fukurounomori.jp/",
    "pref": "岐阜県",
    "city": "中津川市",
    "category": "tokuyou",
    "serviceType": "介護老人福祉施設",
    "capacity": 0,
    "openDays": [],
    "openDaysNote": ""
  },
  {
    "id": "2171501238",
    "name": "特別養護老人ホーム　延暦寺広済寮",
    "kana": "トクベツヨウゴロウジンホーム　エンリャクジコウサイリョウ",
    "address": "岐阜県中津川市落合1336－13",
    "lat": 35.4992077003693,
    "lng": 137.547875125887,
    "tel": "0573-69-4300",
    "url": "https://kayagakikai-nakatsugawa.jp/",
    "pref": "岐阜県",
    "city": "中津川市",
    "category": "tokuyou",
    "serviceType": "介護老人福祉施設",
    "capacity": null,
    "openDays": [],
    "openDaysNote": ""
  },
  {
    "id": "2171501048",
    "name": "特別養護老人ホーム　恵翔苑　（ユニット型）",
    "kana": "トクベツヨウゴロウジンホームケイショウエン　（ユニットガタ）",
    "address": "岐阜県中津川市付知町4575番地１",
    "lat": 35.6666884,
    "lng": 137.4266067,
    "tel": "０５７３－８２－４７１８",
    "url": "https://keihoku.or.jp",
    "pref": "岐阜県",
    "city": "中津川市",
    "category": "tokuyou",
    "serviceType": "介護老人福祉施設",
    "capacity": 0,
    "openDays": [],
    "openDaysNote": ""
  },
  {
    "id": "2172000131",
    "name": "特別養護老人ホーム　恵翔苑(従来型）",
    "kana": "トクベツヨウゴロウジンホームケイショウエン　（ジュウライガタ）",
    "address": "岐阜県中津川市付知町４５７５番地１",
    "lat": 35.6666884,
    "lng": 137.4266067,
    "tel": "0573-82-4718（",
    "url": "https://keihoku.or.jp",
    "pref": "岐阜県",
    "city": "中津川市",
    "category": "tokuyou",
    "serviceType": "介護老人福祉施設",
    "capacity": 0,
    "openDays": [],
    "openDaysNote": ""
  },
  {
    "id": "2171500289",
    "name": "特別養護老人ホームシクラメン",
    "kana": "トクベツヨウゴロウジンホームシクラメン",
    "address": "岐阜県中津川市阿木2811番地の1",
    "lat": 35.4092996,
    "lng": 137.4471859,
    "tel": "0573-63-3232",
    "url": "http://www.cyclamen.or.jp/",
    "pref": "岐阜県",
    "city": "中津川市",
    "category": "tokuyou",
    "serviceType": "介護老人福祉施設",
    "capacity": 70,
    "openDays": [],
    "openDaysNote": ""
  },
  {
    "id": "2171500040",
    "name": "特別養護老人ホーム延暦寺広済寮",
    "kana": "トクベツヨウゴロウジンホームエンリャクジコウサイリョウ",
    "address": "岐阜県中津川市落合1336-13",
    "lat": 35.4992302141689,
    "lng": 137.547850211939,
    "tel": "0573-69-4300",
    "url": "https://kayagakikai-nakatsugawa.jp/",
    "pref": "岐阜県",
    "city": "中津川市",
    "category": "tokuyou",
    "serviceType": "介護老人福祉施設",
    "capacity": 0,
    "openDays": [],
    "openDaysNote": ""
  },
  {
    "id": "2171500057",
    "name": "特別養護老人ホーム瀬戸の里",
    "kana": "トクベツヨウゴロウジンホームセトノサト",
    "address": "岐阜県中津川市瀬戸1387番地の8",
    "lat": 35.5166269,
    "lng": 137.4974198,
    "tel": "0573-65-3141",
    "url": "http://www.gojoukai.or.jp/",
    "pref": "岐阜県",
    "city": "中津川市",
    "category": "tokuyou",
    "serviceType": "介護老人福祉施設",
    "capacity": 0,
    "openDays": [],
    "openDaysNote": ""
  },
  {
    "id": "2171500719",
    "name": "特別養護老人ホーム二ツ森",
    "kana": "トクベツヨウゴロウジンホームフタツモリ",
    "address": "岐阜県中津川市福岡1693-608",
    "lat": 35.5686734,
    "lng": 137.4324501,
    "tel": "0573-72-4001",
    "url": "http://www.futatsumori.or.jp/",
    "pref": "岐阜県",
    "city": "中津川市",
    "category": "tokuyou",
    "serviceType": "介護老人福祉施設",
    "capacity": 55,
    "openDays": [],
    "openDaysNote": ""
  },
  {
    "id": "2171800051",
    "name": "特別養護老人ホームとき陶生苑",
    "kana": "トクベツヨウゴロウジンホームトキトウセイエン",
    "address": "岐阜県土岐市駄知町1858番地の2",
    "lat": 35.329157,
    "lng": 137.2229793,
    "tel": "0572-59-8678",
    "url": "http://www.toseien.com/",
    "pref": "岐阜県",
    "city": "土岐市",
    "category": "tokuyou",
    "serviceType": "介護老人福祉施設",
    "capacity": 120,
    "openDays": [],
    "openDaysNote": ""
  },
  {
    "id": "2171800325",
    "name": "特別養護老人ホームドリーム陶都",
    "kana": "トクベツヨウゴロウジンホームドリームトウト",
    "address": "岐阜県土岐市下石町304番地839",
    "lat": 35.3159174,
    "lng": 137.1732366,
    "tel": "0572-57-5722",
    "url": "https://www.tohtokai.jp/",
    "pref": "岐阜県",
    "city": "土岐市",
    "category": "tokuyou",
    "serviceType": "介護老人福祉施設",
    "capacity": 80,
    "openDays": [],
    "openDaysNote": ""
  },
  {
    "id": "2171301050",
    "name": "特別養護老人ホームサンシャイン美濃白川",
    "kana": "トクベツヨウゴロウジンホームサンシャインミノシラカワ",
    "address": "岐阜県加茂郡白川町坂ノ東5500-1",
    "lat": 35.6028525533743,
    "lng": 137.166298146033,
    "tel": "0574-75-2340",
    "url": "https://shirakawa-shakyo.or.jp",
    "pref": "岐阜県",
    "city": "白川町",
    "category": "tokuyou",
    "serviceType": "介護老人福祉施設",
    "capacity": null,
    "openDays": [],
    "openDaysNote": ""
  },
  {
    "id": "2171300169",
    "name": "特別養護老人ホーム敬和園",
    "kana": "トクベツヨウゴロウジンホームケイワエン",
    "address": "岐阜県加茂郡八百津町伊岐津志2053-1",
    "lat": 35.4718607284347,
    "lng": 137.128240283823,
    "tel": "0574-43-2280",
    "url": "https://www.souwa-kai.jp/",
    "pref": "岐阜県",
    "city": "八百津町",
    "category": "tokuyou",
    "serviceType": "介護老人福祉施設",
    "capacity": 70,
    "openDays": [],
    "openDaysNote": ""
  },
  {
    "id": "2173300258",
    "name": "岐阜県立飛騨寿楽苑",
    "kana": "ギフケンリツヒダジュラクエン",
    "address": "岐阜県飛騨市古川町是重102",
    "lat": 36.2250805984814,
    "lng": 137.199561635898,
    "tel": "0577－73ー3804",
    "url": "http://www.gifu-fukushi.jp/",
    "pref": "岐阜県",
    "city": "飛騨市",
    "category": "tokuyou",
    "serviceType": "介護老人福祉施設",
    "capacity": 0,
    "openDays": [],
    "openDaysNote": ""
  },
  {
    "id": "2173000569",
    "name": "特別養護老人ホーム　飛騨古川さくらの郷",
    "kana": "トクベツヨウゴロウジンホーム　ヒダフルカワサクラノサト",
    "address": "岐阜県飛騨市古川町杉崎598番地1",
    "lat": 36.2523167,
    "lng": 137.1567919,
    "tel": "0577-73-0088",
    "url": "http://www.sakura-asagiri.com",
    "pref": "岐阜県",
    "city": "飛騨市",
    "category": "tokuyou",
    "serviceType": "介護老人福祉施設",
    "capacity": 0,
    "openDays": [],
    "openDaysNote": ""
  },
  {
    "id": "2173000080",
    "name": "特別養護老人ホームたんぽぽ苑",
    "kana": "トクベツヨウゴロウジンホームタンポポエン",
    "address": "岐阜県飛騨市神岡町東町690-1",
    "lat": 36.3345972,
    "lng": 137.3018291,
    "tel": "0578-82-6500",
    "url": "http://www.tanpopoen.jp/",
    "pref": "岐阜県",
    "city": "飛騨市",
    "category": "tokuyou",
    "serviceType": "介護老人福祉施設",
    "capacity": 0,
    "openDays": [],
    "openDaysNote": ""
  },
  {
    "id": "2171200500",
    "name": "社会福祉法人　清風会　特別養護老人ホーム　ハニーヒルズ",
    "kana": "シャカイフクシホウジン　セイフウカイ　トクベツヨウゴロウジンホーム　ハニーヒルズ",
    "address": "岐阜県美濃加茂市蜂屋町伊瀬540-1",
    "lat": 35.4613569,
    "lng": 136.9918143,
    "tel": "0574-24-2125",
    "url": "https://www.hayasi-clinic.org/publics/index/33/",
    "pref": "岐阜県",
    "city": "美濃加茂市",
    "category": "tokuyou",
    "serviceType": "介護老人福祉施設",
    "capacity": 0,
    "openDays": [],
    "openDaysNote": ""
  },
  {
    "id": "2171200096",
    "name": "特別養護老人ホーム　さわやかナーシングビラ",
    "kana": "トクベツヨウゴロウジンホーム　サワヤカナーシングビラ",
    "address": "岐阜県美濃加茂市下米田町東栃井81番地の2",
    "lat": 35.4772158,
    "lng": 137.0662004,
    "tel": "0574-25-9790",
    "url": "http://www.jikeikai-sawayaka.jp",
    "pref": "岐阜県",
    "city": "美濃加茂市",
    "category": "tokuyou",
    "serviceType": "介護老人福祉施設",
    "capacity": 130,
    "openDays": [],
    "openDaysNote": ""
  },
  {
    "id": "2170300111",
    "name": "特別養護老人ホーム　美和の里",
    "kana": "トクベツヨウゴロウジンホーム　ミワノサト",
    "address": "岐阜県美濃市極楽寺213番地の1",
    "lat": 35.530543,
    "lng": 136.8828421,
    "tel": "0575-35-2582",
    "url": "http://gifu-shinwakai.org/",
    "pref": "岐阜県",
    "city": "美濃市",
    "category": "tokuyou",
    "serviceType": "介護老人福祉施設",
    "capacity": null,
    "openDays": [],
    "openDaysNote": ""
  },
  {
    "id": "2170300392",
    "name": "特別養護老人ホームみのがみの郷",
    "kana": "トクベツヨウゴロウジンホーム　ミノガミノサト",
    "address": "岐阜県美濃市乙狩８３７番地１",
    "lat": 35.5911188,
    "lng": 136.858617,
    "tel": "0575-37-5001",
    "url": "http://www.minogami.or.jp/",
    "pref": "岐阜県",
    "city": "美濃市",
    "category": "tokuyou",
    "serviceType": "介護老人福祉施設",
    "capacity": 50,
    "openDays": [],
    "openDaysNote": ""
  },
  {
    "id": "2170300285",
    "name": "特別養護老人ホームみの輝きの杜",
    "kana": "トクベツヨウゴロウジンホームミノカガヤキノモリ",
    "address": "岐阜県美濃市桑原3008番地１",
    "lat": 35.5416140220534,
    "lng": 136.918062955503,
    "tel": "0575-35-1777",
    "url": "http://www.minokagayaki.com/",
    "pref": "岐阜県",
    "city": "美濃市",
    "category": "tokuyou",
    "serviceType": "介護老人福祉施設",
    "capacity": 70,
    "openDays": [],
    "openDaysNote": ""
  },
  {
    "id": "2171300938",
    "name": "介護老人福祉施設アルトシュタットとみか",
    "kana": "カイゴロウジンフクシシセツアルトシュタットトミカ",
    "address": "岐阜県加茂郡富加町大平賀1495-1",
    "lat": 35.5076999278868,
    "lng": 136.972968712503,
    "tel": "0574-49-7002",
    "url": "http://miwakai.or.jp",
    "pref": "岐阜県",
    "city": "富加町",
    "category": "tokuyou",
    "serviceType": "介護老人福祉施設",
    "capacity": 80,
    "openDays": [],
    "openDaysNote": ""
  },
  {
    "id": "2170700658",
    "name": "特別養護老人ホーム　ナーシングケア北方",
    "kana": "トクベツヨウゴロウジンホーム　ナーシングケアキタガタ",
    "address": "岐阜県本巣郡北方町柱本白坪2丁目3番地",
    "lat": 35.4269981816423,
    "lng": 136.69475731475,
    "tel": "058-322-4165",
    "url": "https://www.wakokai.or.jp/search/nursing/nursingcare-kitagata",
    "pref": "岐阜県",
    "city": "北方町",
    "category": "tokuyou",
    "serviceType": "介護老人福祉施設",
    "capacity": 0,
    "openDays": [],
    "openDaysNote": ""
  },
  {
    "id": "2173400157",
    "name": "フレンドリーおりべ",
    "kana": "フレンドリーオリベ",
    "address": "岐阜県本巣市七五三735",
    "lat": 35.4483429,
    "lng": 136.6528195,
    "tel": "058-320-5320",
    "url": "http://www.inoguchikai.jp/",
    "pref": "岐阜県",
    "city": "本巣市",
    "category": "tokuyou",
    "serviceType": "介護老人福祉施設",
    "capacity": 80,
    "openDays": [],
    "openDaysNote": ""
  },
  {
    "id": "2170700435",
    "name": "もとす広域連合老人福祉施設大和園",
    "kana": "モトスコウイキレンゴウロウジンフクシシセツダイワエン",
    "address": "岐阜県本巣市曽井中島１１５６－４",
    "lat": 35.4826384,
    "lng": 136.6661529,
    "tel": "0581-34-2555",
    "url": "https://www.motosu-union.gifu.jp",
    "pref": "岐阜県",
    "city": "本巣市",
    "category": "tokuyou",
    "serviceType": "介護老人福祉施設",
    "capacity": 80,
    "openDays": [],
    "openDaysNote": ""
  },
  {
    "id": "2170700518",
    "name": "特別養護老人ホーム　さはら苑",
    "kana": "トクベツヨウゴロウジンホーム　サハラエン",
    "address": "岐阜県本巣市佐原３５３番地１",
    "lat": 35.5576764,
    "lng": 136.641561,
    "tel": "0581-32-5303",
    "url": "http://www.usuzumikai.or.jp",
    "pref": "岐阜県",
    "city": "本巣市",
    "category": "tokuyou",
    "serviceType": "介護老人福祉施設",
    "capacity": 0,
    "openDays": [],
    "openDaysNote": ""
  },
  {
    "id": "2173400496",
    "name": "特別養護老人ホーム　根尾川ガーデン",
    "kana": "トクベツヨウゴロウジンホーム　ネオガワガーデン",
    "address": "岐阜県本巣市佐原340番地2",
    "lat": 35.5563277,
    "lng": 136.6431648,
    "tel": "0581-32-5880",
    "url": "http://www.usuzumikai.or.jp/",
    "pref": "岐阜県",
    "city": "本巣市",
    "category": "tokuyou",
    "serviceType": "介護老人福祉施設",
    "capacity": 0,
    "openDays": [],
    "openDaysNote": ""
  },
  {
    "id": "2172601474",
    "name": "特別養護老人ホーム　尚和園",
    "kana": "トクベツヨウゴロウジンホーム　ショウワエン",
    "address": "岐阜県揖斐郡揖斐川町清水77",
    "lat": 35.4735964,
    "lng": 136.5970534,
    "tel": "0585-23-1000",
    "url": "https://www.plaza21oono.jp/koujinkai/",
    "pref": "岐阜県",
    "city": "揖斐川町",
    "category": "tokuyou",
    "serviceType": "介護老人福祉施設",
    "capacity": 50,
    "openDays": [],
    "openDaysNote": ""
  },
  {
    "id": "2172600989",
    "name": "特別養護老人ホームかりやど",
    "kana": "トクベツヨウゴロウジンホームカリヤド",
    "address": "岐阜県揖斐郡揖斐川町黒田４１９番地３",
    "lat": 35.4728588935248,
    "lng": 136.547041773997,
    "tel": "0585-22-5511",
    "url": "http://www.syuwa-kai.jp",
    "pref": "岐阜県",
    "city": "揖斐川町",
    "category": "tokuyou",
    "serviceType": "介護老人福祉施設",
    "capacity": 50,
    "openDays": [],
    "openDaysNote": ""
  },
  {
    "id": "2172601276",
    "name": "特別養護老人ホームハートヴィレッヂ谷汲の杜（ユニット型）",
    "kana": "トクベツヨウゴロウジンホームハートウ゛ィレッヂタニグミノモリ(ユニットガタ）",
    "address": "岐阜県揖斐郡揖斐川町谷汲名礼1248-13",
    "lat": 35.5279404,
    "lng": 136.6014337,
    "tel": "0585-55-2611",
    "url": "http://www.daiwa-center.jp/",
    "pref": "岐阜県",
    "city": "揖斐川町",
    "category": "tokuyou",
    "serviceType": "介護老人福祉施設",
    "capacity": null,
    "openDays": [],
    "openDaysNote": ""
  },
  {
    "id": "2172600526",
    "name": "特別養護老人ホームハートヴィレッヂ谷汲の杜（従来型）",
    "kana": "トクベツヨウゴロウジンホームハートウ゛ィレッヂタニグミノモリ（ジュウライガタ）",
    "address": "岐阜県揖斐郡揖斐川町谷汲名礼1248-13",
    "lat": 35.5279404,
    "lng": 136.6014337,
    "tel": "0585-55-2611",
    "url": "http://www.daiwa-center.jp/",
    "pref": "岐阜県",
    "city": "揖斐川町",
    "category": "tokuyou",
    "serviceType": "介護老人福祉施設",
    "capacity": null,
    "openDays": [],
    "openDaysNote": ""
  },
  {
    "id": "2172300044",
    "name": "特別養護老人ホーム　白鶴荘",
    "kana": "トクベツヨウゴロウジンホーム　ハッカクソウ",
    "address": "岐阜県養老郡養老町柏尾463番地1",
    "lat": 35.2938287,
    "lng": 136.5463682,
    "tel": "0584-32-1211",
    "url": "http://www.hakkakuso.com/",
    "pref": "岐阜県",
    "city": "養老町",
    "category": "tokuyou",
    "serviceType": "介護老人福祉施設",
    "capacity": 90,
    "openDays": [],
    "openDaysNote": ""
  },
  {
    "id": "2172500312",
    "name": "特別養護老人ホームハピネスビラ",
    "kana": "トクベツヨウゴロウジンホームハピネスビラ",
    "address": "岐阜県安八郡輪之内町中郷新田２４０８番地",
    "lat": 35.2837799,
    "lng": 136.6333553,
    "tel": "0584-69-5551",
    "url": "http://happinessvilla.jp",
    "pref": "岐阜県",
    "city": "輪之内町",
    "category": "tokuyou",
    "serviceType": "介護老人福祉施設",
    "capacity": 60,
    "openDays": [],
    "openDaysNote": ""
  }
]