[
  {
    "id": "3370700183",
    "name": "特別養護老人ホーム　きのこ荘",
    "kana": "トクベツヨウゴロウジンホーム　キノコソウ",
    "address": "岡山県井原市木之子町2416-1",
    "lat": 34.5786997029413,
    "lng": 133.482578415155,
    "tel": "0866-62-2200",
    "url": "http://www.kinoko-group.jp/",
    "pref": "岡山県",
    "city": "井原市",
    "category": "tokuyou",
    "serviceType": "介護老人福祉施設",
    "capacity": null,
    "openDays": [],
    "openDaysNote": ""
  },
  {
    "id": "3370700555",
    "name": "特別養護老人ホーム　四季の里",
    "kana": "トクベツヨウゴロウジンホーム　シキノサト",
    "address": "岡山県井原市上出部町四季が丘20番地4",
    "lat": 34.5854038,
    "lng": 133.4674731,
    "tel": "0866-65-1607",
    "url": "http://kyouwa.or.jp/",
    "pref": "岡山県",
    "city": "井原市",
    "category": "tokuyou",
    "serviceType": "介護老人福祉施設",
    "capacity": 70,
    "openDays": [],
    "openDaysNote": ""
  },
  {
    "id": "3372800130",
    "name": "特別養護老人ホーム　長楽園",
    "kana": "トクベツヨウゴロウジンホーム　チョウラクエン",
    "address": "岡山県井原市美星町西水砂２２３６番地７",
    "lat": 34.6600094,
    "lng": 133.5364454,
    "tel": "0866-87-3110",
    "url": "https://www.chorakuen.or.jp",
    "pref": "岡山県",
    "city": "井原市",
    "category": "tokuyou",
    "serviceType": "介護老人福祉施設",
    "capacity": 0,
    "openDays": [],
    "openDaysNote": ""
  },
  {
    "id": "3370700274",
    "name": "特別養護老人ホームみずき",
    "kana": "トクベツヨウゴロウジンホームミズキ",
    "address": "岡山県井原市東江原町1661-1",
    "lat": 34.5999271,
    "lng": 133.5135047,
    "tel": "0866-63-2122",
    "url": "https://mizuki-okayama.jp/",
    "pref": "岡山県",
    "city": "井原市",
    "category": "tokuyou",
    "serviceType": "介護老人福祉施設",
    "capacity": 0,
    "openDays": [],
    "openDaysNote": ""
  },
  {
    "id": "3372900070",
    "name": "特別養護老人ホーム小田川荘",
    "kana": "トクベツヨウゴロウジンホームオダガワソウ",
    "address": "岡山県井原市芳井町川相351",
    "lat": 34.6476016,
    "lng": 133.4100504,
    "tel": "0866-72-1577",
    "url": "http://www.odagawasou.or.jp",
    "pref": "岡山県",
    "city": "井原市",
    "category": "tokuyou",
    "serviceType": "介護老人福祉施設",
    "capacity": 0,
    "openDays": [],
    "openDaysNote": ""
  },
  {
    "id": "3370102133",
    "name": "社会福祉法人　岡山博愛会　特別養護老人ホーム　アダムスホーム",
    "kana": "シャカイフクシホウジン　オカヤマハクアイカイ　トクベツヨウゴロウジンホーム　アダムスホーム",
    "address": "岡山県岡山市中区沖元502",
    "lat": 34.6372022,
    "lng": 133.9770301,
    "tel": "086-274-8550",
    "url": "http://www.okayama-hakuaikai.or.jp/",
    "pref": "岡山県",
    "city": "岡山市中区",
    "category": "tokuyou",
    "serviceType": "介護老人福祉施設",
    "capacity": 0,
    "openDays": [],
    "openDaysNote": ""
  },
  {
    "id": "3370102141",
    "name": "特別養護老人ホーム　幸輝園",
    "kana": "トクベツヨウゴロウジンホーム　コウキエン",
    "address": "岡山県岡山市中区国府市場985-1",
    "lat": 34.6938092,
    "lng": 133.9649803,
    "tel": "086-275-0220",
    "url": "http://www.fukushi-koukikai.jp/",
    "pref": "岡山県",
    "city": "岡山市中区",
    "category": "tokuyou",
    "serviceType": "介護老人福祉施設",
    "capacity": 96,
    "openDays": [],
    "openDaysNote": ""
  },
  {
    "id": "3370102174",
    "name": "特別養護老人ホーム恵風荘",
    "kana": "トクベツヨウゴロウジンホームケイフウソウ",
    "address": "岡山県岡山市中区今谷770-1",
    "lat": 34.6667851,
    "lng": 133.9839337,
    "tel": "086-277-0761",
    "url": "http://www.keifuukai.or.jp/",
    "pref": "岡山県",
    "city": "岡山市中区",
    "category": "tokuyou",
    "serviceType": "介護老人福祉施設",
    "capacity": 0,
    "openDays": [],
    "openDaysNote": ""
  },
  {
    "id": "3370107413",
    "name": "特別養護老人ホーム富山荘",
    "kana": "トクベツヨウゴロウジンホーム　トミヤマソウ",
    "address": "岡山県岡山市中区海吉2306-1",
    "lat": 34.6475734,
    "lng": 133.9826876,
    "tel": "086-200-1050",
    "url": "",
    "pref": "岡山県",
    "city": "岡山市中区",
    "category": "tokuyou",
    "serviceType": "介護老人福祉施設",
    "capacity": 50,
    "openDays": [],
    "openDaysNote": ""
  },
  {
    "id": "3370104576",
    "name": "特別養護老人ホーム　グリーン・コム",
    "kana": "トクベツヨウゴロウジンホーム　グリーン・コム",
    "address": "岡山県岡山市東区宿毛748－1",
    "lat": 34.6246235,
    "lng": 134.0833054,
    "tel": "086-946-2610",
    "url": "https://www.yunagi.jp/pages/60/",
    "pref": "岡山県",
    "city": "岡山市東区",
    "category": "tokuyou",
    "serviceType": "介護老人福祉施設",
    "capacity": 50,
    "openDays": [],
    "openDaysNote": ""
  },
  {
    "id": "3370105649",
    "name": "特別養護老人ホーム　けしごの里",
    "kana": "トクベツヨウゴロウジンホーム　ケシゴノサト",
    "address": "岡山県岡山市東区中川町211-3",
    "lat": 34.6675464,
    "lng": 133.997974,
    "tel": "086-944-1765",
    "url": "http://keshigonosato.jp/",
    "pref": "岡山県",
    "city": "岡山市東区",
    "category": "tokuyou",
    "serviceType": "介護老人福祉施設",
    "capacity": 50,
    "openDays": [],
    "openDaysNote": ""
  },
  {
    "id": "3370101945",
    "name": "特別養護老人ホーム　ハモニカ",
    "kana": "トクベツヨウゴロウジンホーム　ハモニカ",
    "address": "岡山県岡山市東区浅川520番地の9",
    "lat": 34.7091854,
    "lng": 134.0696892,
    "tel": "086-297-6656",
    "url": "http://www.hamonika.com",
    "pref": "岡山県",
    "city": "岡山市東区",
    "category": "tokuyou",
    "serviceType": "介護老人福祉施設",
    "capacity": 0,
    "openDays": [],
    "openDaysNote": ""
  },
  {
    "id": "3370102216",
    "name": "特別養護老人ホーム　上道荘",
    "kana": "トクベツヨウゴロウジンホーム　ジョウトウソウ",
    "address": "岡山県岡山市東区中尾１０３６",
    "lat": 34.70766,
    "lng": 134.0217938,
    "tel": "086-297-3725",
    "url": "http://dainimakotokai.com/",
    "pref": "岡山県",
    "city": "岡山市東区",
    "category": "tokuyou",
    "serviceType": "介護老人福祉施設",
    "capacity": 50,
    "openDays": [],
    "openDaysNote": ""
  },
  {
    "id": "3372200422",
    "name": "特別養護老人ホーム　多聞荘",
    "kana": "トクベツヨウゴロウジンホーム　タモンソウ",
    "address": "岡山県岡山市東区瀬戸町坂根792-14",
    "lat": 34.7400628,
    "lng": 134.0586293,
    "tel": "086-953-0011",
    "url": "http://www.tensetsukai.or.jp",
    "pref": "岡山県",
    "city": "岡山市東区",
    "category": "tokuyou",
    "serviceType": "介護老人福祉施設",
    "capacity": 50,
    "openDays": [],
    "openDaysNote": ""
  },
  {
    "id": "3370102000",
    "name": "特別養護老人ホーム　中野けんせいえん",
    "kana": "トクベツヨウゴロウジンホーム　ナカノケンセイエン",
    "address": "岡山県岡山市東区西大寺中野677-1",
    "lat": 34.6505828695739,
    "lng": 134.020736491832,
    "tel": "086-943-1701",
    "url": "https://www.chuo-fukushikai.jp/facility/nakano-kenseien/",
    "pref": "岡山県",
    "city": "岡山市東区",
    "category": "tokuyou",
    "serviceType": "介護老人福祉施設",
    "capacity": 0,
    "openDays": [],
    "openDaysNote": ""
  },
  {
    "id": "3370101317",
    "name": "特別養護老人ホーム阿知の里",
    "kana": "トクベツヨウゴロウジンホームアチノサト",
    "address": "岡山県岡山市東区下阿知１１８０番地",
    "lat": 34.6256236,
    "lng": 134.0939377,
    "tel": "086-946-1165",
    "url": "http://c-oka.org/",
    "pref": "岡山県",
    "city": "岡山市東区",
    "category": "tokuyou",
    "serviceType": "介護老人福祉施設",
    "capacity": 80,
    "openDays": [],
    "openDaysNote": ""
  },
  {
    "id": "3370108445",
    "name": "ピオーネ倶楽部",
    "kana": "ピオーネクラブ",
    "address": "岡山県岡山市南区当新田485-25",
    "lat": 34.6237763,
    "lng": 133.8911447,
    "tel": "086-246-6363",
    "url": "http://www.isto.or.jp/pioneclub.html",
    "pref": "岡山県",
    "city": "岡山市南区",
    "category": "tokuyou",
    "serviceType": "介護老人福祉施設",
    "capacity": 50,
    "openDays": [],
    "openDaysNote": ""
  },
  {
    "id": "3370102240",
    "name": "特別養護老人ホーム　うららか",
    "kana": "トクベツヨウゴロウジンホーム　ウララカ",
    "address": "岡山県岡山市南区福富東１－７－４３",
    "lat": 34.6229361,
    "lng": 133.9391672,
    "tel": "086-263-7000",
    "url": "http://www.sato-hp.com",
    "pref": "岡山県",
    "city": "岡山市南区",
    "category": "tokuyou",
    "serviceType": "介護老人福祉施設",
    "capacity": 50,
    "openDays": [],
    "openDaysNote": ""
  },
  {
    "id": "3370102208",
    "name": "特別養護老人ホーム　愛光苑",
    "kana": "トクベツヨウゴロウジンホーム　アイコウエン",
    "address": "岡山県岡山市南区浦安本町81-2",
    "lat": 34.6069683,
    "lng": 133.930146,
    "tel": "086-265-0877",
    "url": "https://aiko-en.jp",
    "pref": "岡山県",
    "city": "岡山市南区",
    "category": "tokuyou",
    "serviceType": "介護老人福祉施設",
    "capacity": 50,
    "openDays": [],
    "openDaysNote": ""
  },
  {
    "id": "3370106191",
    "name": "特別養護老人ホーム　健老園",
    "kana": "トクベツヨウゴロウジンホーム　ケンロウエン",
    "address": "岡山県岡山市南区古新田1351-3",
    "lat": 34.6247921,
    "lng": 133.8761155,
    "tel": "086-282-8566",
    "url": "http://kenrokai.net/",
    "pref": "岡山県",
    "city": "岡山市南区",
    "category": "tokuyou",
    "serviceType": "介護老人福祉施設",
    "capacity": 50,
    "openDays": [],
    "openDaysNote": ""
  },
  {
    "id": "3370102166",
    "name": "特別養護老人ホーム　若宮園",
    "kana": "トクベツヨウゴロウジンホーム　ワカミヤエン",
    "address": "岡山県岡山市南区箕島3491-7",
    "lat": 34.6155387350911,
    "lng": 133.836732518524,
    "tel": "086-281-0862",
    "url": "http://junfuku.jp/",
    "pref": "岡山県",
    "city": "岡山市南区",
    "category": "tokuyou",
    "serviceType": "介護老人福祉施設",
    "capacity": 0,
    "openDays": [],
    "openDaysNote": ""
  },
  {
    "id": "3372500060",
    "name": "特別養護老人ホーム　灘崎荘",
    "kana": "トクベツヨウゴロウジンホーム　ナダサキソウ",
    "address": "岡山県岡山市南区彦崎2300",
    "lat": 34.5447921,
    "lng": 133.8338813,
    "tel": "086-362-5050",
    "url": "http://nadasakiso.syoyokai.com/",
    "pref": "岡山県",
    "city": "岡山市南区",
    "category": "tokuyou",
    "serviceType": "介護老人福祉施設",
    "capacity": 80,
    "openDays": [],
    "openDaysNote": ""
  },
  {
    "id": "3370102232",
    "name": "特別養護老人ホームプルミエ岡山",
    "kana": "トクベツヨウゴロウジンホームプルミエオカヤマ",
    "address": "岡山県岡山市南区北浦１００番地",
    "lat": 34.5871411,
    "lng": 133.963036,
    "tel": "086-267-2323",
    "url": "http://kenju-kai.or.jp/",
    "pref": "岡山県",
    "city": "岡山市南区",
    "category": "tokuyou",
    "serviceType": "介護老人福祉施設",
    "capacity": 50,
    "openDays": [],
    "openDaysNote": ""
  },
  {
    "id": "3370101101",
    "name": "特別養護老人ホーム共生苑",
    "kana": "トクベツヨウゴロウジンホームキョウセイエン",
    "address": "岡山県岡山市南区東畦768",
    "lat": 34.6044116,
    "lng": 133.8813399,
    "tel": "086-281-6866",
    "url": "http://www.keiyuu-kai.or.jp/top.html",
    "pref": "岡山県",
    "city": "岡山市南区",
    "category": "tokuyou",
    "serviceType": "介護老人福祉施設",
    "capacity": 0,
    "openDays": [],
    "openDaysNote": ""
  },
  {
    "id": "3370101952",
    "name": "旭川敬老園",
    "kana": "アサヒガワケイロウエン",
    "address": "岡山県岡山市北区祇園866",
    "lat": 34.7079489,
    "lng": 133.9578588,
    "tel": "086-275-4349",
    "url": "http://asahigawasou.or.jp/keirouen/",
    "pref": "岡山県",
    "city": "岡山市北区",
    "category": "tokuyou",
    "serviceType": "介護老人福祉施設",
    "capacity": 0,
    "openDays": [],
    "openDaysNote": ""
  },
  {
    "id": "3370102083",
    "name": "介護老人福祉施設　特別養護老人ホーム　岡山シルバーセンター",
    "kana": "カイゴロウジンフクシシセツ　トクベツヨウゴロウジンホーム　オカヤマシルバーセンター",
    "address": "岡山県岡山市北区新庄上５４５－１",
    "lat": 34.6816235,
    "lng": 133.8049606,
    "tel": "086-287-5111",
    "url": "http://www.silver21.org",
    "pref": "岡山県",
    "city": "岡山市北区",
    "category": "tokuyou",
    "serviceType": "介護老人福祉施設",
    "capacity": 0,
    "openDays": [],
    "openDaysNote": ""
  },
  {
    "id": "3370104741",
    "name": "泉寿の里　特別養護老人ホーム",
    "kana": "センジュノサト　トクベツヨウゴロウジンホーム",
    "address": "岡山県岡山市北区三門中町1-2",
    "lat": 34.6684657,
    "lng": 133.9045588,
    "tel": "086-214-0800",
    "url": "https://senjunosato.or.jp",
    "pref": "岡山県",
    "city": "岡山市北区",
    "category": "tokuyou",
    "serviceType": "介護老人福祉施設",
    "capacity": 0,
    "openDays": [],
    "openDaysNote": ""
  },
  {
    "id": "3370102224",
    "name": "特別養護老人ホーム　さわらび苑",
    "kana": "トクベツヨウゴロウジンホーム　サワラビエン",
    "address": "岡山県岡山市北区平野１００５－９",
    "lat": 34.6473746,
    "lng": 133.8582172,
    "tel": "086-293-7733",
    "url": "https://www.fukujukai-gp.com",
    "pref": "岡山県",
    "city": "岡山市北区",
    "category": "tokuyou",
    "serviceType": "介護老人福祉施設",
    "capacity": 0,
    "openDays": [],
    "openDaysNote": ""
  },
  {
    "id": "3370107546",
    "name": "特別養護老人ホーム　ぬくもりの里あおえ",
    "kana": "トクベツヨウゴロウジンホーム　ヌクモリノサトアオエ",
    "address": "岡山県岡山市北区青江三丁目１０番２８号",
    "lat": 34.6341705,
    "lng": 133.9264711,
    "tel": "086-222-8341",
    "url": "http://www.nukumorinosato.jp",
    "pref": "岡山県",
    "city": "岡山市北区",
    "category": "tokuyou",
    "serviceType": "介護老人福祉施設",
    "capacity": 50,
    "openDays": [],
    "openDaysNote": ""
  },
  {
    "id": "3370104246",
    "name": "特別養護老人ホーム　マスカット倶楽部",
    "kana": "トクベトヨウゴロウジンホーム　マスカットクラブ",
    "address": "岡山県岡山市北区田原１－３",
    "lat": 34.7413918,
    "lng": 133.8856641,
    "tel": "086-294-6400",
    "url": "https://www.isto.or.jp/",
    "pref": "岡山県",
    "city": "岡山市北区",
    "category": "tokuyou",
    "serviceType": "介護老人福祉施設",
    "capacity": 80,
    "openDays": [],
    "openDaysNote": ""
  },
  {
    "id": "3370101259",
    "name": "特別養護老人ホーム　みなみがた荘",
    "kana": "トクベツヨウゴロウジンホーム　ミナミガタソウ",
    "address": "岡山県岡山市北区国体町3-12",
    "lat": 34.6734989,
    "lng": 133.9204429,
    "tel": "086-252-2868",
    "url": "http://www.okasaisei-life.jp",
    "pref": "岡山県",
    "city": "岡山市北区",
    "category": "tokuyou",
    "serviceType": "介護老人福祉施設",
    "capacity": 0,
    "openDays": [],
    "openDaysNote": ""
  },
  {
    "id": "3372100101",
    "name": "特別養護老人ホーム　旭水荘",
    "kana": "トクベツヨウゴロウジンホーム　キョクスイソウ",
    "address": "岡山県岡山市北区建部町福渡1005-1",
    "lat": 34.8652123,
    "lng": 133.9059847,
    "tel": "086-722-2511",
    "url": "https://okayama-airinkai.jp/",
    "pref": "岡山県",
    "city": "岡山市北区",
    "category": "tokuyou",
    "serviceType": "介護老人福祉施設",
    "capacity": 0,
    "openDays": [],
    "openDaysNote": ""
  },
  {
    "id": "3370111464",
    "name": "特別養護老人ホーム　宇甘川荘〈ユニット型〉",
    "kana": "トクベツヨウゴロウジンホーム　ウカイガワソウ　ユニットガタ",
    "address": "岡山県岡山市北区御津紙工1410番地",
    "lat": 34.8192363,
    "lng": 133.8580404,
    "tel": "086-726-0331",
    "url": "http://okayama-kotobuki.sakura.ne.jp/",
    "pref": "岡山県",
    "city": "岡山市北区",
    "category": "tokuyou",
    "serviceType": "介護老人福祉施設",
    "capacity": 50,
    "openDays": [],
    "openDaysNote": ""
  },
  {
    "id": "3372100143",
    "name": "特別養護老人ホーム　宇甘川荘〈従来型〉",
    "kana": "トクベツヨウゴロウジンホーム　ウカイガワソウ　ジュウライガタ",
    "address": "岡山県岡山市北区御津紙工1410番地",
    "lat": 34.8192715316686,
    "lng": 133.857825823279,
    "tel": "086-726-0331",
    "url": "http://okayama-kotobuki.sakura.ne.jp",
    "pref": "岡山県",
    "city": "岡山市北区",
    "category": "tokuyou",
    "serviceType": "介護老人福祉施設",
    "capacity": 60,
    "openDays": [],
    "openDaysNote": ""
  },
  {
    "id": "3370106472",
    "name": "特別養護老人ホーム　喜福園",
    "kana": "トクベツヨウゴロウジンホーム　キフクエン",
    "address": "岡山県岡山市北区今保870-1",
    "lat": 34.6351187,
    "lng": 133.8792986,
    "tel": "086-805-2532",
    "url": "http://fuku-sankeikai.jp",
    "pref": "岡山県",
    "city": "岡山市北区",
    "category": "tokuyou",
    "serviceType": "介護老人福祉施設",
    "capacity": 50,
    "openDays": [],
    "openDaysNote": ""
  },
  {
    "id": "3370102158",
    "name": "特別養護老人ホーム　憩いの丘",
    "kana": "トクベツヨウゴロウジンホーム　イコイノオカ",
    "address": "岡山県岡山市北区日近1807",
    "lat": 34.7516321,
    "lng": 133.8179149,
    "tel": "086-295-1155",
    "url": "",
    "pref": "岡山県",
    "city": "岡山市北区",
    "category": "tokuyou",
    "serviceType": "介護老人福祉施設",
    "capacity": 120,
    "openDays": [],
    "openDaysNote": ""
  },
  {
    "id": "3370102190",
    "name": "特別養護老人ホームあさひ園",
    "kana": "トクベツヨウゴロウジンホームアサヒエン",
    "address": "岡山県岡山市北区旭本町6-20",
    "lat": 34.6423168,
    "lng": 133.9277707,
    "tel": "086-225-1171",
    "url": "http://okayama-asahien.or.jp/",
    "pref": "岡山県",
    "city": "岡山市北区",
    "category": "tokuyou",
    "serviceType": "介護老人福祉施設",
    "capacity": 50,
    "openDays": [],
    "openDaysNote": ""
  },
  {
    "id": "3370103412",
    "name": "特別養護老人ホーム旭ヶ丘",
    "kana": "トクベツヨウゴロウジンホームアサヒガオカ",
    "address": "岡山県岡山市北区万成東町２－２８",
    "lat": 34.6739287,
    "lng": 133.8962901,
    "tel": "086-252-5050",
    "url": "http://junfuku.jp/",
    "pref": "岡山県",
    "city": "岡山市北区",
    "category": "tokuyou",
    "serviceType": "介護老人福祉施設",
    "capacity": 50,
    "openDays": [],
    "openDaysNote": ""
  },
  {
    "id": "3370108601",
    "name": "特別養護老人ホーム鹿田の庄",
    "kana": "トクベツヨウゴロウジンホームカタノショウ",
    "address": "岡山県岡山市北区東古松５丁目５－３",
    "lat": 34.6460439,
    "lng": 133.918905,
    "tel": "086-234-0333",
    "url": "http://www.midorikai-net.or.jp/",
    "pref": "岡山県",
    "city": "岡山市北区",
    "category": "tokuyou",
    "serviceType": "介護老人福祉施設",
    "capacity": 50,
    "openDays": [],
    "openDaysNote": ""
  },
  {
    "id": "3370102109",
    "name": "特別養護老人ホーム足守荘",
    "kana": "トクベツヨウゴロウジンホームアシモリソウ",
    "address": "岡山県岡山市北区下足守１８９８",
    "lat": 34.7184117,
    "lng": 133.8036779,
    "tel": "086-295-1800",
    "url": "https://ikenaga-group.jp/",
    "pref": "岡山県",
    "city": "岡山市北区",
    "category": "tokuyou",
    "serviceType": "介護老人福祉施設",
    "capacity": 0,
    "openDays": [],
    "openDaysNote": ""
  },
  {
    "id": "3370102182",
    "name": "特別養護老人ホーム津高寮",
    "kana": "トクベツヨウゴロウジンホームツダカリョウ",
    "address": "岡山県岡山市北区津高４３６－１",
    "lat": 34.7008592,
    "lng": 133.9083209,
    "tel": "086-252-1100",
    "url": "http://www.tsudakaryou.jp/",
    "pref": "岡山県",
    "city": "岡山市北区",
    "category": "tokuyou",
    "serviceType": "介護老人福祉施設",
    "capacity": 0,
    "openDays": [],
    "openDaysNote": ""
  },
  {
    "id": "3370500286",
    "name": "特別養護老人ホーム　瀬戸内荘",
    "kana": "トクベツヨウゴロウジンホームセトウチソウ",
    "address": "岡山県笠岡市横島1944-1",
    "lat": 34.4786624361906,
    "lng": 133.519696896156,
    "tel": "0865-67-3100",
    "url": "http://www.kabutokai.jp/",
    "pref": "岡山県",
    "city": "笠岡市",
    "category": "tokuyou",
    "serviceType": "介護老人福祉施設",
    "capacity": 30,
    "openDays": [],
    "openDaysNote": ""
  },
  {
    "id": "3370500278",
    "name": "特別養護老人ホーム　天神荘",
    "kana": "トクベツヨウゴロウジンホーム　テンジンソウ",
    "address": "岡山県笠岡市神島３６２６－７",
    "lat": 34.4731837,
    "lng": 133.5096449,
    "tel": "0865-67-4111",
    "url": "http://www.tenjinkai.org/",
    "pref": "岡山県",
    "city": "笠岡市",
    "category": "tokuyou",
    "serviceType": "介護老人福祉施設",
    "capacity": 110,
    "openDays": [],
    "openDaysNote": ""
  },
  {
    "id": "3370500260",
    "name": "特別養護老人ホーム笠岡すみれ園",
    "kana": "トクベツヨウゴロウジンホームカサオカスミレエン",
    "address": "岡山県笠岡市笠岡1080－1",
    "lat": 34.5095847594849,
    "lng": 133.520043246172,
    "tel": "0865-63-5005",
    "url": "https://www.sumire.or.jp",
    "pref": "岡山県",
    "city": "笠岡市",
    "category": "tokuyou",
    "serviceType": "介護老人福祉施設",
    "capacity": 0,
    "openDays": [],
    "openDaysNote": ""
  },
  {
    "id": "3370500880",
    "name": "特別養護老人ホーム飛鳥の里三清荘",
    "kana": "トクベツヨウゴロウジンホームアスカノサトサンセイソウ",
    "address": "岡山県笠岡市関戸837番地の1",
    "lat": 34.5581644632177,
    "lng": 133.528201821257,
    "tel": "0865-65-0500",
    "url": "http://www.keizankai.or.jp/",
    "pref": "岡山県",
    "city": "笠岡市",
    "category": "tokuyou",
    "serviceType": "介護老人福祉施設",
    "capacity": 0,
    "openDays": [],
    "openDaysNote": ""
  },
  {
    "id": "3373100209",
    "name": "吉備高原賀陽荘",
    "kana": "キビコウゲンカヨウソウ",
    "address": "岡山県加賀郡吉備中央町上竹７５３番地",
    "lat": 34.8539105,
    "lng": 133.6793983,
    "tel": "0866-54-1290",
    "url": "care-net.biz/33/kayousou753/",
    "pref": "岡山県",
    "city": "吉備中央町",
    "category": "tokuyou",
    "serviceType": "介護老人福祉施設",
    "capacity": 80,
    "openDays": [],
    "openDaysNote": ""
  },
  {
    "id": "3372100093",
    "name": "特別養護老人ホームかもがわ荘",
    "kana": "トクベツヨウゴロウジンホームカモガワソウ",
    "address": "岡山県加賀郡吉備中央町上加茂５１７－３",
    "lat": 34.8508132,
    "lng": 133.8053659,
    "tel": "0867-34-0034",
    "url": "https://makotokai.okayama.jp/",
    "pref": "岡山県",
    "city": "吉備中央町",
    "category": "tokuyou",
    "serviceType": "介護老人福祉施設",
    "capacity": 50,
    "openDays": [],
    "openDaysNote": ""
  },
  {
    "id": "3372100374",
    "name": "特別養護老人ホームきびハイツ",
    "kana": "トクベツヨウゴロウジンホームキビハイツ",
    "address": "岡山県加賀郡吉備中央町上野1883-5",
    "lat": 34.8357139,
    "lng": 133.7709943,
    "tel": "0866-56-6677",
    "url": "https://www.amical.or.jp/kibi/",
    "pref": "岡山県",
    "city": "吉備中央町",
    "category": "tokuyou",
    "serviceType": "介護老人福祉施設",
    "capacity": 90,
    "openDays": [],
    "openDaysNote": ""
  },
  {
    "id": "3373800600",
    "name": "特別養護老人ホーム　川柳の里三清荘",
    "kana": "トクベツヨウゴロウジンホーム　センリュウノサトサンセイソウ",
    "address": "岡山県久米郡久米南町羽出木753-11",
    "lat": 34.9440867,
    "lng": 133.9921227,
    "tel": "086-728-3700",
    "url": "http://www.keizankai.or.jp/",
    "pref": "岡山県",
    "city": "久米南町",
    "category": "tokuyou",
    "serviceType": "介護老人福祉施設",
    "capacity": 50,
    "openDays": [],
    "openDaysNote": ""
  },
  {
    "id": "3373800162",
    "name": "特別養護老人ホームイーエスサウスヒルズ",
    "kana": "トクベツヨウゴロウジンホームイーエスサウスヒルズ",
    "address": "岡山県久米郡久米南町下弓削647",
    "lat": 34.9317299,
    "lng": 133.9662889,
    "tel": "086-728-3111",
    "url": "http://www.eharakeimeikai.jp/essouthhills/index.html",
    "pref": "岡山県",
    "city": "久米南町",
    "category": "tokuyou",
    "serviceType": "介護老人福祉施設",
    "capacity": 55,
    "openDays": [],
    "openDaysNote": ""
  },
  {
    "id": "3373500242",
    "name": "特別養護老人ホームいずみ山荘",
    "kana": "トクベツヨウゴロウジンホーム　イズミヤマソウ",
    "address": "岡山県苫田郡鏡野町公保田７３－２",
    "lat": 35.1086678,
    "lng": 133.9558544,
    "tel": "0868-54-1212",
    "url": "http://www.mto.ne.jp/tyoujyu/",
    "pref": "岡山県",
    "city": "鏡野町",
    "category": "tokuyou",
    "serviceType": "介護老人福祉施設",
    "capacity": 0,
    "openDays": [],
    "openDaysNote": ""
  },
  {
    "id": "3373500481",
    "name": "特別養護老人ホーム奥津広済園",
    "kana": "トクベツヨウゴロウジンホームオクツコウサイエン",
    "address": "岡山県苫田郡鏡野町杉７５０－４",
    "lat": 35.1747231,
    "lng": 133.9121319,
    "tel": "0868-52-9011",
    "url": "https://okutsu-kousaikai.net/",
    "pref": "岡山県",
    "city": "鏡野町",
    "category": "tokuyou",
    "serviceType": "介護老人福祉施設",
    "capacity": 36,
    "openDays": [],
    "openDaysNote": ""
  },
  {
    "id": "3370401311",
    "name": "玉野スマイルタウン　特別養護老人ホーム　すまいる苑",
    "kana": "タマノスマイルタウン　トクベツヨウゴロウジンホーム　スマイルエン",
    "address": "岡山県玉野市田井6-8-1",
    "lat": 34.5114496546918,
    "lng": 133.955165016672,
    "tel": "0863-31-9711",
    "url": "http://www.momotaro.jpn.com/",
    "pref": "岡山県",
    "city": "玉野市",
    "category": "tokuyou",
    "serviceType": "介護老人福祉施設",
    "capacity": 120,
    "openDays": [],
    "openDaysNote": ""
  },
  {
    "id": "3370400248",
    "name": "特別養護老人ホーム　いこい荘",
    "kana": "トクベツヨウゴロウジンホーム　イコイソウ",
    "address": "岡山県玉野市長尾１５７８－２",
    "lat": 34.4868209,
    "lng": 133.8983878,
    "tel": "0863-71-0056",
    "url": "http://www.navita.co.jp/s/11060352/",
    "pref": "岡山県",
    "city": "玉野市",
    "category": "tokuyou",
    "serviceType": "介護老人福祉施設",
    "capacity": 0,
    "openDays": [],
    "openDaysNote": ""
  },
  {
    "id": "3370401378",
    "name": "特別養護老人ホーム　いこい荘",
    "kana": "トクベツヨウゴロウジンホーム　イコイソウ",
    "address": "岡山県玉野市長尾１５７８－２",
    "lat": 34.4868209,
    "lng": 133.8983878,
    "tel": "0863-71-0056",
    "url": "http://www.navita.co.jp/s/11060352/",
    "pref": "岡山県",
    "city": "玉野市",
    "category": "tokuyou",
    "serviceType": "介護老人福祉施設",
    "capacity": 0,
    "openDays": [],
    "openDaysNote": ""
  },
  {
    "id": "3370400784",
    "name": "特別養護老人ホーム　グランデパール",
    "kana": "トクベツヨウゴロウジンホームグランデパール",
    "address": "岡山県玉野市用吉1676-1",
    "lat": 34.5263191,
    "lng": 133.8970511,
    "tel": "0863-73-5020",
    "url": "https://www.grand-depart.jp/",
    "pref": "岡山県",
    "city": "玉野市",
    "category": "tokuyou",
    "serviceType": "介護老人福祉施設",
    "capacity": 0,
    "openDays": [],
    "openDaysNote": ""
  },
  {
    "id": "3370401253",
    "name": "特別養護老人ホーム　ひび喜楽園",
    "kana": "トクベツヨウゴロウジンホーム　ヒビキラクエン",
    "address": "岡山県玉野市渋川１丁目１４－１３",
    "lat": 34.4580458,
    "lng": 133.9073926,
    "tel": "0863-81-1010",
    "url": "http://www7b.biglobe.ne.jp/~sankeikai/",
    "pref": "岡山県",
    "city": "玉野市",
    "category": "tokuyou",
    "serviceType": "介護老人福祉施設",
    "capacity": 0,
    "openDays": [],
    "openDaysNote": ""
  },
  {
    "id": "3370400370",
    "name": "特別養護老人ホーム　フェニックス",
    "kana": "トクベツヨウゴロウジンホーム　フェニックス",
    "address": "岡山県玉野市玉原二丁目２４番４０号",
    "lat": 34.4770485991729,
    "lng": 133.9122421,
    "tel": "0863-32-3038",
    "url": "http://www.yokokai-phoenix.jp",
    "pref": "岡山県",
    "city": "玉野市",
    "category": "tokuyou",
    "serviceType": "介護老人福祉施設",
    "capacity": 0,
    "openDays": [],
    "openDaysNote": ""
  },
  {
    "id": "3370401402",
    "name": "特別養護老人ホーム　玉野山田荘",
    "kana": "トクベツヨウゴロウジンホーム　タマノヤマダソウ",
    "address": "岡山県玉野市山田3275番地特別養護老人ホーム　玉野山田荘 特別養護老人ホーム　玉野山田荘",
    "lat": 34.5418758386838,
    "lng": 133.991439894443,
    "tel": "0863-41-3993",
    "url": "tamanoyamadaso.wixsite.com",
    "pref": "岡山県",
    "city": "玉野市",
    "category": "tokuyou",
    "serviceType": "介護老人福祉施設",
    "capacity": 60,
    "openDays": [],
    "openDaysNote": ""
  },
  {
    "id": "3370400362",
    "name": "特別養護老人ホーム　宗玉園",
    "kana": "トクベツヨウゴロウジンホーム　ソウギョクエン",
    "address": "岡山県玉野市梶岡５７６－２",
    "lat": 34.5540239,
    "lng": 133.9970505,
    "tel": "0863-41-2788",
    "url": "http://nichirinkai.or.jp/",
    "pref": "岡山県",
    "city": "玉野市",
    "category": "tokuyou",
    "serviceType": "介護老人福祉施設",
    "capacity": 0,
    "openDays": [],
    "openDaysNote": ""
  },
  {
    "id": "3373200199",
    "name": "高梁市特別養護老人ホーム鶴寿荘",
    "kana": "タカハシシトクベツヨウゴロウジンホームカクジュソウ",
    "address": "岡山県高梁市成羽町下原２６８番地１",
    "lat": 34.7829597121037,
    "lng": 133.546699206746,
    "tel": "0866-42-2001",
    "url": "http://www.city.takahashi.lg.jp/soshiki/17/",
    "pref": "岡山県",
    "city": "高梁市",
    "category": "tokuyou",
    "serviceType": "介護老人福祉施設",
    "capacity": 0,
    "openDays": [],
    "openDaysNote": ""
  },
  {
    "id": "3370900569",
    "name": "特別養護老人ホーム　ホタルの里",
    "kana": "トクベツヨウゴロウジンホーム　ホタルノサト",
    "address": "高梁市落合町福地394",
    "lat": 34.7835974590499,
    "lng": 133.554881669897,
    "tel": "０８６６－４２－５６００",
    "url": "",
    "pref": "岡山県",
    "city": "高梁市",
    "category": "tokuyou",
    "serviceType": "介護老人福祉施設",
    "capacity": 70,
    "openDays": [],
    "openDaysNote": ""
  },
  {
    "id": "3370900643",
    "name": "特別養護老人ホーム　白和荘　ユニット型",
    "kana": "トクベツヨウゴロウジンホーム　ハクワソウ　ユニット型",
    "address": "岡山県高梁市高倉町大瀬八長２６６３－１",
    "lat": 34.8214605,
    "lng": 133.6120405,
    "tel": "0866-22-5529",
    "url": "http://www.jyunshinkai.or.jp",
    "pref": "岡山県",
    "city": "高梁市",
    "category": "tokuyou",
    "serviceType": "介護老人福祉施設",
    "capacity": 0,
    "openDays": [],
    "openDaysNote": ""
  },
  {
    "id": "3370900130",
    "name": "特別養護老人ホーム　白和荘（従来型）",
    "kana": "トクベツヨウゴロウジンホーム　ハクワソウ（ジュウライガタ）",
    "address": "岡山県高梁市高倉町大瀬八長２６６３－１",
    "lat": 34.8214605,
    "lng": 133.6120405,
    "tel": "0866-22-5529",
    "url": "http://www.jyunshinkai.or.jp",
    "pref": "岡山県",
    "city": "高梁市",
    "category": "tokuyou",
    "serviceType": "介護老人福祉施設",
    "capacity": 80,
    "openDays": [],
    "openDaysNote": ""
  },
  {
    "id": "3373100183",
    "name": "特別養護老人ホーム　有漢荘",
    "kana": "トクベツヨウゴロウジンホーム　ウカンソウ",
    "address": "岡山県高梁市有漢町有漢7945-16",
    "lat": 34.901967,
    "lng": 133.6797056,
    "tel": "0866-57-3310",
    "url": "http://yoshimikai.com",
    "pref": "岡山県",
    "city": "高梁市",
    "category": "tokuyou",
    "serviceType": "介護老人福祉施設",
    "capacity": 50,
    "openDays": [],
    "openDaysNote": ""
  },
  {
    "id": "3370900148",
    "name": "特別養護老人ホームグリーンヒル順正",
    "kana": "トクベツヨウゴロウジンホームグリーンヒルジュンセイ",
    "address": "岡山県高梁市松原町神原2281-8",
    "lat": 34.8143886,
    "lng": 133.595367,
    "tel": "0866-23-1234",
    "url": "http://www.kibi.ne.jp/~greent01",
    "pref": "岡山県",
    "city": "高梁市",
    "category": "tokuyou",
    "serviceType": "介護老人福祉施設",
    "capacity": 0,
    "openDays": [],
    "openDaysNote": ""
  },
  {
    "id": "3370900635",
    "name": "特別養護老人ホームグリーンヒル順正",
    "kana": "トクベツヨウゴロウジンホームグリーンヒルジュンセイ",
    "address": "岡山県高梁市松原町神原２２８１-８",
    "lat": 34.8143886,
    "lng": 133.595367,
    "tel": "0866-23-1234",
    "url": "ｈｔｔｐ//www.kibi.ne.jp/～green101",
    "pref": "岡山県",
    "city": "高梁市",
    "category": "tokuyou",
    "serviceType": "介護老人福祉施設",
    "capacity": 0,
    "openDays": [],
    "openDaysNote": ""
  },
  {
    "id": "3373600539",
    "name": "特別養護老人ホーム　あかり",
    "kana": "トクベツヨウゴロウジンホーム　アカリ",
    "address": "岡山県勝田郡勝央町小矢田653番地1",
    "lat": 35.0277302,
    "lng": 134.1263709,
    "tel": "0868-38-1288",
    "url": "http://www.f-akari.jp/",
    "pref": "岡山県",
    "city": "勝央町",
    "category": "tokuyou",
    "serviceType": "介護老人福祉施設",
    "capacity": 50,
    "openDays": [],
    "openDaysNote": ""
  },
  {
    "id": "3373600299",
    "name": "特別養護老人ホーム南光荘",
    "kana": "トクベツヨウゴロウジンホームナンコウソウ",
    "address": "岡山県勝田郡勝央町美野１８７７番地",
    "lat": 35.0668656,
    "lng": 134.1528729,
    "tel": "0868-38-2171",
    "url": "http://www.shoumei-fukushikai.or.jp/",
    "pref": "岡山県",
    "city": "勝央町",
    "category": "tokuyou",
    "serviceType": "介護老人福祉施設",
    "capacity": 80,
    "openDays": [],
    "openDaysNote": ""
  },
  {
    "id": "3373300163",
    "name": "特別養護老人ホームおおさ苑",
    "kana": "トクベツヨウゴロウジンホームオオサエン",
    "address": "岡山県新見市大佐田治部3221番地",
    "lat": 35.0413254,
    "lng": 133.5563469,
    "tel": "0867-98-3600",
    "url": "https://keiaikai-osa.jp",
    "pref": "岡山県",
    "city": "新見市",
    "category": "tokuyou",
    "serviceType": "介護老人福祉施設",
    "capacity": 0,
    "openDays": [],
    "openDaysNote": ""
  },
  {
    "id": "3371000351",
    "name": "特別養護老人ホームケアポート生き活き館神郷",
    "kana": "トクベツヨウゴロウジンホームケアポートイキイキカンシンゴウ",
    "address": "新見市神郷下神代4390",
    "lat": 34.9964795,
    "lng": 133.3986594,
    "tel": "0867－92－9018",
    "url": "http://kokoro-net.org",
    "pref": "岡山県",
    "city": "新見市",
    "category": "tokuyou",
    "serviceType": "介護老人福祉施設",
    "capacity": 0,
    "openDays": [],
    "openDaysNote": ""
  },
  {
    "id": "3371000500",
    "name": "特別養護老人ホームゆずり葉",
    "kana": "トクベツヨウゴロウジンホームユズリハ",
    "address": "岡山県新見市新見８９７－７",
    "lat": 34.9847273627248,
    "lng": 133.468035919574,
    "tel": "０８６７－７１－００７７",
    "url": "www.nissyoukai.net",
    "pref": "岡山県",
    "city": "新見市",
    "category": "tokuyou",
    "serviceType": "介護老人福祉施設",
    "capacity": 90,
    "openDays": [],
    "openDaysNote": ""
  },
  {
    "id": "3373300304",
    "name": "特別養護老人ホーム哲西荘",
    "kana": "トクベツヨウゴロウジンホームテッセイソウ",
    "address": "岡山県新見市哲西町矢田４３５１",
    "lat": 34.923884,
    "lng": 133.334514,
    "tel": "0867-94-3533",
    "url": "http://www.tesseisou.jp/index.html",
    "pref": "岡山県",
    "city": "新見市",
    "category": "tokuyou",
    "serviceType": "介護老人福祉施設",
    "capacity": 0,
    "openDays": [],
    "openDaysNote": ""
  },
  {
    "id": "3371000112",
    "name": "特別養護老人ホーム唐松荘",
    "kana": "トクベツヨウゴロウジンホームカラマツソウ",
    "address": "岡山県新見市唐松１７４９番地２",
    "lat": 34.9640904,
    "lng": 133.5083508,
    "tel": "0867-76-1000",
    "url": "http://www.karamatsu-so.jp",
    "pref": "岡山県",
    "city": "新見市",
    "category": "tokuyou",
    "serviceType": "介護老人福祉施設",
    "capacity": 130,
    "openDays": [],
    "openDaysNote": ""
  },
  {
    "id": "3373100191",
    "name": "特別養護老人ホーム　花岡荘",
    "kana": "トクベツヨウゴロウジンホーム　ハナオカソウ",
    "address": "岡山県真庭市下中津井505",
    "lat": 34.9441224129577,
    "lng": 133.626958412294,
    "tel": "0866-52-2100",
    "url": "http://yoshimikai.com",
    "pref": "岡山県",
    "city": "真庭市",
    "category": "tokuyou",
    "serviceType": "介護老人福祉施設",
    "capacity": 0,
    "openDays": [],
    "openDaysNote": ""
  },
  {
    "id": "3373401185",
    "name": "特別養護老人ホーム　高瀬　Ⅱ",
    "kana": "トクベツヨウゴロウジンホーム　タカセ　ツウ",
    "address": "岡山県真庭市中島380番地1特別養護老人ホーム　高瀬　Ⅱ 特別養護老人ホーム　高瀬　Ⅱ",
    "lat": 35.0721855,
    "lng": 133.7494248,
    "tel": "0867-42-5601",
    "url": "http://f-keishinkai.jp",
    "pref": "岡山県",
    "city": "真庭市",
    "category": "tokuyou",
    "serviceType": "介護老人福祉施設",
    "capacity": 35,
    "openDays": [],
    "openDaysNote": ""
  },
  {
    "id": "3373400500",
    "name": "特別養護老人ホーム　檜山荘",
    "kana": "トクベツヨウゴロウジンホーム　カイザンソウ",
    "address": "岡山県真庭市上市瀬1050-39",
    "lat": 35.0297967318748,
    "lng": 133.74192219151,
    "tel": "0867-52-1313",
    "url": "http://Kaizansou.nobushi.jp",
    "pref": "岡山県",
    "city": "真庭市",
    "category": "tokuyou",
    "serviceType": "介護老人福祉施設",
    "capacity": 60,
    "openDays": [],
    "openDaysNote": ""
  },
  {
    "id": "3373400518",
    "name": "特別養護老人ホーム十字園",
    "kana": "トクベツヨウゴロウジンホーム　ジュウジエン",
    "address": "岡山県真庭市下河内２２７５番地",
    "lat": 35.03251,
    "lng": 133.7865818,
    "tel": "0867-55-2921",
    "url": "http://www.jyujikai.or.jp",
    "pref": "岡山県",
    "city": "真庭市",
    "category": "tokuyou",
    "serviceType": "介護老人福祉施設",
    "capacity": 80,
    "openDays": [],
    "openDaysNote": ""
  },
  {
    "id": "3373400492",
    "name": "特別養護老人ホーム神庭荘",
    "kana": "トクベツヨウゴロウジンホームカンバソウ",
    "address": "岡山県真庭市組370番地1",
    "lat": 35.0955064891392,
    "lng": 133.688943028836,
    "tel": "0867-44-3555",
    "url": "http://f-keishinkai.jp",
    "pref": "岡山県",
    "city": "真庭市",
    "category": "tokuyou",
    "serviceType": "介護老人福祉施設",
    "capacity": 80,
    "openDays": [],
    "openDaysNote": ""
  },
  {
    "id": "3373400534",
    "name": "特別養護老人ホーム千寿荘",
    "kana": "トクベツヨウゴロウジンホーム　センジュソウ",
    "address": "岡山県真庭市蒜山上長田２８－１",
    "lat": 35.2863203,
    "lng": 133.6873472,
    "tel": "0867-66-3800",
    "url": "https://senju-sou.com/",
    "pref": "岡山県",
    "city": "真庭市",
    "category": "tokuyou",
    "serviceType": "介護老人福祉施設",
    "capacity": 50,
    "openDays": [],
    "openDaysNote": ""
  },
  {
    "id": "3373400526",
    "name": "特別養護老人ホーム緑風荘",
    "kana": "トクベツヨウゴロウジンホームリョクフウソウ",
    "address": "岡山県真庭市美甘３２６番地",
    "lat": 35.1548254,
    "lng": 133.6258936,
    "tel": "0867-56-2377",
    "url": "http://www.suimeikai.or.jp",
    "pref": "岡山県",
    "city": "真庭市",
    "category": "tokuyou",
    "serviceType": "介護老人福祉施設",
    "capacity": 30,
    "openDays": [],
    "openDaysNote": ""
  },
  {
    "id": "3372400840",
    "name": "特別養護老人ホーム　あじさいのおか牛窓（ユニット型）",
    "kana": "トクベツヨウゴロウジンホーム　アジサイノオカウシマド（ユニットガタ）",
    "address": "岡山県瀬戸内市牛窓町長浜1745番地1",
    "lat": 34.6375462,
    "lng": 134.1332783,
    "tel": "0869-34-6366",
    "url": "http://ajisai-s.or.jp/",
    "pref": "岡山県",
    "city": "瀬戸内市",
    "category": "tokuyou",
    "serviceType": "介護老人福祉施設",
    "capacity": 40,
    "openDays": [],
    "openDaysNote": ""
  },
  {
    "id": "3372400170",
    "name": "特別養護老人ホーム　あじさいのおか牛窓（従来型）",
    "kana": "トクベツヨウゴロウジンホーム　アジサイノオカウシマド（ジュウライガタ）",
    "address": "岡山県瀬戸内市牛窓町長浜1745-1",
    "lat": 34.6375462,
    "lng": 134.1332783,
    "tel": "0869-34-6366",
    "url": "http://www.ajisai-s.or.jp",
    "pref": "岡山県",
    "city": "瀬戸内市",
    "category": "tokuyou",
    "serviceType": "介護老人福祉施設",
    "capacity": 50,
    "openDays": [],
    "openDaysNote": ""
  },
  {
    "id": "3372400121",
    "name": "特別養護老人ホーム　錦海荘",
    "kana": "トクベツヨウゴロウジンホーム　キンカイソウ",
    "address": "岡山県瀬戸内市邑久町尻海5513-1",
    "lat": 34.6558432,
    "lng": 134.1821132,
    "tel": "0869-24-0478",
    "url": "https://kenrokai.net/",
    "pref": "岡山県",
    "city": "瀬戸内市",
    "category": "tokuyou",
    "serviceType": "介護老人福祉施設",
    "capacity": 50,
    "openDays": [],
    "openDaysNote": ""
  },
  {
    "id": "3372400675",
    "name": "特別養護老人ホームせとうち",
    "kana": "トクベツヨウゴロウジンホームセトウチ",
    "address": "岡山県瀬戸内市邑久町福中1180",
    "lat": 34.6703333,
    "lng": 134.0667538,
    "tel": "0869-22-2006",
    "url": "http://www.tohkakai.jp/",
    "pref": "岡山県",
    "city": "瀬戸内市",
    "category": "tokuyou",
    "serviceType": "介護老人福祉施設",
    "capacity": 80,
    "openDays": [],
    "openDaysNote": ""
  },
  {
    "id": "3372400972",
    "name": "特別養護老人ホームせとの夢",
    "kana": "トクベツヨウゴロウジンホームセトノユメ",
    "address": "岡山県瀬戸内市邑久町虫明6268番地2",
    "lat": 34.6823968,
    "lng": 134.2027132,
    "tel": "0869-25-0500",
    "url": "www.okayama-junshinkai.co.jp/aiaikai/index.html",
    "pref": "岡山県",
    "city": "瀬戸内市",
    "category": "tokuyou",
    "serviceType": "介護老人福祉施設",
    "capacity": 10,
    "openDays": [],
    "openDaysNote": ""
  },
  {
    "id": "3372400147",
    "name": "特別養護老人ホーム長船荘",
    "kana": "トクベツヨウゴロウジンホームオサフネソウ",
    "address": "岡山県瀬戸内市長船町服部1141番地",
    "lat": 34.7095393,
    "lng": 134.1106765,
    "tel": "0869-26-5068",
    "url": "http://www.okayama-chidori.or.jp/osafune/index.html",
    "pref": "岡山県",
    "city": "瀬戸内市",
    "category": "tokuyou",
    "serviceType": "介護老人福祉施設",
    "capacity": 0,
    "openDays": [],
    "openDaysNote": ""
  },
  {
    "id": "3372200430",
    "name": "特別養護老人ホ－ム広虫荘",
    "kana": "トクベツヨウゴロウジンホウムヒロムシソウ",
    "address": "岡山県赤磐市沢原１３９５",
    "lat": 34.7932442,
    "lng": 134.0830969,
    "tel": "086-995-1221",
    "url": "www.hiromushisou.jp",
    "pref": "岡山県",
    "city": "赤磐市",
    "category": "tokuyou",
    "serviceType": "介護老人福祉施設",
    "capacity": 110,
    "openDays": [],
    "openDaysNote": ""
  },
  {
    "id": "3372201008",
    "name": "特別養護老人ホーム　パインスクエア",
    "kana": "トクベツヨウゴロウジンホーム　パインスクエア",
    "address": "岡山県赤磐市稲蒔１２２２",
    "lat": 34.8957051,
    "lng": 134.0822686,
    "tel": "086-954-0123",
    "url": "www.eharakeimeikai.jp",
    "pref": "岡山県",
    "city": "赤磐市",
    "category": "tokuyou",
    "serviceType": "介護老人福祉施設",
    "capacity": 49,
    "openDays": [],
    "openDaysNote": ""
  },
  {
    "id": "3372200729",
    "name": "特別養護老人ホーム　桃香の里",
    "kana": "トクベツヨウゴロウジンホーム　モモカノサト",
    "address": "岡山県赤磐市熊崎２７６－１",
    "lat": 34.7565372,
    "lng": 134.0117489,
    "tel": "086-955-9775",
    "url": "https://kyokusuikai-momoka.com/",
    "pref": "岡山県",
    "city": "赤磐市",
    "category": "tokuyou",
    "serviceType": "介護老人福祉施設",
    "capacity": 50,
    "openDays": [],
    "openDaysNote": ""
  },
  {
    "id": "3372201255",
    "name": "特別養護老人ホーム　桃香の里",
    "kana": "トクベツヨウゴロウジンホーム　モモカノサト",
    "address": "岡山県赤磐市熊崎276-1",
    "lat": 34.7565372,
    "lng": 134.0117489,
    "tel": "086-955-9775",
    "url": "https://kyokusuikai-momoka.com/",
    "pref": "岡山県",
    "city": "赤磐市",
    "category": "tokuyou",
    "serviceType": "介護老人福祉施設",
    "capacity": 30,
    "openDays": [],
    "openDaysNote": ""
  },
  {
    "id": "3372201339",
    "name": "特別養護老人ホームさくら木",
    "kana": "トクベツヨウゴロウジンホームサクラギ",
    "address": "岡山県赤磐市河本４８８番地１",
    "lat": 34.7465881069039,
    "lng": 134.014517480812,
    "tel": "086-955-2223",
    "url": "https://yufukai.com",
    "pref": "岡山県",
    "city": "赤磐市",
    "category": "tokuyou",
    "serviceType": "介護老人福祉施設",
    "capacity": null,
    "openDays": [],
    "openDaysNote": ""
  },
  {
    "id": "3372200216",
    "name": "特別養護老人ホーム山陽寿荘",
    "kana": "トクベツヨウゴロウジンホームサンヨウコトブキソウ",
    "address": "岡山県赤磐市桜が丘西９－１－１",
    "lat": 34.777127,
    "lng": 134.0243387,
    "tel": "086-955-6655",
    "url": "http://ww9.tiki.ne.jp/~kotobuki/",
    "pref": "岡山県",
    "city": "赤磐市",
    "category": "tokuyou",
    "serviceType": "介護老人福祉施設",
    "capacity": 0,
    "openDays": [],
    "openDaysNote": ""
  },
  {
    "id": "3372700348",
    "name": "特別養護老人ホーム　オペラハウス鴨方",
    "kana": "トクベツヨウゴロウジンホーム　オペラハウスカモガタ",
    "address": "岡山県浅口市鴨方町地頭上567番地",
    "lat": 34.5589695,
    "lng": 133.5903399,
    "tel": "0865-44-6336",
    "url": "http://www.okayama-chidori.or.jp/opera/",
    "pref": "岡山県",
    "city": "浅口市",
    "category": "tokuyou",
    "serviceType": "介護老人福祉施設",
    "capacity": 80,
    "openDays": [],
    "openDaysNote": ""
  },
  {
    "id": "3372700330",
    "name": "特別養護老人ホーム寿光園",
    "kana": "トクベツヨウゴロウジンホーム　ジュコウエン",
    "address": "岡山県浅口市金光町下竹１７７５番の1",
    "lat": 34.5595466,
    "lng": 133.6414256,
    "tel": "0865-42-6300",
    "url": "http://www.kcv.ne.jp/~jukoukai",
    "pref": "岡山県",
    "city": "浅口市",
    "category": "tokuyou",
    "serviceType": "介護老人福祉施設",
    "capacity": 80,
    "openDays": [],
    "openDaysNote": ""
  },
  {
    "id": "3373000037",
    "name": "シルバーセンター後楽",
    "kana": "シルバーセンターコウラク",
    "address": "岡山県倉敷市真備町箭田２１５９番地",
    "lat": 34.6408713,
    "lng": 133.6859518,
    "tel": "086-698-7788",
    "url": "http://www.kouraku.or.jp/",
    "pref": "岡山県",
    "city": "倉敷市",
    "category": "tokuyou",
    "serviceType": "介護老人福祉施設",
    "capacity": 0,
    "openDays": [],
    "openDaysNote": ""
  },
  {
    "id": "3370201174",
    "name": "特別養護老人ホーム　あすなろ園",
    "kana": "トクベツヨウゴロウジンホーム　アスナロエン",
    "address": "岡山県倉敷市玉島勇崎1044",
    "lat": 34.5187144,
    "lng": 133.6498389,
    "tel": "086-528-3110",
    "url": "http://www.asunaro.or.jp",
    "pref": "岡山県",
    "city": "倉敷市",
    "category": "tokuyou",
    "serviceType": "介護老人福祉施設",
    "capacity": 0,
    "openDays": [],
    "openDaysNote": ""
  },
  {
    "id": "3370201034",
    "name": "特別養護老人ホーム　アミカル",
    "kana": "トクベツヨウゴロウジンホーム　アミカル",
    "address": "岡山県倉敷市玉島1275番地1",
    "lat": 34.548875,
    "lng": 133.6836237,
    "tel": "086-526-8827",
    "url": "http://www.amical.or.jp/",
    "pref": "岡山県",
    "city": "倉敷市",
    "category": "tokuyou",
    "serviceType": "介護老人福祉施設",
    "capacity": 114,
    "openDays": [],
    "openDaysNote": ""
  },
  {
    "id": "3370201190",
    "name": "特別養護老人ホーム　グリーンピア瀬戸内",
    "kana": "トクベツヨウゴロウジンホーム　グリーンピアセトウチ",
    "address": "岡山県倉敷市玉島陶８５６－１",
    "lat": 34.5872632,
    "lng": 133.676196,
    "tel": "086-525-1234",
    "url": "http://www.setouchifukushi.jp/greenpia/",
    "pref": "岡山県",
    "city": "倉敷市",
    "category": "tokuyou",
    "serviceType": "介護老人福祉施設",
    "capacity": 0,
    "openDays": [],
    "openDaysNote": ""
  },
  {
    "id": "3370200820",
    "name": "特別養護老人ホーム　サンバードナーシングホーム",
    "kana": "トクベツヨウゴロウジンホーム　サンバードナーシングホーム",
    "address": "岡山県倉敷市藤戸町藤戸1585-1",
    "lat": 34.5582286,
    "lng": 133.8230374,
    "tel": "086-429-0018",
    "url": "http://www.fukujyu.or.jp",
    "pref": "岡山県",
    "city": "倉敷市",
    "category": "tokuyou",
    "serviceType": "介護老人福祉施設",
    "capacity": 0,
    "openDays": [],
    "openDaysNote": ""
  },
  {
    "id": "3370207882",
    "name": "特別養護老人ホーム　サンバードナーシングホーム（ユニット型）",
    "kana": "トクベツヨウゴロウジンホーム　サンバードナーシングホーム（ユニットガタ）",
    "address": "岡山県倉敷市藤戸町藤戸１５８８－７",
    "lat": 34.5584474754758,
    "lng": 133.823531324467,
    "tel": "０８６－４２９－１１１０",
    "url": "http://www.fukujyu.or.jp",
    "pref": "岡山県",
    "city": "倉敷市",
    "category": "tokuyou",
    "serviceType": "介護老人福祉施設",
    "capacity": 0,
    "openDays": [],
    "openDaysNote": ""
  },
  {
    "id": "3370201133",
    "name": "特別養護老人ホーム　しおかぜ",
    "kana": "トクベツヨウゴロウジンホーム　シオカゼ",
    "address": "岡山県倉敷市下津井１４８２番地１８",
    "lat": 34.448447,
    "lng": 133.7847819,
    "tel": "086-470-4848",
    "url": "https://www.shiokaze-group.co.jp",
    "pref": "岡山県",
    "city": "倉敷市",
    "category": "tokuyou",
    "serviceType": "介護老人福祉施設",
    "capacity": 110,
    "openDays": [],
    "openDaysNote": ""
  },
  {
    "id": "3370201216",
    "name": "特別養護老人ホーム　のぞみ荘",
    "kana": "トクベツヨウゴロウジンホーム　ノゾミソウ",
    "address": "岡山県倉敷市福田町福田２３４－１",
    "lat": 34.5390273,
    "lng": 133.7751936,
    "tel": "086-450-1188",
    "url": "http://www.jpk.or.jp",
    "pref": "岡山県",
    "city": "倉敷市",
    "category": "tokuyou",
    "serviceType": "介護老人福祉施設",
    "capacity": 0,
    "openDays": [],
    "openDaysNote": ""
  },
  {
    "id": "3370207247",
    "name": "特別養護老人ホーム　みゆき園　新館",
    "kana": "トクベツヨウゴロウジンホーム　ミユキエン　シンカン",
    "address": "岡山県倉敷市幸町8番27号",
    "lat": 34.6074197,
    "lng": 133.7748751,
    "tel": "086-427-7627",
    "url": "https://miyuki-kai.jp/",
    "pref": "岡山県",
    "city": "倉敷市",
    "category": "tokuyou",
    "serviceType": "介護老人福祉施設",
    "capacity": 0,
    "openDays": [],
    "openDaysNote": ""
  },
  {
    "id": "3370201158",
    "name": "特別養護老人ホーム　みゆき園　本館",
    "kana": "トクベツヨウゴロウジンホーム　ミユキエン　ホンカン",
    "address": "岡山県倉敷市幸町８番２７号",
    "lat": 34.6074197,
    "lng": 133.7748751,
    "tel": "086-427-7627",
    "url": "https://miyuki-kai.jp",
    "pref": "岡山県",
    "city": "倉敷市",
    "category": "tokuyou",
    "serviceType": "介護老人福祉施設",
    "capacity": 0,
    "openDays": [],
    "openDaysNote": ""
  },
  {
    "id": "3370203345",
    "name": "特別養護老人ホーム　元気の家",
    "kana": "トクベツヨウゴロウジンホーム　ゲンキノイエ",
    "address": "岡山県倉敷市徳芳501-1",
    "lat": 34.6207661,
    "lng": 133.8128693,
    "tel": "086-462-6211",
    "url": "http://www.yotsubakai.or.jp",
    "pref": "岡山県",
    "city": "倉敷市",
    "category": "tokuyou",
    "serviceType": "介護老人福祉施設",
    "capacity": 0,
    "openDays": [],
    "openDaysNote": ""
  },
  {
    "id": "3370209078",
    "name": "特別養護老人ホーム　庄の里（新館）",
    "kana": "トクベツヨウゴロウジンホーム　ショウノサト（シンカン）",
    "address": "山地1297番地",
    "lat": 34.6519998,
    "lng": 133.8155267,
    "tel": "086-461-0033",
    "url": "http://www.syounosato.or.jp/",
    "pref": "岡山県",
    "city": "倉敷市",
    "category": "tokuyou",
    "serviceType": "介護老人福祉施設",
    "capacity": 60,
    "openDays": [],
    "openDaysNote": ""
  },
  {
    "id": "3370204251",
    "name": "特別養護老人ホーム　太陽の丘",
    "kana": "トクベツヨウゴロウジンホーム　タイヨウノオカ",
    "address": "岡山県倉敷市連島町西之浦3390番地",
    "lat": 34.5543273,
    "lng": 133.7167757,
    "tel": "086-440-5155",
    "url": "http://www.kunpoohukushikai.com",
    "pref": "岡山県",
    "city": "倉敷市",
    "category": "tokuyou",
    "serviceType": "介護老人福祉施設",
    "capacity": 50,
    "openDays": [],
    "openDaysNote": ""
  },
  {
    "id": "3370201208",
    "name": "特別養護老人ホーム　浮洲園",
    "kana": "トクベツヨウゴロウジンホーム　ウキスエン",
    "address": "岡山県倉敷市粒江２５００－１",
    "lat": 34.5617664,
    "lng": 133.8030441,
    "tel": "086-429-3311",
    "url": "http://www.ukisuen.com",
    "pref": "岡山県",
    "city": "倉敷市",
    "category": "tokuyou",
    "serviceType": "介護老人福祉施設",
    "capacity": 50,
    "openDays": [],
    "openDaysNote": ""
  },
  {
    "id": "3370207254",
    "name": "特別養護老人ホーム　浮洲園（ユニット型）",
    "kana": "トクベツヨウゴロウジンホーム　ウキスエン（ユニットガタ）",
    "address": "岡山県倉敷市粒江2500-1",
    "lat": 34.5617664,
    "lng": 133.8030441,
    "tel": "086-429-3311",
    "url": "http://www.ukisuen.com",
    "pref": "岡山県",
    "city": "倉敷市",
    "category": "tokuyou",
    "serviceType": "介護老人福祉施設",
    "capacity": 60,
    "openDays": [],
    "openDaysNote": ""
  },
  {
    "id": "3370206439",
    "name": "特別養護老人ホームくらしき",
    "kana": "トクベツヨウゴロウジンホームクラシキ",
    "address": "倉敷市亀山780－2",
    "lat": 34.5892864798067,
    "lng": 133.802458019019,
    "tel": "086－441－7700",
    "url": "http://kiryukai.com/",
    "pref": "岡山県",
    "city": "倉敷市",
    "category": "tokuyou",
    "serviceType": "介護老人福祉施設",
    "capacity": 50,
    "openDays": [],
    "openDaysNote": ""
  },
  {
    "id": "3370201117",
    "name": "特別養護老人ホームますみ荘",
    "kana": "トクベツヨウゴロウジンホーム　マスミソウ",
    "address": "岡山県倉敷市中島８３７－５",
    "lat": 34.5784279,
    "lng": 133.7398923,
    "tel": "086-465-6565",
    "url": "http://masumiso.sakura.ne.jp",
    "pref": "岡山県",
    "city": "倉敷市",
    "category": "tokuyou",
    "serviceType": "介護老人福祉施設",
    "capacity": 132,
    "openDays": [],
    "openDaysNote": ""
  },
  {
    "id": "3370201125",
    "name": "特別養護老人ホームみどり荘",
    "kana": "トクベツヨウゴロウジンホームミドリソウ",
    "address": "岡山県倉敷市神田2-3-5",
    "lat": 34.5415761,
    "lng": 133.7382546,
    "tel": "086-444-6521",
    "url": "http://kunpoo.jp",
    "pref": "岡山県",
    "city": "倉敷市",
    "category": "tokuyou",
    "serviceType": "介護老人福祉施設",
    "capacity": 130,
    "openDays": [],
    "openDaysNote": ""
  },
  {
    "id": "3370201182",
    "name": "特別養護老人ホーム王慈園",
    "kana": "トクベツヨウゴロウジンホームオウジエン",
    "address": "倉敷市児島下の町５－２－１７",
    "lat": 34.4776046,
    "lng": 133.8216798,
    "tel": "086-473-9000",
    "url": "http//www.ohji.ne.jp",
    "pref": "岡山県",
    "city": "倉敷市",
    "category": "tokuyou",
    "serviceType": "介護老人福祉施設",
    "capacity": 0,
    "openDays": [],
    "openDaysNote": ""
  },
  {
    "id": "3370207239",
    "name": "特別養護老人ホーム王慈園（ユニット型）",
    "kana": "トクベツヨウゴロウジンホームオウジエン　ユニットガタ",
    "address": "岡山県倉敷市児島下の町5丁目2番17号",
    "lat": 34.4776046,
    "lng": 133.8216798,
    "tel": "０８６－４７３－９０００",
    "url": "ｈｔｔｐ//www.ohji.ne,jp",
    "pref": "岡山県",
    "city": "倉敷市",
    "category": "tokuyou",
    "serviceType": "介護老人福祉施設",
    "capacity": 0,
    "openDays": [],
    "openDaysNote": ""
  },
  {
    "id": "3370209060",
    "name": "特別養護老人ホーム庄の里（本館）",
    "kana": "トクベツヨウゴロウジンホーム　ショウノサト（ホンカン）",
    "address": "山地1297番地",
    "lat": 34.6519998,
    "lng": 133.8155267,
    "tel": "086-461-0033",
    "url": "http://www.syounosato.or.jp/",
    "pref": "岡山県",
    "city": "倉敷市",
    "category": "tokuyou",
    "serviceType": "介護老人福祉施設",
    "capacity": 0,
    "openDays": [],
    "openDaysNote": ""
  },
  {
    "id": "3370201166",
    "name": "特別養護老人ホーム浅原桃花園",
    "kana": "トクベツヨウゴロウジンホームアサバラトウカエン",
    "address": "岡山県倉敷市浅原３８０番地２",
    "lat": 34.6272707,
    "lng": 133.7686032,
    "tel": "086-462-0020",
    "url": "http://www.asabaratoukaen.com/",
    "pref": "岡山県",
    "city": "倉敷市",
    "category": "tokuyou",
    "serviceType": "介護老人福祉施設",
    "capacity": 0,
    "openDays": [],
    "openDaysNote": ""
  },
  {
    "id": "3370201141",
    "name": "特別養護老人ホーム倉敷シルバーセンター",
    "kana": "トクベツヨウゴロウジンホームクラシキシルバーセンター",
    "address": "岡山県倉敷市児島柳田町355-1",
    "lat": 34.4948907,
    "lng": 133.7894042,
    "tel": "086-473-1010",
    "url": "http://www.silver21.or.jp/",
    "pref": "岡山県",
    "city": "倉敷市",
    "category": "tokuyou",
    "serviceType": "介護老人福祉施設",
    "capacity": 100,
    "openDays": [],
    "openDaysNote": ""
  },
  {
    "id": "3370205175",
    "name": "特別養護老人ホーム碧山荘",
    "kana": "トクベツヨウゴロウジンホームヘキザンソウ",
    "address": "岡山県倉敷市林1140",
    "lat": 34.5310715,
    "lng": 133.8168218,
    "tel": "086-485-1165",
    "url": "https://碧山荘.com",
    "pref": "岡山県",
    "city": "倉敷市",
    "category": "tokuyou",
    "serviceType": "介護老人福祉施設",
    "capacity": 50,
    "openDays": [],
    "openDaysNote": ""
  },
  {
    "id": "3372600233",
    "name": "特別養護老人ホーム　白亜館",
    "kana": "トクベツヨウゴロウジンホームハクアカン",
    "address": "岡山県都窪郡早島町早島4962-11",
    "lat": 34.6094839,
    "lng": 133.8070084,
    "tel": "086-480-1212",
    "url": "http://hakuakan.ec-net.jp",
    "pref": "岡山県",
    "city": "早島町",
    "category": "tokuyou",
    "serviceType": "介護老人福祉施設",
    "capacity": 0,
    "openDays": [],
    "openDaysNote": ""
  },
  {
    "id": "3370800173",
    "name": "介護老人福祉施設　光憂舘",
    "kana": "カイゴロウジンフクシシセツ　コウユウカン",
    "address": "岡山県総社市日羽454番地介護老人福祉施設光憂舘 介護老人福祉施設光憂舘",
    "lat": 34.7241044,
    "lng": 133.6765053,
    "tel": "0866-99-0010",
    "url": "https://www.k5963.com/",
    "pref": "岡山県",
    "city": "総社市",
    "category": "tokuyou",
    "serviceType": "介護老人福祉施設",
    "capacity": 0,
    "openDays": [],
    "openDaysNote": ""
  },
  {
    "id": "3370801015",
    "name": "特別養護老人ホーム　いずみの杜",
    "kana": "トクベツヨウゴロウジンホーム　イズミノモリ",
    "address": "総社市小寺958番地",
    "lat": 34.6898983742259,
    "lng": 133.745338801852,
    "tel": "0866-90-0005",
    "url": "http://choujukai.or.jp/",
    "pref": "岡山県",
    "city": "総社市",
    "category": "tokuyou",
    "serviceType": "介護老人福祉施設",
    "capacity": 0,
    "openDays": [],
    "openDaysNote": ""
  },
  {
    "id": "3370801114",
    "name": "特別養護老人ホーム　グリーンアンドリバーホーム（ユニット型）",
    "kana": "トクベツヨウゴロウジンホーム　グリーンアンドリバーホーム（ユニットガタ）",
    "address": "岡山県総社市清音三因1074-1",
    "lat": 34.6544177,
    "lng": 133.7557535,
    "tel": "0866-92-4165",
    "url": "http://www.green-river.or.jp",
    "pref": "岡山県",
    "city": "総社市",
    "category": "tokuyou",
    "serviceType": "介護老人福祉施設",
    "capacity": 30,
    "openDays": [],
    "openDaysNote": ""
  },
  {
    "id": "3372600035",
    "name": "特別養護老人ホーム　グリーンアンドリバーホーム（従来型）",
    "kana": "トクベツヨウゴロウジンホーム　グリーンアンドリバーホーム（ジュウライガタ）",
    "address": "岡山県総社市清音三因1074-1",
    "lat": 34.6544177,
    "lng": 133.7557535,
    "tel": "0866-92-4165",
    "url": "http://www.green-river.or.jp",
    "pref": "岡山県",
    "city": "総社市",
    "category": "tokuyou",
    "serviceType": "介護老人福祉施設",
    "capacity": 50,
    "openDays": [],
    "openDaysNote": ""
  },
  {
    "id": "3370800215",
    "name": "特別養護老人ホーム　シルバーセンター　セレーノ総社",
    "kana": "トクベツヨウゴロウジンホーム　シルバーセンター　セレーノソウジャ",
    "address": "岡山県総社市久代5127番地",
    "lat": 34.6775123,
    "lng": 133.6992853,
    "tel": "0866-96-0700",
    "url": "http://www.sesshu-fukushikai.or.jp/sereno/",
    "pref": "岡山県",
    "city": "総社市",
    "category": "tokuyou",
    "serviceType": "介護老人福祉施設",
    "capacity": 0,
    "openDays": [],
    "openDaysNote": ""
  },
  {
    "id": "3370800132",
    "name": "特別養護老人ホーム三清荘",
    "kana": "トクベツヨウゴロウジンホームサンセイソウ",
    "address": "岡山県総社市久米48番地の1",
    "lat": 34.6985327,
    "lng": 133.7772133,
    "tel": "0866-92-6981",
    "url": "http://www.keizankai.or.jp/",
    "pref": "岡山県",
    "city": "総社市",
    "category": "tokuyou",
    "serviceType": "介護老人福祉施設",
    "capacity": 0,
    "openDays": [],
    "openDaysNote": ""
  },
  {
    "id": "3370801130",
    "name": "特別養護老人ホーム三清荘",
    "kana": "トクベツヨウゴロウジンホームサンセイソウ",
    "address": "岡山県総社市久米48番地の1",
    "lat": 34.6985327,
    "lng": 133.7772133,
    "tel": "0866-92-6981",
    "url": "http://www.keizankai.or.jp/",
    "pref": "岡山県",
    "city": "総社市",
    "category": "tokuyou",
    "serviceType": "介護老人福祉施設",
    "capacity": 0,
    "openDays": [],
    "openDaysNote": ""
  },
  {
    "id": "3370302030",
    "name": "特別養護老人ホーム　のどか",
    "kana": "トクベツヨウゴロウジンホーム　ノドカ",
    "address": "岡山県津山市神戸２６２－２",
    "lat": 35.0575782159293,
    "lng": 133.944841885844,
    "tel": "0868-28-8511",
    "url": "http://sakurakai2014.web.fc2.com/",
    "pref": "岡山県",
    "city": "津山市",
    "category": "tokuyou",
    "serviceType": "介護老人福祉施設",
    "capacity": 60,
    "openDays": [],
    "openDaysNote": ""
  },
  {
    "id": "3370302105",
    "name": "特別養護老人ホーム　ミ・カサ",
    "kana": "トクベツヨウゴロウジンホーム　ミ・カサ",
    "address": "岡山県津山市北町44-1",
    "lat": 35.0654528324709,
    "lng": 134.005705918771,
    "tel": "0868-23-3111",
    "url": "www.eharakeimeikai.jp/mi-casa/",
    "pref": "岡山県",
    "city": "津山市",
    "category": "tokuyou",
    "serviceType": "介護老人福祉施設",
    "capacity": 60,
    "openDays": [],
    "openDaysNote": ""
  },
  {
    "id": "3373800196",
    "name": "特別養護老人ホーム　愛和荘",
    "kana": "トクベツヨウゴロウジンホーム　アイワソウ",
    "address": "岡山県津山市桑下１２７２－３",
    "lat": 35.0288262,
    "lng": 133.9204172,
    "tel": "0868-57-9800",
    "url": "www.aiwa-kai.or.jp",
    "pref": "岡山県",
    "city": "津山市",
    "category": "tokuyou",
    "serviceType": "介護老人福祉施設",
    "capacity": 0,
    "openDays": [],
    "openDaysNote": ""
  },
  {
    "id": "3373500234",
    "name": "特別養護老人ホーム　緑山荘",
    "kana": "トクベツヨウゴロウジンホーム　リョクザンソウ",
    "address": "岡山県津山市加茂町小中原１１５",
    "lat": 35.1783763,
    "lng": 134.0491349,
    "tel": "0868-42-3662",
    "url": "http://www.kamo-koyokai.jp",
    "pref": "岡山県",
    "city": "津山市",
    "category": "tokuyou",
    "serviceType": "介護老人福祉施設",
    "capacity": 60,
    "openDays": [],
    "openDaysNote": ""
  },
  {
    "id": "3370300364",
    "name": "特別養護老人ホーム　鶯園",
    "kana": "トクベツヨウゴロウジンホーム　ウグイスエン",
    "address": "岡山県津山市瓜生原３３７－１",
    "lat": 35.0429274,
    "lng": 134.0425675,
    "tel": "0868-26-0888",
    "url": "http://www.uguisuen.jp/",
    "pref": "岡山県",
    "city": "津山市",
    "category": "tokuyou",
    "serviceType": "介護老人福祉施設",
    "capacity": 110,
    "openDays": [],
    "openDaysNote": ""
  },
  {
    "id": "3370300240",
    "name": "特別養護老人ホームサンライフみのり",
    "kana": "トクベツヨウゴロウジンホームサンライフミノリ",
    "address": "岡山県津山市二宮９９９番地",
    "lat": 35.0677729,
    "lng": 133.9680128,
    "tel": "0868-28-1007",
    "url": "http://www.minori21.or.jp/",
    "pref": "岡山県",
    "city": "津山市",
    "category": "tokuyou",
    "serviceType": "介護老人福祉施設",
    "capacity": 0,
    "openDays": [],
    "openDaysNote": ""
  },
  {
    "id": "3370301958",
    "name": "特別養護老人ホームサンライフみのり（ユニット型）",
    "kana": "トクベツヨウゴロウジンホームサンライフミノリ　ユニットガタ",
    "address": "岡山県津山市二宮999番地",
    "lat": 35.0677729,
    "lng": 133.9680128,
    "tel": "0868-28-1007",
    "url": "http://www.minori21.or.jp",
    "pref": "岡山県",
    "city": "津山市",
    "category": "tokuyou",
    "serviceType": "介護老人福祉施設",
    "capacity": 0,
    "openDays": [],
    "openDaysNote": ""
  },
  {
    "id": "3370301941",
    "name": "特別養護老人ホーム愛和荘（ユニット型）",
    "kana": "トクベツヨウゴロウジンホームアイワソウ（ユニットガタ）",
    "address": "岡山県津山市桑下１２７２－３",
    "lat": 35.0288262,
    "lng": 133.9204172,
    "tel": "０８６８－５７－９８００",
    "url": "www.aiwa-kai.or.jp",
    "pref": "岡山県",
    "city": "津山市",
    "category": "tokuyou",
    "serviceType": "介護老人福祉施設",
    "capacity": 0,
    "openDays": [],
    "openDaysNote": ""
  },
  {
    "id": "3370300455",
    "name": "特別養護老人ホーム高寿園",
    "kana": "トクベツヨウゴロウジンホーム　コウジュエン",
    "address": "岡山県津山市下高倉西１５８１－１",
    "lat": 35.0970170186103,
    "lng": 134.038068389337,
    "tel": "0868-29-0115",
    "url": "http://www.kojuen.jp/",
    "pref": "岡山県",
    "city": "津山市",
    "category": "tokuyou",
    "serviceType": "介護老人福祉施設",
    "capacity": 80,
    "openDays": [],
    "openDaysNote": ""
  },
  {
    "id": "3373600125",
    "name": "特別養護老人ホーム第３日本原荘",
    "kana": "トクベツヨウゴロウジンホームダイサンニホンバラソウ",
    "address": "岡山県津山市新野東１７９7－３",
    "lat": 35.104954589401,
    "lng": 134.129123871303,
    "tel": "0868-36-3838",
    "url": "http://www.nihonbara.or.jp/",
    "pref": "岡山県",
    "city": "津山市",
    "category": "tokuyou",
    "serviceType": "介護老人福祉施設",
    "capacity": 0,
    "openDays": [],
    "openDaysNote": ""
  },
  {
    "id": "3370301966",
    "name": "特別養護老人ホーム日本原荘（ユニット型）",
    "kana": "トクベツヨウゴロウジンホームニホンバラソウユニットガタ",
    "address": "岡山県津山市新野東1797-11",
    "lat": 35.1041795039406,
    "lng": 134.129119850926,
    "tel": "0868－36－3838",
    "url": "http://www.nihonbara.or.jp/",
    "pref": "岡山県",
    "city": "津山市",
    "category": "tokuyou",
    "serviceType": "介護老人福祉施設",
    "capacity": 80,
    "openDays": [],
    "openDaysNote": ""
  },
  {
    "id": "3373600117",
    "name": "特別養護老人ホーム日本原荘（従来型）",
    "kana": "トクベツヨウゴロウジンホームニホンバラソウジュウライガタ",
    "address": "岡山県津山市新野東１７９７番地",
    "lat": 35.1042585,
    "lng": 134.1290823,
    "tel": "0868-36-3838",
    "url": "http://www.nihonbara.or.jp",
    "pref": "岡山県",
    "city": "津山市",
    "category": "tokuyou",
    "serviceType": "介護老人福祉施設",
    "capacity": 38,
    "openDays": [],
    "openDaysNote": ""
  },
  {
    "id": "3373600307",
    "name": "特別養護老人ホームなぎみ苑（従来型）",
    "kana": "トクベツヨウゴロウジンホームナギミエン　ジュウライガタ",
    "address": "岡山県勝田郡奈義町広岡30",
    "lat": 35.1158719,
    "lng": 134.1667842,
    "tel": "0868-36-5711",
    "url": "http://www.jifu-kai.or.jp",
    "pref": "岡山県",
    "city": "奈義町",
    "category": "tokuyou",
    "serviceType": "介護老人福祉施設",
    "capacity": 0,
    "openDays": [],
    "openDaysNote": ""
  },
  {
    "id": "3371100334",
    "name": "特別養護老人ホーム　深谷荘",
    "kana": "トクベツヨウゴロウジンホーム　ミタニソウ",
    "address": "岡山県備前市三石2791-1",
    "lat": 34.8159254,
    "lng": 134.2799542,
    "tel": "0869-62-2717",
    "url": "http://mitanisou.com/",
    "pref": "岡山県",
    "city": "備前市",
    "category": "tokuyou",
    "serviceType": "介護老人福祉施設",
    "capacity": 0,
    "openDays": [],
    "openDaysNote": ""
  },
  {
    "id": "3372300305",
    "name": "特別養護老人ホーム亀楽荘",
    "kana": "トクベツヨウゴロウジンホームキラクソウ",
    "address": "岡山県備前市吉永町吉永中363番地",
    "lat": 34.8109874,
    "lng": 134.2082061,
    "tel": "0869-84-4131",
    "url": "http://kirakuso.or.jp/",
    "pref": "岡山県",
    "city": "備前市",
    "category": "tokuyou",
    "serviceType": "介護老人福祉施設",
    "capacity": 60,
    "openDays": [],
    "openDaysNote": ""
  },
  {
    "id": "3371100763",
    "name": "特別養護老人ホーム備前多聞荘",
    "kana": "トクベツヨウゴロウジンホーム　ビゼンタモンソウ",
    "address": "岡山県備前市鶴海２４０１番地",
    "lat": 34.6976364,
    "lng": 134.1852562,
    "tel": "０８６９－６５－８９７５",
    "url": "http://www.tensetsukai.or.jp",
    "pref": "岡山県",
    "city": "備前市",
    "category": "tokuyou",
    "serviceType": "介護老人福祉施設",
    "capacity": 30,
    "openDays": [],
    "openDaysNote": ""
  },
  {
    "id": "3371100557",
    "name": "備前市特別養護老人ホーム大ヶ池荘",
    "kana": "ビゼンシトクベツヨウゴロウジンホームオオガイケソウ",
    "address": "岡山県備前市伊部964-1",
    "lat": 34.7390312,
    "lng": 134.1456196,
    "tel": "0869-64-1335",
    "url": "",
    "pref": "岡山県",
    "city": "備前市",
    "category": "tokuyou",
    "serviceType": "介護老人福祉施設",
    "capacity": 0,
    "openDays": [],
    "openDaysNote": ""
  },
  {
    "id": "3373800295",
    "name": "特別養護老人ホーム　白寿荘",
    "kana": "トクベツヨウゴロウジンホーム　ハクジュソウ",
    "address": "岡山県久米郡美咲町錦織2357-1",
    "lat": 35.0287464,
    "lng": 133.9443325,
    "tel": "0868-66-2443",
    "url": "http://www.hakujuso.or.jp/",
    "pref": "岡山県",
    "city": "美咲町",
    "category": "tokuyou",
    "serviceType": "介護老人福祉施設",
    "capacity": 0,
    "openDays": [],
    "openDaysNote": ""
  },
  {
    "id": "3373800121",
    "name": "特別養護老人ホーム吉井川荘",
    "kana": "トクベツヨウゴロウジンホームヨシイガワソウ",
    "address": "岡山県久米郡美咲町吉ヶ原８３８",
    "lat": 34.9432725,
    "lng": 134.0766011,
    "tel": "0868-62-1277",
    "url": "https://yoshiigawa.jp",
    "pref": "岡山県",
    "city": "美咲町",
    "category": "tokuyou",
    "serviceType": "介護老人福祉施設",
    "capacity": 0,
    "openDays": [],
    "openDaysNote": ""
  },
  {
    "id": "3373700388",
    "name": "みまさか園",
    "kana": "ミマサカエン",
    "address": "岡山県美作市北山404-1",
    "lat": 35.0319002,
    "lng": 134.1563146,
    "tel": "0868-73-6100",
    "url": "http://www.fukushi-koukikai.jp/",
    "pref": "岡山県",
    "city": "美作市",
    "category": "tokuyou",
    "serviceType": "介護老人福祉施設",
    "capacity": 0,
    "openDays": [],
    "openDaysNote": ""
  },
  {
    "id": "3373700263",
    "name": "特別養護老人ホーム　ロマンシティあいだ",
    "kana": "トクベツヨウゴロウジンホーム　ロマンシティアイダ",
    "address": "岡山県美作市井口４１－２",
    "lat": 34.9384179,
    "lng": 134.1282763,
    "tel": "0868-74-2888",
    "url": "https://uguisuen.com/",
    "pref": "岡山県",
    "city": "美作市",
    "category": "tokuyou",
    "serviceType": "介護老人福祉施設",
    "capacity": 60,
    "openDays": [],
    "openDaysNote": ""
  },
  {
    "id": "3373700834",
    "name": "特別養護老人ホーム　蛍流荘",
    "kana": "トクベツヨウゴロウジンホームケイリュウソウ",
    "address": "岡山県美作市湯郷903",
    "lat": 34.9915589,
    "lng": 134.1312022,
    "tel": "0868-72-6660",
    "url": "http://www.keiryusou.com/",
    "pref": "岡山県",
    "city": "美作市",
    "category": "tokuyou",
    "serviceType": "介護老人福祉施設",
    "capacity": 0,
    "openDays": [],
    "openDaysNote": ""
  },
  {
    "id": "3373700164",
    "name": "特別養護老人ホーム　作東寮",
    "kana": "トクベツヨウゴロウジンホーム　サクトウリョウ",
    "address": "岡山県美作市川北１０８９",
    "lat": 35.0144164,
    "lng": 134.2146959,
    "tel": "0868-75-0041",
    "url": "http://www.fukushi-koukikai.jp",
    "pref": "岡山県",
    "city": "美作市",
    "category": "tokuyou",
    "serviceType": "介護老人福祉施設",
    "capacity": 0,
    "openDays": [],
    "openDaysNote": ""
  },
  {
    "id": "3373700636",
    "name": "美作特別養護老人ホームやすらぎ荘",
    "kana": "ミマサカトクベツヨウゴロウジンホームヤスラギソウ",
    "address": "岡山県美作市古町1707-3",
    "lat": 35.1205648,
    "lng": 134.3272198,
    "tel": "0868-78-2829",
    "url": "http://www.keizankai.or.jp/",
    "pref": "岡山県",
    "city": "美作市",
    "category": "tokuyou",
    "serviceType": "介護老人福祉施設",
    "capacity": 40,
    "openDays": [],
    "openDaysNote": ""
  },
  {
    "id": "3372800122",
    "name": "特別養護老人ホーム　矢掛荘　従来型",
    "kana": "トクベツヨウゴロウジンホーム　ヤカゲソウ　ジュウライガタ",
    "address": "岡山県小田郡矢掛町南山田3044-12",
    "lat": 34.5853672,
    "lng": 133.6130089,
    "tel": "0866-83-1200",
    "url": "yakage-so.jp",
    "pref": "岡山県",
    "city": "矢掛町",
    "category": "tokuyou",
    "serviceType": "介護老人福祉施設",
    "capacity": 0,
    "openDays": [],
    "openDaysNote": ""
  },
  {
    "id": "3372300784",
    "name": "特別養護老人ホーム　和気えんじゅの里",
    "kana": "トクベツヨウゴロウジンホーム　ワケエンジュノサト",
    "address": "岡山県和気郡和気町衣笠834－1",
    "lat": 34.7966191287758,
    "lng": 134.15609900221,
    "tel": "0869－92－0018",
    "url": "http://www.takufukai-group.or.jp/",
    "pref": "岡山県",
    "city": "和気町",
    "category": "tokuyou",
    "serviceType": "介護老人福祉施設",
    "capacity": 0,
    "openDays": [],
    "openDaysNote": ""
  },
  {
    "id": "3372300321",
    "name": "特別養護老人ホーム　和気広虫荘",
    "kana": "トクベツヨウゴロウジンホーム　ワケヒロムシソウ",
    "address": "岡山県和気郡和気町和気108",
    "lat": 34.8066261,
    "lng": 134.1449898,
    "tel": "0869-93-1255",
    "url": "http://www.hiromushisou.jp",
    "pref": "岡山県",
    "city": "和気町",
    "category": "tokuyou",
    "serviceType": "介護老人福祉施設",
    "capacity": 0,
    "openDays": [],
    "openDaysNote": ""
  },
  {
    "id": "3372300313",
    "name": "特別養護老人ホームひまわり園",
    "kana": "トクベツヨウゴロウジンホーム　ヒマワリエン",
    "address": "岡山県和気郡和気町佐伯158",
    "lat": 34.8448716,
    "lng": 134.0925294,
    "tel": "0869-88-9088",
    "url": "http://www.himawarien.org.",
    "pref": "岡山県",
    "city": "和気町",
    "category": "tokuyou",
    "serviceType": "介護老人福祉施設",
    "capacity": 50,
    "openDays": [],
    "openDaysNote": ""
  }
]