[
  {
    "id": "371501131",
    "name": "特別養護老人ホームクラリス",
    "kana": "トクベツヨウゴロウジンホームクラリス",
    "address": "岩手県一関市上大槻街5-16",
    "lat": 38.929773,
    "lng": 141.138759,
    "tel": "0191-31-2088",
    "url": "https://www.swc-kouseikai.info",
    "pref": "岩手県",
    "city": "一関市",
    "category": "tokuyou",
    "serviceType": "介護老人福祉施設",
    "capacity": 0,
    "openDays": [],
    "openDaysNote": ""
  },
  {
    "id": "370901571",
    "name": "特別養護老人ホームソエルいちのまち",
    "kana": "トクベツヨウゴロウジンホームソエルイチノマチ",
    "address": "岩手県一関市花泉町涌津字一ノ町７６",
    "lat": 38.8308767,
    "lng": 141.1853271,
    "tel": "0191-36-1223",
    "url": "https://www.nioukai.or.jp",
    "pref": "岩手県",
    "city": "一関市",
    "category": "tokuyou",
    "serviceType": "介護老人福祉施設",
    "capacity": 0,
    "openDays": [],
    "openDaysNote": ""
  },
  {
    "id": "372600148",
    "name": "特別養護老人ホームソエル花泉",
    "kana": "トクベツヨウゴロウジンホウムソエルハナイズミ",
    "address": "岩手県一関市花泉町涌津一ノ町７６番地",
    "lat": 38.8308767,
    "lng": 141.1853271,
    "tel": "0191-36-1223",
    "url": "https://www.nioukai.or.jp",
    "pref": "岩手県",
    "city": "一関市",
    "category": "tokuyou",
    "serviceType": "介護老人福祉施設",
    "capacity": 0,
    "openDays": [],
    "openDaysNote": ""
  },
  {
    "id": "372700484",
    "name": "特別養護老人ホームやすらぎ荘",
    "kana": "トクベツヨウゴロウジンホームヤスラギソウ",
    "address": "岩手県一関市東山町長坂字南山谷12",
    "lat": 38.9942405,
    "lng": 141.2473757,
    "tel": "0191-47-2395",
    "url": "http://hi-aikoukai.com",
    "pref": "岩手県",
    "city": "一関市",
    "category": "tokuyou",
    "serviceType": "介護老人福祉施設",
    "capacity": null,
    "openDays": [],
    "openDaysNote": ""
  },
  {
    "id": "372700526",
    "name": "特別養護老人ホームやまぶき荘",
    "kana": "トクベツヨウゴロウジンホームヤマブキソウ",
    "address": "岩手県一関市大東町大原字有南田2番地1",
    "lat": 39.0140999,
    "lng": 141.3802849,
    "tel": "0191-72-2447",
    "url": "http://www.sippoukai.com/",
    "pref": "岩手県",
    "city": "一関市",
    "category": "tokuyou",
    "serviceType": "介護老人福祉施設",
    "capacity": null,
    "openDays": [],
    "openDaysNote": ""
  },
  {
    "id": "370900284",
    "name": "特別養護老人ホーム一関ケアサポート",
    "kana": "トクベツヨウゴロウジンホームイチノセキケアサポート",
    "address": "岩手県一関市真柴字柧木立44-15",
    "lat": 38.9075855,
    "lng": 141.1404556,
    "tel": "0191-21-5800",
    "url": "http://www.riha.jp",
    "pref": "岩手県",
    "city": "一関市",
    "category": "tokuyou",
    "serviceType": "介護老人福祉施設",
    "capacity": 0,
    "openDays": [],
    "openDaysNote": ""
  },
  {
    "id": "370900250",
    "name": "特別養護老人ホーム関生園",
    "kana": "トクベツヨウゴロウジンホウムカンセイエン",
    "address": "岩手県一関市真柴字はの木立43-102",
    "lat": 38.8778281,
    "lng": 141.1423813,
    "tel": "0191-26-4911",
    "url": "http://www.iwate-tukushikai.jp/",
    "pref": "岩手県",
    "city": "一関市",
    "category": "tokuyou",
    "serviceType": "介護老人福祉施設",
    "capacity": 0,
    "openDays": [],
    "openDaysNote": ""
  },
  {
    "id": "370902116",
    "name": "特別養護老人ホーム五訓の森",
    "kana": "トクベツヨウゴロウジンホームゴクンノモリ",
    "address": "岩手県一関市千厩町小梨字時ノ沢109番地3特別養護老人ホーム五訓の森 特別養護老人ホーム五訓の森",
    "lat": 38.8997928,
    "lng": 141.3818269,
    "tel": "0191-34-5617",
    "url": "https://www.jukeikai.or.jp",
    "pref": "岩手県",
    "city": "一関市",
    "category": "tokuyou",
    "serviceType": "介護老人福祉施設",
    "capacity": null,
    "openDays": [],
    "openDaysNote": ""
  },
  {
    "id": "370901266",
    "name": "特別養護老人ホーム光栄荘",
    "kana": "トクベツヨウゴロウジンホームコウエイソウ",
    "address": "岩手県一関市藤沢町藤沢字町裏55番地",
    "lat": 38.859251,
    "lng": 141.3498585,
    "tel": "0191-63-3115",
    "url": "",
    "pref": "岩手県",
    "city": "一関市",
    "category": "tokuyou",
    "serviceType": "介護老人福祉施設",
    "capacity": 87,
    "openDays": [],
    "openDaysNote": ""
  },
  {
    "id": "372700203",
    "name": "特別養護老人ホーム孝養ハイツ",
    "kana": "トクベツヨウゴロウジンホームコウヨウハイツ",
    "address": "岩手県一関市室根町折壁字八幡沖119",
    "lat": 38.935289,
    "lng": 141.4409416,
    "tel": "0191-64-3923",
    "url": "http://www.kouyouhaitsu.com",
    "pref": "岩手県",
    "city": "一関市",
    "category": "tokuyou",
    "serviceType": "介護老人福祉施設",
    "capacity": 0,
    "openDays": [],
    "openDaysNote": ""
  },
  {
    "id": "372600122",
    "name": "特別養護老人ホーム寿光荘",
    "kana": "トクベツヨウゴロウジンホームジュコウソウ",
    "address": "岩手県一関市花泉町金沢字如来堂１０７番地",
    "lat": 38.8554421227495,
    "lng": 141.16548171803,
    "tel": "0191-82-5090",
    "url": "https://www.nioukai.or.jp",
    "pref": "岩手県",
    "city": "一関市",
    "category": "tokuyou",
    "serviceType": "介護老人福祉施設",
    "capacity": 0,
    "openDays": [],
    "openDaysNote": ""
  },
  {
    "id": "372700211",
    "name": "特別養護老人ホーム寿松苑",
    "kana": "トクベツヨウゴロウジンホームジュショウエン",
    "address": "岩手県一関市川崎町薄衣字久伝26番地",
    "lat": 38.9003654,
    "lng": 141.2741715,
    "tel": "0191-43-2221",
    "url": "http://www.jushoen.com",
    "pref": "岩手県",
    "city": "一関市",
    "category": "tokuyou",
    "serviceType": "介護老人福祉施設",
    "capacity": 0,
    "openDays": [],
    "openDaysNote": ""
  },
  {
    "id": "372700757",
    "name": "特別養護老人ホーム千寿荘",
    "kana": "トクベツヨウゴロウジンホームセンジュソウ",
    "address": "岩手県一関市千厩町千厩字脇谷28番地5",
    "lat": 38.9172269143155,
    "lng": 141.325691706082,
    "tel": "0191-53-2883",
    "url": "https://www.jukeikai.or.jp",
    "pref": "岩手県",
    "city": "一関市",
    "category": "tokuyou",
    "serviceType": "介護老人福祉施設",
    "capacity": 80,
    "openDays": [],
    "openDaysNote": ""
  },
  {
    "id": "370901142",
    "name": "特別養護老人ホーム福光園",
    "kana": "トクベツヨウゴロウジンホームフッコウエン",
    "address": "岩手県一関市萩荘字大袋56番地4",
    "lat": 38.9377329,
    "lng": 141.0795018,
    "tel": "0191-24-5020",
    "url": "https://www.fukkouen.or.jp/",
    "pref": "岩手県",
    "city": "一関市",
    "category": "tokuyou",
    "serviceType": "介護老人福祉施設",
    "capacity": 0,
    "openDays": [],
    "openDaysNote": ""
  },
  {
    "id": "370900268",
    "name": "特別養護老人ホーム福光園アネックス",
    "kana": "トクベツヨウゴロウジンホームフッコウエンアネックス",
    "address": "岩手県一関市萩荘字高梨南方21番地1",
    "lat": 38.9244369561277,
    "lng": 141.110866265918,
    "tel": "0191-32-1818",
    "url": "http://www.fukkouen.or.jp/",
    "pref": "岩手県",
    "city": "一関市",
    "category": "tokuyou",
    "serviceType": "介護老人福祉施設",
    "capacity": 0,
    "openDays": [],
    "openDaysNote": ""
  },
  {
    "id": "370900276",
    "name": "特別養護老人ホーム明生園",
    "kana": "トクベツヨウゴロウジンホームメイセイエン",
    "address": "岩手県一関市滝沢字寺下２番地１",
    "lat": 38.906087,
    "lng": 141.1798576,
    "tel": "0191-23-0478",
    "url": "http://www.iwate-tukushikai.jp/",
    "pref": "岩手県",
    "city": "一関市",
    "category": "tokuyou",
    "serviceType": "介護老人福祉施設",
    "capacity": 0,
    "openDays": [],
    "openDaysNote": ""
  },
  {
    "id": "373200195",
    "name": "特別養護老人ホーム慶寿園",
    "kana": "トクベツヨウゴロウジンホームケイジュエン",
    "address": "岩手県二戸郡一戸町姉帯字下村24番地1",
    "lat": 40.1659644,
    "lng": 141.3364821,
    "tel": "0195-34-2112",
    "url": "http://iwate-jikoukai.jp/about/",
    "pref": "岩手県",
    "city": "一戸町",
    "category": "tokuyou",
    "serviceType": "介護老人福祉施設",
    "capacity": 0,
    "openDays": [],
    "openDaysNote": ""
  },
  {
    "id": "372900175",
    "name": "特別養護老人ホームみやもり荘",
    "kana": "トクベツヨウゴロウジンホームミヤモリソウ",
    "address": "岩手県遠野市宮守町下宮守２８地割１９番地１",
    "lat": 39.3458139,
    "lng": 141.3629591,
    "tel": "0198-67-2266",
    "url": "http://www.tomori-kai.jp/",
    "pref": "岩手県",
    "city": "遠野市",
    "category": "tokuyou",
    "serviceType": "介護老人福祉施設",
    "capacity": 0,
    "openDays": [],
    "openDaysNote": ""
  },
  {
    "id": "370800450",
    "name": "特別養護老人ホームみやもり荘ユニット館",
    "kana": "トクベツヨウゴロウジンホームミヤモリソウユニットカン",
    "address": "岩手県遠野市宮守町下宮守２８地割１９番地１",
    "lat": 39.3458583,
    "lng": 141.3629368,
    "tel": "0198-67-2266",
    "url": "http://www.tomori-kai.jp/",
    "pref": "岩手県",
    "city": "遠野市",
    "category": "tokuyou",
    "serviceType": "介護老人福祉施設",
    "capacity": 0,
    "openDays": [],
    "openDaysNote": ""
  },
  {
    "id": "370800153",
    "name": "特別養護老人ホーム遠野長寿の郷",
    "kana": "トクベツヨウゴロウジンホームトオノチョウジュノサト",
    "address": "岩手県遠野市松崎町白岩１８－７",
    "lat": 39.3330404,
    "lng": 141.5487347,
    "tel": "0198-63-1770",
    "url": "http://t-chouju.jp/",
    "pref": "岩手県",
    "city": "遠野市",
    "category": "tokuyou",
    "serviceType": "介護老人福祉施設",
    "capacity": 64,
    "openDays": [],
    "openDaysNote": ""
  },
  {
    "id": "370800476",
    "name": "特別養護老人ホーム遠野長寿の郷（従来型多床室）",
    "kana": "トクベツヨウゴロウジンホームトオノチョウジュノサト（ジュウライガタタショウシツ）",
    "address": "岩手県遠野市松崎町白岩18-7",
    "lat": 39.3330404,
    "lng": 141.5487347,
    "tel": "0198-63-1770",
    "url": "http://t-chouju.jp/",
    "pref": "岩手県",
    "city": "遠野市",
    "category": "tokuyou",
    "serviceType": "介護老人福祉施設",
    "capacity": 36,
    "openDays": [],
    "openDaysNote": ""
  },
  {
    "id": "371500067",
    "name": "特別養護老人ホームあっぷるホーム",
    "kana": "トクベツヨウゴロウジンホームアップルホーム",
    "address": "岩手県奥州市江刺玉里字青篠７番地３",
    "lat": 39.2287996,
    "lng": 141.2519412,
    "tel": "0197-28-6335",
    "url": "https://applehome.or.jp",
    "pref": "岩手県",
    "city": "奥州市",
    "category": "tokuyou",
    "serviceType": "介護老人福祉施設",
    "capacity": 0,
    "openDays": [],
    "openDaysNote": ""
  },
  {
    "id": "370400483",
    "name": "特別養護老人ホームいこいの森",
    "kana": "トクベツヨウゴロウジンホームイコイノモリ",
    "address": "岩手県奥州市水沢羽田町字水無沢497番1",
    "lat": 39.128835045339,
    "lng": 141.212571790491,
    "tel": "0197-51-1155",
    "url": "http://www.mirakukai.com",
    "pref": "岩手県",
    "city": "奥州市",
    "category": "tokuyou",
    "serviceType": "介護老人福祉施設",
    "capacity": 0,
    "openDays": [],
    "openDaysNote": ""
  },
  {
    "id": "371200189",
    "name": "特別養護老人ホームさくらの郷",
    "kana": "トクベツヨウゴロウジンホームサクラノサト",
    "address": "岩手県奥州市江刺岩谷堂字下惣田290番地1",
    "lat": 39.1813143,
    "lng": 141.1820638,
    "tel": "0197-31-2771",
    "url": "http://esashijyuseikai.or.jp",
    "pref": "岩手県",
    "city": "奥州市",
    "category": "tokuyou",
    "serviceType": "介護老人福祉施設",
    "capacity": 0,
    "openDays": [],
    "openDaysNote": ""
  },
  {
    "id": "372500454",
    "name": "特別養護老人ホームぬくもりの家",
    "kana": "トクベツヨウゴロウジンホームヌクモリノイエ",
    "address": "岩手県奥州市胆沢南都田字大持30番地",
    "lat": 39.1293505,
    "lng": 141.0693561,
    "tel": "0197-46-5100",
    "url": "https://www.oshuisawakai.iwate.jp",
    "pref": "岩手県",
    "city": "奥州市",
    "category": "tokuyou",
    "serviceType": "介護老人福祉施設",
    "capacity": 0,
    "openDays": [],
    "openDaysNote": ""
  },
  {
    "id": "372500330",
    "name": "特別養護老人ホームまえさわ苑",
    "kana": "トクベツヨウゴロウジンホームマエサワエン",
    "address": "岩手県奥州市前沢字塔ケ崎７番地",
    "lat": 39.0403394980824,
    "lng": 141.120690728836,
    "tel": "0197-56-5600",
    "url": "https://tsu2ji.oshushi.com",
    "pref": "岩手県",
    "city": "奥州市",
    "category": "tokuyou",
    "serviceType": "介護老人福祉施設",
    "capacity": null,
    "openDays": [],
    "openDaysNote": ""
  },
  {
    "id": "372500348",
    "name": "特別養護老人ホームやまゆり荘",
    "kana": "トクベツヨウゴロウジンホームヤマユリソウ",
    "address": "岩手県奥州市胆沢南都田字加賀谷地416番地",
    "lat": 39.1169715,
    "lng": 141.0722784,
    "tel": "0197-46-5111",
    "url": "https://www.oshuisawakai.iwate.jp",
    "pref": "岩手県",
    "city": "奥州市",
    "category": "tokuyou",
    "serviceType": "介護老人福祉施設",
    "capacity": 50,
    "openDays": [],
    "openDaysNote": ""
  },
  {
    "id": "372500355",
    "name": "特別養護老人ホーム羽衣荘",
    "kana": "トクベツヨウゴロウジンホウムハゴロモソウ",
    "address": "岩手県奥州市衣川古戸45番地",
    "lat": 39.038138,
    "lng": 141.0645464,
    "tel": "0197-52-3571",
    "url": "http://hagoromosou.net",
    "pref": "岩手県",
    "city": "奥州市",
    "category": "tokuyou",
    "serviceType": "介護老人福祉施設",
    "capacity": 50,
    "openDays": [],
    "openDaysNote": ""
  },
  {
    "id": "371200403",
    "name": "特別養護老人ホーム聖愛園（ユニット型）",
    "kana": "トクベツヨウゴロウジンホームセイアイエン（ユニットガタ）",
    "address": "岩手県奥州市江刺愛宕字八日市64",
    "lat": 39.1846156357341,
    "lng": 141.159602933452,
    "tel": "0197-35-2824",
    "url": "https://seiaiikuseikai.or.jp",
    "pref": "岩手県",
    "city": "奥州市",
    "category": "tokuyou",
    "serviceType": "介護老人福祉施設",
    "capacity": null,
    "openDays": [],
    "openDaysNote": ""
  },
  {
    "id": "371200171",
    "name": "特別養護老人ホーム聖愛園従来型",
    "kana": "トクベツヨウゴロウジンホームセイアイエンジュウライガタ",
    "address": "岩手県奥州市江刺愛宕字八日市51-3",
    "lat": 39.1854496,
    "lng": 141.160007,
    "tel": "0197-35-2824",
    "url": "https://seiaiikuseikai.or.jp",
    "pref": "岩手県",
    "city": "奥州市",
    "category": "tokuyou",
    "serviceType": "介護老人福祉施設",
    "capacity": 84,
    "openDays": [],
    "openDaysNote": ""
  },
  {
    "id": "370400251",
    "name": "特別養護老人ホーム福寿荘",
    "kana": "トクベツヨウゴロウジンホウムフクジュソウ",
    "address": "岩手県奥州市水沢上姉体二丁目1番地22",
    "lat": 39.1166269,
    "lng": 141.1639952,
    "tel": "0197-28-1234",
    "url": "http://www.fukujyusou.jp/",
    "pref": "岩手県",
    "city": "奥州市",
    "category": "tokuyou",
    "serviceType": "介護老人福祉施設",
    "capacity": 160,
    "openDays": [],
    "openDaysNote": ""
  },
  {
    "id": "371500745",
    "name": "特別養護老人ホーム福寿荘福原山荘",
    "kana": "トクベツヨウゴロウジンホームフクジュソウフクハラサンソウ",
    "address": "岩手県奥州市水沢字大橋34番地4",
    "lat": 39.1298325609332,
    "lng": 141.129556001328,
    "tel": "0197-22-8555",
    "url": "http://www.fukujyusou.jp/fukuharasansou/",
    "pref": "岩手県",
    "city": "奥州市",
    "category": "tokuyou",
    "serviceType": "介護老人福祉施設",
    "capacity": 0,
    "openDays": [],
    "openDaysNote": ""
  },
  {
    "id": "371501222",
    "name": "特別養護老人ホーム優愛の家",
    "kana": "トクベツヨウゴロウジンホームユウアイノイエ",
    "address": "岩手県奥州市前沢字竹沢147番地",
    "lat": 39.0539715,
    "lng": 141.135478,
    "tel": "0197-34-0700",
    "url": "http://www.yuuaifukushikai.com",
    "pref": "岩手県",
    "city": "奥州市",
    "category": "tokuyou",
    "serviceType": "介護老人福祉施設",
    "capacity": 39,
    "openDays": [],
    "openDaysNote": ""
  },
  {
    "id": "370400269",
    "name": "特別養護老人ホーム立生苑",
    "kana": "トクベツヨウゴロウジンホームリュウセイエン",
    "address": "岩手県奥州市水沢字見分森19番地1",
    "lat": 39.120706091916,
    "lng": 141.10927342468,
    "tel": "0197-25-3131",
    "url": "https://jyusuikai.jp/",
    "pref": "岩手県",
    "city": "奥州市",
    "category": "tokuyou",
    "serviceType": "介護老人福祉施設",
    "capacity": 50,
    "openDays": [],
    "openDaysNote": ""
  },
  {
    "id": "370500340",
    "name": "特別養護老人ホームアイリス花巻",
    "kana": "トクベツヨウゴロウジンホームアイリスハナマキ",
    "address": "岩手県花巻市南万丁目970番地2",
    "lat": 39.3913634156318,
    "lng": 141.098906783467,
    "tel": "0198-24-3900",
    "url": "http://iris-hanamaki.jp",
    "pref": "岩手県",
    "city": "花巻市",
    "category": "tokuyou",
    "serviceType": "介護老人福祉施設",
    "capacity": null,
    "openDays": [],
    "openDaysNote": ""
  },
  {
    "id": "370501454",
    "name": "特別養護老人ホームアイリス花巻（ユニット型）",
    "kana": "トクベツヨウゴロウジンホームアイリスハナマキユニットガタ",
    "address": "岩手県花巻市南万丁目970番地2",
    "lat": 39.3912805,
    "lng": 141.0987083,
    "tel": "0198-24-3900",
    "url": "http://iris-hanamaki.jp",
    "pref": "岩手県",
    "city": "花巻市",
    "category": "tokuyou",
    "serviceType": "介護老人福祉施設",
    "capacity": null,
    "openDays": [],
    "openDaysNote": ""
  },
  {
    "id": "370501439",
    "name": "特別養護老人ホームいしどりや荘（ユニット型）",
    "kana": "トクベツヨウゴロウジンホームイシドリヤソウ（ユニットガタ）",
    "address": "岩手県花巻市石鳥谷町好地14-10",
    "lat": 39.5032076,
    "lng": 141.1611513,
    "tel": "0198-45-6730",
    "url": "https://www.ishidoriyasou.jp/",
    "pref": "岩手県",
    "city": "花巻市",
    "category": "tokuyou",
    "serviceType": "介護老人福祉施設",
    "capacity": 30,
    "openDays": [],
    "openDaysNote": ""
  },
  {
    "id": "372300160",
    "name": "特別養護老人ホームいしどりや荘（従来型）",
    "kana": "トクベツヨウゴロウジンホームイシドリヤソウ（ジュウライガタ）",
    "address": "岩手県花巻市石鳥谷町好地１４－１０",
    "lat": 39.5032076,
    "lng": 141.1611513,
    "tel": "0198-45-6730",
    "url": "https://www.ishidoriyasou.jp/",
    "pref": "岩手県",
    "city": "花巻市",
    "category": "tokuyou",
    "serviceType": "介護老人福祉施設",
    "capacity": 54,
    "openDays": [],
    "openDaysNote": ""
  },
  {
    "id": "370501025",
    "name": "特別養護老人ホーム花巻あすかの杜",
    "kana": "トクベツヨウゴロウジンホームハナマキアスカノモリ",
    "address": "岩手県花巻市天下田100番地1",
    "lat": 39.4128057,
    "lng": 141.1076564,
    "tel": "0198-41-1100",
    "url": "http://matsuzonofukushikai.jp/",
    "pref": "岩手県",
    "city": "花巻市",
    "category": "tokuyou",
    "serviceType": "介護老人福祉施設",
    "capacity": 70,
    "openDays": [],
    "openDaysNote": ""
  },
  {
    "id": "370500456",
    "name": "特別養護老人ホーム花巻あすかの里",
    "kana": "トクベツヨウゴロウジンホームハナマキアスカノサト",
    "address": "岩手県花巻市西宮野目第14地割56番地2",
    "lat": 39.414675,
    "lng": 141.1107282,
    "tel": "0198-21-1010",
    "url": "http://matsuzonofukushikai.jp/",
    "pref": "岩手県",
    "city": "花巻市",
    "category": "tokuyou",
    "serviceType": "介護老人福祉施設",
    "capacity": null,
    "openDays": [],
    "openDaysNote": ""
  },
  {
    "id": "372300152",
    "name": "特別養護老人ホーム桐の里",
    "kana": "トクベツヨウゴロウジンホームキリノサト",
    "address": "岩手県花巻市大迫町大迫第１１地割１番地１",
    "lat": 39.4695421,
    "lng": 141.283334,
    "tel": "0198-48-2905",
    "url": "http://oohasamatoujukai.or.jp/",
    "pref": "岩手県",
    "city": "花巻市",
    "category": "tokuyou",
    "serviceType": "介護老人福祉施設",
    "capacity": 0,
    "openDays": [],
    "openDaysNote": ""
  },
  {
    "id": "370500332",
    "name": "特別養護老人ホーム大谷荘",
    "kana": "トクベツヨウゴロウジンホームオオタニソウ",
    "address": "岩手県花巻市湯口字松原53番地1",
    "lat": 39.4063854,
    "lng": 141.0199346,
    "tel": "0198-25-2125",
    "url": "http://ootanisou.jp",
    "pref": "岩手県",
    "city": "花巻市",
    "category": "tokuyou",
    "serviceType": "介護老人福祉施設",
    "capacity": 0,
    "openDays": [],
    "openDaysNote": ""
  },
  {
    "id": "372400192",
    "name": "特別養護老人ホーム東和荘",
    "kana": "トクベツヨウゴロウジンホームトウワソウ",
    "address": "岩手県花巻市東和町東晴山7区16番地",
    "lat": 39.3724806,
    "lng": 141.2522536,
    "tel": "0198-44-3113",
    "url": "http://towaso.jp/",
    "pref": "岩手県",
    "city": "花巻市",
    "category": "tokuyou",
    "serviceType": "介護老人福祉施設",
    "capacity": 0,
    "openDays": [],
    "openDaysNote": ""
  },
  {
    "id": "372100230",
    "name": "特別養護老人ホーム高砂荘",
    "kana": "トクベツヨウゴロウジンホームタカサゴソウ",
    "address": "岩手県岩手郡葛巻町葛巻第７地割１０４番地２",
    "lat": 40.0403547,
    "lng": 141.4545002,
    "tel": "0195-66-2100",
    "url": "http://seishinseii-sw.or.jp",
    "pref": "岩手県",
    "city": "葛巻町",
    "category": "tokuyou",
    "serviceType": "介護老人福祉施設",
    "capacity": 0,
    "openDays": [],
    "openDaysNote": ""
  },
  {
    "id": "371100231",
    "name": "特別養護老人ホームあいぜんの里",
    "kana": "トクベツヨウゴロウジンホームアイゼンノサト",
    "address": "岩手県釜石市大字平田第2地割51番地7",
    "lat": 39.2429889,
    "lng": 141.8718358,
    "tel": "0193-26-6600",
    "url": "http://aizen-iwate.jp",
    "pref": "岩手県",
    "city": "釜石市",
    "category": "tokuyou",
    "serviceType": "介護老人福祉施設",
    "capacity": 0,
    "openDays": [],
    "openDaysNote": ""
  },
  {
    "id": "371100371",
    "name": "特別養護老人ホームアミーガはまゆり",
    "kana": "トクベツヨウゴロウジンホームアミーガハマユリ",
    "address": "岩手県釜石市小佐野町三丁目９番５０号",
    "lat": 39.2630666,
    "lng": 141.8378071,
    "tel": "0193-25-2600",
    "url": "http://www.rakusuikai.com",
    "pref": "岩手県",
    "city": "釜石市",
    "category": "tokuyou",
    "serviceType": "介護老人福祉施設",
    "capacity": null,
    "openDays": [],
    "openDaysNote": ""
  },
  {
    "id": "371100223",
    "name": "特別養護老人ホーム仙人の里",
    "kana": "トクベツヨウゴロウジンホームセンニンノサト",
    "address": "岩手県釜石市甲子町第7地割144番地4",
    "lat": 39.2547298,
    "lng": 141.7825942,
    "tel": "0193-23-1022",
    "url": "https://senninnosato.jp/",
    "pref": "岩手県",
    "city": "釜石市",
    "category": "tokuyou",
    "serviceType": "介護老人福祉施設",
    "capacity": null,
    "openDays": [],
    "openDaysNote": ""
  },
  {
    "id": "372100248",
    "name": "特別養護老人ホームあんずの里",
    "kana": "トクベツヨウゴロウジンホームアンズノサト",
    "address": "岩手県岩手郡岩手町大字五日市第２地割３０７番地",
    "lat": 40.0150909,
    "lng": 141.2318665,
    "tel": "0195-62-8018",
    "url": "http://www.syunyoukai.jp/",
    "pref": "岩手県",
    "city": "岩手町",
    "category": "tokuyou",
    "serviceType": "介護老人福祉施設",
    "capacity": 0,
    "openDays": [],
    "openDaysNote": ""
  },
  {
    "id": "372101709",
    "name": "特別養護老人ホームラベンダー",
    "kana": "トクベツヨウゴロウジンホームラベンダー",
    "address": "岩手県岩手郡岩手町大字江刈内第10地割28番地3",
    "lat": 39.9658686177469,
    "lng": 141.224258207826,
    "tel": "0195-68-7085",
    "url": "http://lavender.nisshindo-g.com/",
    "pref": "岩手県",
    "city": "岩手町",
    "category": "tokuyou",
    "serviceType": "介護老人福祉施設",
    "capacity": 0,
    "openDays": [],
    "openDaysNote": ""
  },
  {
    "id": "373000553",
    "name": "特別養護老人ホーム百楽苑",
    "kana": "トクベツヨウゴロウジンホウムヒャクラクエン",
    "address": "岩手県下閉伊郡岩泉町岩泉字中家４０",
    "lat": 39.8482054,
    "lng": 141.7953865,
    "tel": "0194-22-4511",
    "url": "http://www.hyakurakuen.org/",
    "pref": "岩手県",
    "city": "岩泉町",
    "category": "tokuyou",
    "serviceType": "介護老人福祉施設",
    "capacity": 0,
    "openDays": [],
    "openDaysNote": ""
  },
  {
    "id": "370700213",
    "name": "特別養護老人ホームぎんたらす久慈",
    "kana": "トクベツヨウゴロウジンホームギンタラスクジ",
    "address": "岩手県久慈市旭町第7地割105番地10",
    "lat": 40.2039449,
    "lng": 141.7780957,
    "tel": "0194-61-3313",
    "url": "https://khjd.jp",
    "pref": "岩手県",
    "city": "久慈市",
    "category": "tokuyou",
    "serviceType": "介護老人福祉施設",
    "capacity": 50,
    "openDays": [],
    "openDaysNote": ""
  },
  {
    "id": "373100205",
    "name": "特別養護老人ホーム愛山荘",
    "kana": "トクベツヨウゴロウジンホームアイザンソウ",
    "address": "岩手県久慈市山形町川井12-55-1",
    "lat": 40.1456594,
    "lng": 141.569896,
    "tel": "0194-72-2300",
    "url": "http://aizanso.sakura.ne.jp",
    "pref": "岩手県",
    "city": "久慈市",
    "category": "tokuyou",
    "serviceType": "介護老人福祉施設",
    "capacity": 50,
    "openDays": [],
    "openDaysNote": ""
  },
  {
    "id": "370700031",
    "name": "特別養護老人ホーム和光苑",
    "kana": "トクベツヨウゴロウジンホームワコウエン",
    "address": "岩手県久慈市長内町第４６地割２番地の１１",
    "lat": 40.1788572,
    "lng": 141.824237,
    "tel": "0194-52-2665",
    "url": "https://jikeikai.jimdofree.com/",
    "pref": "岩手県",
    "city": "久慈市",
    "category": "tokuyou",
    "serviceType": "介護老人福祉施設",
    "capacity": 50,
    "openDays": [],
    "openDaysNote": ""
  },
  {
    "id": "370200198",
    "name": "特別養護老人ホームサンホームみやこ",
    "kana": "トクベツヨウゴロウジンホームサンホームミヤコ",
    "address": "岩手県宮古市崎鍬ヶ崎第4地割1番地20",
    "lat": 39.6597734,
    "lng": 141.9516012,
    "tel": "0193-62-7011",
    "url": "http://www.wakatakekai.or.jp/",
    "pref": "岩手県",
    "city": "宮古市",
    "category": "tokuyou",
    "serviceType": "介護老人福祉施設",
    "capacity": 0,
    "openDays": [],
    "openDaysNote": ""
  },
  {
    "id": "373000538",
    "name": "特別養護老人ホームふれあい荘",
    "kana": "トクベツヨウゴロウジンホームフレアイソウ",
    "address": "岩手県宮古市田老字養呂地6番地2",
    "lat": 39.7308173,
    "lng": 141.9390699,
    "tel": "0193-88-1200",
    "url": "http://www.tarouwasinkai.or.jp/",
    "pref": "岩手県",
    "city": "宮古市",
    "category": "tokuyou",
    "serviceType": "介護老人福祉施設",
    "capacity": 0,
    "openDays": [],
    "openDaysNote": ""
  },
  {
    "id": "373000579",
    "name": "特別養護老人ホーム紫桐苑",
    "kana": "トクベツヨウゴロウジンホームシトウエン",
    "address": "岩手県宮古市茂市1-115-1",
    "lat": 39.6282649,
    "lng": 141.7869303,
    "tel": "0193-72-2300",
    "url": "http://niisatoshitoukai.jp/",
    "pref": "岩手県",
    "city": "宮古市",
    "category": "tokuyou",
    "serviceType": "介護老人福祉施設",
    "capacity": 0,
    "openDays": [],
    "openDaysNote": ""
  },
  {
    "id": "370200180",
    "name": "特別養護老人ホーム慈苑",
    "kana": "トクベツヨウゴロウジンホームジエン",
    "address": "岩手県宮古市西ヶ丘四丁目５３番地８",
    "lat": 39.6433354,
    "lng": 141.9148018,
    "tel": "0193-62-7496",
    "url": "http://www.jien.jp/",
    "pref": "岩手県",
    "city": "宮古市",
    "category": "tokuyou",
    "serviceType": "介護老人福祉施設",
    "capacity": 103,
    "openDays": [],
    "openDaysNote": ""
  },
  {
    "id": "373000587",
    "name": "特別養護老人ホーム心生苑",
    "kana": "トクベツヨウゴロウジンホームシンセイエン",
    "address": "岩手県宮古市川井2-24-3",
    "lat": 39.595960135583,
    "lng": 141.675605812554,
    "tel": "0193-76-2300",
    "url": "http://www.shinseien-kawai.or.jp/",
    "pref": "岩手県",
    "city": "宮古市",
    "category": "tokuyou",
    "serviceType": "介護老人福祉施設",
    "capacity": 0,
    "openDays": [],
    "openDaysNote": ""
  },
  {
    "id": "372500546",
    "name": "特別養護老人ホームあすなろ",
    "kana": "トクベツヨウゴロウジンホームアスナロ",
    "address": "岩手県胆沢郡金ヶ崎町六原坊主屋敷36番地1",
    "lat": 39.2417158,
    "lng": 141.0705714,
    "tel": "0197-41-9211",
    "url": "https://yamadori-iwate.com",
    "pref": "岩手県",
    "city": "金ヶ崎町",
    "category": "tokuyou",
    "serviceType": "介護老人福祉施設",
    "capacity": 30,
    "openDays": [],
    "openDaysNote": ""
  },
  {
    "id": "372500322",
    "name": "特別養護老人ホーム友愛園",
    "kana": "トクベツヨウゴロウジンホームユウアイエン",
    "address": "岩手県胆沢郡金ケ崎町西根揚場後8番地2",
    "lat": 39.1870123,
    "lng": 141.1051842,
    "tel": "0197-44-4111",
    "url": "http://www.yuaikai-kanegasaki.com/",
    "pref": "岩手県",
    "city": "金ヶ崎町",
    "category": "tokuyou",
    "serviceType": "介護老人福祉施設",
    "capacity": 0,
    "openDays": [],
    "openDaysNote": ""
  },
  {
    "id": "373100346",
    "name": "特別養護老人ホーム折爪荘",
    "kana": "トクベツヨウゴロウジンホームオリツメソウ",
    "address": "岩手県九戸郡九戸村大字伊保内第9地割73番地",
    "lat": 40.2142998,
    "lng": 141.4216045,
    "tel": "0195-42-4165",
    "url": "http://www.oritsumesou.or.jp",
    "pref": "岩手県",
    "city": "九戸村",
    "category": "tokuyou",
    "serviceType": "介護老人福祉施設",
    "capacity": 0,
    "openDays": [],
    "openDaysNote": ""
  },
  {
    "id": "373100569",
    "name": "特別養護老人ホームいちい荘",
    "kana": "トクベツヨウゴロウジンホームイチイソウ",
    "address": "岩手県九戸郡軽米町大字軽米3-22-7",
    "lat": 40.3174631807139,
    "lng": 141.473811056339,
    "tel": "0195-46-3130",
    "url": "http://karumai-shakyo.or.jp/",
    "pref": "岩手県",
    "city": "軽米町",
    "category": "tokuyou",
    "serviceType": "介護老人福祉施設",
    "capacity": 0,
    "openDays": [],
    "openDaysNote": ""
  },
  {
    "id": "373100403",
    "name": "特別養護老人ホームくつろぎの家",
    "kana": "トクベツヨウゴロウジンホームクツロギノイエ",
    "address": "岩手県九戸郡軽米町大字山内第12地割字太田向96番地2",
    "lat": 40.3267455,
    "lng": 141.4606327,
    "tel": "0195-47-2351",
    "url": "http://www.keisenkai.jp/kutsuroginoie",
    "pref": "岩手県",
    "city": "軽米町",
    "category": "tokuyou",
    "serviceType": "介護老人福祉施設",
    "capacity": 0,
    "openDays": [],
    "openDaysNote": ""
  },
  {
    "id": "373000546",
    "name": "特別養護老人ホーム平安荘",
    "kana": "トクベツヨウゴロウジンホームヘイアンソウ",
    "address": "岩手県下閉伊郡山田町山田第16地割9番地10",
    "lat": 39.4736553,
    "lng": 141.9342874,
    "tel": "0193-82-3611",
    "url": "https://seiju-kai.net",
    "pref": "岩手県",
    "city": "山田町",
    "category": "tokuyou",
    "serviceType": "介護老人福祉施設",
    "capacity": 0,
    "openDays": [],
    "openDaysNote": ""
  },
  {
    "id": "372200154",
    "name": "特別養護老人ホームにいやま荘",
    "kana": "トクベツヨウゴロウジンホームニイヤマソウ",
    "address": "岩手県紫波郡紫波町桜町字三本木46番地１",
    "lat": 39.5415171,
    "lng": 141.1716048,
    "tel": "019-676-5777",
    "url": "https://shiwakai.jp",
    "pref": "岩手県",
    "city": "紫波町",
    "category": "tokuyou",
    "serviceType": "介護老人福祉施設",
    "capacity": 0,
    "openDays": [],
    "openDaysNote": ""
  },
  {
    "id": "372200857",
    "name": "特別養護老人ホームにいやま荘桜町ユニット",
    "kana": "トクベツヨウゴロウジンホームニイヤマソウサクラマチユニット",
    "address": "岩手県紫波郡紫波町桜町字三本木４６番地１",
    "lat": 39.5415171,
    "lng": 141.1716048,
    "tel": "019-676-5777",
    "url": "https://shiwakai.jp/",
    "pref": "岩手県",
    "city": "紫波町",
    "category": "tokuyou",
    "serviceType": "介護老人福祉施設",
    "capacity": 0,
    "openDays": [],
    "openDaysNote": ""
  },
  {
    "id": "372200261",
    "name": "特別養護老人ホーム百寿の郷",
    "kana": "トクベツヨウゴロウジンホームモズノサト",
    "address": "岩手県紫波郡紫波町土舘字関沢２４番地１",
    "lat": 39.5477695,
    "lng": 141.100695,
    "tel": "019-671-7211",
    "url": "http://mozunosato.com",
    "pref": "岩手県",
    "city": "紫波町",
    "category": "tokuyou",
    "serviceType": "介護老人福祉施設",
    "capacity": 0,
    "openDays": [],
    "openDaysNote": ""
  },
  {
    "id": "372102053",
    "name": "特別養護老人ホームおうしゅく",
    "kana": "トクベツヨウゴロウジンホームオウシュク",
    "address": "岩手県岩手郡雫石町鶯宿第9地割67番地1特別養護老人ホームおうしゅく 特別養護老人ホームおうしゅく",
    "lat": 39.640873,
    "lng": 140.9309291,
    "tel": "019-695-2580",
    "url": "http://ousyuku.blog55.fc2.com",
    "pref": "岩手県",
    "city": "雫石町",
    "category": "tokuyou",
    "serviceType": "介護老人福祉施設",
    "capacity": 55,
    "openDays": [],
    "openDaysNote": ""
  },
  {
    "id": "372100297",
    "name": "特別養護老人ホーム日赤鶯鳴荘",
    "kana": "トクベツヨウゴロウジンホームニッセキオウメイソウ",
    "address": "岩手県岩手郡雫石町南畑第３２地割１５番地３０",
    "lat": 39.6448645987166,
    "lng": 140.944598386268,
    "tel": "019-695-2131",
    "url": "http://www.oumeisou.jrc.or.jp/",
    "pref": "岩手県",
    "city": "雫石町",
    "category": "tokuyou",
    "serviceType": "介護老人福祉施設",
    "capacity": 80,
    "openDays": [],
    "openDaysNote": ""
  },
  {
    "id": "372800136",
    "name": "特別養護老人ホームすみた荘",
    "kana": "トクベツヨウゴロウジンホウムスミタソウ",
    "address": "岩手県気仙郡住田町世田米字川向８番地２",
    "lat": 39.1460066542919,
    "lng": 141.56894358532,
    "tel": "0192-46-3111",
    "url": "https://care-net.biz/03/narusekai/",
    "pref": "岩手県",
    "city": "住田町",
    "category": "tokuyou",
    "serviceType": "介護老人福祉施設",
    "capacity": 70,
    "openDays": [],
    "openDaysNote": ""
  },
  {
    "id": "370100372",
    "name": "介護老人福祉施設都南あけぼの荘",
    "kana": "カイゴロウジンフクシシセツトナンアケボノソウ",
    "address": "岩手県盛岡市湯沢４地割２５－１",
    "lat": 39.6463688,
    "lng": 141.0902725,
    "tel": "019-639-2525",
    "url": "https://morioka-fujimikai.or.jp",
    "pref": "岩手県",
    "city": "盛岡市",
    "category": "tokuyou",
    "serviceType": "介護老人福祉施設",
    "capacity": 0,
    "openDays": [],
    "openDaysNote": ""
  },
  {
    "id": "370105348",
    "name": "介護老人福祉施設都南あけぼの荘",
    "kana": "カイゴロウジンフクシシセツトナンアケボノソウ",
    "address": "岩手県盛岡市湯沢４地割２５－１",
    "lat": 39.6463688,
    "lng": 141.0902725,
    "tel": "019-639-2525",
    "url": "https://morioka-fujimikai.or.jp",
    "pref": "岩手県",
    "city": "盛岡市",
    "category": "tokuyou",
    "serviceType": "介護老人福祉施設",
    "capacity": 0,
    "openDays": [],
    "openDaysNote": ""
  },
  {
    "id": "372100289",
    "name": "秀峰苑指定介護老人福祉施設",
    "kana": "シュウホウエンシテイカイゴロウジンフクシシセツ",
    "address": "岩手県盛岡市下田字石羽根９９－９０１",
    "lat": 39.8471050268688,
    "lng": 141.129259128236,
    "tel": "019-683-1516",
    "url": "http://www.syuuhoukai.org/",
    "pref": "岩手県",
    "city": "盛岡市",
    "category": "tokuyou",
    "serviceType": "介護老人福祉施設",
    "capacity": 50,
    "openDays": [],
    "openDaysNote": ""
  },
  {
    "id": "370102451",
    "name": "特別養護老人ホームおでんせ本宮",
    "kana": "トクベツヨウゴロウジンホウムオデンセモトミヤ",
    "address": "岩手県盛岡市本宮字小板小瀬20番地1",
    "lat": 39.6941112,
    "lng": 141.1209343,
    "tel": "019-656-3011",
    "url": "https://www.roushinkai.jp/",
    "pref": "岩手県",
    "city": "盛岡市",
    "category": "tokuyou",
    "serviceType": "介護老人福祉施設",
    "capacity": 0,
    "openDays": [],
    "openDaysNote": ""
  },
  {
    "id": "370103848",
    "name": "特別養護老人ホームカーサ南盛岡",
    "kana": "トクベツヨウゴロウジンホームカーサミナミモリオカ",
    "address": "岩手県盛岡市乙部４地割１３９番１０",
    "lat": 39.6219354,
    "lng": 141.1945612,
    "tel": "019-696-1717",
    "url": "http://www.casa-minami.com/",
    "pref": "岩手県",
    "city": "盛岡市",
    "category": "tokuyou",
    "serviceType": "介護老人福祉施設",
    "capacity": 60,
    "openDays": [],
    "openDaysNote": ""
  },
  {
    "id": "370102717",
    "name": "特別養護老人ホームコアトレース厨川",
    "kana": "トクベツヨウゴロウジンホームコアトレースクリヤガワ",
    "address": "岩手県盛岡市厨川二丁目7-20",
    "lat": 39.7378292,
    "lng": 141.13514,
    "tel": "019-648-0841",
    "url": "https://yayo-i.or.jp/",
    "pref": "岩手県",
    "city": "盛岡市",
    "category": "tokuyou",
    "serviceType": "介護老人福祉施設",
    "capacity": 57,
    "openDays": [],
    "openDaysNote": ""
  },
  {
    "id": "370101842",
    "name": "特別養護老人ホームさくらぎの里",
    "kana": "トクベツヨウゴロウジンホームサクラギノサト",
    "address": "岩手県盛岡市上田字松屋敷１０３番地１",
    "lat": 39.7518141,
    "lng": 141.152177,
    "tel": "019-664-1188",
    "url": "http://www.sakuraginosato.jp/",
    "pref": "岩手県",
    "city": "盛岡市",
    "category": "tokuyou",
    "serviceType": "介護老人福祉施設",
    "capacity": 50,
    "openDays": [],
    "openDaysNote": ""
  },
  {
    "id": "370105892",
    "name": "特別養護老人ホームサンタウン松園",
    "kana": "トクベツヨウゴロウジンホームサンタウンマツゾノ",
    "address": "岩手県盛岡市北松園４丁目３６番５５号",
    "lat": 39.7619015142375,
    "lng": 141.1772911,
    "tel": "019-681-7533",
    "url": "http://sryokuaikai.com/",
    "pref": "岩手県",
    "city": "盛岡市",
    "category": "tokuyou",
    "serviceType": "介護老人福祉施設",
    "capacity": 143,
    "openDays": [],
    "openDaysNote": ""
  },
  {
    "id": "372100883",
    "name": "特別養護老人ホームすずらんガーデン",
    "kana": "トクベツヨウゴロウジンホームスズランガーデン",
    "address": "岩手県盛岡市好摩字芋田向83番地25",
    "lat": 39.8669401,
    "lng": 141.1653584,
    "tel": "019-669-3600",
    "url": "http://www.nisshindo-g.com/",
    "pref": "岩手県",
    "city": "盛岡市",
    "category": "tokuyou",
    "serviceType": "介護老人福祉施設",
    "capacity": 0,
    "openDays": [],
    "openDaysNote": ""
  },
  {
    "id": "370104499",
    "name": "特別養護老人ホームなのりの杜",
    "kana": "トクベツヨウゴロウジンホームナノリノモリ",
    "address": "岩手県盛岡市上米内字名乗沢1-58",
    "lat": 39.7391371377786,
    "lng": 141.17980586011,
    "tel": "019-665-1310",
    "url": "http://www.sg-miyagikai.jp/office/40/",
    "pref": "岩手県",
    "city": "盛岡市",
    "category": "tokuyou",
    "serviceType": "介護老人福祉施設",
    "capacity": 60,
    "openDays": [],
    "openDaysNote": ""
  },
  {
    "id": "370106908",
    "name": "特別養護老人ホームなのりの杜２号館",
    "kana": "トクベツヨウゴロウジンホームナノリノモリニゴウカン",
    "address": "岩手県盛岡市上米内字名乗沢1-58",
    "lat": 39.7388549,
    "lng": 141.1795221,
    "tel": "019-665-1310",
    "url": "",
    "pref": "岩手県",
    "city": "盛岡市",
    "category": "tokuyou",
    "serviceType": "介護老人福祉施設",
    "capacity": 60,
    "openDays": [],
    "openDaysNote": ""
  },
  {
    "id": "370106890",
    "name": "特別養護老人ホームはなみずき",
    "kana": "トクベツヨウゴロウジンホームハナミズキ",
    "address": "岩手県盛岡市南仙北3丁目5-58",
    "lat": 39.6750381882821,
    "lng": 141.157400434537,
    "tel": "019-631-1770",
    "url": "http://www.iwate-hanamizuki.jp/",
    "pref": "岩手県",
    "city": "盛岡市",
    "category": "tokuyou",
    "serviceType": "介護老人福祉施設",
    "capacity": 10,
    "openDays": [],
    "openDaysNote": ""
  },
  {
    "id": "370100992",
    "name": "特別養護老人ホーム希望の里",
    "kana": "トクベツヨウゴロウジンホームキボウノサト",
    "address": "岩手県盛岡市乙部５地割４１番地１",
    "lat": 39.6113176,
    "lng": 141.1950503,
    "tel": "019-696-4395",
    "url": "http://nozomikai.or.jp/",
    "pref": "岩手県",
    "city": "盛岡市",
    "category": "tokuyou",
    "serviceType": "介護老人福祉施設",
    "capacity": 0,
    "openDays": [],
    "openDaysNote": ""
  },
  {
    "id": "370103525",
    "name": "特別養護老人ホーム繋松苑",
    "kana": "トクベツヨウゴロウジンホームケイショウエン",
    "address": "岩手県盛岡市繋字猿田１番地３７",
    "lat": 39.6811322,
    "lng": 141.0268761,
    "tel": "019-689-2800",
    "url": "http://www.shoujitsukai.or.jp",
    "pref": "岩手県",
    "city": "盛岡市",
    "category": "tokuyou",
    "serviceType": "介護老人福祉施設",
    "capacity": 0,
    "openDays": [],
    "openDaysNote": ""
  },
  {
    "id": "370100380",
    "name": "特別養護老人ホーム五月園",
    "kana": "トクベツヨウゴロウジンホームサツキエン",
    "address": "岩手県盛岡市東山二丁目5番15号",
    "lat": 39.6887943634068,
    "lng": 141.179521203041,
    "tel": "019-652-0440",
    "url": "http://sannow.jp/",
    "pref": "岩手県",
    "city": "盛岡市",
    "category": "tokuyou",
    "serviceType": "介護老人福祉施設",
    "capacity": 0,
    "openDays": [],
    "openDaysNote": ""
  },
  {
    "id": "370100349",
    "name": "特別養護老人ホーム山岸和敬荘",
    "kana": "トクベツヨウゴロウジンホームヤマギシワケイソウ",
    "address": "岩手県盛岡市下米内二丁目4番13号",
    "lat": 39.7179823,
    "lng": 141.1766508,
    "tel": "019-662-3281",
    "url": "http://www.wakeisou.or.jp",
    "pref": "岩手県",
    "city": "盛岡市",
    "category": "tokuyou",
    "serviceType": "介護老人福祉施設",
    "capacity": 0,
    "openDays": [],
    "openDaysNote": ""
  },
  {
    "id": "370100398",
    "name": "特別養護老人ホーム青山和敬荘",
    "kana": "トクベツヨウゴロウジンホームアオヤマワケイソウ",
    "address": "岩手県盛岡市南青山町１３番３０号",
    "lat": 39.7192946,
    "lng": 141.112401,
    "tel": "019-648-1411",
    "url": "http://www.wakeisou.or.jp/",
    "pref": "岩手県",
    "city": "盛岡市",
    "category": "tokuyou",
    "serviceType": "介護老人福祉施設",
    "capacity": 0,
    "openDays": [],
    "openDaysNote": ""
  },
  {
    "id": "370105363",
    "name": "特別養護老人ホーム千年苑（新館）",
    "kana": "トクベツヨウゴロウジンホームチトセエン（シンカン）",
    "address": "岩手県盛岡市上太田穴口５３番地",
    "lat": 39.6908792,
    "lng": 141.0583394,
    "tel": "019-659-3655",
    "url": "https://senshoukai.or.jp/",
    "pref": "岩手県",
    "city": "盛岡市",
    "category": "tokuyou",
    "serviceType": "介護老人福祉施設",
    "capacity": 0,
    "openDays": [],
    "openDaysNote": ""
  },
  {
    "id": "370100364",
    "name": "特別養護老人ホーム千年苑（本館）",
    "kana": "トクベツヨウゴロウジンホームチトセエン（ホンカン）",
    "address": "岩手県盛岡市上太田穴口５３番地",
    "lat": 39.6908792,
    "lng": 141.0583394,
    "tel": "019-658-1173",
    "url": "https://senshoukai.or.jp/",
    "pref": "岩手県",
    "city": "盛岡市",
    "category": "tokuyou",
    "serviceType": "介護老人福祉施設",
    "capacity": 0,
    "openDays": [],
    "openDaysNote": ""
  },
  {
    "id": "370104507",
    "name": "特別養護老人ホーム浅岸和敬荘",
    "kana": "トクベツヨウゴロウジンホームアサギシワケイソウ",
    "address": "岩手県盛岡市浅岸三丁目２３番５０号",
    "lat": 39.7117386330944,
    "lng": 141.18115982422,
    "tel": "019-651-6111",
    "url": "http://www.wakeisou.or.jp",
    "pref": "岩手県",
    "city": "盛岡市",
    "category": "tokuyou",
    "serviceType": "介護老人福祉施設",
    "capacity": 0,
    "openDays": [],
    "openDaysNote": ""
  },
  {
    "id": "370100356",
    "name": "特別養護老人ホーム第二松園ハイツ",
    "kana": "トクベツヨウゴロウジンホームダイニマツゾノハイツ",
    "address": "岩手県盛岡市西松園二丁目5番1号",
    "lat": 39.7519059,
    "lng": 141.1590291,
    "tel": "019-661-6266",
    "url": "http://www.ikushinkai.jp/",
    "pref": "岩手県",
    "city": "盛岡市",
    "category": "tokuyou",
    "serviceType": "介護老人福祉施設",
    "capacity": 0,
    "openDays": [],
    "openDaysNote": ""
  },
  {
    "id": "370105504",
    "name": "特別養護老人ホーム鶴亀ながい",
    "kana": "トクベツヨウゴロウジンホームツルカメナガイ",
    "address": "岩手県盛岡市永井16地割55番地1",
    "lat": 39.6563301,
    "lng": 141.1443559,
    "tel": "019-632-8008",
    "url": "https://www.turukame.info/",
    "pref": "岩手県",
    "city": "盛岡市",
    "category": "tokuyou",
    "serviceType": "介護老人福祉施設",
    "capacity": 60,
    "openDays": [],
    "openDaysNote": ""
  },
  {
    "id": "372400226",
    "name": "特別養護老人ホームぶなの園",
    "kana": "トクベツヨウゴロウジンホームブナノソノ",
    "address": "岩手県和賀郡西和賀町沢内字太田２地割１３５番地",
    "lat": 39.431738,
    "lng": 140.7495021,
    "tel": "0197-85-2322",
    "url": "http://yasuragikai.com/",
    "pref": "岩手県",
    "city": "西和賀町",
    "category": "tokuyou",
    "serviceType": "介護老人福祉施設",
    "capacity": null,
    "openDays": [],
    "openDaysNote": ""
  },
  {
    "id": "372400218",
    "name": "特別養護老人ホーム光寿苑",
    "kana": "トクベツヨウゴロウジンホームコウジュエン",
    "address": "岩手県和賀郡西和賀町湯本30地割76番地1",
    "lat": 39.3416153,
    "lng": 140.7731413,
    "tel": "0197-84-2526",
    "url": "https://www.koujyukai.or.jp/",
    "pref": "岩手県",
    "city": "西和賀町",
    "category": "tokuyou",
    "serviceType": "介護老人福祉施設",
    "capacity": 52,
    "openDays": [],
    "openDaysNote": ""
  },
  {
    "id": "370300329",
    "name": "介護老人福祉施設ひまわり",
    "kana": "カイゴロウジンフクシシセツヒマワリ",
    "address": "岩手県大船渡市大船渡町字山馬越197番地",
    "lat": 39.0704581,
    "lng": 141.7108469,
    "tel": "0192-27-8636",
    "url": "http://www.tenjinkai.com",
    "pref": "岩手県",
    "city": "大船渡市",
    "category": "tokuyou",
    "serviceType": "介護老人福祉施設",
    "capacity": 0,
    "openDays": [],
    "openDaysNote": ""
  },
  {
    "id": "370300634",
    "name": "従来型特別養護老人ホームさんりくの園",
    "kana": "ジュウライガタトクベツヨウゴロウジンホームサンリクノソノ",
    "address": "岩手県大船渡市三陸町越喜来字所通91番地",
    "lat": 39.1251556,
    "lng": 141.8058819,
    "tel": "0192-44-3800",
    "url": "http://www.caresono.jp/",
    "pref": "岩手県",
    "city": "大船渡市",
    "category": "tokuyou",
    "serviceType": "介護老人福祉施設",
    "capacity": null,
    "openDays": [],
    "openDaysNote": ""
  },
  {
    "id": "370300568",
    "name": "特別養護老人ホームさんりくの園",
    "kana": "トクベツヨウゴロウジンホームサンリクノソノ",
    "address": "岩手県大船渡市三陸町越喜来字所通91番地",
    "lat": 39.1252127,
    "lng": 141.8053527,
    "tel": "0192-44-3800",
    "url": "http://www.caresono.jp/",
    "pref": "岩手県",
    "city": "大船渡市",
    "category": "tokuyou",
    "serviceType": "介護老人福祉施設",
    "capacity": 0,
    "openDays": [],
    "openDaysNote": ""
  },
  {
    "id": "370300543",
    "name": "特別養護老人ホーム成仁ハウス百年の里",
    "kana": "トクベツヨウゴロウジンホームセイジンハウスヒャクネンノサト",
    "address": "岩手県大船渡市立根町字宮田9番地1",
    "lat": 39.1005484123203,
    "lng": 141.710568261763,
    "tel": "0192-27-7111",
    "url": "http://www.i-seijinkai.jp/",
    "pref": "岩手県",
    "city": "大船渡市",
    "category": "tokuyou",
    "serviceType": "介護老人福祉施設",
    "capacity": 0,
    "openDays": [],
    "openDaysNote": ""
  },
  {
    "id": "370300147",
    "name": "特別養護老人ホーム富美岡荘",
    "kana": "トクベツヨウゴロウジンホームトミオカソウ",
    "address": "岩手県大船渡市猪川町字冨岡１４８",
    "lat": 39.1012852,
    "lng": 141.7174645,
    "tel": "0192-21-1118",
    "url": "http://www.i-seijinkai.jp/",
    "pref": "岩手県",
    "city": "大船渡市",
    "category": "tokuyou",
    "serviceType": "介護老人福祉施設",
    "capacity": 0,
    "openDays": [],
    "openDaysNote": ""
  },
  {
    "id": "372900233",
    "name": "特別養護老人ホームらふたぁヒルズ",
    "kana": "トクベツヨウゴロウジンホームラフタァヒルズ",
    "address": "岩手県上閉伊郡大槌町吉里吉里第29地割21番57",
    "lat": 39.3646413887133,
    "lng": 141.944171217245,
    "tel": "0193-43-1133",
    "url": "http://www.tsutsumifukushikai.jp",
    "pref": "岩手県",
    "city": "大槌町",
    "category": "tokuyou",
    "serviceType": "介護老人福祉施設",
    "capacity": 60,
    "openDays": [],
    "openDaysNote": ""
  },
  {
    "id": "372900142",
    "name": "特別養護老人ホーム三陸園",
    "kana": "トクベツヨウゴロウジンホームサンリクエン",
    "address": "岩手県上閉伊郡大槌町吉里吉里第３２地割１８番２５号",
    "lat": 39.3729315,
    "lng": 141.9546958,
    "tel": "0193-44-2121",
    "url": "http://tsutsumifukushikai.jp",
    "pref": "岩手県",
    "city": "大槌町",
    "category": "tokuyou",
    "serviceType": "介護老人福祉施設",
    "capacity": 50,
    "openDays": [],
    "openDaysNote": ""
  },
  {
    "id": "371600420",
    "name": "特別養護老人ホームいこいの麓・滝沢あなぐち",
    "kana": "トクベツヨウゴロウジンホームイコイノフモト・タキザワアナグチ",
    "address": "岩手県滝沢市穴口221番地2",
    "lat": 39.738380098467,
    "lng": 141.102174905269,
    "tel": "019-601-5858",
    "url": "http://www.mirakukai.com/",
    "pref": "岩手県",
    "city": "滝沢市",
    "category": "tokuyou",
    "serviceType": "介護老人福祉施設",
    "capacity": 0,
    "openDays": [],
    "openDaysNote": ""
  },
  {
    "id": "372101139",
    "name": "特別養護老人ホームたきざわの家",
    "kana": "トクベツヨウゴロウジンホームタキザワノイエ",
    "address": "岩手県滝沢市鵜飼細谷地22-1",
    "lat": 39.7474657,
    "lng": 141.0793474,
    "tel": "019-684-6700",
    "url": "http://www.reitakukai.net/",
    "pref": "岩手県",
    "city": "滝沢市",
    "category": "tokuyou",
    "serviceType": "介護老人福祉施設",
    "capacity": 50,
    "openDays": [],
    "openDaysNote": ""
  },
  {
    "id": "372100263",
    "name": "特別養護老人ホームれいたく苑",
    "kana": "トクベツヨウゴロウジンホウムレイタクエン",
    "address": "岩手県滝沢市高屋敷15番地",
    "lat": 39.7495654,
    "lng": 141.0777586,
    "tel": "019-684-1951",
    "url": "http://www.reitakukai.net/",
    "pref": "岩手県",
    "city": "滝沢市",
    "category": "tokuyou",
    "serviceType": "介護老人福祉施設",
    "capacity": 85,
    "openDays": [],
    "openDaysNote": ""
  },
  {
    "id": "373000561",
    "name": "特別養護老人ホーム寿生苑",
    "kana": "トクベツヨウゴロウジンホームジュセイエン",
    "address": "岩手県下閉伊郡田野畑村田野畑120番地18",
    "lat": 39.9320084,
    "lng": 141.8938176,
    "tel": "0194-33-3221",
    "url": "http://www.jyuseikai.jp/",
    "pref": "岩手県",
    "city": "田野畑村",
    "category": "tokuyou",
    "serviceType": "介護老人福祉施設",
    "capacity": 0,
    "openDays": [],
    "openDaysNote": ""
  },
  {
    "id": "371300138",
    "name": "特別養護老人ホームサントピア",
    "kana": "トクベツヨウゴロウジンホームサントピア",
    "address": "岩手県二戸市似鳥字上平15-1",
    "lat": 40.2401287,
    "lng": 141.2431679,
    "tel": "0195-20-1010",
    "url": "http://www.3palace.com",
    "pref": "岩手県",
    "city": "二戸市",
    "category": "tokuyou",
    "serviceType": "介護老人福祉施設",
    "capacity": 0,
    "openDays": [],
    "openDaysNote": ""
  },
  {
    "id": "373200187",
    "name": "特別養護老人ホーム浄心園",
    "kana": "トクベツヨウゴロウジンホームジョウシンエン",
    "address": "岩手県二戸市浄法寺町下前田25番地1",
    "lat": 40.1849134408414,
    "lng": 141.157344635223,
    "tel": "0195-38-3566",
    "url": "http://keisenkai.jp/",
    "pref": "岩手県",
    "city": "二戸市",
    "category": "tokuyou",
    "serviceType": "介護老人福祉施設",
    "capacity": 0,
    "openDays": [],
    "openDaysNote": ""
  },
  {
    "id": "371300369",
    "name": "特別養護老人ホーム白梅荘",
    "kana": "トクベツヨウゴロウジンホームハクバイソウ",
    "address": "岩手県二戸市堀野字大畑１番地１",
    "lat": 40.299037,
    "lng": 141.3080681,
    "tel": "0195-23-8070",
    "url": "http://www.itutuboshi.com",
    "pref": "岩手県",
    "city": "二戸市",
    "category": "tokuyou",
    "serviceType": "介護老人福祉施設",
    "capacity": 50,
    "openDays": [],
    "openDaysNote": ""
  },
  {
    "id": "372100255",
    "name": "特別養護老人ホームむらさき苑",
    "kana": "トクベツヨウゴロウジンホームムラサキエン",
    "address": "岩手県八幡平市田頭第24地割36番地",
    "lat": 39.9191883551705,
    "lng": 141.085962202377,
    "tel": "0195-76-3100",
    "url": "https://nishinekai.jp",
    "pref": "岩手県",
    "city": "八幡平市",
    "category": "tokuyou",
    "serviceType": "介護老人福祉施設",
    "capacity": 0,
    "openDays": [],
    "openDaysNote": ""
  },
  {
    "id": "373200203",
    "name": "特別養護老人ホームりんどう苑",
    "kana": "トクベツヨウゴロウジンホームリンドウエン",
    "address": "岩手県八幡平市丑山口27番地5",
    "lat": 40.135683,
    "lng": 140.954487,
    "tel": "0195-73-2855",
    "url": "http://www.ashirokai.jp",
    "pref": "岩手県",
    "city": "八幡平市",
    "category": "tokuyou",
    "serviceType": "介護老人福祉施設",
    "capacity": 0,
    "openDays": [],
    "openDaysNote": ""
  },
  {
    "id": "372100271",
    "name": "特別養護老人ホーム富士見荘",
    "kana": "トクベツヨウゴロウジンホームフジミソウ",
    "address": "岩手県八幡平市松尾寄木第１１地割１３番地１",
    "lat": 39.9175901,
    "lng": 140.9853492,
    "tel": "0195-78-2455",
    "url": "http://michinoku.or.jp/",
    "pref": "岩手県",
    "city": "八幡平市",
    "category": "tokuyou",
    "serviceType": "介護老人福祉施設",
    "capacity": 0,
    "openDays": [],
    "openDaysNote": ""
  },
  {
    "id": "372100867",
    "name": "特別養護老人ホーム麗峰苑",
    "kana": "トクベツヨウゴロウジンホームレイホウエン",
    "address": "岩手県八幡平市平舘第１３地割１番地１",
    "lat": 39.9560948324344,
    "lng": 141.085377939291,
    "tel": "0195-64-1120",
    "url": "http://www.shoujitsukai.or.jp",
    "pref": "岩手県",
    "city": "八幡平市",
    "category": "tokuyou",
    "serviceType": "介護老人福祉施設",
    "capacity": 60,
    "openDays": [],
    "openDaysNote": ""
  },
  {
    "id": "373000462",
    "name": "特別養護老人ホームうねとり荘",
    "kana": "トクベツヨウゴロウジンホームウネトリソウ",
    "address": "岩手県下閉伊郡普代村第２４地割字鳥居５番地１",
    "lat": 40.0136984,
    "lng": 141.8542857,
    "tel": "0194-35-3577",
    "url": "https://www.unetorisou.com",
    "pref": "岩手県",
    "city": "普代村",
    "category": "tokuyou",
    "serviceType": "介護老人福祉施設",
    "capacity": null,
    "openDays": [],
    "openDaysNote": ""
  },
  {
    "id": "372600130",
    "name": "特別養護老人ホ－ムふくしの里慶泉荘",
    "kana": "トクベツヨウゴロウジンホームフクシノサトケイセンソウ",
    "address": "岩手県西磐井郡平泉町平泉字片岡69番地7",
    "lat": 38.9716747,
    "lng": 141.1076816,
    "tel": "0191-46-3228",
    "url": "https://www.tousenkai.or.jp",
    "pref": "岩手県",
    "city": "平泉町",
    "category": "tokuyou",
    "serviceType": "介護老人福祉施設",
    "capacity": 50,
    "openDays": [],
    "openDaysNote": ""
  },
  {
    "id": "370600520",
    "name": "特別養護老人ホームいいとよ",
    "kana": "トクベツヨウゴロウジンホームイイトヨ",
    "address": "岩手県北上市村崎野１２地割７４番地２８",
    "lat": 39.3325567,
    "lng": 141.0984936,
    "tel": "0197-71-1377",
    "url": "http://www.keiwakai.info",
    "pref": "岩手県",
    "city": "北上市",
    "category": "tokuyou",
    "serviceType": "介護老人福祉施設",
    "capacity": 50,
    "openDays": [],
    "openDaysNote": ""
  },
  {
    "id": "370600868",
    "name": "特別養護老人ホームさくら爽",
    "kana": "トクベツヨウゴロウジンホームサクラソウ",
    "address": "岩手県北上市さくら通り三丁目7番7号",
    "lat": 39.2968162,
    "lng": 141.1179151,
    "tel": "0197-61-5117",
    "url": "https://mirakukai.com/",
    "pref": "岩手県",
    "city": "北上市",
    "category": "tokuyou",
    "serviceType": "介護老人福祉施設",
    "capacity": 0,
    "openDays": [],
    "openDaysNote": ""
  },
  {
    "id": "370600231",
    "name": "特別養護老人ホームわがの里",
    "kana": "トクベツヨウゴロウジンホームワガノサト",
    "address": "岩手県北上市下江釣子１０地割７４番地３",
    "lat": 39.2953481,
    "lng": 141.0383269,
    "tel": "0197-73-5511",
    "url": "http://www.waganosato.or.jp/",
    "pref": "岩手県",
    "city": "北上市",
    "category": "tokuyou",
    "serviceType": "介護老人福祉施設",
    "capacity": null,
    "openDays": [],
    "openDaysNote": ""
  },
  {
    "id": "370600223",
    "name": "特別養護老人ホーム敬愛園",
    "kana": "トクベツヨウゴロウジンホームケイアイエン",
    "address": "岩手県北上市相去町高前檀6番地14",
    "lat": 39.2575977,
    "lng": 141.0853418,
    "tel": "0197-67-3111",
    "url": "https://risshokai.jp/",
    "pref": "岩手県",
    "city": "北上市",
    "category": "tokuyou",
    "serviceType": "介護老人福祉施設",
    "capacity": 60,
    "openDays": [],
    "openDaysNote": ""
  },
  {
    "id": "370600249",
    "name": "特別養護老人ホーム八天の里",
    "kana": "トクベツヨウゴロウジンホームハッテンノサト",
    "address": "岩手県北上市更木34-320-1",
    "lat": 39.3302467,
    "lng": 141.1586049,
    "tel": "0197-66-6000",
    "url": "http://hakuaikai-kitakami.or.jp/hatten.htm",
    "pref": "岩手県",
    "city": "北上市",
    "category": "tokuyou",
    "serviceType": "介護老人福祉施設",
    "capacity": 0,
    "openDays": [],
    "openDaysNote": ""
  },
  {
    "id": "373100221",
    "name": "特別養護老人ホームことぶき荘",
    "kana": "トクベツヨウゴロウジンホームコトブキソウ",
    "address": "岩手県九戸郡野田村大字野田第22地割44番地1",
    "lat": 40.1086692,
    "lng": 141.802198,
    "tel": "0194-78-2006",
    "url": "http://hakuju.wixsite.com/nodahakujukai",
    "pref": "岩手県",
    "city": "野田村",
    "category": "tokuyou",
    "serviceType": "介護老人福祉施設",
    "capacity": 0,
    "openDays": [],
    "openDaysNote": ""
  },
  {
    "id": "372201160",
    "name": "特別養護老人ホームシェーンハイム爽",
    "kana": "トクベツヨウゴロウジンホームシェーンハイムサワヤカ",
    "address": "岩手県紫波郡矢巾町土橋第11割35番地1",
    "lat": 39.5836259267707,
    "lng": 141.172180159711,
    "tel": "019-656-9770",
    "url": "http://www.s-souseikai.jp",
    "pref": "岩手県",
    "city": "矢巾町",
    "category": "tokuyou",
    "serviceType": "介護老人福祉施設",
    "capacity": null,
    "openDays": [],
    "openDaysNote": ""
  },
  {
    "id": "372200162",
    "name": "特別養護老人ホーム志和荘",
    "kana": "トクベツヨウゴロウジンホームシワソウ",
    "address": "岩手県紫波郡矢巾町大字広宮沢１－１００",
    "lat": 39.6260572,
    "lng": 141.0930512,
    "tel": "019-697-6355",
    "url": "https://www.shiwasou.jp/",
    "pref": "岩手県",
    "city": "矢巾町",
    "category": "tokuyou",
    "serviceType": "介護老人福祉施設",
    "capacity": 0,
    "openDays": [],
    "openDaysNote": ""
  },
  {
    "id": "373100742",
    "name": "特別養護老人ホーム希望",
    "kana": "トクベツヨウゴロウジンホームキボウ",
    "address": "岩手県九戸郡洋野町種市第23地割81番地6",
    "lat": 40.4105554899605,
    "lng": 141.714238393292,
    "tel": "0194-65-5671",
    "url": "https://hironokai.or.jp/",
    "pref": "岩手県",
    "city": "洋野町",
    "category": "tokuyou",
    "serviceType": "介護老人福祉施設",
    "capacity": 0,
    "openDays": [],
    "openDaysNote": ""
  },
  {
    "id": "373100213",
    "name": "特別養護老人ホーム久慈平荘",
    "kana": "トクベツヨウゴロウジンホームクジヒラソウ",
    "address": "岩手県九戸郡洋野町大野第６０地割４１番地８",
    "lat": 40.2766863,
    "lng": 141.6346269,
    "tel": "0194-77-2771",
    "url": "https://m-kujihirasou.jp/",
    "pref": "岩手県",
    "city": "洋野町",
    "category": "tokuyou",
    "serviceType": "介護老人福祉施設",
    "capacity": 0,
    "openDays": [],
    "openDaysNote": ""
  },
  {
    "id": "371000118",
    "name": "特別養護老人ホーム高寿園",
    "kana": "トクベツヨウゴロウジンホームコウジュエン",
    "address": "岩手県陸前高田市高田町字東和野６７番地",
    "lat": 39.0221729,
    "lng": 141.6390769,
    "tel": "0192-55-3700",
    "url": "https://rikutaka-koujyukai.com/index.html",
    "pref": "岩手県",
    "city": "陸前高田市",
    "category": "tokuyou",
    "serviceType": "介護老人福祉施設",
    "capacity": 0,
    "openDays": [],
    "openDaysNote": ""
  },
  {
    "id": "371000332",
    "name": "特別養護老人ホーム高寿園（ユニット型）",
    "kana": "トクベツヨウゴロウジンホームコウジュエンユニットガタ",
    "address": "岩手県陸前高田市高田町字東和野６７番地",
    "lat": 39.0221729,
    "lng": 141.6390769,
    "tel": "0192-55-3700",
    "url": "https://rikutaka-koujyukai.com/index.html",
    "pref": "岩手県",
    "city": "陸前高田市",
    "category": "tokuyou",
    "serviceType": "介護老人福祉施設",
    "capacity": 0,
    "openDays": [],
    "openDaysNote": ""
  }
]