[
  {
    "id": "3270290061",
    "name": "特別養護老人ホ－ム尼子苑",
    "kana": "トクベツヨウゴロウジンホ-ムアマゴエン",
    "address": "島根県安来市広瀬町下山佐330番地2",
    "lat": 35.3496478659588,
    "lng": 133.157632787172,
    "tel": "0854-32-9071",
    "url": "http://amago-taiyo.jp/",
    "pref": "島根県",
    "city": "安来市",
    "category": "tokuyou",
    "serviceType": "介護老人福祉施設",
    "capacity": 0,
    "openDays": [],
    "openDaysNote": ""
  },
  {
    "id": "3270290012",
    "name": "特別養護老人ホーム　しらさぎ苑",
    "kana": "トクベツヨウゴロウジンホーム　シラサギエン",
    "address": "安来市古川町８２９－１",
    "lat": 35.3759102,
    "lng": 133.1972487,
    "tel": "0854-28-6220（",
    "url": "http://yasugifukusikai.jp/",
    "pref": "島根県",
    "city": "安来市",
    "category": "tokuyou",
    "serviceType": "介護老人福祉施設",
    "capacity": 105,
    "openDays": [],
    "openDaysNote": ""
  },
  {
    "id": "3270290079",
    "name": "特別養護老人ホーム　伯寿の郷",
    "kana": "トクベツヨウゴロウジンホーム　ハクジュノサト",
    "address": "島根県安来市伯太町安田１７０５番地",
    "lat": 35.3712485,
    "lng": 133.2730087,
    "tel": "0854-37-1600",
    "url": "http://hakuikai.jp",
    "pref": "島根県",
    "city": "安来市",
    "category": "tokuyou",
    "serviceType": "介護老人福祉施設",
    "capacity": 30,
    "openDays": [],
    "openDaysNote": ""
  },
  {
    "id": "3270290020",
    "name": "特別養護老人ホームやすぎの郷",
    "kana": "トクベツヨウゴロウジンホームヤスギノサト",
    "address": "安来市安来町970-1",
    "lat": 35.4337004,
    "lng": 133.2530371,
    "tel": "0854-23-0731",
    "url": "http://www.sendankai.net/",
    "pref": "島根県",
    "city": "安来市",
    "category": "tokuyou",
    "serviceType": "介護老人福祉施設",
    "capacity": 0,
    "openDays": [],
    "openDaysNote": ""
  },
  {
    "id": "3272290069",
    "name": "隠岐の島町立特別養護老人ホームなごみ苑",
    "kana": "オキノシマチョウリツトクベツヨウゴロウジンホームナゴミエン",
    "address": "隠岐郡隠岐の島町郡425番5",
    "lat": 36.284327,
    "lng": 133.2506416,
    "tel": "08512-5-3811",
    "url": "https://atagokai.jp/",
    "pref": "島根県",
    "city": "隠岐の島町",
    "category": "tokuyou",
    "serviceType": "介護老人福祉施設",
    "capacity": 0,
    "openDays": [],
    "openDaysNote": ""
  },
  {
    "id": "3272290028",
    "name": "特別養護老人ホーム　鳴澤の里",
    "kana": "トクベツヨウゴロウジンホーム　ナルサワノサト",
    "address": "隠岐の島町都万1791-1",
    "lat": 36.1968524,
    "lng": 133.2358546,
    "tel": "08512-6-3200",
    "url": "https://www.takatakai.com/",
    "pref": "島根県",
    "city": "隠岐の島町",
    "category": "tokuyou",
    "serviceType": "介護老人福祉施設",
    "capacity": null,
    "openDays": [],
    "openDaysNote": ""
  },
  {
    "id": "3272290010",
    "name": "特別養護老人ホーム静和園",
    "kana": "トクベツヨウゴロウジンホームセイワエン",
    "address": "隠岐の島町栄町1088番地",
    "lat": 36.2147242,
    "lng": 133.3267495,
    "tel": "08512-2-0541",
    "url": "http://www.kyousei.gr.jp/",
    "pref": "島根県",
    "city": "隠岐の島町",
    "category": "tokuyou",
    "serviceType": "介護老人福祉施設",
    "capacity": 0,
    "openDays": [],
    "openDaysNote": ""
  },
  {
    "id": "3271490066",
    "name": "特別養護老人ホーム　みとやの郷",
    "kana": "トクベツヨウゴロウジンホーム　ミトヤノサト",
    "address": "島根県雲南市三刀屋町乙加宮3400番地2",
    "lat": 35.2735184,
    "lng": 132.8466947,
    "tel": "0854-45-0251",
    "url": "https://www.mitoyanosato.jp",
    "pref": "島根県",
    "city": "雲南市",
    "category": "tokuyou",
    "serviceType": "介護老人福祉施設",
    "capacity": 60,
    "openDays": [],
    "openDaysNote": ""
  },
  {
    "id": "3271490041",
    "name": "特別養護老人ホーム　笑寿苑",
    "kana": "トクベツヨウゴロウジンホーム　ショウジュエン",
    "address": "雲南市加茂町加茂中915",
    "lat": 35.3480315,
    "lng": 132.9027316,
    "tel": "0854-49-9500",
    "url": "http://kamofukushikai.jp/",
    "pref": "島根県",
    "city": "雲南市",
    "category": "tokuyou",
    "serviceType": "介護老人福祉施設",
    "capacity": 0,
    "openDays": [],
    "openDaysNote": ""
  },
  {
    "id": "3271490090",
    "name": "特別養護老人ホームえがおの里",
    "kana": "トクベツヨウゴロウジンホームエガオノサト",
    "address": "島根県雲南市掛合町掛合８５３－１",
    "lat": 35.1946003,
    "lng": 132.8173385,
    "tel": "０８５４－６２－１８１１",
    "url": "http://unnanshakyo.jp",
    "pref": "島根県",
    "city": "雲南市",
    "category": "tokuyou",
    "serviceType": "介護老人福祉施設",
    "capacity": null,
    "openDays": [],
    "openDaysNote": ""
  },
  {
    "id": "3271490082",
    "name": "特別養護老人ホームえがおの里",
    "kana": "トクベツヨウゴロウジンホームエガオノサト",
    "address": "島根県雲南市掛合町掛合８５３－１",
    "lat": 35.1946003,
    "lng": 132.8173385,
    "tel": "０８５４－６２－１８１１",
    "url": "http://unnanshakyo.jp",
    "pref": "島根県",
    "city": "雲南市",
    "category": "tokuyou",
    "serviceType": "介護老人福祉施設",
    "capacity": 0,
    "openDays": [],
    "openDaysNote": ""
  },
  {
    "id": "3271490025",
    "name": "特別養護老人ホームさくら苑",
    "kana": "トクベツヨウゴロウジンホームサクラエン",
    "address": "島根県雲南市木次町東日登345番地1",
    "lat": 35.2792244,
    "lng": 132.9253889,
    "tel": "0854-42-4165",
    "url": "https://www.sakurasaku-home.org/",
    "pref": "島根県",
    "city": "雲南市",
    "category": "tokuyou",
    "serviceType": "介護老人福祉施設",
    "capacity": 50,
    "openDays": [],
    "openDaysNote": ""
  },
  {
    "id": "3271590014",
    "name": "特別養護老人ホーム梅里苑",
    "kana": "トクベツヨウゴロウジンホームバイリエン",
    "address": "島根県雲南市三刀屋町三刀屋１３２６－８",
    "lat": 35.2923914,
    "lng": 132.8861209,
    "tel": "0854-45-3737",
    "url": "https://www.yurinkai.jp",
    "pref": "島根県",
    "city": "雲南市",
    "category": "tokuyou",
    "serviceType": "介護老人福祉施設",
    "capacity": null,
    "openDays": [],
    "openDaysNote": ""
  },
  {
    "id": "3271490017",
    "name": "特別養護老人ホーム簸の上園",
    "kana": "トクベツヨウゴロウジンホームヒノカミエン",
    "address": "島根県雲南市大東町中湯石88",
    "lat": 35.3265034,
    "lng": 132.991517,
    "tel": "0854-43-3125",
    "url": "https://www.ssw.or.jp/facilities/seniors/hinokamien",
    "pref": "島根県",
    "city": "雲南市",
    "category": "tokuyou",
    "serviceType": "介護老人福祉施設",
    "capacity": 0,
    "openDays": [],
    "openDaysNote": ""
  },
  {
    "id": "3270890068",
    "name": "益田市立特別養護老人ホームもみじの里",
    "kana": "マスダシリツトクベツヨウゴロウジンホームモミジノサト",
    "address": "島根県益田市匹見町匹見イ１２０８番地",
    "lat": 34.5739761,
    "lng": 132.0131841,
    "tel": "0856-56-7030",
    "url": "http://masuda-shakyou.or.jp/",
    "pref": "島根県",
    "city": "益田市",
    "category": "tokuyou",
    "serviceType": "介護老人福祉施設",
    "capacity": 30,
    "openDays": [],
    "openDaysNote": ""
  },
  {
    "id": "3270890050",
    "name": "益田市立特別養護老人ホーム美寿苑",
    "kana": "マスダシリツトクベツヨウゴロウジンホームミトシエン",
    "address": "島根県益田市美都町都茂1871番地9",
    "lat": 34.6666874,
    "lng": 131.9835996,
    "tel": "0856-52-3200",
    "url": "masuda-shakyou.or.jp",
    "pref": "島根県",
    "city": "益田市",
    "category": "tokuyou",
    "serviceType": "介護老人福祉施設",
    "capacity": 0,
    "openDays": [],
    "openDaysNote": ""
  },
  {
    "id": "3270890027",
    "name": "特別養護老人ホーム「ますだ」ハイツ",
    "kana": "トクベツヨウゴロウジンホーム「マスダ」ハイツ",
    "address": "益田市高津四丁目6番40号",
    "lat": 34.6867599,
    "lng": 131.8121507,
    "tel": "0856-22-8588",
    "url": "https://www.baijukai.jp/",
    "pref": "島根県",
    "city": "益田市",
    "category": "tokuyou",
    "serviceType": "介護老人福祉施設",
    "capacity": 0,
    "openDays": [],
    "openDaysNote": ""
  },
  {
    "id": "3270890035",
    "name": "特別養護老人ホームくしろ宝寿苑",
    "kana": "トクベツヨウゴロウジンホーム　クシロホウジュエン",
    "address": "島根県益田市久城町531番地",
    "lat": 34.7012591,
    "lng": 131.850564,
    "tel": "0856-31-2345",
    "url": "https://www.baijukai.jp/",
    "pref": "島根県",
    "city": "益田市",
    "category": "tokuyou",
    "serviceType": "介護老人福祉施設",
    "capacity": 0,
    "openDays": [],
    "openDaysNote": ""
  },
  {
    "id": "3270890019",
    "name": "特別養護老人ホーム雪舟園",
    "kana": "トクベツヨウゴロウジンホームセッシュウエン",
    "address": "益田市かもしま北町7-3",
    "lat": 34.6956454244892,
    "lng": 131.831225425934,
    "tel": "0856-22-5200",
    "url": "https://www.ssw.or.jp/house/sessyu/",
    "pref": "島根県",
    "city": "益田市",
    "category": "tokuyou",
    "serviceType": "介護老人福祉施設",
    "capacity": 0,
    "openDays": [],
    "openDaysNote": ""
  },
  {
    "id": "3271390027",
    "name": "社会福祉法人仁多福祉会奥出雲特別養護老人ホームあいサンホーム",
    "kana": "シャカイフクシホウジンニタフクシカイオクイズモトクベツヨウゴロウジンホームアイサンホーム",
    "address": "奥出雲町上阿井４２４－１",
    "lat": 35.1413632,
    "lng": 132.9461728,
    "tel": "0854-56-0081",
    "url": "http://cms.nitafukushikai.or.jp/admin",
    "pref": "島根県",
    "city": "奥出雲町",
    "category": "tokuyou",
    "serviceType": "介護老人福祉施設",
    "capacity": 50,
    "openDays": [],
    "openDaysNote": ""
  },
  {
    "id": "3271390019",
    "name": "特別養護老人ホーム　むらくも苑",
    "kana": "トクベツヨウゴロウジンホーム　ムラクモエン",
    "address": "奥出雲町稲原57番地1",
    "lat": 35.1763198,
    "lng": 133.0975299,
    "tel": "0854-52-2567",
    "url": "http://www.yokota.or.jp",
    "pref": "島根県",
    "city": "奥出雲町",
    "category": "tokuyou",
    "serviceType": "介護老人福祉施設",
    "capacity": 0,
    "openDays": [],
    "openDaysNote": ""
  },
  {
    "id": "3272290036",
    "name": "特別養護老人ホーム　諏訪苑",
    "kana": "トクベツヨウゴロウジンホーム　スワエン",
    "address": "海士町大字海士3964番地",
    "lat": 36.0981988,
    "lng": 133.092951,
    "tel": "08514-2-1600",
    "url": "",
    "pref": "島根県",
    "city": "海士町",
    "category": "tokuyou",
    "serviceType": "介護老人福祉施設",
    "capacity": 0,
    "openDays": [],
    "openDaysNote": ""
  },
  {
    "id": "3272190061",
    "name": "吉賀町特別養護老人ホーム　とびのこ苑",
    "kana": "ヨシカチョウトクベツヨウゴロウジンホーム　トビノコエン",
    "address": "島根県鹿足郡吉賀町柿木村柿木80番1",
    "lat": 34.4364827865076,
    "lng": 131.867463728836,
    "tel": "0856-79-2692",
    "url": "http://yoshika-syakyo.jp/",
    "pref": "島根県",
    "city": "吉賀町",
    "category": "tokuyou",
    "serviceType": "介護老人福祉施設",
    "capacity": 0,
    "openDays": [],
    "openDaysNote": ""
  },
  {
    "id": "3272190038",
    "name": "特別養護老人ホームみろく苑",
    "kana": "トクベツヨウゴロウジンホームミロクエン",
    "address": "吉賀町六日市５８２番地１",
    "lat": 34.3554266,
    "lng": 131.9368217,
    "tel": "0856-77-3100",
    "url": "＠yoshika-syakyo.ne.jp",
    "pref": "島根県",
    "city": "吉賀町",
    "category": "tokuyou",
    "serviceType": "介護老人福祉施設",
    "capacity": 0,
    "openDays": [],
    "openDaysNote": ""
  },
  {
    "id": "3271890075",
    "name": "特別養護老人ホーム　風の里　陽光苑",
    "kana": "トクベツヨウゴロウジンホーム　カゼノサト　ヨウコウエン",
    "address": "江津市桜江町長谷２７２３番地２",
    "lat": 34.9219936,
    "lng": 132.2701448,
    "tel": "0855-92-8450",
    "url": "https://www.sakuraefukushikai.jp/",
    "pref": "島根県",
    "city": "江津市",
    "category": "tokuyou",
    "serviceType": "介護老人福祉施設",
    "capacity": 30,
    "openDays": [],
    "openDaysNote": ""
  },
  {
    "id": "3270690013",
    "name": "白寿園",
    "kana": "ハクジュエン",
    "address": "江津市江津町1110",
    "lat": 35.0132312,
    "lng": 132.2177278,
    "tel": "0855-52-0006",
    "url": "http://hakujyuen.jp",
    "pref": "島根県",
    "city": "江津市",
    "category": "tokuyou",
    "serviceType": "介護老人福祉施設",
    "capacity": 0,
    "openDays": [],
    "openDaysNote": ""
  },
  {
    "id": "3270490083",
    "name": "ユニット型　特別養護老人ホーム　なのはな園",
    "kana": "ユニットガタトクベツヨウゴロウジンホーム　ナノハナエン",
    "address": "島根県出雲市斐川町上直江1829－１",
    "lat": 35.3778265,
    "lng": 132.811314,
    "tel": "0853-72-7222",
    "url": "http://www.s-lighthouse.jp",
    "pref": "島根県",
    "city": "出雲市",
    "category": "tokuyou",
    "serviceType": "介護老人福祉施設",
    "capacity": 40,
    "openDays": [],
    "openDaysNote": ""
  },
  {
    "id": "3271690038",
    "name": "特別養護老人ホーム　いなさ園",
    "kana": "トクベツヨウゴロウジンホーム　イナサエン",
    "address": "島根県出雲市大社町杵築西１６４３番地２",
    "lat": 35.3856095,
    "lng": 132.6784238,
    "tel": "0853-53-5727",
    "url": "http://www.kidukikai.or.jp",
    "pref": "島根県",
    "city": "出雲市",
    "category": "tokuyou",
    "serviceType": "介護老人福祉施設",
    "capacity": 80,
    "openDays": [],
    "openDaysNote": ""
  },
  {
    "id": "3271690079",
    "name": "特別養護老人ホーム　かんべの里",
    "kana": "トクベツヨウゴロウジンホーム　カンベノサト",
    "address": "島根県出雲市斐川町名島93番地2",
    "lat": 35.3771459,
    "lng": 132.7850831,
    "tel": "0853-72-3097",
    "url": "http//www.taiyounosato.or.jp",
    "pref": "島根県",
    "city": "出雲市",
    "category": "tokuyou",
    "serviceType": "介護老人福祉施設",
    "capacity": 40,
    "openDays": [],
    "openDaysNote": ""
  },
  {
    "id": "3271690012",
    "name": "特別養護老人ホーム　サン・スマイル",
    "kana": "トクベツヨウゴロウジンホーム　サン・スマイル",
    "address": "島根県出雲市神西沖町215-1",
    "lat": 35.3324560583972,
    "lng": 132.703467416366,
    "tel": "0853-43-3600",
    "url": "https://www.keijukai.jp/",
    "pref": "島根県",
    "city": "出雲市",
    "category": "tokuyou",
    "serviceType": "介護老人福祉施設",
    "capacity": 0,
    "openDays": [],
    "openDaysNote": ""
  },
  {
    "id": "3271690046",
    "name": "特別養護老人ホーム　なのはな園",
    "kana": "トクベツヨウゴロウジンホーム　ナノハナエン",
    "address": "出雲市斐川町上直江1829-1",
    "lat": 35.3778265,
    "lng": 132.811314,
    "tel": "0853-72-1101",
    "url": "https://s-lighthouse.jp/",
    "pref": "島根県",
    "city": "出雲市",
    "category": "tokuyou",
    "serviceType": "介護老人福祉施設",
    "capacity": 40,
    "openDays": [],
    "openDaysNote": ""
  },
  {
    "id": "3271690061",
    "name": "特別養護老人ホーム　湖水苑",
    "kana": "トクベツヨウゴロウジンホーム　コスイエン",
    "address": "島根県出雲市湖陵町差海318-1",
    "lat": 35.3277989,
    "lng": 132.6763353,
    "tel": "0853-43-8955",
    "url": "http://jukokai.jp/",
    "pref": "島根県",
    "city": "出雲市",
    "category": "tokuyou",
    "serviceType": "介護老人福祉施設",
    "capacity": 80,
    "openDays": [],
    "openDaysNote": ""
  },
  {
    "id": "3270490034",
    "name": "特別養護老人ホーム　清流園",
    "kana": "トクベツヨウゴロウジンホーム　セイリュウエン",
    "address": "出雲市大津町3529番地",
    "lat": 35.3592841,
    "lng": 132.7837394,
    "tel": "0853-22-8706",
    "url": "http://www.seiryuuen.com/",
    "pref": "島根県",
    "city": "出雲市",
    "category": "tokuyou",
    "serviceType": "介護老人福祉施設",
    "capacity": 0,
    "openDays": [],
    "openDaysNote": ""
  },
  {
    "id": "3270490091",
    "name": "特別養護老人ホームひまわり園",
    "kana": "トクベツヨウゴロウジンホームヒマワリエン",
    "address": "島根県出雲市神西沖町2513‐8",
    "lat": 35.3366855643611,
    "lng": 132.680963646558,
    "tel": "0853-43-2633",
    "url": "www.w-himawari.or.jp",
    "pref": "島根県",
    "city": "出雲市",
    "category": "tokuyou",
    "serviceType": "介護老人福祉施設",
    "capacity": 40,
    "openDays": [],
    "openDaysNote": ""
  },
  {
    "id": "3270490026",
    "name": "特別養護老人ホームひまわり園",
    "kana": "トクベツヨウゴロウジンホームヒマワリエン",
    "address": "出雲市神西沖町2513-4",
    "lat": 35.3368256,
    "lng": 132.6813928,
    "tel": "0853-43-2633",
    "url": "http://w-himawari.jp",
    "pref": "島根県",
    "city": "出雲市",
    "category": "tokuyou",
    "serviceType": "介護老人福祉施設",
    "capacity": 0,
    "openDays": [],
    "openDaysNote": ""
  },
  {
    "id": "3270490059",
    "name": "特別養護老人ホームみせんの里",
    "kana": "トクベツヨウゴロウジンホームミセンノサト",
    "address": "出雲市大社町遙堪65番地2",
    "lat": 35.3938704,
    "lng": 132.7186,
    "tel": "0853-53-2007",
    "url": "http://www.kidukikai.or.jp",
    "pref": "島根県",
    "city": "出雲市",
    "category": "tokuyou",
    "serviceType": "介護老人福祉施設",
    "capacity": 0,
    "openDays": [],
    "openDaysNote": ""
  },
  {
    "id": "3270490042",
    "name": "特別養護老人ホームもくもく苑",
    "kana": "トクベツヨウゴロウジンホームモクモクエン",
    "address": "出雲市矢野町845",
    "lat": 35.3833578,
    "lng": 132.7356073,
    "tel": "0853-21-6969",
    "url": "http//www.otuka-wel.jp",
    "pref": "島根県",
    "city": "出雲市",
    "category": "tokuyou",
    "serviceType": "介護老人福祉施設",
    "capacity": 0,
    "openDays": [],
    "openDaysNote": ""
  },
  {
    "id": "3270490067",
    "name": "特別養護老人ホームやまゆり苑",
    "kana": "トクベツヨウゴロウジンホームヤマユリエン",
    "address": "島根県出雲市佐田町一窪田1961-5",
    "lat": 35.2338617,
    "lng": 132.6715034,
    "tel": "0853-85-8000",
    "url": "http://www.izumo-yamayuri.or.jp",
    "pref": "島根県",
    "city": "出雲市",
    "category": "tokuyou",
    "serviceType": "介護老人福祉施設",
    "capacity": 50,
    "openDays": [],
    "openDaysNote": ""
  },
  {
    "id": "3270390010",
    "name": "特別養護老人ホームるんびにぃ苑",
    "kana": "トクベツヨウゴロウジンホームルンビニィエン",
    "address": "出雲市園町字妻ノ神2606番地1",
    "lat": 35.4597711732088,
    "lng": 132.85718714631,
    "tel": "0853-69-1211",
    "url": "http://lumbini-en.jp",
    "pref": "島根県",
    "city": "出雲市",
    "category": "tokuyou",
    "serviceType": "介護老人福祉施設",
    "capacity": 80,
    "openDays": [],
    "openDaysNote": ""
  },
  {
    "id": "3270490109",
    "name": "特別養護老人ホーム薫風園",
    "kana": "トクベツヨウゴロウジンホームクンプウエン",
    "address": "島根県出雲市大津町3620番地1",
    "lat": 35.3555371,
    "lng": 132.7778902,
    "tel": "0853-31-9155",
    "url": "http://www.izumo-minami.jp/kunpuen/",
    "pref": "島根県",
    "city": "出雲市",
    "category": "tokuyou",
    "serviceType": "介護老人福祉施設",
    "capacity": 0,
    "openDays": [],
    "openDaysNote": ""
  },
  {
    "id": "3271690020",
    "name": "特別養護老人ホーム潮風苑",
    "kana": "トクベツヨウゴロウジンホームチョウフウエン",
    "address": "島根県出雲市多伎町小田50－3",
    "lat": 35.2839598,
    "lng": 132.626624,
    "tel": "0853-86-2030",
    "url": "http:www.takinosato.jp",
    "pref": "島根県",
    "city": "出雲市",
    "category": "tokuyou",
    "serviceType": "介護老人福祉施設",
    "capacity": 0,
    "openDays": [],
    "openDaysNote": ""
  },
  {
    "id": "3270490018",
    "name": "特別養護老人ホーム天神",
    "kana": "トクベツヨウゴロウジンホームテンジン",
    "address": "出雲市天神町163-9",
    "lat": 35.3621776067303,
    "lng": 132.739224646835,
    "tel": "0853-22-8659",
    "url": "https://www.ssw.or.jp/facilities/seniors/tenjin",
    "pref": "島根県",
    "city": "出雲市",
    "category": "tokuyou",
    "serviceType": "介護老人福祉施設",
    "capacity": 50,
    "openDays": [],
    "openDaysNote": ""
  },
  {
    "id": "3270390028",
    "name": "特別養護老人ホーム万田の郷",
    "kana": "トクベツヨウゴロウジンホームマンダノサト",
    "address": "出雲市万田町692-2",
    "lat": 35.4437269,
    "lng": 132.7848033,
    "tel": "0853-63-2650",
    "url": "http://mandanosato.jp",
    "pref": "島根県",
    "city": "出雲市",
    "category": "tokuyou",
    "serviceType": "介護老人福祉施設",
    "capacity": 0,
    "openDays": [],
    "openDaysNote": ""
  },
  {
    "id": "3270490075",
    "name": "特別養護老人ホーム万田の郷（新型）",
    "kana": "トクベツヨウゴロウジンホームマンダノサト（シンガタ）",
    "address": "島根県出雲市万田町538",
    "lat": 35.4437269,
    "lng": 132.7848033,
    "tel": "0853-63-2855",
    "url": "http://mandanosato.jp/",
    "pref": "島根県",
    "city": "出雲市",
    "category": "tokuyou",
    "serviceType": "介護老人福祉施設",
    "capacity": 0,
    "openDays": [],
    "openDaysNote": ""
  },
  {
    "id": "3270190071",
    "name": "介護老人福祉施設　あいかの里",
    "kana": "カイゴロウジンフクシシセツ　アイカノサト",
    "address": "松江市岡本町１１３８－１",
    "lat": 35.4806301,
    "lng": 132.9509626,
    "tel": "0852-88-9011",
    "url": "http://kohoku-aikanosato.jp",
    "pref": "島根県",
    "city": "松江市",
    "category": "tokuyou",
    "serviceType": "介護老人福祉施設",
    "capacity": 0,
    "openDays": [],
    "openDaysNote": ""
  },
  {
    "id": "3270190014",
    "name": "厚生センター八雲",
    "kana": "コウセイセンターヤクモ",
    "address": "松江市上乃木7-1-28",
    "lat": 35.4453376,
    "lng": 133.0687408,
    "tel": "0852-24-4875",
    "url": "https://www.ssw.or.jp/korei_yakumo_nyusyojigyo/",
    "pref": "島根県",
    "city": "松江市",
    "category": "tokuyou",
    "serviceType": "介護老人福祉施設",
    "capacity": 0,
    "openDays": [],
    "openDaysNote": ""
  },
  {
    "id": "3271190013",
    "name": "指定介護老人福祉施設　ゆうなぎ苑",
    "kana": "シテイカイゴロウジンフクシシセツ　ユウナギエン",
    "address": "松江市島根町大芦5707番地",
    "lat": 35.5470808,
    "lng": 133.0558654,
    "tel": "0852-85-3600",
    "url": "http://www.sanin-kateigakuin.jp/yuunagien/",
    "pref": "島根県",
    "city": "松江市",
    "category": "tokuyou",
    "serviceType": "介護老人福祉施設",
    "capacity": 50,
    "openDays": [],
    "openDaysNote": ""
  },
  {
    "id": "3271190062",
    "name": "社会福祉法人かしま福祉会　特別養護老人ホームあとむ苑",
    "kana": "シャカイフクシホウジンカシマフクシカイ　トクベツヨウゴロウジンホームアトムエン",
    "address": "島根県松江市鹿島町北講武８８５番地６",
    "lat": 35.5230079,
    "lng": 133.0275474,
    "tel": "0852-82-9710",
    "url": "http//www.kashima-fukushikai.jp",
    "pref": "島根県",
    "city": "松江市",
    "category": "tokuyou",
    "serviceType": "介護老人福祉施設",
    "capacity": 55,
    "openDays": [],
    "openDaysNote": ""
  },
  {
    "id": "3270190030",
    "name": "特別養護老人ホーム　コーポ上口",
    "kana": "トクベツヨウゴロウジンホーム　コーポカミグチ",
    "address": "松江市古志原６丁目８番１０号",
    "lat": 35.4409575,
    "lng": 133.0789765,
    "tel": "0852-21-6365",
    "url": "http://kamiguchifukushikai.jp/",
    "pref": "島根県",
    "city": "松江市",
    "category": "tokuyou",
    "serviceType": "介護老人福祉施設",
    "capacity": 50,
    "openDays": [],
    "openDaysNote": ""
  },
  {
    "id": "3270190089",
    "name": "特別養護老人ホーム　詔光の里",
    "kana": "トクベツヨウゴロウジンホーム　ショウコウノサト",
    "address": "松江市山代町934-5",
    "lat": 35.4399581,
    "lng": 133.0953609,
    "tel": "0852-31-4165",
    "url": "http://www.korei.sirayurikai.or.jp",
    "pref": "島根県",
    "city": "松江市",
    "category": "tokuyou",
    "serviceType": "介護老人福祉施設",
    "capacity": 0,
    "openDays": [],
    "openDaysNote": ""
  },
  {
    "id": "3271190054",
    "name": "特別養護老人ホーム　美保の里",
    "kana": "トクベツヨウゴロウジンホーム　ミホノサト",
    "address": "松江市美保関町片江79番地",
    "lat": 35.5587936,
    "lng": 133.1832019,
    "tel": "0852-72-9090",
    "url": "https://www.fujimikai.jp",
    "pref": "島根県",
    "city": "松江市",
    "category": "tokuyou",
    "serviceType": "介護老人福祉施設",
    "capacity": 50,
    "openDays": [],
    "openDaysNote": ""
  },
  {
    "id": "3270190147",
    "name": "特別養護老人ホーム　陽溜の郷",
    "kana": "トクベツヨウゴロウジンホーム　ヒダマリノサト",
    "address": "島根県松江市馬潟町81-1",
    "lat": 35.4438478,
    "lng": 133.1123948,
    "tel": "0852-38-8155",
    "url": "http://www.youkeien.or.jp",
    "pref": "島根県",
    "city": "松江市",
    "category": "tokuyou",
    "serviceType": "介護老人福祉施設",
    "capacity": 0,
    "openDays": [],
    "openDaysNote": ""
  },
  {
    "id": "3270190048",
    "name": "特別養護老人ホームうぐいす苑",
    "kana": "トクベツヨウゴロウジンホーム　ウグイスエン",
    "address": "松江市西法吉町36-1",
    "lat": 35.4948228,
    "lng": 133.0427275,
    "tel": "0852-27-3400",
    "url": "http://www.mizuumi.jp",
    "pref": "島根県",
    "city": "松江市",
    "category": "tokuyou",
    "serviceType": "介護老人福祉施設",
    "capacity": 50,
    "openDays": [],
    "openDaysNote": ""
  },
  {
    "id": "3270190105",
    "name": "特別養護老人ホームすまいる苑",
    "kana": "トクベツヨウゴロウジンホーム　スマイルエン",
    "address": "松江市法吉町626-1",
    "lat": 35.4928176,
    "lng": 133.0462384,
    "tel": "0852-55-8969",
    "url": "http://www.mizuumi.jp",
    "pref": "島根県",
    "city": "松江市",
    "category": "tokuyou",
    "serviceType": "介護老人福祉施設",
    "capacity": 0,
    "openDays": [],
    "openDaysNote": ""
  },
  {
    "id": "3271190039",
    "name": "特別養護老人ホームやくも光陽の里",
    "kana": "トクベツヨウゴロウジンホームヤクモコウヨウノサト",
    "address": "松江市八雲町東岩坂８０６番地",
    "lat": 35.414228,
    "lng": 133.09943,
    "tel": "0852-54-2233",
    "url": "http://www.yakumo-fukushikai.com/",
    "pref": "島根県",
    "city": "松江市",
    "category": "tokuyou",
    "serviceType": "介護老人福祉施設",
    "capacity": 50,
    "openDays": [],
    "openDaysNote": ""
  },
  {
    "id": "3271190047",
    "name": "特別養護老人ホームゆめハウス",
    "kana": "トクベツヨウゴロウジンホームユメハウス",
    "address": "松江市宍道町西来待2071-1",
    "lat": 35.4132222,
    "lng": 132.9359708,
    "tel": "0852-66-3012",
    "url": "http://s-lighthouse.jp",
    "pref": "島根県",
    "city": "松江市",
    "category": "tokuyou",
    "serviceType": "介護老人福祉施設",
    "capacity": 50,
    "openDays": [],
    "openDaysNote": ""
  },
  {
    "id": "3270190055",
    "name": "特別養護老人ホーム松楽苑",
    "kana": "トクベツヨウゴロウジンホームショウラクエン",
    "address": "松江市野原町417番地2",
    "lat": 35.5161858,
    "lng": 133.1359562,
    "tel": "0852-34-1661",
    "url": "",
    "pref": "島根県",
    "city": "松江市",
    "category": "tokuyou",
    "serviceType": "介護老人福祉施設",
    "capacity": 50,
    "openDays": [],
    "openDaysNote": ""
  },
  {
    "id": "3270190121",
    "name": "特別養護老人ホーム大野の郷",
    "kana": "トクベツヨウゴロウジンホームオオノノサト",
    "address": "島根県松江市大野町167",
    "lat": 35.4724857,
    "lng": 132.9189884,
    "tel": "0852-88-3302",
    "url": "http://oono167.jp/",
    "pref": "島根県",
    "city": "松江市",
    "category": "tokuyou",
    "serviceType": "介護老人福祉施設",
    "capacity": 0,
    "openDays": [],
    "openDaysNote": ""
  },
  {
    "id": "3270190022",
    "name": "特別養護老人ホーム長命園",
    "kana": "トクベツヨウゴロウジンホームチョウメイエン",
    "address": "松江市上乃木十丁目5番2号",
    "lat": 35.4333389,
    "lng": 133.0601724,
    "tel": "0852-27-3884",
    "url": "https://tyoumeien.m-fukushi.org/",
    "pref": "島根県",
    "city": "松江市",
    "category": "tokuyou",
    "serviceType": "介護老人福祉施設",
    "capacity": 80,
    "openDays": [],
    "openDaysNote": ""
  },
  {
    "id": "3270190063",
    "name": "特別養護老人ホーム津田の里",
    "kana": "トクベツヨウゴロウジンホームツダノサト",
    "address": "松江市西津田十丁目１９－５０",
    "lat": 35.4528508,
    "lng": 133.0797147,
    "tel": "0852-28-1950",
    "url": "https://www.tsudanosato.jp",
    "pref": "島根県",
    "city": "松江市",
    "category": "tokuyou",
    "serviceType": "介護老人福祉施設",
    "capacity": 50,
    "openDays": [],
    "openDaysNote": ""
  },
  {
    "id": "3270190139",
    "name": "特別養護老人ホーム津田の里",
    "kana": "トクベツヨウゴロウジンホームツダノサト",
    "address": "島根県松江市西津田十丁目１９－５０",
    "lat": 35.4528508,
    "lng": 133.0797147,
    "tel": "０８５２－２８－１９５０",
    "url": "https://www.tsudanosato.jp/",
    "pref": "島根県",
    "city": "松江市",
    "category": "tokuyou",
    "serviceType": "介護老人福祉施設",
    "capacity": 30,
    "openDays": [],
    "openDaysNote": ""
  },
  {
    "id": "3271190021",
    "name": "特別養護老人ホーム東寿苑",
    "kana": "トクベツヨウゴロウジンホームトウジュエン",
    "address": "島根県松江市東出雲町出雲郷493",
    "lat": 35.4325766392833,
    "lng": 133.127522804894,
    "tel": "0852-52-3330",
    "url": "http://www.so-unkai.jp",
    "pref": "島根県",
    "city": "松江市",
    "category": "tokuyou",
    "serviceType": "介護老人福祉施設",
    "capacity": 50,
    "openDays": [],
    "openDaysNote": ""
  },
  {
    "id": "3270190113",
    "name": "特別養護老人ホーム明翔苑",
    "kana": "トクベツヨウゴロウジンホームメイショウエン",
    "address": "松江市西浜佐陀町1399-34",
    "lat": 35.4764013,
    "lng": 132.9934474,
    "tel": "0852-36-3010",
    "url": "http://www.houshinkai-s.or.jp/",
    "pref": "島根県",
    "city": "松江市",
    "category": "tokuyou",
    "serviceType": "介護老人福祉施設",
    "capacity": 55,
    "openDays": [],
    "openDaysNote": ""
  },
  {
    "id": "3272290044",
    "name": "特別養護老人ホーム和光苑",
    "kana": "トクベツヨウゴロウジンホームワコウエン",
    "address": "西ノ島町大字宇賀６９７番地",
    "lat": 36.1162322,
    "lng": 133.0662467,
    "tel": "08514-7-8116",
    "url": "http://www.nishinoshima-fukushikai.com/",
    "pref": "島根県",
    "city": "西ノ島町",
    "category": "tokuyou",
    "serviceType": "介護老人福祉施設",
    "capacity": 0,
    "openDays": [],
    "openDaysNote": ""
  },
  {
    "id": "3271890018",
    "name": "みどりの里やすらぎ荘",
    "kana": "ミドリノサトヤスラギソウ",
    "address": "邑智郡川本町因原５７０－１",
    "lat": 34.9643923,
    "lng": 132.4731368,
    "tel": "0855-72-3517",
    "url": "http://www.kawamotofukushikai.jp/",
    "pref": "島根県",
    "city": "川本町",
    "category": "tokuyou",
    "serviceType": "介護老人福祉施設",
    "capacity": 0,
    "openDays": [],
    "openDaysNote": ""
  },
  {
    "id": "3270590023",
    "name": "介護老人福祉施設　サンシルバーさわらび",
    "kana": "カイゴロウジンフクシシセツ　サンシルバーサワラビ",
    "address": "大田市長久町土江65番地2",
    "lat": 35.1957054103415,
    "lng": 132.475987931838,
    "tel": "0854-86-8001",
    "url": "http://sawarabi.info//",
    "pref": "島根県",
    "city": "大田市",
    "category": "tokuyou",
    "serviceType": "介護老人福祉施設",
    "capacity": 80,
    "openDays": [],
    "openDaysNote": ""
  },
  {
    "id": "3270590031",
    "name": "介護老人福祉施設　サンデイズ双葉園",
    "kana": "カイゴロウジンフクシシセツ　サンデイズフタバエン",
    "address": "大田市鳥井町鳥井１８８１－１",
    "lat": 35.2146537,
    "lng": 132.4854166,
    "tel": "0854-84-0222",
    "url": "",
    "pref": "島根県",
    "city": "大田市",
    "category": "tokuyou",
    "serviceType": "介護老人福祉施設",
    "capacity": 0,
    "openDays": [],
    "openDaysNote": ""
  },
  {
    "id": "3270590049",
    "name": "介護老人福祉設　ゆうイングさわらび",
    "kana": "カイゴロウジンフクシシセツ　　ユウイングサワラビ",
    "address": "大田市長久町土江55-2",
    "lat": 35.1951557,
    "lng": 132.4770341,
    "tel": "0854-84-0101",
    "url": "http://sawarabi.info/",
    "pref": "島根県",
    "city": "大田市",
    "category": "tokuyou",
    "serviceType": "介護老人福祉施設",
    "capacity": 50,
    "openDays": [],
    "openDaysNote": ""
  },
  {
    "id": "3271790028",
    "name": "特別養護老人ホーム　しおさい",
    "kana": "トクベツヨウゴロウジンホーム　シオサイ",
    "address": "島根県大田市仁摩町仁万843番地",
    "lat": 35.1537329,
    "lng": 132.4032198,
    "tel": "0854-88-9141",
    "url": "http://www.shiosai.or.jp",
    "pref": "島根県",
    "city": "大田市",
    "category": "tokuyou",
    "serviceType": "介護老人福祉施設",
    "capacity": 30,
    "openDays": [],
    "openDaysNote": ""
  },
  {
    "id": "3271790010",
    "name": "特別養護老人ホーム　湯の郷苑",
    "kana": "トクベツヨウゴロウジンホーム　ユノゴウエン",
    "address": "大田市温泉津町上村４６１番地",
    "lat": 35.0698475,
    "lng": 132.3496208,
    "tel": "0855-65-3800",
    "url": "http://www.fukujikoukai.jp",
    "pref": "島根県",
    "city": "大田市",
    "category": "tokuyou",
    "serviceType": "介護老人福祉施設",
    "capacity": 0,
    "openDays": [],
    "openDaysNote": ""
  },
  {
    "id": "3270590015",
    "name": "特別養護老人ホーム眺峰園",
    "kana": "トクベツヨウゴロウジンホームチョウホウエン",
    "address": "島根県大田市川合町吉永1025-1",
    "lat": 35.1711364,
    "lng": 132.5120032,
    "tel": "0854-82-2830",
    "url": "https://www.ssw.or.jp/facilities/seniors/chohoen",
    "pref": "島根県",
    "city": "大田市",
    "category": "tokuyou",
    "serviceType": "介護老人福祉施設",
    "capacity": 0,
    "openDays": [],
    "openDaysNote": ""
  },
  {
    "id": "3272190012",
    "name": "特別養護老人ホーム　シルバーリーフつわの",
    "kana": "トクベツヨウゴロウジンホーム　シルバーリーフツワノ",
    "address": "島根県鹿足郡津和野町後田ロ１２６番地",
    "lat": 34.4676159,
    "lng": 131.7756881,
    "tel": "0856-72-4050",
    "url": "http://www.silverleaf-tsuwano.server-shared.com/",
    "pref": "島根県",
    "city": "津和野町",
    "category": "tokuyou",
    "serviceType": "介護老人福祉施設",
    "capacity": 0,
    "openDays": [],
    "openDaysNote": ""
  },
  {
    "id": "3272190020",
    "name": "特別養護老人ホーム星の里",
    "kana": "トクベツヨウゴロウジンホームホシノサト",
    "address": "鹿足郡津和野町日原５０番地２",
    "lat": 34.542912,
    "lng": 131.8390162,
    "tel": "0856-74-0026",
    "url": "http://nichihara-hoshinosato.org",
    "pref": "島根県",
    "city": "津和野町",
    "category": "tokuyou",
    "serviceType": "介護老人福祉施設",
    "capacity": 0,
    "openDays": [],
    "openDaysNote": ""
  },
  {
    "id": "3271590030",
    "name": "特別養護老人ホームあかぎの里",
    "kana": "トクベツヨウゴロウジンホームアカギノサト",
    "address": "島根県飯石郡飯南町野萱１８３１番地２",
    "lat": 35.0300736,
    "lng": 132.7423601,
    "tel": "0854-76-2600",
    "url": "http://www.iinansyakyo.com/",
    "pref": "島根県",
    "city": "飯南町",
    "category": "tokuyou",
    "serviceType": "介護老人福祉施設",
    "capacity": 33,
    "openDays": [],
    "openDaysNote": ""
  },
  {
    "id": "3271590022",
    "name": "特別養護老人ホーム愛寿園",
    "kana": "トクベツヨウゴロウジンホームアイジュエン",
    "address": "飯石郡飯南町佐見４５",
    "lat": 35.0793482,
    "lng": 132.7775633,
    "tel": "0854-72-0214",
    "url": "http://www.uaikai.jp/",
    "pref": "島根県",
    "city": "飯南町",
    "category": "tokuyou",
    "serviceType": "介護老人福祉施設",
    "capacity": 0,
    "openDays": [],
    "openDaysNote": ""
  },
  {
    "id": "3271890034",
    "name": "指定介護老人福祉施設ハートランド双葉園",
    "kana": "シテイカイゴロウジンフクシシセツハートランドフタバエン",
    "address": "邑智郡美郷町長藤745-5",
    "lat": 35.0120042,
    "lng": 132.6313146,
    "tel": "0855-82-2500",
    "url": "",
    "pref": "島根県",
    "city": "美郷町",
    "category": "tokuyou",
    "serviceType": "介護老人福祉施設",
    "capacity": 30,
    "openDays": [],
    "openDaysNote": ""
  },
  {
    "id": "3271890026",
    "name": "特別養護老人ホーム双葉園",
    "kana": "トクベツヨウゴロウジンホームフタバエン",
    "address": "邑智郡美郷町滝原167番地1",
    "lat": 35.0514465,
    "lng": 132.6000752,
    "tel": "0855-75-1870",
    "url": "http://fish.miracle.ne.jp/f-wave/",
    "pref": "島根県",
    "city": "美郷町",
    "category": "tokuyou",
    "serviceType": "介護老人福祉施設",
    "capacity": 50,
    "openDays": [],
    "openDaysNote": ""
  },
  {
    "id": "3270790078",
    "name": "特別養護老人ホーム　あさひ園",
    "kana": "トクベツヨウゴロウジンホーム　アサヒエン",
    "address": "島根県浜田市旭町本郷362番地6",
    "lat": 34.8659861,
    "lng": 132.3035901,
    "tel": "0855-45-8231",
    "url": "https://www.asahi-en.com/",
    "pref": "島根県",
    "city": "浜田市",
    "category": "tokuyou",
    "serviceType": "介護老人福祉施設",
    "capacity": 30,
    "openDays": [],
    "openDaysNote": ""
  },
  {
    "id": "3270790086",
    "name": "特別養護老人ホーム　ミレ岡見",
    "kana": "トクベツヨウゴロウジンホーム　ミレオカミ",
    "address": "島根県浜田市三隅町岡見700",
    "lat": 34.771479,
    "lng": 131.9232611,
    "tel": "0855-32-3900",
    "url": "",
    "pref": "島根県",
    "city": "浜田市",
    "category": "tokuyou",
    "serviceType": "介護老人福祉施設",
    "capacity": 0,
    "openDays": [],
    "openDaysNote": ""
  },
  {
    "id": "3270790110",
    "name": "特別養護老人ホーム　ロング・レン",
    "kana": "トクベツヨウゴロウジンホームロング・レン",
    "address": "島根県浜田市長沢町1428番地6特別養護老人ホーム 特別養護老人ホーム",
    "lat": 34.9064100007929,
    "lng": 132.099354975949,
    "tel": "0855-25-5269",
    "url": "htpp://mizusumikai.jp/",
    "pref": "島根県",
    "city": "浜田市",
    "category": "tokuyou",
    "serviceType": "介護老人福祉施設",
    "capacity": 30,
    "openDays": [],
    "openDaysNote": ""
  },
  {
    "id": "3270790029",
    "name": "特別養護老人ホーム　美川苑",
    "kana": "トクベツヨウゴロウジンホーム　ミカワエン",
    "address": "浜田市内村町３６５番地７",
    "lat": 34.8531092,
    "lng": 132.0497872,
    "tel": "0855-26-0333",
    "url": "http://www.mikawaen.com",
    "pref": "島根県",
    "city": "浜田市",
    "category": "tokuyou",
    "serviceType": "介護老人福祉施設",
    "capacity": 0,
    "openDays": [],
    "openDaysNote": ""
  },
  {
    "id": "3270790102",
    "name": "特別養護老人ホーム　弥栄苑新館",
    "kana": "トクベツヨウゴロウジンホーム　ヤサカエンシンカン",
    "address": "浜田市弥栄町木都賀イ５３９－１",
    "lat": 34.7664513,
    "lng": 132.0721758,
    "tel": "０８５５－４８－２５１１",
    "url": "http://www.yasaka-fukushikai.com/",
    "pref": "島根県",
    "city": "浜田市",
    "category": "tokuyou",
    "serviceType": "介護老人福祉施設",
    "capacity": 40,
    "openDays": [],
    "openDaysNote": ""
  },
  {
    "id": "3270790094",
    "name": "特別養護老人ホーム　弥栄苑本館",
    "kana": "トクベツヨウゴロウジンホーム　ヤサカエンホンカン",
    "address": "浜田市弥栄町木都賀イ５３９－１",
    "lat": 34.7664513,
    "lng": 132.0721758,
    "tel": "０８５５－４８－２５１１",
    "url": "http://www.yasaka-fukushikai.com/",
    "pref": "島根県",
    "city": "浜田市",
    "category": "tokuyou",
    "serviceType": "介護老人福祉施設",
    "capacity": 30,
    "openDays": [],
    "openDaysNote": ""
  },
  {
    "id": "3270790045",
    "name": "特別養護老人ホームかなぎ園",
    "kana": "トクベツヨウゴロウジンホームカナギエン",
    "address": "島根県浜田市金城町七条イ１０４６番地５",
    "lat": 34.8725617,
    "lng": 132.1530033,
    "tel": "0855-42-1888",
    "url": "http://kanagi-fukushikai.com/",
    "pref": "島根県",
    "city": "浜田市",
    "category": "tokuyou",
    "serviceType": "介護老人福祉施設",
    "capacity": 50,
    "openDays": [],
    "openDaysNote": ""
  },
  {
    "id": "3270790128",
    "name": "特別養護老人ホームくざの里",
    "kana": "トクベツヨウゴロウジンホームクザノサト",
    "address": "金城町久佐イ560番地1",
    "lat": 34.8593437,
    "lng": 132.2075318,
    "tel": "0855-42-2024",
    "url": "http://www.kabedaimonjikai.or.jp",
    "pref": "島根県",
    "city": "浜田市",
    "category": "tokuyou",
    "serviceType": "介護老人福祉施設",
    "capacity": 0,
    "openDays": [],
    "openDaysNote": ""
  },
  {
    "id": "3270790037",
    "name": "特別養護老人ホームたんぽぽの里",
    "kana": "トクベツヨウゴロウジンホームタンポポノサト",
    "address": "浜田市長浜町1900",
    "lat": 34.8675797,
    "lng": 132.0376986,
    "tel": "0855-26-0002",
    "url": "http://www.tanpoponosato.com",
    "pref": "島根県",
    "city": "浜田市",
    "category": "tokuyou",
    "serviceType": "介護老人福祉施設",
    "capacity": 54,
    "openDays": [],
    "openDaysNote": ""
  },
  {
    "id": "3270790011",
    "name": "特別養護老人ホーム偕生園",
    "kana": "トクベツヨウゴロウジンホームカイセイエン",
    "address": "島根県浜田市黒川町196-1",
    "lat": 34.8979723,
    "lng": 132.096804,
    "tel": "0855-23-5755",
    "url": "http://www.ssw.or.jp/korei_kaisei/",
    "pref": "島根県",
    "city": "浜田市",
    "category": "tokuyou",
    "serviceType": "介護老人福祉施設",
    "capacity": 0,
    "openDays": [],
    "openDaysNote": ""
  },
  {
    "id": "3271890067",
    "name": "特別養護老人ホーム　あさぎり",
    "kana": "トクベツヨウゴロウジンホーム　アサギリ",
    "address": "邑智郡邑南町下口羽391番地2",
    "lat": 34.8815401,
    "lng": 132.6650261,
    "tel": "0855-87-0001",
    "url": "http://oonanfukushikai.jp/",
    "pref": "島根県",
    "city": "邑南町",
    "category": "tokuyou",
    "serviceType": "介護老人福祉施設",
    "capacity": 0,
    "openDays": [],
    "openDaysNote": ""
  },
  {
    "id": "3271890042",
    "name": "特別養護老人ホーム　ゆめあいの丘",
    "kana": "トクベツヨウゴロウジンホーム　ユメアイノオカ",
    "address": "邑智郡邑南町上亀谷２１８０－２",
    "lat": 34.8449948,
    "lng": 132.5159598,
    "tel": "0855-83-1717",
    "url": "http://oonanfukushikai.jp/",
    "pref": "島根県",
    "city": "邑南町",
    "category": "tokuyou",
    "serviceType": "介護老人福祉施設",
    "capacity": 30,
    "openDays": [],
    "openDaysNote": ""
  },
  {
    "id": "3271890109",
    "name": "特別養護老人ホーム　桃源の家",
    "kana": "トクベツヨウゴロウジンホーム　トウゲンノイエ",
    "address": "中野574-3",
    "lat": 34.8983744,
    "lng": 132.4511408,
    "tel": "0855-95-0001",
    "url": "http://iwamisakurakai.or.jp",
    "pref": "島根県",
    "city": "邑南町",
    "category": "tokuyou",
    "serviceType": "介護老人福祉施設",
    "capacity": 100,
    "openDays": [],
    "openDaysNote": ""
  }
]