[
  {
    "id": "3473600702",
    "name": "清風会さくら",
    "kana": "セイフウカイサクラ",
    "address": "広島県安芸高田市吉田町竹原1891番地1",
    "lat": 34.6528614,
    "lng": 132.6852651,
    "tel": "0826-47-2610",
    "url": "http://www.seifu-kai.org/",
    "pref": "広島県",
    "city": "安芸高田市",
    "category": "tokuyou",
    "serviceType": "介護老人福祉施設",
    "capacity": 0,
    "openDays": [],
    "openDaysNote": ""
  },
  {
    "id": "3473600330",
    "name": "特別養護老人ホーム　甲田",
    "kana": "トクベツヨウゴロウジンホーム　コウダ",
    "address": "安芸高田市甲田町下小原3363番地",
    "lat": 34.664489,
    "lng": 132.7426768,
    "tel": "0826-45-7777",
    "url": "http://www.misasakai.or.jp/shisetsu/koda.php",
    "pref": "広島県",
    "city": "安芸高田市",
    "category": "tokuyou",
    "serviceType": "介護老人福祉施設",
    "capacity": 30,
    "openDays": [],
    "openDaysNote": ""
  },
  {
    "id": "3473600892",
    "name": "特別養護老人ホーム　百楽荘",
    "kana": "トクベツヨウゴロウジンホーム　ヒャクラクソウ",
    "address": "広島県安芸高田市吉田町吉田1948番地1",
    "lat": 34.667514,
    "lng": 132.7104757,
    "tel": "0826-42-4110",
    "url": "http://www.seifu-kai.org/",
    "pref": "広島県",
    "city": "安芸高田市",
    "category": "tokuyou",
    "serviceType": "介護老人福祉施設",
    "capacity": 0,
    "openDays": [],
    "openDaysNote": ""
  },
  {
    "id": "3473600934",
    "name": "特別養護老人ホームかがやき",
    "kana": "トクベツヨウゴロウジンホームカガヤキ",
    "address": "広島県安芸高田市向原町坂10287-1",
    "lat": 34.6080322,
    "lng": 132.7564668,
    "tel": "0826-46-7500",
    "url": "http://www.aki-chitose.com",
    "pref": "広島県",
    "city": "安芸高田市",
    "category": "tokuyou",
    "serviceType": "介護老人福祉施設",
    "capacity": 0,
    "openDays": [],
    "openDaysNote": ""
  },
  {
    "id": "3473600322",
    "name": "特別養護老人ホームレークサイド土師",
    "kana": "トクベツヨウゴロウジンホームレークサイドハジ",
    "address": "安芸高田市八千代町土師12251-1",
    "lat": 34.6475536242049,
    "lng": 132.606205884503,
    "tel": "0826-52-3833",
    "url": "http://www.lakehaji.jp/",
    "pref": "広島県",
    "city": "安芸高田市",
    "category": "tokuyou",
    "serviceType": "介護老人福祉施設",
    "capacity": 0,
    "openDays": [],
    "openDaysNote": ""
  },
  {
    "id": "3473600231",
    "name": "特別養護老人ホーム高美園",
    "kana": "トクベツヨウゴロウジンホームタカミエン",
    "address": "安芸高田市高宮町原田10380番地1",
    "lat": 34.7232664,
    "lng": 132.6833371,
    "tel": "0826-57-1586",
    "url": "http://takamien.jp",
    "pref": "広島県",
    "city": "安芸高田市",
    "category": "tokuyou",
    "serviceType": "介護老人福祉施設",
    "capacity": 0,
    "openDays": [],
    "openDaysNote": ""
  },
  {
    "id": "3473500829",
    "name": "ユニット型特別養護老人ホーム寿光園",
    "kana": "ユニットガタトクベツヨウゴロウジンホームジュコウエン",
    "address": "広島県山県郡安芸太田町大字下筒賀８２１番地",
    "lat": 34.5867783,
    "lng": 132.2931469,
    "tel": "0826-22-1075",
    "url": "http://geihoku-fukushikai.com/",
    "pref": "広島県",
    "city": "安芸太田町",
    "category": "tokuyou",
    "serviceType": "介護老人福祉施設",
    "capacity": 0,
    "openDays": [],
    "openDaysNote": ""
  },
  {
    "id": "3473500548",
    "name": "特別養護老人ホーム　戸河内松信園",
    "kana": "トクベツヨウゴロウジンホーム　トゴウチショウシンエン",
    "address": "広島県山県郡安芸太田町大字土居625番地",
    "lat": 34.5740535,
    "lng": 132.2429982,
    "tel": "0826-28-2024",
    "url": "http://www.syoshinen.com",
    "pref": "広島県",
    "city": "安芸太田町",
    "category": "tokuyou",
    "serviceType": "介護老人福祉施設",
    "capacity": 0,
    "openDays": [],
    "openDaysNote": ""
  },
  {
    "id": "3473500530",
    "name": "特別養護老人ホーム　寿光園",
    "kana": "トクベツヨウゴロウジンホーム　ジュコウエン",
    "address": "広島県山県郡安芸太田町大字下筒賀821番地",
    "lat": 34.5867783,
    "lng": 132.2931469,
    "tel": "0826-22-1075",
    "url": "http://geihoku-fukushikai.com/",
    "pref": "広島県",
    "city": "安芸太田町",
    "category": "tokuyou",
    "serviceType": "介護老人福祉施設",
    "capacity": 0,
    "openDays": [],
    "openDaysNote": ""
  },
  {
    "id": "3473200263",
    "name": "特別養護老人ホームエバーグリーンホーム",
    "kana": "トクベツヨウゴロウジンホームエバーグリーンホーム",
    "address": "広島県安芸郡海田町東二丁目８番６号",
    "lat": 34.3653875,
    "lng": 132.5599115,
    "tel": "082-821-0015",
    "url": "",
    "pref": "広島県",
    "city": "海田町",
    "category": "tokuyou",
    "serviceType": "介護老人福祉施設",
    "capacity": null,
    "openDays": [],
    "openDaysNote": ""
  },
  {
    "id": "3473100257",
    "name": "特別養護老人ホーム誠和園",
    "kana": "トクベツヨウゴロウジンホームセイワエン",
    "address": "広島県安芸郡熊野町城之堀二丁目28番1号",
    "lat": 34.3459461,
    "lng": 132.5807846,
    "tel": "082-854-0421",
    "url": "https://www.seijokaikumano.com/",
    "pref": "広島県",
    "city": "熊野町",
    "category": "tokuyou",
    "serviceType": "介護老人福祉施設",
    "capacity": 50,
    "openDays": [],
    "openDaysNote": ""
  },
  {
    "id": "3473100505",
    "name": "特別養護老人ホーム　あかさき園",
    "kana": "トクベツヨウゴロウジンホーム　アカサキエン",
    "address": "呉市音戸町畑１丁目２番５１号",
    "lat": 34.1621003,
    "lng": 132.5339696,
    "tel": "0823-56-2555",
    "url": "http://www.hakujukai.jp",
    "pref": "広島県",
    "city": "呉市",
    "category": "tokuyou",
    "serviceType": "介護老人福祉施設",
    "capacity": 49,
    "openDays": [],
    "openDaysNote": ""
  },
  {
    "id": "3473100422",
    "name": "特別養護老人ホーム　たちばな苑",
    "kana": "トクベツヨウゴロウジンホーム　タチバナエン",
    "address": "呉市倉橋町１４６４９番地",
    "lat": 34.0999342,
    "lng": 132.5436144,
    "tel": "0823-54-1515",
    "url": "http://www.tachibanaen.jp/",
    "pref": "広島県",
    "city": "呉市",
    "category": "tokuyou",
    "serviceType": "介護老人福祉施設",
    "capacity": 0,
    "openDays": [],
    "openDaysNote": ""
  },
  {
    "id": "3474000258",
    "name": "特別養護老人ホーム　恵の海",
    "kana": "トクベツヨウゴロウジンホーム　メグミノウミ",
    "address": "呉市川尻町西6丁目10-1",
    "lat": 34.2171864,
    "lng": 132.6852871,
    "tel": "0823-87-0280",
    "url": "http://www.fukushinomori.or.jp",
    "pref": "広島県",
    "city": "呉市",
    "category": "tokuyou",
    "serviceType": "介護老人福祉施設",
    "capacity": 50,
    "openDays": [],
    "openDaysNote": ""
  },
  {
    "id": "3470500533",
    "name": "特別養護老人ホーム　後楽荘",
    "kana": "トクベツヨウゴロウジンホーム　コウラクソウ",
    "address": "呉市焼山町字打田６２３番地",
    "lat": 34.2866459,
    "lng": 132.5419012,
    "tel": "0823-34-1388",
    "url": "http://www.koraku.jp",
    "pref": "広島県",
    "city": "呉市",
    "category": "tokuyou",
    "serviceType": "介護老人福祉施設",
    "capacity": 100,
    "openDays": [],
    "openDaysNote": ""
  },
  {
    "id": "3470500954",
    "name": "特別養護老人ホーム　常楽園",
    "kana": "トクベツヨウゴロウジンホーム　ジョウラクエン",
    "address": "呉市警固屋9丁目1番1号",
    "lat": 34.1953409,
    "lng": 132.5465405,
    "tel": "0823-28-0370",
    "url": "http://kure-dousai.jp/",
    "pref": "広島県",
    "city": "呉市",
    "category": "tokuyou",
    "serviceType": "介護老人福祉施設",
    "capacity": 0,
    "openDays": [],
    "openDaysNote": ""
  },
  {
    "id": "3470500665",
    "name": "特別養護老人ホーム　成寿園",
    "kana": "トクベツヨウゴロウジンホーム　セイジュエン",
    "address": "呉市広町字白石免田13010番地",
    "lat": 34.2505192,
    "lng": 132.6325409,
    "tel": "0823-71-8500",
    "url": "http://www.seijukai-welfare.jp/top.html",
    "pref": "広島県",
    "city": "呉市",
    "category": "tokuyou",
    "serviceType": "介護老人福祉施設",
    "capacity": 84,
    "openDays": [],
    "openDaysNote": ""
  },
  {
    "id": "3470500756",
    "name": "特別養護老人ホーム　栃ノ木荘",
    "kana": "トクベツヨウゴロウジンホーム　トチノキソウ",
    "address": "呉市栃原町字中倉150-2",
    "lat": 34.287098010038,
    "lng": 132.586054336215,
    "tel": "0823-34-2755",
    "url": "http://www.honjofukushikai.or.jp",
    "pref": "広島県",
    "city": "呉市",
    "category": "tokuyou",
    "serviceType": "介護老人福祉施設",
    "capacity": 0,
    "openDays": [],
    "openDaysNote": ""
  },
  {
    "id": "3473900391",
    "name": "特別養護老人ホーム　豊寿園",
    "kana": "トクベツヨウゴロウジンホーム　ホウジュエン",
    "address": "呉市豊町大長６０００番地",
    "lat": 34.1868307,
    "lng": 132.8531043,
    "tel": "0823-66-3300",
    "url": "",
    "pref": "広島県",
    "city": "呉市",
    "category": "tokuyou",
    "serviceType": "介護老人福祉施設",
    "capacity": 0,
    "openDays": [],
    "openDaysNote": ""
  },
  {
    "id": "3470500939",
    "name": "特別養護老人ホームあすらや荘",
    "kana": "トクベツヨウゴロウジンホームアスラヤソウ",
    "address": "呉市郷原町2380番地",
    "lat": 34.2957483,
    "lng": 132.6487381,
    "tel": "0823-77-0949",
    "url": "http://www.misasakai.or.jp",
    "pref": "広島県",
    "city": "呉市",
    "category": "tokuyou",
    "serviceType": "介護老人福祉施設",
    "capacity": 0,
    "openDays": [],
    "openDaysNote": ""
  },
  {
    "id": "3470502109",
    "name": "特別養護老人ホームかるが",
    "kana": "トクベツヨウゴロウジンホームカルガ",
    "address": "呉市狩留賀町3番16号",
    "lat": 34.2651399,
    "lng": 132.5149814,
    "tel": "0823-20-3601",
    "url": "http://www.karugakai.jp/",
    "pref": "広島県",
    "city": "呉市",
    "category": "tokuyou",
    "serviceType": "介護老人福祉施設",
    "capacity": null,
    "openDays": [],
    "openDaysNote": ""
  },
  {
    "id": "3470500947",
    "name": "特別養護老人ホームコスモス園",
    "kana": "トクベツヨウゴロウジンホームコスモスエン",
    "address": "呉市焼山北三丁目２１番５号",
    "lat": 34.3092656,
    "lng": 132.5529749,
    "tel": "0823-33-8000",
    "url": "http://hakujukai.jp",
    "pref": "広島県",
    "city": "呉市",
    "category": "tokuyou",
    "serviceType": "介護老人福祉施設",
    "capacity": 0,
    "openDays": [],
    "openDaysNote": ""
  },
  {
    "id": "3470500624",
    "name": "特別養護老人ホーム延寿荘",
    "kana": "トクベツヨウゴロウジンホームエンジュソウ",
    "address": "呉市広町字中横路2445番地",
    "lat": 34.2450650241766,
    "lng": 132.609522182234,
    "tel": "0823-71-6776",
    "url": "https://aieikai.jp",
    "pref": "広島県",
    "city": "呉市",
    "category": "tokuyou",
    "serviceType": "介護老人福祉施設",
    "capacity": 0,
    "openDays": [],
    "openDaysNote": ""
  },
  {
    "id": "3470500442",
    "name": "特別養護老人ホーム温養院",
    "kana": "トクベツヨウゴロウジンホームオンヨウイン",
    "address": "呉市焼山中央6丁目6番13号",
    "lat": 34.2900097,
    "lng": 132.5659071,
    "tel": "0823-33-3858",
    "url": "http://kure-dousai.jp/",
    "pref": "広島県",
    "city": "呉市",
    "category": "tokuyou",
    "serviceType": "介護老人福祉施設",
    "capacity": 0,
    "openDays": [],
    "openDaysNote": ""
  },
  {
    "id": "3470500962",
    "name": "特別養護老人ホーム郷原の里",
    "kana": "トクベツヨウゴロウジンホームゴウハラノサト",
    "address": "広島県呉市郷原町字鵯畑11882番地12",
    "lat": 34.2924369974739,
    "lng": 132.639369735582,
    "tel": "0823-77-1558",
    "url": "http://www.gouharanosato.com/",
    "pref": "広島県",
    "city": "呉市",
    "category": "tokuyou",
    "serviceType": "介護老人福祉施設",
    "capacity": 54,
    "openDays": [],
    "openDaysNote": ""
  },
  {
    "id": "3470503800",
    "name": "特別養護老人ホーム春香園",
    "kana": "トクベツヨウゴロウジンホームシュンカエン",
    "address": "広島県呉市安浦町内海北一丁目2-42",
    "lat": 34.2861259568565,
    "lng": 132.737754007964,
    "tel": "0823-84-3118",
    "url": "http://www.syunkaen.or.jp/",
    "pref": "広島県",
    "city": "呉市",
    "category": "tokuyou",
    "serviceType": "介護老人福祉施設",
    "capacity": null,
    "openDays": [],
    "openDaysNote": ""
  },
  {
    "id": "3470107172",
    "name": "特別養護老人ホーム　あきなかの",
    "kana": "トクベツヨウゴロウジンホーム　アキナカノ",
    "address": "広島県広島市安芸区中野三丁目9-5在宅複合施設あきなかの　二階 在宅複合施設あきなかの　二階",
    "lat": 34.3927844,
    "lng": 132.5644743,
    "tel": "082-893-3361",
    "url": "http://www.jiraku.or.jp",
    "pref": "広島県",
    "city": "広島市安芸区",
    "category": "tokuyou",
    "serviceType": "介護老人福祉施設",
    "capacity": 30,
    "openDays": [],
    "openDaysNote": ""
  },
  {
    "id": "3470101910",
    "name": "特別養護老人ホーム　くにくさ苑",
    "kana": "トクベツヨウゴロウジンホーム　クニクサエン",
    "address": "広島市安芸区阿戸町418番地の1",
    "lat": 34.3734895,
    "lng": 132.624039,
    "tel": "082-856-0222",
    "url": "http://www.kunikusa.or.jp/",
    "pref": "広島県",
    "city": "広島市安芸区",
    "category": "tokuyou",
    "serviceType": "介護老人福祉施設",
    "capacity": 0,
    "openDays": [],
    "openDaysNote": ""
  },
  {
    "id": "3470109343",
    "name": "特別養護老人ホーム　矢野",
    "kana": "トクベツヨウゴロウジンホーム　ヤノ",
    "address": "広島県広島市安芸区矢野西三丁目１－１１",
    "lat": 34.3487372848959,
    "lng": 132.525160612303,
    "tel": "082-554-8950",
    "url": "https://www.kounankai.jp/",
    "pref": "広島県",
    "city": "広島市安芸区",
    "category": "tokuyou",
    "serviceType": "介護老人福祉施設",
    "capacity": 90,
    "openDays": [],
    "openDaysNote": ""
  },
  {
    "id": "3470101670",
    "name": "特別養護老人ホーム瀬野川ホーム",
    "kana": "トクベツヨウゴロウジンホームセノガワホーム",
    "address": "広島市安芸区中野東二丁目３４番１号",
    "lat": 34.3876269,
    "lng": 132.5712183,
    "tel": "082-893-1888",
    "url": "http://www.jiraku.or.jp",
    "pref": "広島県",
    "city": "広島市安芸区",
    "category": "tokuyou",
    "serviceType": "介護老人福祉施設",
    "capacity": 100,
    "openDays": [],
    "openDaysNote": ""
  },
  {
    "id": "3470212170",
    "name": "ＩＧＬナーシングホームシャレー",
    "kana": "アイジイエルナーシングホームシャレー",
    "address": "広島市安佐南区上安6丁目31番2号",
    "lat": 34.4834758,
    "lng": 132.4445897,
    "tel": "082-830-3321",
    "url": "http://www.igl.or.jp/",
    "pref": "広島県",
    "city": "広島市安佐南区",
    "category": "tokuyou",
    "serviceType": "介護老人福祉施設",
    "capacity": 0,
    "openDays": [],
    "openDaysNote": ""
  },
  {
    "id": "3470201496",
    "name": "特別養護老人ホーム　菜の華",
    "kana": "トクベツヨウゴロウジンホーム　ナノハナ",
    "address": "広島市安佐南区西原１丁目18番5号",
    "lat": 34.4350235,
    "lng": 132.4643869,
    "tel": "082-850-0023",
    "url": "https://www.seijokaikumano.com/",
    "pref": "広島県",
    "city": "広島市安佐南区",
    "category": "tokuyou",
    "serviceType": "介護老人福祉施設",
    "capacity": 50,
    "openDays": [],
    "openDaysNote": ""
  },
  {
    "id": "3470201561",
    "name": "特別養護老人ホーム　慈光園",
    "kana": "トクベツヨウゴロウジンホーム　ジコウエン",
    "address": "広島市安佐南区高取北一丁目17番41号",
    "lat": 34.4773848,
    "lng": 132.4413374,
    "tel": "082-878-8005",
    "url": "http://www.jikouen.jp",
    "pref": "広島県",
    "city": "広島市安佐南区",
    "category": "tokuyou",
    "serviceType": "介護老人福祉施設",
    "capacity": null,
    "openDays": [],
    "openDaysNote": ""
  },
  {
    "id": "3470207907",
    "name": "特別養護老人ホーム　春日野園",
    "kana": "トクベツヨウゴロウジンホーム　カスガノエン",
    "address": "広島市安佐南区山本新町二丁目18番9－14号",
    "lat": 34.4405083,
    "lng": 132.4344802,
    "tel": "082-832-4165",
    "url": "https://www.saka-group.jp/kasuganoen/",
    "pref": "広島県",
    "city": "広島市安佐南区",
    "category": "tokuyou",
    "serviceType": "介護老人福祉施設",
    "capacity": 80,
    "openDays": [],
    "openDaysNote": ""
  },
  {
    "id": "3470208913",
    "name": "特別養護老人ホームやすらぎの里広域公園",
    "kana": "トクベツヨウゴロウジンホームヤスラギノサト　コウイキコウエン",
    "address": "広島市安佐南区大塚西４丁目２番20号",
    "lat": 34.4359411,
    "lng": 132.3986582,
    "tel": "082-848-3600",
    "url": "https://care-net.biz/34/heiwakai/",
    "pref": "広島県",
    "city": "広島市安佐南区",
    "category": "tokuyou",
    "serviceType": "介護老人福祉施設",
    "capacity": 80,
    "openDays": [],
    "openDaysNote": ""
  },
  {
    "id": "3470209846",
    "name": "特別養護老人ホーム新都西風苑",
    "kana": "トクベツヨウゴロウジンホームシントセイフウエン",
    "address": "広島市安佐南区大塚東3丁目3番9号",
    "lat": 34.4345729097415,
    "lng": 132.41426770318,
    "tel": "（082）811－8185",
    "url": "http://shintoseifuen.or.jp/",
    "pref": "広島県",
    "city": "広島市安佐南区",
    "category": "tokuyou",
    "serviceType": "介護老人福祉施設",
    "capacity": 0,
    "openDays": [],
    "openDaysNote": ""
  },
  {
    "id": "3470203575",
    "name": "特別養護老人ホーム川内の里",
    "kana": "トクベツヨウゴロウジンホームカワウチノサト",
    "address": "広島市安佐南区川内一丁目２１番２９号",
    "lat": 34.4565076,
    "lng": 132.4849372,
    "tel": "082-831-1124",
    "url": "http://www.kawauchinosato.net",
    "pref": "広島県",
    "city": "広島市安佐南区",
    "category": "tokuyou",
    "serviceType": "介護老人福祉施設",
    "capacity": 0,
    "openDays": [],
    "openDaysNote": ""
  },
  {
    "id": "3470202080",
    "name": "特別養護老人ホーム友愛園",
    "kana": "トクベツヨウゴロウジンホームユウアイエン",
    "address": "広島市安佐南区伴東二丁目30番11号",
    "lat": 34.4750293481141,
    "lng": 132.415507276058,
    "tel": "082-848-2626",
    "url": "http://www.yuuaien.jp",
    "pref": "広島県",
    "city": "広島市安佐南区",
    "category": "tokuyou",
    "serviceType": "介護老人福祉施設",
    "capacity": null,
    "openDays": [],
    "openDaysNote": ""
  },
  {
    "id": "3470213152",
    "name": "特別養護老人ホーム和",
    "kana": "トクベツヨウゴロウジンホームヤワラギ",
    "address": "広島県広島市安佐南区山本新町四丁目３番１１号",
    "lat": 34.4479519,
    "lng": 132.4367272,
    "tel": "082-850-1008",
    "url": "",
    "pref": "広島県",
    "city": "広島市安佐南区",
    "category": "tokuyou",
    "serviceType": "介護老人福祉施設",
    "capacity": null,
    "openDays": [],
    "openDaysNote": ""
  },
  {
    "id": "3470201470",
    "name": "特別養護老人ホーム和楽荘",
    "kana": "トクベツヨウゴロウジンホームワラクソウ",
    "address": "広島県広島市安佐南区伴西5丁目1432番地1",
    "lat": 34.459405,
    "lng": 132.375621,
    "tel": "082-848-5000",
    "url": "http://www.warakusou.or.jp",
    "pref": "広島県",
    "city": "広島市安佐南区",
    "category": "tokuyou",
    "serviceType": "介護老人福祉施設",
    "capacity": 50,
    "openDays": [],
    "openDaysNote": ""
  },
  {
    "id": "3470109020",
    "name": "ユニット型特別養護老人ホーム　三篠園",
    "kana": "ユニットガタトクベツヨウゴロウジンホーム　ミササエン",
    "address": "広島県広島市安佐北区白木町大字井原1244番地",
    "lat": 34.5941281,
    "lng": 132.6803822,
    "tel": "082-828-3330",
    "url": "http://www.misasakai.or.jp/shisetsu/h01.php",
    "pref": "広島県",
    "city": "広島市安佐北区",
    "category": "tokuyou",
    "serviceType": "介護老人福祉施設",
    "capacity": 0,
    "openDays": [],
    "openDaysNote": ""
  },
  {
    "id": "3470101894",
    "name": "従来型特別養護老人ホ－ム　リアライヴ高陽",
    "kana": "ジュウライガタトクベツヨウゴロウジンホ－ム　リアライブコウヨウ",
    "address": "広島市安佐北区真亀一丁目1-8",
    "lat": 34.4815082360966,
    "lng": 132.52024613407,
    "tel": "082-843-3223",
    "url": "https://misasakai.ecat.jp/catalog/products/detail?id=23",
    "pref": "広島県",
    "city": "広島市安佐北区",
    "category": "tokuyou",
    "serviceType": "介護老人福祉施設",
    "capacity": 0,
    "openDays": [],
    "openDaysNote": ""
  },
  {
    "id": "3470102538",
    "name": "特別養護老人ホーム　なごみの郷",
    "kana": "トクベツヨウゴロウジンホーム　ナゴミノサト",
    "address": "広島市安佐北区落合南町196-1",
    "lat": 34.4615802,
    "lng": 132.5142321,
    "tel": "082-841-1331",
    "url": "http://www.nagominosato.jp",
    "pref": "広島県",
    "city": "広島市安佐北区",
    "category": "tokuyou",
    "serviceType": "介護老人福祉施設",
    "capacity": 0,
    "openDays": [],
    "openDaysNote": ""
  },
  {
    "id": "3470109368",
    "name": "特別養護老人ホーム　リアライヴ高陽",
    "kana": "トクベツヨウゴロウジンホ－ム　リアライブコウヨウ",
    "address": "広島市安佐北区真亀一丁目1-8",
    "lat": 34.4814171,
    "lng": 132.5201586,
    "tel": "082-843-3223",
    "url": "https://misasakai.ecat.jp/catalog/products/detail?id=23",
    "pref": "広島県",
    "city": "広島市安佐北区",
    "category": "tokuyou",
    "serviceType": "介護老人福祉施設",
    "capacity": 0,
    "openDays": [],
    "openDaysNote": ""
  },
  {
    "id": "3470107990",
    "name": "特別養護老人ホーム　可部南静養園カルム",
    "kana": "トクベツヨウゴロウジンホーム　カベミナミセイヨウエンカルム",
    "address": "広島市安佐北区可部南二丁目19番33号",
    "lat": 34.5009592,
    "lng": 132.5188576,
    "tel": "082－562－2503",
    "url": "http://www.dohen.or.jp/",
    "pref": "広島県",
    "city": "広島市安佐北区",
    "category": "tokuyou",
    "serviceType": "介護老人福祉施設",
    "capacity": 0,
    "openDays": [],
    "openDaysNote": ""
  },
  {
    "id": "3470102918",
    "name": "特別養護老人ホーム　山まゆ",
    "kana": "トクベツヨウゴロウジンホーム　ヤママユ",
    "address": "広島市安佐北区大林町字根谷１６２番地の２",
    "lat": 34.5507647,
    "lng": 132.5481494,
    "tel": "082-818-6011",
    "url": "http://www.kabedaimonjikai.or.jp",
    "pref": "広島県",
    "city": "広島市安佐北区",
    "category": "tokuyou",
    "serviceType": "介護老人福祉施設",
    "capacity": 44,
    "openDays": [],
    "openDaysNote": ""
  },
  {
    "id": "3470110184",
    "name": "特別養護老人ホーム　白木ツジマチ",
    "kana": "トクベツヨウゴロウジンホーム　シラキツジマチ",
    "address": "広島県広島市安佐北区白木町小越218番地2高齢者総合福祉施設　白木ツジマチ 高齢者総合福祉施設　白木ツジマチ",
    "lat": 34.552256943745,
    "lng": 132.66269555542,
    "tel": "082-828-1305",
    "url": "https://www.misasakai.or.jp/shisetsu/izumi.php",
    "pref": "広島県",
    "city": "広島市安佐北区",
    "category": "tokuyou",
    "serviceType": "介護老人福祉施設",
    "capacity": null,
    "openDays": [],
    "openDaysNote": ""
  },
  {
    "id": "3470101886",
    "name": "特別養護老人ホーム　白木の郷",
    "kana": "トクベツヨウゴロウジンホーム　シラキノサト",
    "address": "広島市安佐北区白木町大字小越10230番地",
    "lat": 34.5530554661633,
    "lng": 132.672559611417,
    "tel": "082-828-0123",
    "url": "http://www.misasakai.or.jp/",
    "pref": "広島県",
    "city": "広島市安佐北区",
    "category": "tokuyou",
    "serviceType": "介護老人福祉施設",
    "capacity": 0,
    "openDays": [],
    "openDaysNote": ""
  },
  {
    "id": "3470108345",
    "name": "特別養護老人ホームくちた園",
    "kana": "トクベツヨウゴロウジンホームクチタエン",
    "address": "広島県広島市安佐北区口田南一丁目9番8号",
    "lat": 34.4545475440036,
    "lng": 132.491611698148,
    "tel": "０８２－５１６－４１６５",
    "url": "http://kuchitaen.site",
    "pref": "広島県",
    "city": "広島市安佐北区",
    "category": "tokuyou",
    "serviceType": "介護老人福祉施設",
    "capacity": 80,
    "openDays": [],
    "openDaysNote": ""
  },
  {
    "id": "3470109319",
    "name": "特別養護老人ホームこころ",
    "kana": "トクベツヨウゴロウジンホームココロ",
    "address": "広島県広島市安佐北区安佐町鈴張2688番地",
    "lat": 34.5813431,
    "lng": 132.4565062,
    "tel": "082-554-8600",
    "url": "https://kokorohome.wordpress.com",
    "pref": "広島県",
    "city": "広島市安佐北区",
    "category": "tokuyou",
    "serviceType": "介護老人福祉施設",
    "capacity": null,
    "openDays": [],
    "openDaysNote": ""
  },
  {
    "id": "3470101449",
    "name": "特別養護老人ホームナーシングホームゆうゆう",
    "kana": "トクベツヨウゴロウジンホームナーシングホームユウユウ",
    "address": "広島市安佐北区安佐町後山12415番地5",
    "lat": 34.5004379,
    "lng": 132.4450975,
    "tel": "082-838-3333",
    "url": "http://www.igl.or.jp/kourei/yuuyuu.html",
    "pref": "広島県",
    "city": "広島市安佐北区",
    "category": "tokuyou",
    "serviceType": "介護老人福祉施設",
    "capacity": 0,
    "openDays": [],
    "openDaysNote": ""
  },
  {
    "id": "3470101118",
    "name": "特別養護老人ホームみくに",
    "kana": "トクベツヨウゴロウジンホームミクニ",
    "address": "広島市安佐北区安佐町大字久地字日ノ浦３２４０番地６５",
    "lat": 34.4900966,
    "lng": 132.3990464,
    "tel": "082-837-0767",
    "url": "https://mikuni04.com/",
    "pref": "広島県",
    "city": "広島市安佐北区",
    "category": "tokuyou",
    "serviceType": "介護老人福祉施設",
    "capacity": 0,
    "openDays": [],
    "openDaysNote": ""
  },
  {
    "id": "3470101779",
    "name": "特別養護老人ホーム可部南静養園アシステ",
    "kana": "トクベツヨウゴロウジンホームカベミナミセイヨウエンアシステ",
    "address": "広島県広島市安佐北区可部南二丁目１９番３３号",
    "lat": 34.501029,
    "lng": 132.5190332,
    "tel": "082-812-2411",
    "url": "http://www.dohen.or.jp",
    "pref": "広島県",
    "city": "広島市安佐北区",
    "category": "tokuyou",
    "serviceType": "介護老人福祉施設",
    "capacity": 0,
    "openDays": [],
    "openDaysNote": ""
  },
  {
    "id": "3470109277",
    "name": "特別養護老人ホーム亀山の里",
    "kana": "トクベツヨウゴロウジンホームカメヤマノサト",
    "address": "広島県広島市安佐北区亀山九丁目10番25号亀山の里 亀山の里",
    "lat": 34.5350288,
    "lng": 132.4805233,
    "tel": "082-819-3355",
    "url": "http://katsugikai.jp",
    "pref": "広島県",
    "city": "広島市安佐北区",
    "category": "tokuyou",
    "serviceType": "介護老人福祉施設",
    "capacity": 0,
    "openDays": [],
    "openDaysNote": ""
  },
  {
    "id": "3470109657",
    "name": "特別養護老人ホーム高陽荘",
    "kana": "トクベツヨウゴロウジンホームコウヨウソウ",
    "address": "広島県広島市安佐北区深川八丁目36番7号",
    "lat": 34.4693483,
    "lng": 132.5400855,
    "tel": "082-842-2266",
    "url": "http://www.misasakai.or.jp/shisetsu/koyoso.php",
    "pref": "広島県",
    "city": "広島市安佐北区",
    "category": "tokuyou",
    "serviceType": "介護老人福祉施設",
    "capacity": null,
    "openDays": [],
    "openDaysNote": ""
  },
  {
    "id": "3470101456",
    "name": "特別養護老人ホーム第二ナーシングホームゆうゆう",
    "kana": "トクベツヨウゴロウジンホームダイニナーシングホームユウユウ",
    "address": "広島市安佐北区安佐町後山12415番地1",
    "lat": 34.5005989,
    "lng": 132.444317,
    "tel": "082-838-3334",
    "url": "http://www.igl.or.jp/kourei/2yuuyuu.html",
    "pref": "広島県",
    "city": "広島市安佐北区",
    "category": "tokuyou",
    "serviceType": "介護老人福祉施設",
    "capacity": 0,
    "openDays": [],
    "openDaysNote": ""
  },
  {
    "id": "3470101902",
    "name": "特別養護老人ホーム谷和の里",
    "kana": "トクベツヨウゴロウジンホームタニワノサト",
    "address": "広島市安佐北区可部町綾ヶ谷2175",
    "lat": 34.562537,
    "lng": 132.4847354,
    "tel": "082-812-2111",
    "url": "http://katsugikai.jp",
    "pref": "広島県",
    "city": "広島市安佐北区",
    "category": "tokuyou",
    "serviceType": "介護老人福祉施設",
    "capacity": 84,
    "openDays": [],
    "openDaysNote": ""
  },
  {
    "id": "3470214457",
    "name": "ユニット型特別養護老人ホーム楽々園kisui",
    "kana": "ユニットガタトクベツヨウゴロウジンホームラクラクエンキスイ",
    "address": "広島県広島市佐伯区楽々園五丁目15番22号高齢者総合福祉施設楽々園kisui 高齢者総合福祉施設楽々園kisui",
    "lat": 34.3595812,
    "lng": 132.3515611,
    "tel": "082-922-2555",
    "url": "https://www.misasakai.or.jp/shisetsu/rakurakuenkisui.php",
    "pref": "広島県",
    "city": "広島市佐伯区",
    "category": "tokuyou",
    "serviceType": "介護老人福祉施設",
    "capacity": null,
    "openDays": [],
    "openDaysNote": ""
  },
  {
    "id": "3470214465",
    "name": "従来型特別養護老人ホーム楽々園kisui",
    "kana": "ジュウライガタトクベツヨウゴロウジンホームラクラクエンキスイ",
    "address": "広島県広島市佐伯区楽々園五丁目15番22号高齢者総合福祉施設楽々園kisui 高齢者総合福祉施設楽々園kisui",
    "lat": 34.3595812,
    "lng": 132.3515611,
    "tel": "082-922-2555",
    "url": "https://www.misasakai.or.jp/shisetsu/rakurakuenkisui.php",
    "pref": "広島県",
    "city": "広島市佐伯区",
    "category": "tokuyou",
    "serviceType": "介護老人福祉施設",
    "capacity": null,
    "openDays": [],
    "openDaysNote": ""
  },
  {
    "id": "3470201587",
    "name": "特別養護老人ホーム　やすらぎの里",
    "kana": "トクベツヨウゴロウジンホーム　ヤスラギノサト",
    "address": "広島市佐伯区五月が丘４丁目１５－６",
    "lat": 34.4313363,
    "lng": 132.4034051,
    "tel": "082-941-2900",
    "url": "http://www.heiwakai.jp",
    "pref": "広島県",
    "city": "広島市佐伯区",
    "category": "tokuyou",
    "serviceType": "介護老人福祉施設",
    "capacity": null,
    "openDays": [],
    "openDaysNote": ""
  },
  {
    "id": "3470203864",
    "name": "特別養護老人ホーム　五日市あかり園",
    "kana": "トクベツヨウゴロウジンホーム　イツカイチアカリエン",
    "address": "広島市佐伯区五日市町大字下河内５９１－１",
    "lat": 34.4085153,
    "lng": 132.3531381,
    "tel": "082-926-1101",
    "url": "",
    "pref": "広島県",
    "city": "広島市佐伯区",
    "category": "tokuyou",
    "serviceType": "介護老人福祉施設",
    "capacity": 0,
    "openDays": [],
    "openDaysNote": ""
  },
  {
    "id": "3473300436",
    "name": "特別養護老人ホーム　湯来保養園",
    "kana": "トクベツヨウゴロウジンホーム　ユキホヨウエン",
    "address": "広島市佐伯区湯来町大字白砂82番地の4",
    "lat": 34.4142581,
    "lng": 132.2836798,
    "tel": "0829-86-2714",
    "url": "http://www.yukihoyouen.join-us.jp/",
    "pref": "広島県",
    "city": "広島市佐伯区",
    "category": "tokuyou",
    "serviceType": "介護老人福祉施設",
    "capacity": 0,
    "openDays": [],
    "openDaysNote": ""
  },
  {
    "id": "3470201264",
    "name": "特別養護老人ホーム　陽光の家",
    "kana": "トクベツヨウゴロウジンホーム　ヨウコウノイエ",
    "address": "広島市佐伯区三宅六丁目105番地",
    "lat": 34.380021,
    "lng": 132.3361482,
    "tel": "082-921-8211",
    "url": "https://www.pia-gr.or.jp/pia/soujyukai/",
    "pref": "広島県",
    "city": "広島市佐伯区",
    "category": "tokuyou",
    "serviceType": "介護老人福祉施設",
    "capacity": 50,
    "openDays": [],
    "openDaysNote": ""
  },
  {
    "id": "3470214473",
    "name": "特別養護老人ホーム　令和の郷",
    "kana": "トクベツヨウゴロウジンホーム　レイワノサト",
    "address": "広島県広島市佐伯区湯来町大字白砂字棡市場151番地",
    "lat": 34.4191542029004,
    "lng": 132.289926364418,
    "tel": "0829-40-5553",
    "url": "https://www.shirasago-fukushikai.jp",
    "pref": "広島県",
    "city": "広島市佐伯区",
    "category": "tokuyou",
    "serviceType": "介護老人福祉施設",
    "capacity": 30,
    "openDays": [],
    "openDaysNote": ""
  },
  {
    "id": "3470213186",
    "name": "特別養護老人ホームいつかいち福寿苑",
    "kana": "トクベツヨウゴロウジンホームイツカイチフクジュエン",
    "address": "広島市佐伯区坪井一丁目31番7号",
    "lat": 34.3750748,
    "lng": 132.35101,
    "tel": "082-943-2110",
    "url": "https://www.itukaichi-fukuzyuen-web.com/",
    "pref": "広島県",
    "city": "広島市佐伯区",
    "category": "tokuyou",
    "serviceType": "介護老人福祉施設",
    "capacity": 90,
    "openDays": [],
    "openDaysNote": ""
  },
  {
    "id": "3470210976",
    "name": "特別養護老人ホームこころ三清荘",
    "kana": "トクベツヨウゴロウジンホームココロサンセイソウ",
    "address": "広島県広島市佐伯区石内北一丁目1番11号",
    "lat": 34.4454486779799,
    "lng": 132.37570706945,
    "tel": "082-962-9880",
    "url": "http://www.keizankai.or.jp/",
    "pref": "広島県",
    "city": "広島市佐伯区",
    "category": "tokuyou",
    "serviceType": "介護老人福祉施設",
    "capacity": 0,
    "openDays": [],
    "openDaysNote": ""
  },
  {
    "id": "3470201579",
    "name": "特別養護老人ホーム石内慈光園",
    "kana": "トクベツヨウゴロウジンホーム　イシウチジコウエン",
    "address": "広島県広島市佐伯区五日市町石内６４０５番地の１",
    "lat": 34.4039496,
    "lng": 132.3679952,
    "tel": "082-926-0066",
    "url": "http://www.jikouen.jp/ishiutijikouen.html",
    "pref": "広島県",
    "city": "広島市佐伯区",
    "category": "tokuyou",
    "serviceType": "介護老人福祉施設",
    "capacity": 0,
    "openDays": [],
    "openDaysNote": ""
  },
  {
    "id": "3470202742",
    "name": "特別養護老人ホーム鈴が峰",
    "kana": "トクベツヨウゴロウジンホームスズガミネ",
    "address": "広島市佐伯区五日市町皆賀104番27",
    "lat": 34.3818052,
    "lng": 132.3723473,
    "tel": "082-943-8888",
    "url": "https://www.misasakai.or.jp/",
    "pref": "広島県",
    "city": "広島市佐伯区",
    "category": "tokuyou",
    "serviceType": "介護老人福祉施設",
    "capacity": 70,
    "openDays": [],
    "openDaysNote": ""
  },
  {
    "id": "3470201116",
    "name": "特別養護老人ホーム　くすの木苑",
    "kana": "トクベツヨウゴロウジンホーム　クスノキエン",
    "address": "広島市西区福島町二丁目３３－３０",
    "lat": 34.3918301,
    "lng": 132.430271,
    "tel": "082-291-2734",
    "url": "http://kusunokien.or.jp/",
    "pref": "広島県",
    "city": "広島市西区",
    "category": "tokuyou",
    "serviceType": "介護老人福祉施設",
    "capacity": 80,
    "openDays": [],
    "openDaysNote": ""
  },
  {
    "id": "3470202148",
    "name": "特別養護老人ホーム　リバーサイド中広",
    "kana": "トクベツヨウゴロウジンホーム　リバーサイドナカヒロ",
    "address": "広島市西区中広町二丁目15番15号",
    "lat": 34.4037013,
    "lng": 132.4392592,
    "tel": "082-235-0788",
    "url": "http://www.touaikai.com",
    "pref": "広島県",
    "city": "広島市西区",
    "category": "tokuyou",
    "serviceType": "介護老人福祉施設",
    "capacity": 0,
    "openDays": [],
    "openDaysNote": ""
  },
  {
    "id": "3470201769",
    "name": "特別養護老人ホーム　千歳園",
    "kana": "トクベツヨウゴロウジンホーム　チトセエン",
    "address": "広島市西区山田新町二丁目7番2号",
    "lat": 34.3992063,
    "lng": 132.3869296,
    "tel": "082-272-5181",
    "url": "http://www.dohen.or.jp/intro/older/chitoseen01/",
    "pref": "広島県",
    "city": "広島市西区",
    "category": "tokuyou",
    "serviceType": "介護老人福祉施設",
    "capacity": 0,
    "openDays": [],
    "openDaysNote": ""
  },
  {
    "id": "3470214663",
    "name": "特別養護老人ホームこころ楠木",
    "kana": "トクベツヨウゴロウジンホームココロクスノキ",
    "address": "広島県広島市西区楠木町四丁目16番6号",
    "lat": 34.4150346,
    "lng": 132.4582836,
    "tel": "082-237-1055",
    "url": "https://kokorohome.wordpress.com/",
    "pref": "広島県",
    "city": "広島市西区",
    "category": "tokuyou",
    "serviceType": "介護老人福祉施設",
    "capacity": 40,
    "openDays": [],
    "openDaysNote": ""
  },
  {
    "id": "3470211610",
    "name": "特別養護老人ホームともの家",
    "kana": "トクベツヨウゴロウジンホームトモノイエ",
    "address": "広島県広島市西区鈴が峰町41-18",
    "lat": 34.3801504,
    "lng": 132.3929125,
    "tel": "082-270-0145",
    "url": "http://tomoe-fukushikai.or.jp/",
    "pref": "広島県",
    "city": "広島市西区",
    "category": "tokuyou",
    "serviceType": "介護老人福祉施設",
    "capacity": 0,
    "openDays": [],
    "openDaysNote": ""
  },
  {
    "id": "3470201207",
    "name": "特別養護老人ホーム三滝苑",
    "kana": "トクベツヨウゴロウジンホーム　ミタキエン",
    "address": "広島市西区三滝本町２丁目１番１－２７号",
    "lat": 34.4199608,
    "lng": 132.4496858,
    "tel": "082-237-8811",
    "url": "http://www.mitakien.net",
    "pref": "広島県",
    "city": "広島市西区",
    "category": "tokuyou",
    "serviceType": "介護老人福祉施設",
    "capacity": 0,
    "openDays": [],
    "openDaysNote": ""
  },
  {
    "id": "3470209721",
    "name": "特別養護老人ホーム第三いこいの園",
    "kana": "トクベツヨウゴロウジンホームダイサンイコイノソノ",
    "address": "広島市西区己斐上六丁目939-1",
    "lat": 34.4216491,
    "lng": 132.4237286,
    "tel": "082-275-0066",
    "url": "http://habatakinosato.jp",
    "pref": "広島県",
    "city": "広島市西区",
    "category": "tokuyou",
    "serviceType": "介護老人福祉施設",
    "capacity": 0,
    "openDays": [],
    "openDaysNote": ""
  },
  {
    "id": "3470201660",
    "name": "特別養護老人ホーム第二いこいの園",
    "kana": "トクベツヨウゴロウジンホームダイニイコイノソノ",
    "address": "広島市西区己斐上五丁目８４７－１",
    "lat": 34.4245877,
    "lng": 132.4254479,
    "tel": "082-271-6060",
    "url": "http://www.habatakinosato.jp/",
    "pref": "広島県",
    "city": "広島市西区",
    "category": "tokuyou",
    "serviceType": "介護老人福祉施設",
    "capacity": 0,
    "openDays": [],
    "openDaysNote": ""
  },
  {
    "id": "3470205083",
    "name": "特別養護老人ホームおりーぶえん",
    "kana": "トクベツヨウゴロウジンホームオリーブエン",
    "address": "広島県広島市中区吉島東二丁目17番5号",
    "lat": 34.3697738,
    "lng": 132.449735,
    "tel": "082-245-8880",
    "url": "http://www.seikeikai.server-shared.com/ori-bu/",
    "pref": "広島県",
    "city": "広島市中区",
    "category": "tokuyou",
    "serviceType": "介護老人福祉施設",
    "capacity": 0,
    "openDays": [],
    "openDaysNote": ""
  },
  {
    "id": "3470201389",
    "name": "特別養護老人ホーム悠悠タウン江波",
    "kana": "トクベツヨウゴロウジンホームユウユウタウンエバ",
    "address": "広島市中区江波西2丁目14-8",
    "lat": 34.3680629,
    "lng": 132.4288356,
    "tel": "082-296-4880",
    "url": "http://www.city.hiroshima.med.or.jp",
    "pref": "広島県",
    "city": "広島市中区",
    "category": "tokuyou",
    "serviceType": "介護老人福祉施設",
    "capacity": 0,
    "openDays": [],
    "openDaysNote": ""
  },
  {
    "id": "3470107081",
    "name": "介護老人福祉施設　サンヒルズ広島",
    "kana": "カイゴロウジンフクシシセツ　サンヒルズヒロシマ",
    "address": "広島市東区中山上1丁目24番1号",
    "lat": 34.4174502,
    "lng": 132.4947965,
    "tel": "082-289-8688",
    "url": "https://joukou.or.jp/",
    "pref": "広島県",
    "city": "広島市東区",
    "category": "tokuyou",
    "serviceType": "介護老人福祉施設",
    "capacity": 0,
    "openDays": [],
    "openDaysNote": ""
  },
  {
    "id": "3470101407",
    "name": "介護老人福祉施設寿老園",
    "kana": "カイゴロウジンフクシシセツジュロウエン",
    "address": "広島市東区山根町38番23号",
    "lat": 34.4059455,
    "lng": 132.4838228,
    "tel": "082-263-3841",
    "url": "http://www.jurouen.or.jp",
    "pref": "広島県",
    "city": "広島市東区",
    "category": "tokuyou",
    "serviceType": "介護老人福祉施設",
    "capacity": 0,
    "openDays": [],
    "openDaysNote": ""
  },
  {
    "id": "3470100946",
    "name": "特別養護老人ホーム　ふくだの里",
    "kana": "トクベツヨウゴロウジンホーム　フクダノサト",
    "address": "広島市東区福田５丁目１１６５番地の３",
    "lat": 34.4538048404386,
    "lng": 132.54253283373,
    "tel": "082-899-5088",
    "url": "http://joukou.or.jp",
    "pref": "広島県",
    "city": "広島市東区",
    "category": "tokuyou",
    "serviceType": "介護老人福祉施設",
    "capacity": 0,
    "openDays": [],
    "openDaysNote": ""
  },
  {
    "id": "3470105226",
    "name": "特別養護老人ホーム　へさか福寿苑",
    "kana": "トクベツヨウゴロウジンホーム　ヘサカフクジュエン",
    "address": "広島市東区戸坂大上1丁目5番1-8号",
    "lat": 34.4272686,
    "lng": 132.4900133,
    "tel": "082-220-2110",
    "url": "https://kakitsubata-fukushikai.com",
    "pref": "広島県",
    "city": "広島市東区",
    "category": "tokuyou",
    "serviceType": "介護老人福祉施設",
    "capacity": 0,
    "openDays": [],
    "openDaysNote": ""
  },
  {
    "id": "3470101837",
    "name": "特別養護老人ホーム　温品荘",
    "kana": "トクベツヨウゴロウジンホーム　ヌクシナソウ",
    "address": "広島市東区温品七丁目１２番３５号",
    "lat": 34.4140287,
    "lng": 132.509623,
    "tel": "082-280-2277",
    "url": "http://nukushinasou.jp/index.html",
    "pref": "広島県",
    "city": "広島市東区",
    "category": "tokuyou",
    "serviceType": "介護老人福祉施設",
    "capacity": 50,
    "openDays": [],
    "openDaysNote": ""
  },
  {
    "id": "3470101845",
    "name": "特別養護老人ホーム　虹の里",
    "kana": "トクベツヨウゴロウジンホーム　ニジノサト",
    "address": "広島市東区馬木2-1398-1",
    "lat": 34.4381714,
    "lng": 132.5278985,
    "tel": "082-508-5551",
    "url": "http://nijinosato.info",
    "pref": "広島県",
    "city": "広島市東区",
    "category": "tokuyou",
    "serviceType": "介護老人福祉施設",
    "capacity": 0,
    "openDays": [],
    "openDaysNote": ""
  },
  {
    "id": "3470101811",
    "name": "特別養護老人ホーム　蓬莱園",
    "kana": "トクベツヨウゴロウジンホーム　ホウライエン",
    "address": "広島市東区東山町1番9号",
    "lat": 34.3985888644781,
    "lng": 132.491328355225,
    "tel": "082-264-0808",
    "url": "http:/www.kokemakai.jp/",
    "pref": "広島県",
    "city": "広島市東区",
    "category": "tokuyou",
    "serviceType": "介護老人福祉施設",
    "capacity": null,
    "openDays": [],
    "openDaysNote": ""
  },
  {
    "id": "3470109152",
    "name": "特別養護老人ホームあけぼの寿老園",
    "kana": "トクベツヨウゴロウジンホームアケボノジュロウエン",
    "address": "広島県広島市東区曙1-1-28",
    "lat": 34.3960682,
    "lng": 132.4881831,
    "tel": "082-568-6541",
    "url": "http:/www.jurouen.or.jp",
    "pref": "広島県",
    "city": "広島市東区",
    "category": "tokuyou",
    "serviceType": "介護老人福祉施設",
    "capacity": 0,
    "openDays": [],
    "openDaysNote": ""
  },
  {
    "id": "3470101761",
    "name": "特別養護老人ホーム神田山長生園",
    "kana": "トクベツヨウゴロウジンホームカンダヤマチョウセイエン",
    "address": "広島市東区牛田新町１丁目１８番１号",
    "lat": 34.4195971,
    "lng": 132.4735092,
    "tel": "082-228-9231",
    "url": "http://www.tyoseien.jp",
    "pref": "広島県",
    "city": "広島市東区",
    "category": "tokuyou",
    "serviceType": "介護老人福祉施設",
    "capacity": 50,
    "openDays": [],
    "openDaysNote": ""
  },
  {
    "id": "3470109384",
    "name": "特別養護老人ホーム第二光明",
    "kana": "トクベツヨウゴロウジンホームダイニコウミョウ",
    "address": "広島県広島市東区牛田本町6-1-1",
    "lat": 34.4151308,
    "lng": 132.4674682,
    "tel": "082-207-4611",
    "url": "http://komyogakuen.jp",
    "pref": "広島県",
    "city": "広島市東区",
    "category": "tokuyou",
    "serviceType": "介護老人福祉施設",
    "capacity": null,
    "openDays": [],
    "openDaysNote": ""
  },
  {
    "id": "3470108048",
    "name": "虹の里　第２特別養護老人ホーム",
    "kana": "ニジノサト　ダイニトクベツヨウゴロウジンホーム",
    "address": "広島県広島市東区馬木三丁目26-2-4",
    "lat": 34.4352772,
    "lng": 132.5309288,
    "tel": "082-516-5225",
    "url": "http://nijinosato.info",
    "pref": "広島県",
    "city": "広島市東区",
    "category": "tokuyou",
    "serviceType": "介護老人福祉施設",
    "capacity": 0,
    "openDays": [],
    "openDaysNote": ""
  },
  {
    "id": "3470110275",
    "name": "ＩＧＬナーシングホーム信愛の郷",
    "kana": "アイジイエルナーシングホームシンアイノサト",
    "address": "広島県広島市南区本浦町8番39号",
    "lat": 34.3743148903712,
    "lng": 132.486342758197,
    "tel": "082-510-3365",
    "url": "https://www.igl.or.jp/",
    "pref": "広島県",
    "city": "広島市南区",
    "category": "tokuyou",
    "serviceType": "介護老人福祉施設",
    "capacity": null,
    "openDays": [],
    "openDaysNote": ""
  },
  {
    "id": "3470106737",
    "name": "特別養護老人ホーム　広島八景園",
    "kana": "トクベツヨウゴロウジンホーム　ヒロシマハッケイエン",
    "address": "広島市南区仁保１丁目１番２０号",
    "lat": 34.3737384,
    "lng": 132.4943284,
    "tel": "082-581-8882",
    "url": "http://hakkeien.hiroshimakosei.or.jp/",
    "pref": "広島県",
    "city": "広島市南区",
    "category": "tokuyou",
    "serviceType": "介護老人福祉施設",
    "capacity": 60,
    "openDays": [],
    "openDaysNote": ""
  },
  {
    "id": "3470101878",
    "name": "特別養護老人ホーム　広島平和養老館",
    "kana": "トクベツヨウゴロウジンホームヒロシマヘイワヨウロウカン",
    "address": "広島市南区似島町字東大谷３０７３－５",
    "lat": 34.3117363,
    "lng": 132.4330785,
    "tel": "082-259-2709",
    "url": "http://heiwa-youroukan.jp/contents/index.html",
    "pref": "広島県",
    "city": "広島市南区",
    "category": "tokuyou",
    "serviceType": "介護老人福祉施設",
    "capacity": 0,
    "openDays": [],
    "openDaysNote": ""
  },
  {
    "id": "3470101035",
    "name": "特別養護老人ホーム　広島和光園",
    "kana": "トクベツヨウゴロウジンホーム　ヒロシマワコウエン",
    "address": "広島市南区宇品東三丁目６－２６",
    "lat": 34.3642944,
    "lng": 132.473025,
    "tel": "082-252-8070",
    "url": "https://wakoen.or.jp/",
    "pref": "広島県",
    "city": "広島市南区",
    "category": "tokuyou",
    "serviceType": "介護老人福祉施設",
    "capacity": 0,
    "openDays": [],
    "openDaysNote": ""
  },
  {
    "id": "3470104286",
    "name": "特別養護老人ホームサンシャイン南蟹屋",
    "kana": "トクベツヨウゴロウジンホームサンシャインミナミカニヤ",
    "address": "広島市南区南蟹屋一丁目８番１２号",
    "lat": 34.3896057,
    "lng": 132.4836233,
    "tel": "082-508-1321",
    "url": "https://www.sunshine-m.jp/",
    "pref": "広島県",
    "city": "広島市南区",
    "category": "tokuyou",
    "serviceType": "介護老人福祉施設",
    "capacity": 0,
    "openDays": [],
    "openDaysNote": ""
  },
  {
    "id": "3470107099",
    "name": "特別養護老人ホームでじま・くにくさ",
    "kana": "トクベツヨウゴロウジンホームデジマ・クニクサ",
    "address": "広島市南区出島1丁目18番17号",
    "lat": 34.3610776,
    "lng": 132.4549598,
    "tel": "082-256-9293",
    "url": "http://www.kunikusa.or.jp/",
    "pref": "広島県",
    "city": "広島市南区",
    "category": "tokuyou",
    "serviceType": "介護老人福祉施設",
    "capacity": 0,
    "openDays": [],
    "openDaysNote": ""
  },
  {
    "id": "3470101852",
    "name": "特別養護老人ホームひうな荘",
    "kana": "トクベツヨウゴロウジンホームヒウナソウ",
    "address": "広島市南区日宇那町30-1",
    "lat": 34.3656837,
    "lng": 132.492701,
    "tel": "082-256-1001",
    "url": "https://www.misasakai.or.jp/",
    "pref": "広島県",
    "city": "広島市南区",
    "category": "tokuyou",
    "serviceType": "介護老人福祉施設",
    "capacity": 0,
    "openDays": [],
    "openDaysNote": ""
  },
  {
    "id": "3470101860",
    "name": "特別養護老人ホーム輝き",
    "kana": "トクベツヨウゴロウジンホームカガヤキ",
    "address": "広島市南区北大河町39-1",
    "lat": 34.3715134836263,
    "lng": 132.482343330025,
    "tel": "082-285-6005",
    "url": "https://kagayaki-houshikai.or.jp",
    "pref": "広島県",
    "city": "広島市南区",
    "category": "tokuyou",
    "serviceType": "介護老人福祉施設",
    "capacity": null,
    "openDays": [],
    "openDaysNote": ""
  },
  {
    "id": "3470101472",
    "name": "特別養護老人ホーム光清苑",
    "kana": "トクベツヨウゴロウジンホーム　コウセイエン",
    "address": "広島市南区出汐2丁目3番46号",
    "lat": 34.376207,
    "lng": 132.4760078,
    "tel": "082-505-0250",
    "url": "https://kousei-g.net",
    "pref": "広島県",
    "city": "広島市南区",
    "category": "tokuyou",
    "serviceType": "介護老人福祉施設",
    "capacity": 50,
    "openDays": [],
    "openDaysNote": ""
  },
  {
    "id": "3473300352",
    "name": "特別養護老人ホーム江能",
    "kana": "トクベツヨウゴロウジンホームエノウ",
    "address": "江田島市大柿町飛渡瀬4027番地2",
    "lat": 34.215122048645,
    "lng": 132.46669766309,
    "tel": "0823-57-7100",
    "url": "http://enou01.com/",
    "pref": "広島県",
    "city": "江田島市",
    "category": "tokuyou",
    "serviceType": "介護老人福祉施設",
    "capacity": null,
    "openDays": [],
    "openDaysNote": ""
  },
  {
    "id": "3473100471",
    "name": "特別養護老人ホーム誠心園",
    "kana": "トクベツヨウゴロウジンホームセイシンエン",
    "address": "江田島市江田島町宮ノ原三丁目20番1号",
    "lat": 34.2622561,
    "lng": 132.4513753,
    "tel": "0823-42-0505",
    "url": "http://www.seishinen.jp/",
    "pref": "広島県",
    "city": "江田島市",
    "category": "tokuyou",
    "serviceType": "介護老人福祉施設",
    "capacity": 0,
    "openDays": [],
    "openDaysNote": ""
  },
  {
    "id": "3473100497",
    "name": "特別養護老人ホームたかね荘",
    "kana": "トクベツヨウゴロウジンホームタカネソウ",
    "address": "広島県安芸郡坂町北新地二丁目3番10号",
    "lat": 34.3503993598409,
    "lng": 132.519523364557,
    "tel": "082-885-3636",
    "url": "http://www.saiseikai.com/welfare/takane-sou/",
    "pref": "広島県",
    "city": "坂町",
    "category": "tokuyou",
    "serviceType": "介護老人福祉施設",
    "capacity": null,
    "openDays": [],
    "openDaysNote": ""
  },
  {
    "id": "3474100231",
    "name": "特別養護老人ホーム　亀甲園",
    "kana": "トクベツヨウゴロウジンホーム　キッコウエン",
    "address": "三原市久井町江木１６１番地１",
    "lat": 34.5394139,
    "lng": 133.0395838,
    "tel": "0847-32-6050",
    "url": "http://kikkou-en.or.jp",
    "pref": "広島県",
    "city": "三原市",
    "category": "tokuyou",
    "serviceType": "介護老人福祉施設",
    "capacity": null,
    "openDays": [],
    "openDaysNote": ""
  },
  {
    "id": "3470900477",
    "name": "特別養護老人ホーム　三原慶雲寮",
    "kana": "トクベツヨウゴロウジンホーム　ミハラケイウンリョウ",
    "address": "三原市小坂町1550番地",
    "lat": 34.4314059,
    "lng": 133.0109544,
    "tel": "0848-66-2630",
    "url": "https://keiunryo.or.jp",
    "pref": "広島県",
    "city": "三原市",
    "category": "tokuyou",
    "serviceType": "介護老人福祉施設",
    "capacity": 0,
    "openDays": [],
    "openDaysNote": ""
  },
  {
    "id": "3470901657",
    "name": "特別養護老人ホーム　白滝園",
    "kana": "トクベツヨウゴロウジンホーム　シラタキエン",
    "address": "広島県三原市小泉町116番地1",
    "lat": 34.3718417,
    "lng": 132.9894583,
    "tel": "0848-66-3214",
    "url": "https://mihara-nozomi.jp",
    "pref": "広島県",
    "city": "三原市",
    "category": "tokuyou",
    "serviceType": "介護老人福祉施設",
    "capacity": 50,
    "openDays": [],
    "openDaysNote": ""
  },
  {
    "id": "3470901780",
    "name": "特別養護老人ホームくすのき・めぐみ苑",
    "kana": "トクベツヨウゴロウジンホームクスノキ・メグミエン",
    "address": "広島県三原市城町3-6-1",
    "lat": 34.3967584,
    "lng": 133.0828791,
    "tel": "0848-63-1230",
    "url": "http://matsutomo.or.jp/kusunokimegumien/",
    "pref": "広島県",
    "city": "三原市",
    "category": "tokuyou",
    "serviceType": "介護老人福祉施設",
    "capacity": 30,
    "openDays": [],
    "openDaysNote": ""
  },
  {
    "id": "3470900493",
    "name": "特別養護老人ホームサンライズ大池",
    "kana": "トクベツヨウゴロウジンホームサンライズオオイケ",
    "address": "三原市深町583番地",
    "lat": 34.4313276,
    "lng": 133.1288424,
    "tel": "0848-60-0630",
    "url": "http://www.snrs.or.jp",
    "pref": "広島県",
    "city": "三原市",
    "category": "tokuyou",
    "serviceType": "介護老人福祉施設",
    "capacity": 64,
    "openDays": [],
    "openDaysNote": ""
  },
  {
    "id": "3470900337",
    "name": "特別養護老人ホームすなみ荘",
    "kana": "トクベツヨウゴロウジンホームスナミソウ",
    "address": "三原市須波ハイツ二丁目26番27号",
    "lat": 34.3542999578233,
    "lng": 133.076811462427,
    "tel": "0848-69-0181",
    "url": "https://matsutomo.or.jp",
    "pref": "広島県",
    "city": "三原市",
    "category": "tokuyou",
    "serviceType": "介護老人福祉施設",
    "capacity": 78,
    "openDays": [],
    "openDaysNote": ""
  },
  {
    "id": "3473900383",
    "name": "特別養護老人ホーム梅菅園",
    "kana": "トクベツヨウゴロウジンホームバイカンエン",
    "address": "三原市下北方2丁目9番1号",
    "lat": 34.4105057,
    "lng": 132.9737153,
    "tel": "0848-86-1750",
    "url": "https://baikanen.jp/",
    "pref": "広島県",
    "city": "三原市",
    "category": "tokuyou",
    "serviceType": "介護老人福祉施設",
    "capacity": 0,
    "openDays": [],
    "openDaysNote": ""
  },
  {
    "id": "3471900229",
    "name": "特別養護老人ホーム　くるみ荘",
    "kana": "トクベツヨウゴロウジンホーム　クルミソウ",
    "address": "三次市粟屋町1718番地の2",
    "lat": 34.810064334396,
    "lng": 132.837210428311,
    "tel": "0824-63-6258",
    "url": "https://www.kurumikai.com/",
    "pref": "広島県",
    "city": "三次市",
    "category": "tokuyou",
    "serviceType": "介護老人福祉施設",
    "capacity": 0,
    "openDays": [],
    "openDaysNote": ""
  },
  {
    "id": "3474800343",
    "name": "特別養護老人ホーム　こじか荘",
    "kana": "トクベツヨウゴロウジンホーム　コジカソウ",
    "address": "三次市吉舎町敷地１００６８番地５",
    "lat": 34.7573898,
    "lng": 132.9668217,
    "tel": "0824-43-3117",
    "url": "https://tomoekai-miyoshi.jp/",
    "pref": "広島県",
    "city": "三次市",
    "category": "tokuyou",
    "serviceType": "介護老人福祉施設",
    "capacity": 50,
    "openDays": [],
    "openDaysNote": ""
  },
  {
    "id": "3471900195",
    "name": "特別養護老人ホーム　ルンビニ園",
    "kana": "トクベツヨウゴロウジンホーム　ルンビニエン",
    "address": "三次市山家町５９７番地",
    "lat": 34.847238,
    "lng": 132.8389766,
    "tel": "0824-62-2631",
    "url": "https://jishokai.jp/",
    "pref": "広島県",
    "city": "三次市",
    "category": "tokuyou",
    "serviceType": "介護老人福祉施設",
    "capacity": 38,
    "openDays": [],
    "openDaysNote": ""
  },
  {
    "id": "3474800350",
    "name": "特別養護老人ホーム喜楽園",
    "kana": "トクベツヨウゴロウジンホームキラクエン",
    "address": "三次市三和町下板木10695-1",
    "lat": 34.6863122419157,
    "lng": 132.839454144844,
    "tel": "0824-52-2346",
    "url": "http://www.miwakai-kirakuen.or.jp/",
    "pref": "広島県",
    "city": "三次市",
    "category": "tokuyou",
    "serviceType": "介護老人福祉施設",
    "capacity": 60,
    "openDays": [],
    "openDaysNote": ""
  },
  {
    "id": "3474800368",
    "name": "特別養護老人ホーム江水園",
    "kana": "トクベツヨウゴロウジンホームコウスイエン",
    "address": "三次市作木町香淀６５５番地",
    "lat": 34.8256572,
    "lng": 132.7268432,
    "tel": "0824-55-3388",
    "url": "",
    "pref": "広島県",
    "city": "三次市",
    "category": "tokuyou",
    "serviceType": "介護老人福祉施設",
    "capacity": 0,
    "openDays": [],
    "openDaysNote": ""
  },
  {
    "id": "3474800160",
    "name": "特別養護老人ホーム松伯園",
    "kana": "トクベツヨウゴロウジンホームショウハクエン",
    "address": "三次市君田町東入君209番地1",
    "lat": 34.8720605,
    "lng": 132.8429894,
    "tel": "0824-53-2016",
    "url": "http://www.bihoku-k.jp/",
    "pref": "広島県",
    "city": "三次市",
    "category": "tokuyou",
    "serviceType": "介護老人福祉施設",
    "capacity": 62,
    "openDays": [],
    "openDaysNote": ""
  },
  {
    "id": "3471900112",
    "name": "特別養護老人ホーム水明園",
    "kana": "トクベツヨウゴロウジンホーム　スイメイエン",
    "address": "三次市南畑敷町４４１番地",
    "lat": 34.8058542318603,
    "lng": 132.877985769312,
    "tel": "0824-62-2841",
    "url": "http://suimeikai.org/",
    "pref": "広島県",
    "city": "三次市",
    "category": "tokuyou",
    "serviceType": "介護老人福祉施設",
    "capacity": 0,
    "openDays": [],
    "openDaysNote": ""
  },
  {
    "id": "3474700220",
    "name": "特別養護老人ホーム美山莊",
    "kana": "トクベツヨウゴロウジンホームミヤマソウ",
    "address": "三次市甲奴町本郷１６７４番地",
    "lat": 34.6970313,
    "lng": 133.0816036,
    "tel": "0847-67-2188",
    "url": "http://miyamasou.com/",
    "pref": "広島県",
    "city": "三次市",
    "category": "tokuyou",
    "serviceType": "介護老人福祉施設",
    "capacity": 0,
    "openDays": [],
    "openDaysNote": ""
  },
  {
    "id": "3472100407",
    "name": "特別養護老人ホーム　故郷－高野",
    "kana": "トクベツヨウゴロウジンホーム　フルサト－タカノ",
    "address": "広島県庄原市高野町新市字柏奥５１７７番地１",
    "lat": 35.0370535747051,
    "lng": 132.915339471209,
    "tel": "0824-86-7017",
    "url": "http://www.touki-kai.or.jp/",
    "pref": "広島県",
    "city": "庄原市",
    "category": "tokuyou",
    "serviceType": "介護老人福祉施設",
    "capacity": 30,
    "openDays": [],
    "openDaysNote": ""
  },
  {
    "id": "3474900408",
    "name": "特別養護老人ホームハートウイング",
    "kana": "トクベツヨウゴロウジンホームハートウイング",
    "address": "庄原市口和町永田413番地",
    "lat": 34.8880631,
    "lng": 132.9184017,
    "tel": "0824-89-2700",
    "url": "http://kuchiwa-fukushikai.jp",
    "pref": "広島県",
    "city": "庄原市",
    "category": "tokuyou",
    "serviceType": "介護老人福祉施設",
    "capacity": 0,
    "openDays": [],
    "openDaysNote": ""
  },
  {
    "id": "3472100175",
    "name": "特別養護老人ホームハピネスヒル",
    "kana": "トクベツヨウゴロウジンホームハピネスヒル",
    "address": "庄原市掛田町542番地1",
    "lat": 34.8657302,
    "lng": 133.0015628,
    "tel": "0824-72-9500",
    "url": "",
    "pref": "広島県",
    "city": "庄原市",
    "category": "tokuyou",
    "serviceType": "介護老人福祉施設",
    "capacity": 0,
    "openDays": [],
    "openDaysNote": ""
  },
  {
    "id": "3474700212",
    "name": "特別養護老人ホームユーシャイン",
    "kana": "トクベツヨウゴロウジンホームユーシャイン",
    "address": "庄原市総領町中領家476番地",
    "lat": 34.7932239,
    "lng": 133.1070102,
    "tel": "0824-88-3000",
    "url": "https://www.yuukifukushikai.com/",
    "pref": "広島県",
    "city": "庄原市",
    "category": "tokuyou",
    "serviceType": "介護老人福祉施設",
    "capacity": 0,
    "openDays": [],
    "openDaysNote": ""
  },
  {
    "id": "3474900390",
    "name": "特別養護老人ホーム愛善苑",
    "kana": "トクベツヨウゴロウジンホームアイゼンエン",
    "address": "庄原市西城町大佐5148番地1",
    "lat": 34.9570273,
    "lng": 133.1299578,
    "tel": "0824-82-2139",
    "url": "https://saijyofukushikai.jp/",
    "pref": "広島県",
    "city": "庄原市",
    "category": "tokuyou",
    "serviceType": "介護老人福祉施設",
    "capacity": null,
    "openDays": [],
    "openDaysNote": ""
  },
  {
    "id": "3474900333",
    "name": "特別養護老人ホーム吾妻園",
    "kana": "トクベツヨウゴロウジンホームアヅマエン",
    "address": "広島県庄原市比和町比和1190",
    "lat": 34.985523,
    "lng": 132.9814265,
    "tel": "0824-85-2100",
    "url": "",
    "pref": "広島県",
    "city": "庄原市",
    "category": "tokuyou",
    "serviceType": "介護老人福祉施設",
    "capacity": 0,
    "openDays": [],
    "openDaysNote": ""
  },
  {
    "id": "3472100183",
    "name": "特別養護老人ホーム相扶園",
    "kana": "トクベツヨウゴロウジンホームソウフエン",
    "address": "庄原市尾引町２６３番地２",
    "lat": 34.8159126,
    "lng": 132.9363678,
    "tel": "0824-74-0530",
    "url": "http://www.soufuen.or.jp",
    "pref": "広島県",
    "city": "庄原市",
    "category": "tokuyou",
    "serviceType": "介護老人福祉施設",
    "capacity": 52,
    "openDays": [],
    "openDaysNote": ""
  },
  {
    "id": "3472100563",
    "name": "風の街みやびら特別養護老人ホーム",
    "kana": "カゼノマチミヤビラトクベツヨウゴロウジンホーム",
    "address": "広島県庄原市東城町川西1332番地5",
    "lat": 34.9111528789104,
    "lng": 133.261477911409,
    "tel": "08477-2-3745",
    "url": "https://www.alice.or.jp/",
    "pref": "広島県",
    "city": "庄原市",
    "category": "tokuyou",
    "serviceType": "介護老人福祉施設",
    "capacity": 0,
    "openDays": [],
    "openDaysNote": ""
  },
  {
    "id": "3474600172",
    "name": "特別養護老人ホーム　シルトピア油木",
    "kana": "トクベツヨウゴロウジンホーム　シルトピアユキ",
    "address": "広島県神石郡神石高原町油木甲５０７１番地１",
    "lat": 34.788234,
    "lng": 133.2680378,
    "tel": "0847-82-2124",
    "url": "http://www.alice.or.jp",
    "pref": "広島県",
    "city": "神石高原町",
    "category": "tokuyou",
    "serviceType": "介護老人福祉施設",
    "capacity": 53,
    "openDays": [],
    "openDaysNote": ""
  },
  {
    "id": "3474600248",
    "name": "特別養護老人ホーム四季の家",
    "kana": "トクベツヨウゴロウジンホームシキノイエ",
    "address": "広島県神石郡神石高原町油木甲5071番地1",
    "lat": 34.7890126,
    "lng": 133.2676886,
    "tel": "0847-82-2124",
    "url": "https://www.alice.or.jp/",
    "pref": "広島県",
    "city": "神石高原町",
    "category": "tokuyou",
    "serviceType": "介護老人福祉施設",
    "capacity": null,
    "openDays": [],
    "openDaysNote": ""
  },
  {
    "id": "3474600123",
    "name": "特別養護老人ホーム神寿苑",
    "kana": "トクベツヨウゴロウジンホームシンジュエン",
    "address": "広島県神石郡神石高原町福永1466番地",
    "lat": 34.8008479740981,
    "lng": 133.173090433117,
    "tel": "0847-87-0190",
    "url": "http://jinseki-shinjyuen.jp",
    "pref": "広島県",
    "city": "神石高原町",
    "category": "tokuyou",
    "serviceType": "介護老人福祉施設",
    "capacity": 52,
    "openDays": [],
    "openDaysNote": ""
  },
  {
    "id": "3474200171",
    "name": "特別養護老人ホーム　高竜園",
    "kana": "トクベツヨウゴロウジンホーム　コウリュウエン",
    "address": "広島県世羅郡世羅町大字西上原426番地11",
    "lat": 34.5892557,
    "lng": 133.0596787,
    "tel": "0847-22-3478",
    "url": "http://www.kouryuuen.com/",
    "pref": "広島県",
    "city": "世羅町",
    "category": "tokuyou",
    "serviceType": "介護老人福祉施設",
    "capacity": null,
    "openDays": [],
    "openDaysNote": ""
  },
  {
    "id": "3474200239",
    "name": "特別養護老人ホームせせらぎ園",
    "kana": "トクベツヨウゴロウジンホームセセラギエン",
    "address": "広島県世羅郡世羅町大字小国１０８８９番地２３",
    "lat": 34.6065536833698,
    "lng": 132.943826759998,
    "tel": "0847-37-2550",
    "url": "http://www.kurumikai.com/",
    "pref": "広島県",
    "city": "世羅町",
    "category": "tokuyou",
    "serviceType": "介護老人福祉施設",
    "capacity": 0,
    "openDays": [],
    "openDaysNote": ""
  },
  {
    "id": "3473900292",
    "name": "特別養護老人ホーム　大崎荘",
    "kana": "トクベツヨウゴロウジンホーム　オオサキソウ",
    "address": "広島県豊田郡大崎上島町沖浦1539番地1",
    "lat": 34.2150425,
    "lng": 132.904664,
    "tel": "0846-63-1112",
    "url": "http://osakifukushikai.jp/",
    "pref": "広島県",
    "city": "大崎上島町",
    "category": "tokuyou",
    "serviceType": "介護老人福祉施設",
    "capacity": 0,
    "openDays": [],
    "openDaysNote": ""
  },
  {
    "id": "3473900672",
    "name": "特別養護老人ホームみゆき",
    "kana": "トクベツヨウゴロウジンホームミユキ",
    "address": "広島県豊田郡大崎上島町東野2701番地",
    "lat": 34.2609821,
    "lng": 132.9088491,
    "tel": "0846-65-3980",
    "url": "https://www.higashinokai.jp/social-welfare/",
    "pref": "広島県",
    "city": "大崎上島町",
    "category": "tokuyou",
    "serviceType": "介護老人福祉施設",
    "capacity": 0,
    "openDays": [],
    "openDaysNote": ""
  },
  {
    "id": "3473900334",
    "name": "特別養護老人ホーム大崎美浜荘",
    "kana": "トクベツヨウゴロウジンホームオオサキミハマソウ",
    "address": "広島県豊田郡大崎上島町大串３０３２番地１",
    "lat": 34.2381382,
    "lng": 132.8459398,
    "tel": "0846-67-5112",
    "url": "http://osakifukushikai.jp",
    "pref": "広島県",
    "city": "大崎上島町",
    "category": "tokuyou",
    "serviceType": "介護老人福祉施設",
    "capacity": 50,
    "openDays": [],
    "openDaysNote": ""
  },
  {
    "id": "3472300171",
    "name": "特別養護老人ホームゆうあいホーム",
    "kana": "トクベツヨウゴロウジンホームユウアイホーム",
    "address": "大竹市玖波４丁目８番８号",
    "lat": 34.2522117,
    "lng": 132.2255996,
    "tel": "0827-57-7500",
    "url": "https://o-yuai.or.jp/",
    "pref": "広島県",
    "city": "大竹市",
    "category": "tokuyou",
    "serviceType": "介護老人福祉施設",
    "capacity": null,
    "openDays": [],
    "openDaysNote": ""
  },
  {
    "id": "3470700414",
    "name": "特別養護老人ホーム　ハートフル竹原中央",
    "kana": "トクベツヨウゴロウジンホーム　ハートフルタケハラチュウオウ",
    "address": "竹原市中央三丁目10番14号",
    "lat": 34.3438329,
    "lng": 132.9089463,
    "tel": "0846-23-5111",
    "url": "http://www.jinjyukai-takehara.or.jp",
    "pref": "広島県",
    "city": "竹原市",
    "category": "tokuyou",
    "serviceType": "介護老人福祉施設",
    "capacity": 50,
    "openDays": [],
    "openDaysNote": ""
  },
  {
    "id": "3470700232",
    "name": "特別養護老人ホーム　瀬戸内園",
    "kana": "トクベツヨウゴロウジンホーム　セトウチエン",
    "address": "竹原市港町四丁目５番１号",
    "lat": 34.329435,
    "lng": 132.9191006,
    "tel": "0846-24-6113",
    "url": "http://www.matobakai.or.jp/",
    "pref": "広島県",
    "city": "竹原市",
    "category": "tokuyou",
    "serviceType": "介護老人福祉施設",
    "capacity": null,
    "openDays": [],
    "openDaysNote": ""
  },
  {
    "id": "3470700299",
    "name": "特別養護老人ホーム宗越園",
    "kana": "トクベツヨウゴロウジンホーム　ムナコシエン",
    "address": "広島県竹原市吉名町宗越７９３番地",
    "lat": 34.3062188,
    "lng": 132.8749792,
    "tel": "0846-25-1900",
    "url": "http://munakoshi.sakura.ne.jp/",
    "pref": "広島県",
    "city": "竹原市",
    "category": "tokuyou",
    "serviceType": "介護老人福祉施設",
    "capacity": 0,
    "openDays": [],
    "openDaysNote": ""
  },
  {
    "id": "3472500366",
    "name": "特別養護老人ホーム　長寿苑",
    "kana": "トクベツヨウゴロウジンホーム　チョウジュエン",
    "address": "東広島市西条町馬木1566番地",
    "lat": 34.359943,
    "lng": 132.7209084,
    "tel": "082-425-2000",
    "url": "https://chojuen.jp",
    "pref": "広島県",
    "city": "東広島市",
    "category": "tokuyou",
    "serviceType": "介護老人福祉施設",
    "capacity": 0,
    "openDays": [],
    "openDaysNote": ""
  },
  {
    "id": "3473800203",
    "name": "特別養護老人ホーム　豊邑苑",
    "kana": "トクベツヨウゴロウジンホーム　ホウユウエン",
    "address": "東広島市豊栄町能良413番地",
    "lat": 34.5413223,
    "lng": 132.8425341,
    "tel": "082-432-2250",
    "url": "https://www.koujinkai21.or.jp",
    "pref": "広島県",
    "city": "東広島市",
    "category": "tokuyou",
    "serviceType": "介護老人福祉施設",
    "capacity": 60,
    "openDays": [],
    "openDaysNote": ""
  },
  {
    "id": "3474000191",
    "name": "特別養護老人ホームあきまろ園",
    "kana": "トクベツヨウゴロウジンホームアキマロエン",
    "address": "東広島市安芸津町風早４９７番地５",
    "lat": 34.3164131,
    "lng": 132.785915,
    "tel": "0846-45-5600",
    "url": "http://hakujukai.jp",
    "pref": "広島県",
    "city": "東広島市",
    "category": "tokuyou",
    "serviceType": "介護老人福祉施設",
    "capacity": 50,
    "openDays": [],
    "openDaysNote": ""
  },
  {
    "id": "3472501950",
    "name": "特別養護老人ホームさくら園",
    "kana": "トクベツヨウゴロウジンホームサクラエン",
    "address": "東広島市黒瀬町乃美尾555番地1",
    "lat": 34.3165023,
    "lng": 132.6911013,
    "tel": "0823-83-6060",
    "url": "http://www.aoikai.jp/",
    "pref": "広島県",
    "city": "東広島市",
    "category": "tokuyou",
    "serviceType": "介護老人福祉施設",
    "capacity": 0,
    "openDays": [],
    "openDaysNote": ""
  },
  {
    "id": "3472502792",
    "name": "特別養護老人ホームユニット型大仙園",
    "kana": "トクベツヨウゴロウジンホームユニットガタダイセンエン",
    "address": "広島県東広島市河内町入野12138番地14",
    "lat": 34.4250613,
    "lng": 132.8814132,
    "tel": "082-437-1631",
    "url": "http://nh-daisenen.jp/",
    "pref": "広島県",
    "city": "東広島市",
    "category": "tokuyou",
    "serviceType": "介護老人福祉施設",
    "capacity": 0,
    "openDays": [],
    "openDaysNote": ""
  },
  {
    "id": "3472500424",
    "name": "特別養護老人ホーム御薗寮",
    "kana": "トクベツヨウゴロウジンホームミソノリョウ",
    "address": "広島県東広島市高屋町高屋堀３４８６番地",
    "lat": 34.4592919,
    "lng": 132.8104654,
    "tel": "082-434-0455",
    "url": "https://www.misonoryo.com",
    "pref": "広島県",
    "city": "東広島市",
    "category": "tokuyou",
    "serviceType": "介護老人福祉施設",
    "capacity": 84,
    "openDays": [],
    "openDaysNote": ""
  },
  {
    "id": "3472500580",
    "name": "特別養護老人ホーム桜が丘保養園",
    "kana": "トクベツヨウゴロウジンホームサクラガオカホヨウエン",
    "address": "東広島市西条町寺家５９７６",
    "lat": 34.4376514,
    "lng": 132.7358375,
    "tel": "082-423-2595",
    "url": "http://www.sakuragaoka.org",
    "pref": "広島県",
    "city": "東広島市",
    "category": "tokuyou",
    "serviceType": "介護老人福祉施設",
    "capacity": 0,
    "openDays": [],
    "openDaysNote": ""
  },
  {
    "id": "3472500465",
    "name": "特別養護老人ホーム新生園",
    "kana": "トクベツヨウゴロウジンホームシンセイエン",
    "address": "東広島市八本松町原１１１７１－１",
    "lat": 34.4093205,
    "lng": 132.6930177,
    "tel": "082-429-0350",
    "url": "http://www.aoikai.jp",
    "pref": "広島県",
    "city": "東広島市",
    "category": "tokuyou",
    "serviceType": "介護老人福祉施設",
    "capacity": 100,
    "openDays": [],
    "openDaysNote": ""
  },
  {
    "id": "3472500630",
    "name": "特別養護老人ホーム造賀福祉園",
    "kana": "トクベツヨウゴロウジンホームゾウカフクシエン",
    "address": "東広島市高屋町造賀708番地",
    "lat": 34.5000064,
    "lng": 132.7697985,
    "tel": "082-436-0009",
    "url": "http://www.zoukanosato.net/",
    "pref": "広島県",
    "city": "東広島市",
    "category": "tokuyou",
    "serviceType": "介護老人福祉施設",
    "capacity": null,
    "openDays": [],
    "openDaysNote": ""
  },
  {
    "id": "3473800211",
    "name": "特別養護老人ホーム大仙園",
    "kana": "トクベツヨウゴロウジンホームダイセンエン",
    "address": "広島県東広島市河内町入野12138番地14",
    "lat": 34.4250613,
    "lng": 132.8814132,
    "tel": "082-437-1631",
    "url": "http://nh-daisenen.jp/",
    "pref": "広島県",
    "city": "東広島市",
    "category": "tokuyou",
    "serviceType": "介護老人福祉施設",
    "capacity": 0,
    "openDays": [],
    "openDaysNote": ""
  },
  {
    "id": "3472700883",
    "name": "ユニット型特別養護老人ホーム原",
    "kana": "ユニットガタトクベツヨウゴロウジンホームハラ",
    "address": "廿日市市原926番地の1",
    "lat": 34.3679204448995,
    "lng": 132.300055808598,
    "tel": "0829-38-3333",
    "url": "http://www.misasakai.or.jp/",
    "pref": "広島県",
    "city": "廿日市市",
    "category": "tokuyou",
    "serviceType": "介護老人福祉施設",
    "capacity": 0,
    "openDays": [],
    "openDaysNote": ""
  },
  {
    "id": "3472700263",
    "name": "特別養護老人ホーム　清鈴園",
    "kana": "トクベツヨウゴロウジンホーム　セイレイエン",
    "address": "廿日市市原10362-2",
    "lat": 34.3791568,
    "lng": 132.3081736,
    "tel": "0829-38-0011",
    "url": "http://www.seireien.jp/",
    "pref": "広島県",
    "city": "廿日市市",
    "category": "tokuyou",
    "serviceType": "介護老人福祉施設",
    "capacity": 0,
    "openDays": [],
    "openDaysNote": ""
  },
  {
    "id": "3473300501",
    "name": "特別養護老人ホーム　洗心園",
    "kana": "トクベツヨウゴロウジンホーム　センシンエン",
    "address": "広島県廿日市市丸石二丁目7番47号",
    "lat": 34.2738128812825,
    "lng": 132.262764579857,
    "tel": "0829-55-0112",
    "url": "http://www.senshinen.or.jp/",
    "pref": "広島県",
    "city": "廿日市市",
    "category": "tokuyou",
    "serviceType": "介護老人福祉施設",
    "capacity": 0,
    "openDays": [],
    "openDaysNote": ""
  },
  {
    "id": "3473300519",
    "name": "特別養護老人ホームさいきせせらぎ園",
    "kana": "トクベツヨウゴロウジンホームサイキセセラギエン",
    "address": "廿日市市津田８５４番地",
    "lat": 34.3711909,
    "lng": 132.1579242,
    "tel": "0829-72-2700",
    "url": "http://www.saikisatsukikai.jp/",
    "pref": "広島県",
    "city": "廿日市市",
    "category": "tokuyou",
    "serviceType": "介護老人福祉施設",
    "capacity": 0,
    "openDays": [],
    "openDaysNote": ""
  },
  {
    "id": "3472700198",
    "name": "特別養護老人ホーム阿品清鈴",
    "kana": "トクベツヨウゴロウジンホームアジナセイレイ",
    "address": "廿日市市阿品４－５１－３２",
    "lat": 34.3189386,
    "lng": 132.3097997,
    "tel": "0829-36-2552",
    "url": "https://carecenter.jp",
    "pref": "広島県",
    "city": "廿日市市",
    "category": "tokuyou",
    "serviceType": "介護老人福祉施設",
    "capacity": 0,
    "openDays": [],
    "openDaysNote": ""
  },
  {
    "id": "3472701089",
    "name": "特別養護老人ホーム原",
    "kana": "トクベツヨウゴロウジンホームハラ",
    "address": "広島県廿日市市原926番地の1",
    "lat": 34.3679425846459,
    "lng": 132.300066537434,
    "tel": "0829-38-3333",
    "url": "http://www.misasakai.or.jp/",
    "pref": "広島県",
    "city": "廿日市市",
    "category": "tokuyou",
    "serviceType": "介護老人福祉施設",
    "capacity": 30,
    "openDays": [],
    "openDaysNote": ""
  },
  {
    "id": "3472701600",
    "name": "特別養護老人ホーム四季が丘せせらぎ園",
    "kana": "トクベツヨウゴロウジンホームシキガオカセセラギエン",
    "address": "広島県廿日市市四季が丘八丁目1番地3",
    "lat": 34.3480877,
    "lng": 132.2906872,
    "tel": "0829-39-9380",
    "url": "http://www.saikisatsukikai.jp/",
    "pref": "広島県",
    "city": "廿日市市",
    "category": "tokuyou",
    "serviceType": "介護老人福祉施設",
    "capacity": null,
    "openDays": [],
    "openDaysNote": ""
  },
  {
    "id": "3474100223",
    "name": "公立みつぎ総合病院特別養護老人ホーム「ふれあい」",
    "kana": "コウリツミツギソウゴウビョウイントクベツヨウゴロウジンホーム「フレアイ」",
    "address": "尾道市御調町高尾１３４８番地６",
    "lat": 34.5140678,
    "lng": 133.1327265,
    "tel": "0848-76-2415",
    "url": "http://www.mitsugibyouin.com/",
    "pref": "広島県",
    "city": "尾道市",
    "category": "tokuyou",
    "serviceType": "介護老人福祉施設",
    "capacity": null,
    "openDays": [],
    "openDaysNote": ""
  },
  {
    "id": "3471101273",
    "name": "特別養護老人ホーム　ひらはらの郷",
    "kana": "トクベツヨウゴロウジンホウムヒラハラノサト",
    "address": "尾道市平原一丁目１０番３０号",
    "lat": 34.4080034,
    "lng": 133.1753627,
    "tel": "0848-21-2223",
    "url": "http://www.hiraharano-sato.jp",
    "pref": "広島県",
    "city": "尾道市",
    "category": "tokuyou",
    "serviceType": "介護老人福祉施設",
    "capacity": 96,
    "openDays": [],
    "openDaysNote": ""
  },
  {
    "id": "3471101554",
    "name": "特別養護老人ホーム　ほたるの里",
    "kana": "トクベツヨウゴロウジンホーム　ホタルノサト",
    "address": "尾道市因島中庄町1030-1",
    "lat": 34.3107431,
    "lng": 133.1763719,
    "tel": "0845-26-2133",
    "url": "http://aokage.jp",
    "pref": "広島県",
    "city": "尾道市",
    "category": "tokuyou",
    "serviceType": "介護老人福祉施設",
    "capacity": 0,
    "openDays": [],
    "openDaysNote": ""
  },
  {
    "id": "3471100572",
    "name": "特別養護老人ホーム　浦崎寮（ユニット型）",
    "kana": "トクベツヨウゴロウジンホーム　ウラサキリョウ（ユニットガタ）",
    "address": "尾道市浦崎町3594番地",
    "lat": 34.4045965,
    "lng": 133.2691127,
    "tel": "0848-73-3144",
    "url": "",
    "pref": "広島県",
    "city": "尾道市",
    "category": "tokuyou",
    "serviceType": "介護老人福祉施設",
    "capacity": 0,
    "openDays": [],
    "openDaysNote": ""
  },
  {
    "id": "3474100249",
    "name": "特別養護老人ホーム　橘花苑",
    "kana": "トクベツヨウゴロウジンホーム　キッカエン",
    "address": "尾道市向島町立花４１８番地１",
    "lat": 34.3600533305151,
    "lng": 133.193556665546,
    "tel": "0848-44-5758",
    "url": "https://www.takamifukusikai.or.jp/",
    "pref": "広島県",
    "city": "尾道市",
    "category": "tokuyou",
    "serviceType": "介護老人福祉施設",
    "capacity": null,
    "openDays": [],
    "openDaysNote": ""
  },
  {
    "id": "3471102362",
    "name": "特別養護老人ホームクレアール楽生苑",
    "kana": "トクベツヨウゴロウジンホームクレアールラクセイエン",
    "address": "広島県尾道市瀬戸田町林西沖田１２６９番地10",
    "lat": 34.306591,
    "lng": 133.1063114,
    "tel": "0845-27-1600",
    "url": "https://www.rakusei.or.jp/",
    "pref": "広島県",
    "city": "尾道市",
    "category": "tokuyou",
    "serviceType": "介護老人福祉施設",
    "capacity": 40,
    "openDays": [],
    "openDaysNote": ""
  },
  {
    "id": "3471300206",
    "name": "特別養護老人ホームしまなみ苑",
    "kana": "トクベツヨウゴロウジンホームシマナミエン",
    "address": "尾道市因島三庄町3404-21",
    "lat": 34.2869017,
    "lng": 133.1968236,
    "tel": "0845-26-0473",
    "url": "http://www.aokage.jp/",
    "pref": "広島県",
    "city": "尾道市",
    "category": "tokuyou",
    "serviceType": "介護老人福祉施設",
    "capacity": 0,
    "openDays": [],
    "openDaysNote": ""
  },
  {
    "id": "3471100614",
    "name": "特別養護老人ホームはなの苑",
    "kana": "トクベツヨウゴロウジンホームハナノエン",
    "address": "広島県尾道市向東町12255番地1",
    "lat": 34.4065179,
    "lng": 133.2324031,
    "tel": "0848-20-6320",
    "url": "https://kayafukushi.or.jp/",
    "pref": "広島県",
    "city": "尾道市",
    "category": "tokuyou",
    "serviceType": "介護老人福祉施設",
    "capacity": 54,
    "openDays": [],
    "openDaysNote": ""
  },
  {
    "id": "3471100366",
    "name": "特別養護老人ホームひかり苑",
    "kana": "トクベツヨウゴロウジンホームヒカリエン",
    "address": "尾道市原田町梶山田3609番地",
    "lat": 34.4895325,
    "lng": 133.2130142,
    "tel": "0848-38-0345",
    "url": "http://www.haradahikarikai.or.jp",
    "pref": "広島県",
    "city": "尾道市",
    "category": "tokuyou",
    "serviceType": "介護老人福祉施設",
    "capacity": 0,
    "openDays": [],
    "openDaysNote": ""
  },
  {
    "id": "3473900409",
    "name": "特別養護老人ホーム楽生苑",
    "kana": "トクベツヨウゴロウジンホームラクセイエン",
    "address": "尾道市瀬戸田町林1288番地6",
    "lat": 34.3055299,
    "lng": 133.1029396,
    "tel": "0845-27-2943",
    "url": "https://www.rakusei.or.jp",
    "pref": "広島県",
    "city": "尾道市",
    "category": "tokuyou",
    "serviceType": "介護老人福祉施設",
    "capacity": 0,
    "openDays": [],
    "openDaysNote": ""
  },
  {
    "id": "3471100622",
    "name": "特別養護老人ホーム星の里",
    "kana": "トクベツヨウゴロウジンホームホシノサト",
    "address": "尾道市久保町1786番地",
    "lat": 34.421205,
    "lng": 133.2101376,
    "tel": "0848-37-7272",
    "url": "http://www.satukikai.com/",
    "pref": "広島県",
    "city": "尾道市",
    "category": "tokuyou",
    "serviceType": "介護老人福祉施設",
    "capacity": 0,
    "openDays": [],
    "openDaysNote": ""
  },
  {
    "id": "3471700173",
    "name": "介護老人福祉施設府中静和寮",
    "kana": "カイゴロウジンフククシシセツフチュウセイワリョウ",
    "address": "府中市土生町１６３６番地１",
    "lat": 34.5709878,
    "lng": 133.226785,
    "tel": "0847-41-2375",
    "url": "http://www.seiwakai-hiroshima.jp",
    "pref": "広島県",
    "city": "府中市",
    "category": "tokuyou",
    "serviceType": "介護老人福祉施設",
    "capacity": 50,
    "openDays": [],
    "openDaysNote": ""
  },
  {
    "id": "3471700546",
    "name": "指定介護老人福祉施設あいあい",
    "kana": "シテイカイゴロウジンフクシシセツ　アイアイ",
    "address": "府中市桜が丘3丁目2番地の1",
    "lat": 34.5798929,
    "lng": 133.2470447,
    "tel": "0847-41-5000",
    "url": "https://www.aiai-fukushi.net/sakura/",
    "pref": "広島県",
    "city": "府中市",
    "category": "tokuyou",
    "serviceType": "介護老人福祉施設",
    "capacity": 0,
    "openDays": [],
    "openDaysNote": ""
  },
  {
    "id": "3471700199",
    "name": "特別養護老人ホーム　箱田苑",
    "kana": "トクベツヨウゴロウジンホーム　ハコダエン",
    "address": "府中市木野山町箱田奥甲1538番地",
    "lat": 34.64529,
    "lng": 133.2271225,
    "tel": "0847-68-2585",
    "url": "http://www.keisenkaihakodaen.net",
    "pref": "広島県",
    "city": "府中市",
    "category": "tokuyou",
    "serviceType": "介護老人福祉施設",
    "capacity": 53,
    "openDays": [],
    "openDaysNote": ""
  },
  {
    "id": "3471700124",
    "name": "特別養護老人ホームセイフティー信和",
    "kana": "トクベツヨウゴロウジンホームセイフティーシンワ",
    "address": "広島県府中市広谷町３９１番地",
    "lat": 34.5747745,
    "lng": 133.2612799,
    "tel": "0847-45-6200",
    "url": "https://www.safety-sinwa.com",
    "pref": "広島県",
    "city": "府中市",
    "category": "tokuyou",
    "serviceType": "介護老人福祉施設",
    "capacity": 0,
    "openDays": [],
    "openDaysNote": ""
  },
  {
    "id": "3474700162",
    "name": "特別養護老人ホームほのぼの苑",
    "kana": "トクベツヨウゴロウジンホームホノボノエン",
    "address": "府中市上下町深江488番地3",
    "lat": 34.6830971,
    "lng": 133.1205969,
    "tel": "0847-62-4882",
    "url": "https://www.oujinkai.com",
    "pref": "広島県",
    "city": "府中市",
    "category": "tokuyou",
    "serviceType": "介護老人福祉施設",
    "capacity": 0,
    "openDays": [],
    "openDaysNote": ""
  },
  {
    "id": "3473201261",
    "name": "特別養護老人ホーム　府中福寿苑",
    "kana": "トクベツヨウゴロウジンホーム　フチュウフクジュエン",
    "address": "広島県安芸郡府中町茂陰２丁目6番2号",
    "lat": 34.3857714,
    "lng": 132.50173,
    "tel": "082-508-2110",
    "url": "https://fuchu-fukuzyuen.jimdosite.com/",
    "pref": "広島県",
    "city": "府中町",
    "category": "tokuyou",
    "serviceType": "介護老人福祉施設",
    "capacity": 0,
    "openDays": [],
    "openDaysNote": ""
  },
  {
    "id": "3473200206",
    "name": "特別養護老人ホームチェリーゴード",
    "kana": "トクベツヨウゴロウジンホームチェリーゴード",
    "address": "広島県安芸郡府中町柳ヶ丘20-2",
    "lat": 34.3829434,
    "lng": 132.5141375,
    "tel": "082-508-0222",
    "url": "http://www.fig-g.jp",
    "pref": "広島県",
    "city": "府中町",
    "category": "tokuyou",
    "serviceType": "介護老人福祉施設",
    "capacity": 0,
    "openDays": [],
    "openDaysNote": ""
  },
  {
    "id": "3471507990",
    "name": "ユニット型特別養護老人ホーム　サンサンホーム",
    "kana": "ユニットガタトクベツヨウゴロウジンホーム　サンサンホーム",
    "address": "広島県福山市神辺町字東中条７６１０番地の１６",
    "lat": 34.5838534,
    "lng": 133.395119,
    "tel": "084-967-1033",
    "url": "http://www.sunsun.or.jp/",
    "pref": "広島県",
    "city": "福山市",
    "category": "tokuyou",
    "serviceType": "介護老人福祉施設",
    "capacity": 40,
    "openDays": [],
    "openDaysNote": ""
  },
  {
    "id": "3471505416",
    "name": "特別養護老人ホーム　あぶと健生苑",
    "kana": "トクベツヨウゴロウジンホーム　アブトケンセイエン",
    "address": "福山市沼隈町大字能登原1436番地1",
    "lat": 34.3738963045286,
    "lng": 133.348846005962,
    "tel": "084-987-1299",
    "url": "http://www.kensei-kai.org/",
    "pref": "広島県",
    "city": "福山市",
    "category": "tokuyou",
    "serviceType": "介護老人福祉施設",
    "capacity": 0,
    "openDays": [],
    "openDaysNote": ""
  },
  {
    "id": "3471502629",
    "name": "特別養護老人ホーム　プレジール箕島",
    "kana": "トクベツヨウゴロウジンホーム　プレジールミノシマ",
    "address": "広島県福山市箕島町7504番地3",
    "lat": 34.4529222855322,
    "lng": 133.401889406746,
    "tel": "084-920-2560",
    "url": "",
    "pref": "広島県",
    "city": "福山市",
    "category": "tokuyou",
    "serviceType": "介護老人福祉施設",
    "capacity": 0,
    "openDays": [],
    "openDaysNote": ""
  },
  {
    "id": "3474300195",
    "name": "特別養護老人ホーム　むつみ苑",
    "kana": "トクベツヨウゴロウジンホーム　ムツミエン",
    "address": "広島県福山市内海町ロ２８２５番地３",
    "lat": 34.3571301,
    "lng": 133.2954066,
    "tel": "084-986-3131",
    "url": "http://www.mutsumien.or.jp/",
    "pref": "広島県",
    "city": "福山市",
    "category": "tokuyou",
    "serviceType": "介護老人福祉施設",
    "capacity": null,
    "openDays": [],
    "openDaysNote": ""
  },
  {
    "id": "3471501613",
    "name": "特別養護老人ホーム　芦山荘",
    "kana": "トクベツヨウゴロウジンホーム　ロザンソウ",
    "address": "広島県福山市芦田町柞磨386番地",
    "lat": 34.5220425583944,
    "lng": 133.236529895801,
    "tel": "084-958-3856",
    "url": "http://www.rozansou.jp/",
    "pref": "広島県",
    "city": "福山市",
    "category": "tokuyou",
    "serviceType": "介護老人福祉施設",
    "capacity": 0,
    "openDays": [],
    "openDaysNote": ""
  },
  {
    "id": "3471504500",
    "name": "特別養護老人ホーム　手城福助苑",
    "kana": "トクベツヨウゴロウジンホーム　テシロフクスケエン",
    "address": "福山市手城町三丁目10番13号",
    "lat": 34.4878464,
    "lng": 133.3937581,
    "tel": "084-973-6541",
    "url": "https://teshirofukusukeen.jimdo.com/",
    "pref": "広島県",
    "city": "福山市",
    "category": "tokuyou",
    "serviceType": "介護老人福祉施設",
    "capacity": 0,
    "openDays": [],
    "openDaysNote": ""
  },
  {
    "id": "3471503288",
    "name": "特別養護老人ホーム　新山荘",
    "kana": "トクベツヨウゴロウジンホーム　ニイヤマソウ",
    "address": "福山市駅家町大字新山３５７８－２",
    "lat": 34.5630409,
    "lng": 133.3068178,
    "tel": "084-978-0345",
    "url": "http://www.ryokuju.or.jp",
    "pref": "広島県",
    "city": "福山市",
    "category": "tokuyou",
    "serviceType": "介護老人福祉施設",
    "capacity": 0,
    "openDays": [],
    "openDaysNote": ""
  },
  {
    "id": "3471501316",
    "name": "特別養護老人ホーム　生寿園",
    "kana": "トクベツヨウゴロウジンホーム　セイジュエン",
    "address": "広島県福山市東村町1775番地",
    "lat": 34.4643547659528,
    "lng": 133.233516839287,
    "tel": "084-936-2247",
    "url": "http://tousonkai-seijuen.jp",
    "pref": "広島県",
    "city": "福山市",
    "category": "tokuyou",
    "serviceType": "介護老人福祉施設",
    "capacity": 72,
    "openDays": [],
    "openDaysNote": ""
  },
  {
    "id": "3471501167",
    "name": "特別養護老人ホーム　宣山荘",
    "kana": "トクベツヨウゴロウジンホーム　センザンソウ",
    "address": "広島県福山市駅家町大字大橋1036番地の3",
    "lat": 34.5359072,
    "lng": 133.3049966,
    "tel": "084-976-5888",
    "url": "http://senzansou.com",
    "pref": "広島県",
    "city": "福山市",
    "category": "tokuyou",
    "serviceType": "介護老人福祉施設",
    "capacity": 50,
    "openDays": [],
    "openDaysNote": ""
  },
  {
    "id": "3471501514",
    "name": "特別養護老人ホーム　東光園",
    "kana": "トクベツヨウゴロウジンホーム　トウコウエン",
    "address": "福山市坪生町7606",
    "lat": 34.52933450444,
    "lng": 133.451168123834,
    "tel": "084-947-3300",
    "url": "http://www.toukoukai.or.jp/",
    "pref": "広島県",
    "city": "福山市",
    "category": "tokuyou",
    "serviceType": "介護老人福祉施設",
    "capacity": 104,
    "openDays": [],
    "openDaysNote": ""
  },
  {
    "id": "3471501357",
    "name": "特別養護老人ホーム　藤江荘",
    "kana": "トクベツヨウゴロウジンホ－ム　フジエソウ",
    "address": "福山市藤江町231番地1",
    "lat": 34.4202918,
    "lng": 133.2844548,
    "tel": "084-935-7133",
    "url": "http://www.fujiesou.com",
    "pref": "広島県",
    "city": "福山市",
    "category": "tokuyou",
    "serviceType": "介護老人福祉施設",
    "capacity": 50,
    "openDays": [],
    "openDaysNote": ""
  },
  {
    "id": "3471500797",
    "name": "特別養護老人ホーム　明翠園",
    "kana": "トクベツヨウゴロウジンホーム　メイスイエン",
    "address": "福山市柳津町４８６番地",
    "lat": 34.4499591556248,
    "lng": 133.287062997389,
    "tel": "084-935-9901",
    "url": "https://meisui-kai.jimdo.com/",
    "pref": "広島県",
    "city": "福山市",
    "category": "tokuyou",
    "serviceType": "介護老人福祉施設",
    "capacity": 0,
    "openDays": [],
    "openDaysNote": ""
  },
  {
    "id": "3471500813",
    "name": "特別養護老人ホームエクセル鞆の浦",
    "kana": "トクベツヨウゴロウジンホームエクセルトモノウラ",
    "address": "福山市田尻町4115番地",
    "lat": 34.4077597,
    "lng": 133.3812298,
    "tel": "084-983-5888",
    "url": "https://www.harumikai.jp",
    "pref": "広島県",
    "city": "福山市",
    "category": "tokuyou",
    "serviceType": "介護老人福祉施設",
    "capacity": 80,
    "openDays": [],
    "openDaysNote": ""
  },
  {
    "id": "3474400201",
    "name": "特別養護老人ホームサンサンホーム",
    "kana": "トクベツヨウゴロウジンホームサンサンホーム",
    "address": "広島県福山市神辺町字東中条７６１０番地１６",
    "lat": 34.5838534,
    "lng": 133.395119,
    "tel": "084-967-1033",
    "url": "http://www.sunsun.or.jp/",
    "pref": "広島県",
    "city": "福山市",
    "category": "tokuyou",
    "serviceType": "介護老人福祉施設",
    "capacity": 50,
    "openDays": [],
    "openDaysNote": ""
  },
  {
    "id": "3474500067",
    "name": "特別養護老人ホームジョイトピアおおさ",
    "kana": "トクベツヨウゴロウジンホームジョイトピアオオサ",
    "address": "福山市新市町大字下安井3500番地",
    "lat": 34.5718866,
    "lng": 133.2835919,
    "tel": "0847-51-3211",
    "url": "http://www.joytopia.or.jp",
    "pref": "広島県",
    "city": "福山市",
    "category": "tokuyou",
    "serviceType": "介護老人福祉施設",
    "capacity": 0,
    "openDays": [],
    "openDaysNote": ""
  },
  {
    "id": "3471501142",
    "name": "特別養護老人ホーム幸楽園",
    "kana": "トクベツヨウゴロウジンホームコウラクエン",
    "address": "広島県福山市蔵王町7159番地14",
    "lat": 34.5209447034834,
    "lng": 133.405868376289,
    "tel": "084-947-3111",
    "url": "http://kourakuen.or.jp",
    "pref": "広島県",
    "city": "福山市",
    "category": "tokuyou",
    "serviceType": "介護老人福祉施設",
    "capacity": 60,
    "openDays": [],
    "openDaysNote": ""
  },
  {
    "id": "3471500607",
    "name": "特別養護老人ホーム松風園",
    "kana": "トクベツヨウゴロウジンホームショウフウエン",
    "address": "福山市加茂町上加茂３３番地",
    "lat": 34.5633747,
    "lng": 133.3450178,
    "tel": "084-972-5166",
    "url": "http://www.shofu-kai.or.jp/",
    "pref": "広島県",
    "city": "福山市",
    "category": "tokuyou",
    "serviceType": "介護老人福祉施設",
    "capacity": 70,
    "openDays": [],
    "openDaysNote": ""
  },
  {
    "id": "3471510010",
    "name": "特別養護老人ホーム瀬戸すみれ園",
    "kana": "トクベツヨウゴホウジンホーム　セトスミレエン",
    "address": "広島県福山市瀬戸町大字地頭分字小立2721",
    "lat": 34.4620552,
    "lng": 133.3280222,
    "tel": "084-951-3663",
    "url": "https://www.sumire-fukushi-chugoku.jp",
    "pref": "広島県",
    "city": "福山市",
    "category": "tokuyou",
    "serviceType": "介護老人福祉施設",
    "capacity": null,
    "openDays": [],
    "openDaysNote": ""
  },
  {
    "id": "3471501530",
    "name": "特別養護老人ホーム瀬戸寮",
    "kana": "トクベツヨウゴロウジンホーム　セトリョウ",
    "address": "福山市瀬戸町長和梶ヶ谷１１９４番地３",
    "lat": 34.4651485,
    "lng": 133.3413839,
    "tel": "084-951-3596",
    "url": "",
    "pref": "広島県",
    "city": "福山市",
    "category": "tokuyou",
    "serviceType": "介護老人福祉施設",
    "capacity": 0,
    "openDays": [],
    "openDaysNote": ""
  },
  {
    "id": "3474400177",
    "name": "特別養護老人ホーム静方園",
    "kana": "トクベツヨウゴロウジンホームセイホウエン",
    "address": "福山市神辺町湯野３０－９",
    "lat": 34.5590642,
    "lng": 133.3832626,
    "tel": "084-962-3263",
    "url": "http://www.seihoen.com",
    "pref": "広島県",
    "city": "福山市",
    "category": "tokuyou",
    "serviceType": "介護老人福祉施設",
    "capacity": 0,
    "openDays": [],
    "openDaysNote": ""
  },
  {
    "id": "3474300104",
    "name": "特別養護老人ホーム鳥還荘",
    "kana": "トクベツヨウゴロウジンホームチョウカンソウ",
    "address": "広島県福山市沼隈町中山南字永道上池尻265-2",
    "lat": 34.4185393,
    "lng": 133.3038361,
    "tel": "084-988-1688",
    "url": "http://chokanso.or.jp",
    "pref": "広島県",
    "city": "福山市",
    "category": "tokuyou",
    "serviceType": "介護老人福祉施設",
    "capacity": 50,
    "openDays": [],
    "openDaysNote": ""
  },
  {
    "id": "3471500953",
    "name": "特別養護老人ホーム福山福寿園",
    "kana": "トクベツヨウゴロウジンホームフクヤマフクジュエン",
    "address": "福山市赤坂町大字早戸1483番地",
    "lat": 34.4601958,
    "lng": 133.3098256,
    "tel": "084-952-0177",
    "url": "http://www.kotobuki-net.com/fukujyuen/",
    "pref": "広島県",
    "city": "福山市",
    "category": "tokuyou",
    "serviceType": "介護老人福祉施設",
    "capacity": 78,
    "openDays": [],
    "openDaysNote": ""
  },
  {
    "id": "3471501332",
    "name": "特別養護老人ホーム悠芳苑",
    "kana": "トクベツヨウゴロウジンホームユウホウエン",
    "address": "福山市熊野町乙甲１６３０番地",
    "lat": 34.4222787,
    "lng": 133.3450767,
    "tel": "084-959-1250",
    "url": "https://yuhoen.sakura.ne.jp/ufo/",
    "pref": "広島県",
    "city": "福山市",
    "category": "tokuyou",
    "serviceType": "介護老人福祉施設",
    "capacity": 62,
    "openDays": [],
    "openDaysNote": ""
  },
  {
    "id": "3473500464",
    "name": "特別養護老人ホーム　やまゆり",
    "kana": "トクベツヨウゴロウジンホーム　ヤマユリ",
    "address": "広島県山県郡北広島町移原635番地やまゆり やまゆり",
    "lat": 34.7442582453936,
    "lng": 132.351793080226,
    "tel": "0826-38-0177",
    "url": "http://geihoku-fukushikai.com/",
    "pref": "広島県",
    "city": "北広島町",
    "category": "tokuyou",
    "serviceType": "介護老人福祉施設",
    "capacity": 0,
    "openDays": [],
    "openDaysNote": ""
  },
  {
    "id": "3473500407",
    "name": "特別養護老人ホーム　ゆりかご荘",
    "kana": "トクベツヨウゴロウジンホーム　ユリカゴソウ",
    "address": "広島県山県郡北広島町阿阪4600番地",
    "lat": 34.6260022,
    "lng": 132.4507866,
    "tel": "0826-84-1125",
    "url": "http://www.yurikagosou.or.jp/",
    "pref": "広島県",
    "city": "北広島町",
    "category": "tokuyou",
    "serviceType": "介護老人福祉施設",
    "capacity": 0,
    "openDays": [],
    "openDaysNote": ""
  },
  {
    "id": "3473500555",
    "name": "特別養護老人ホームやすらぎ",
    "kana": "トクベツヨウゴロウジンホームヤスラギ",
    "address": "広島県山県郡北広島町大朝13435番地1",
    "lat": 34.7663146076323,
    "lng": 132.471847286508,
    "tel": "0826-82-3838",
    "url": "http://www.yurikagosou.or.jp/yasuragi.html",
    "pref": "広島県",
    "city": "北広島町",
    "category": "tokuyou",
    "serviceType": "介護老人福祉施設",
    "capacity": 0,
    "openDays": [],
    "openDaysNote": ""
  },
  {
    "id": "3473500431",
    "name": "特別養護老人ホーム正寿園",
    "kana": "トクベツヨウゴロウジンホームショウジュエン",
    "address": "広島県山県郡北広島町壬生901番地",
    "lat": 34.6804099,
    "lng": 132.5540706,
    "tel": "0826-72-7700",
    "url": "http://m-meiwakai.jp",
    "pref": "広島県",
    "city": "北広島町",
    "category": "tokuyou",
    "serviceType": "介護老人福祉施設",
    "capacity": 90,
    "openDays": [],
    "openDaysNote": ""
  }
]