[
  {
    "id": "3671800146",
    "name": "特別養護老人ホームコンフォール貞光",
    "kana": "トクベツヨウゴロウジンホームコンフォールサダミツ",
    "address": "徳島県美馬郡つるぎ町貞光字中須賀７８番地",
    "lat": 34.0397319,
    "lng": 134.0654097,
    "tel": "0883-62-3244",
    "url": "https://www.seijyukai.org/",
    "pref": "徳島県",
    "city": "つるぎ町",
    "category": "tokuyou",
    "serviceType": "介護老人福祉施設",
    "capacity": 80,
    "openDays": [],
    "openDaysNote": ""
  },
  {
    "id": "3671800088",
    "name": "美馬西部特別養護老人ホーム組合",
    "kana": "ミマセイブトクベツヨウゴロウジンホームクミアイ",
    "address": "徳島県美馬郡つるぎ町半田字松生１５０－１",
    "lat": 34.0414483,
    "lng": 134.0231262,
    "tel": "０８８３－６４－２３３４",
    "url": "",
    "pref": "徳島県",
    "city": "つるぎ町",
    "category": "tokuyou",
    "serviceType": "介護老人福祉施設",
    "capacity": 0,
    "openDays": [],
    "openDaysNote": ""
  },
  {
    "id": "3671300295",
    "name": "介護老人福祉施設ヴィラ羽ノ浦",
    "kana": "カイゴロウジンフクシシセツウ゛ィラハノウラ",
    "address": "徳島県阿南市羽ノ浦町岩脇上平69介護老人福祉施設ヴィラ羽ノ浦 介護老人福祉施設ヴィラ羽ノ浦",
    "lat": 33.9453424,
    "lng": 134.6132341,
    "tel": "0884-21-8181",
    "url": "http://hanoura.tokuyou.jp/",
    "pref": "徳島県",
    "city": "阿南市",
    "category": "tokuyou",
    "serviceType": "介護老人福祉施設",
    "capacity": 50,
    "openDays": [],
    "openDaysNote": ""
  },
  {
    "id": "3670400062",
    "name": "特別養護老人ホーム　ライフイン長生",
    "kana": "トクベツヨウゴロウジンホーム　ライフインナガイケ",
    "address": "徳島県阿南市長生町西方５９番地",
    "lat": 33.9247647,
    "lng": 134.6236106,
    "tel": "0884-23-5979",
    "url": "http://seisaikai.jp/",
    "pref": "徳島県",
    "city": "阿南市",
    "category": "tokuyou",
    "serviceType": "介護老人福祉施設",
    "capacity": 0,
    "openDays": [],
    "openDaysNote": ""
  },
  {
    "id": "3670400096",
    "name": "特別養護老人ホーム　緑風会ルネッサンス",
    "kana": "トクベツヨウゴロウジンホーム　リョクフウカイルネッサンス",
    "address": "徳島県阿南市福井町湊1番地8",
    "lat": 33.8493682,
    "lng": 134.6238801,
    "tel": "0884-34-3200",
    "url": "http://www.ryokufu1984.or.jp/",
    "pref": "徳島県",
    "city": "阿南市",
    "category": "tokuyou",
    "serviceType": "介護老人福祉施設",
    "capacity": 0,
    "openDays": [],
    "openDaysNote": ""
  },
  {
    "id": "3670400435",
    "name": "特別養護老人ホームコスモスの里",
    "kana": "トクベツヨウゴロウジンホームコスモスノサト",
    "address": "徳島県阿南市羽ノ浦町明見１３５－１",
    "lat": 33.9412818,
    "lng": 134.5987066,
    "tel": "0884-44-5667",
    "url": "https://www.sudachikai.jp/",
    "pref": "徳島県",
    "city": "阿南市",
    "category": "tokuyou",
    "serviceType": "介護老人福祉施設",
    "capacity": 0,
    "openDays": [],
    "openDaysNote": ""
  },
  {
    "id": "3670400765",
    "name": "特別養護老人ホーム阿南荘",
    "kana": "トクベツヨウゴロウジンホームアナンソウ",
    "address": "徳島県阿南市宝田町今市金剛地４３",
    "lat": 33.9220841,
    "lng": 134.6463253,
    "tel": "0884-22-5656",
    "url": "http://anan-hukushikai.com",
    "pref": "徳島県",
    "city": "阿南市",
    "category": "tokuyou",
    "serviceType": "介護老人福祉施設",
    "capacity": 40,
    "openDays": [],
    "openDaysNote": ""
  },
  {
    "id": "3670400021",
    "name": "特別養護老人ホーム阿南荘",
    "kana": "トクベツヨウゴロウジンホームアナンソウ",
    "address": "徳島県阿南市宝田町今市金剛地４３",
    "lat": 33.9220841,
    "lng": 134.6463253,
    "tel": "0884-22-5656",
    "url": "http://anan-hukushikai.com",
    "pref": "徳島県",
    "city": "阿南市",
    "category": "tokuyou",
    "serviceType": "介護老人福祉施設",
    "capacity": 80,
    "openDays": [],
    "openDaysNote": ""
  },
  {
    "id": "3670400047",
    "name": "特別養護老人ホーム琴江荘",
    "kana": "トクベツヨウゴロウジンホームキンコウソウ",
    "address": "徳島県阿南市宝田町今市金剛寺３８番１特別養護老人ホーム琴江荘 特別養護老人ホーム琴江荘",
    "lat": 33.9254101215305,
    "lng": 134.646298774066,
    "tel": "0884-23-1200",
    "url": "kinkousou@mc.pikara.ne.jp",
    "pref": "徳島県",
    "city": "阿南市",
    "category": "tokuyou",
    "serviceType": "介護老人福祉施設",
    "capacity": 0,
    "openDays": [],
    "openDaysNote": ""
  },
  {
    "id": "3671300287",
    "name": "特別養護老人ホーム健祥会バイエルン",
    "kana": "トクベツヨウゴロウジンホームケンショウカイバイエルン",
    "address": "徳島県阿南市那賀川町苅屋289番地2",
    "lat": 33.9504353,
    "lng": 134.6594125,
    "tel": "0884－21－2420",
    "url": "https://www.kenshokai.group/",
    "pref": "徳島県",
    "city": "阿南市",
    "category": "tokuyou",
    "serviceType": "介護老人福祉施設",
    "capacity": 50,
    "openDays": [],
    "openDaysNote": ""
  },
  {
    "id": "3671500068",
    "name": "阿波老人ホームよしの園",
    "kana": "アワロウジンホームヨシノエン",
    "address": "徳島県阿波市吉野町柿原字二条１４６番地1",
    "lat": 34.0928433,
    "lng": 134.348068,
    "tel": "０８８－６９６－５５３３",
    "url": "http://www.hakuju-kai.or.jp",
    "pref": "徳島県",
    "city": "阿波市",
    "category": "tokuyou",
    "serviceType": "介護老人福祉施設",
    "capacity": 0,
    "openDays": [],
    "openDaysNote": ""
  },
  {
    "id": "3671500373",
    "name": "阿波老人ホーム御所園",
    "kana": "アワロウジンホームゴショエン",
    "address": "徳島県阿波市土成町吉田字梨木原1番地5",
    "lat": 34.124534,
    "lng": 134.3534536,
    "tel": "０８８－６９５－５５３３",
    "url": "http://www.hakuju-kai.or.jp",
    "pref": "徳島県",
    "city": "阿波市",
    "category": "tokuyou",
    "serviceType": "介護老人福祉施設",
    "capacity": 0,
    "openDays": [],
    "openDaysNote": ""
  },
  {
    "id": "3671600041",
    "name": "阿北特別養護老人ホーム",
    "kana": "アホクトクベツヨウゴロウジンホーム",
    "address": "徳島県阿波市市場町市場字岸ノ下190番地3",
    "lat": 34.0846239,
    "lng": 134.275714,
    "tel": "0883-36-2731",
    "url": "",
    "pref": "徳島県",
    "city": "阿波市",
    "category": "tokuyou",
    "serviceType": "介護老人福祉施設",
    "capacity": 80,
    "openDays": [],
    "openDaysNote": ""
  },
  {
    "id": "3671600017",
    "name": "特別養護老人ホーム蓬莱荘",
    "kana": "トクベツヨウゴロウジンホームホウライソウ",
    "address": "徳島県阿波市阿波町北整理１番地１",
    "lat": 34.0756619,
    "lng": 134.1943938,
    "tel": "0883-35-6085",
    "url": "https://horaikai.or.jp/",
    "pref": "徳島県",
    "city": "阿波市",
    "category": "tokuyou",
    "serviceType": "介護老人福祉施設",
    "capacity": 0,
    "openDays": [],
    "openDaysNote": ""
  },
  {
    "id": "3671400137",
    "name": "海部郡特別養護老人ホーム事務組合海南荘",
    "kana": "カイフグントクベツヨウゴロウジンホームジムクミアイカイナンソウ",
    "address": "徳島県海部郡海陽町大里字松原３３番地３",
    "lat": 33.6083422,
    "lng": 134.3660287,
    "tel": "０８８４－７３－２６２６",
    "url": "https://kainanso.main.jp/",
    "pref": "徳島県",
    "city": "海陽町",
    "category": "tokuyou",
    "serviceType": "介護老人福祉施設",
    "capacity": 0,
    "openDays": [],
    "openDaysNote": ""
  },
  {
    "id": "3671700395",
    "name": "特別養護老人ホーム　美郷",
    "kana": "トクベツヨウゴロウジンホーム　ミサト",
    "address": "徳島県吉野川市美郷字毛無92-17",
    "lat": 34.0296846,
    "lng": 134.2646681,
    "tel": "0883-26-7878",
    "url": "http://koutukai.com",
    "pref": "徳島県",
    "city": "吉野川市",
    "category": "tokuyou",
    "serviceType": "介護老人福祉施設",
    "capacity": 0,
    "openDays": [],
    "openDaysNote": ""
  },
  {
    "id": "3671700056",
    "name": "特別養護老人ホーム　美山苑",
    "kana": "トクベツヨウゴロウジンホーム　ビザンエン",
    "address": "徳島県吉野川市山川町祇園５１番地特別養護老人ホーム美山苑 特別養護老人ホーム美山苑",
    "lat": 34.0578954,
    "lng": 134.2489338,
    "tel": "0883-42-7111",
    "url": "http://www.hakuyuu.com",
    "pref": "徳島県",
    "city": "吉野川市",
    "category": "tokuyou",
    "serviceType": "介護老人福祉施設",
    "capacity": 70,
    "openDays": [],
    "openDaysNote": ""
  },
  {
    "id": "3671700023",
    "name": "特別養護老人ホーム菊美荘",
    "kana": "トクベツヨウゴロウジンホームキクミソウ",
    "address": "徳島県吉野川市鴨島町上下島字大北443番地2",
    "lat": 34.0730094,
    "lng": 134.3479402,
    "tel": "0883-24-6137",
    "url": "http://www.mima-gr.jp/kikumi/index.html",
    "pref": "徳島県",
    "city": "吉野川市",
    "category": "tokuyou",
    "serviceType": "介護老人福祉施設",
    "capacity": 70,
    "openDays": [],
    "openDaysNote": ""
  },
  {
    "id": "3671700106",
    "name": "特別養護老人ホーム水明荘",
    "kana": "トクベツヨウゴロウジンホームスイメイソウ",
    "address": "徳島県吉野川市川島町川島１０６番地",
    "lat": 34.0663844,
    "lng": 134.3210511,
    "tel": "0883-25-2333",
    "url": "https://www.kenshokai.group/",
    "pref": "徳島県",
    "city": "吉野川市",
    "category": "tokuyou",
    "serviceType": "介護老人福祉施設",
    "capacity": 0,
    "openDays": [],
    "openDaysNote": ""
  },
  {
    "id": "3671100018",
    "name": "特別養護老人ホーム　健祥会ハイジ",
    "kana": "トクベツヨウゴロウジンホーム　ケンショウカイハイジ",
    "address": "徳島県名東郡佐那河内村上字大黒23番地1",
    "lat": 33.9923776,
    "lng": 134.4516136,
    "tel": "088-679-3380",
    "url": "http://www.kenshokai.group/",
    "pref": "徳島県",
    "city": "佐那河内村",
    "category": "tokuyou",
    "serviceType": "介護老人福祉施設",
    "capacity": 0,
    "openDays": [],
    "openDaysNote": ""
  },
  {
    "id": "3671900052",
    "name": "特別養護老人ホーム　永楽荘",
    "kana": "トクベツヨウゴロウジンホーム　エイラクソウ",
    "address": "徳島県三好市池田町州津西ノ久保291番地1",
    "lat": 34.0349383,
    "lng": 133.8402428,
    "tel": "0883-72-2700",
    "url": "http://www.ikeda-hakuaikai.org/",
    "pref": "徳島県",
    "city": "三好市",
    "category": "tokuyou",
    "serviceType": "介護老人福祉施設",
    "capacity": 71,
    "openDays": [],
    "openDaysNote": ""
  },
  {
    "id": "3671900029",
    "name": "特別養護老人ホームみのだ苑",
    "kana": "トクベツヨウゴロウジンホームミノダエン",
    "address": "徳島県三好市井川町片山222番地",
    "lat": 34.0308891,
    "lng": 133.8852713,
    "tel": "0883-78-3011",
    "url": "http://minodaen.com/",
    "pref": "徳島県",
    "city": "三好市",
    "category": "tokuyou",
    "serviceType": "介護老人福祉施設",
    "capacity": 60,
    "openDays": [],
    "openDaysNote": ""
  },
  {
    "id": "3671900136",
    "name": "特別養護老人ホーム健祥会清盛",
    "kana": "トクベツヨウゴロウジンホームケンショウカイキヨモリ",
    "address": "徳島県三好市東祖谷古味36番地1",
    "lat": 33.8382284,
    "lng": 133.8942426,
    "tel": "0883-88-5611",
    "url": "http://www.kenshokai.group",
    "pref": "徳島県",
    "city": "三好市",
    "category": "tokuyou",
    "serviceType": "介護老人福祉施設",
    "capacity": 30,
    "openDays": [],
    "openDaysNote": ""
  },
  {
    "id": "3671900037",
    "name": "特別養護老人ホーム山城荘",
    "kana": "トクベツヨウゴロウジンホームヤマシロソウ",
    "address": "徳島県三好市山城町西宇1227-4",
    "lat": 33.9132442,
    "lng": 133.7589249,
    "tel": "0883-84-1177",
    "url": "http://yamashirokai.or.jp/",
    "pref": "徳島県",
    "city": "三好市",
    "category": "tokuyou",
    "serviceType": "介護老人福祉施設",
    "capacity": 0,
    "openDays": [],
    "openDaysNote": ""
  },
  {
    "id": "3670600364",
    "name": "特別養護老人ホーム長生園",
    "kana": "トクベツヨウゴロウジンホーム　チョウセイエン",
    "address": "徳島県三好市三野町勢力７６８番地１",
    "lat": 34.0524255,
    "lng": 133.9794324,
    "tel": "０８８３－７７－２１５３",
    "url": "http://www.ikeda-hakuaikai.org/",
    "pref": "徳島県",
    "city": "三好市",
    "category": "tokuyou",
    "serviceType": "介護老人福祉施設",
    "capacity": 60,
    "openDays": [],
    "openDaysNote": ""
  },
  {
    "id": "3671000010",
    "name": "特別養護老人ホーム喜楽苑",
    "kana": "トクベツヨウゴロウジンホームキラクエン",
    "address": "勝浦郡勝浦町大字棚野字竹国１３番地の１",
    "lat": 33.9326887,
    "lng": 134.504896,
    "tel": "０８８５－４２－３７００",
    "url": "http://syoujukai.or.jp",
    "pref": "徳島県",
    "city": "勝浦町",
    "category": "tokuyou",
    "serviceType": "介護老人福祉施設",
    "capacity": null,
    "openDays": [],
    "openDaysNote": ""
  },
  {
    "id": "3670300049",
    "name": "特別養護老人ホーム恵光苑",
    "kana": "トクベツヨウゴロウジンホームケイコウエン",
    "address": "小松島市坂野町字樫のべ32番地の1",
    "lat": 33.9695777,
    "lng": 134.625602,
    "tel": "0885-37-3000",
    "url": "http://fujino.ezdns.jp/keikouen/index.htm",
    "pref": "徳島県",
    "city": "小松島市",
    "category": "tokuyou",
    "serviceType": "介護老人福祉施設",
    "capacity": 61,
    "openDays": [],
    "openDaysNote": ""
  },
  {
    "id": "3670300056",
    "name": "特別養護老人ホーム千歳苑",
    "kana": "トクベツヨウゴロウジンホームチトセエン",
    "address": "徳島県小松島市小松島町字元根井54番地1",
    "lat": 34.0153574,
    "lng": 134.5911596,
    "tel": "0885-33-2040",
    "url": "https://aishinkai-t.com/titoseen/",
    "pref": "徳島県",
    "city": "小松島市",
    "category": "tokuyou",
    "serviceType": "介護老人福祉施設",
    "capacity": 0,
    "openDays": [],
    "openDaysNote": ""
  },
  {
    "id": "3671500092",
    "name": "特別養護老人ホーム　和光園",
    "kana": "トクベツヨウゴロウジンホーム　ワコウエン",
    "address": "徳島県板野郡松茂町笹木野字山東49-1",
    "lat": 34.1243262,
    "lng": 134.595426,
    "tel": "088-699-2745",
    "url": "http://wako-en.or.jp/",
    "pref": "徳島県",
    "city": "松茂町",
    "category": "tokuyou",
    "serviceType": "介護老人福祉施設",
    "capacity": 0,
    "openDays": [],
    "openDaysNote": ""
  },
  {
    "id": "3671000028",
    "name": "特別養護老人ホーム健祥会ピーター",
    "kana": "トクベツヨウゴロウジンホームケンショウカイピーター",
    "address": "大字正木字西浦25番地特別養護老人ホーム健祥会ピーター 特別養護老人ホーム健祥会ピーター",
    "lat": 33.924601,
    "lng": 134.4198592,
    "tel": "0885-45-0772",
    "url": "https://www.kenshokai.group/institution/tokuyou/peter/",
    "pref": "徳島県",
    "city": "上勝町",
    "category": "tokuyou",
    "serviceType": "介護老人福祉施設",
    "capacity": 0,
    "openDays": [],
    "openDaysNote": ""
  },
  {
    "id": "3671500076",
    "name": "上板あおば苑",
    "kana": "カミイタアオバエン",
    "address": "徳島県板野郡上板町西分字橋西1番地10",
    "lat": 34.1195179,
    "lng": 134.4176475,
    "tel": "088-637-6622",
    "url": "http://aobagroup.net/",
    "pref": "徳島県",
    "city": "上板町",
    "category": "tokuyou",
    "serviceType": "介護老人福祉施設",
    "capacity": null,
    "openDays": [],
    "openDaysNote": ""
  },
  {
    "id": "3671200024",
    "name": "特別養護老人ホーム神山すだち園",
    "kana": "トクベツヨウゴロウジンホームカミヤマスダチエン",
    "address": "徳島県名西郡神山町阿野字長谷３３５番地",
    "lat": 34.0497569,
    "lng": 134.4169731,
    "tel": "088-678-0708",
    "url": "http://wwwyuseikai.net/fukusikai.htm",
    "pref": "徳島県",
    "city": "神山町",
    "category": "tokuyou",
    "serviceType": "介護老人福祉施設",
    "capacity": 50,
    "openDays": [],
    "openDaysNote": ""
  },
  {
    "id": "3671200032",
    "name": "特別養護老人ホーム青藍荘",
    "kana": "トクベツヨウゴロウジンホームセイランソウ",
    "address": "徳島県名西郡石井町高原字中須８番地１特別養護老人ホーム青藍荘 特別養護老人ホーム青藍荘",
    "lat": 34.0844184196698,
    "lng": 134.40037047791,
    "tel": "０８８－６７４－１２３０",
    "url": "ｈｔｔｐ：／／ｓｅｉｒａｎｓｏ．ｃｏｍ",
    "pref": "徳島県",
    "city": "石井町",
    "category": "tokuyou",
    "serviceType": "介護老人福祉施設",
    "capacity": 0,
    "openDays": [],
    "openDaysNote": ""
  },
  {
    "id": "3671900490",
    "name": "特別養護老人ホーム　健祥会たんぽぽ",
    "kana": "トクベツヨウゴロウジンホーム　ケンショウカイタンポポ",
    "address": "三好郡東みよし町中庄1653番地1",
    "lat": 34.0341557,
    "lng": 133.9608188,
    "tel": "0883-82-3711",
    "url": "http://www.kenshokai.group/",
    "pref": "徳島県",
    "city": "東みよし町",
    "category": "tokuyou",
    "serviceType": "介護老人福祉施設",
    "capacity": 44,
    "openDays": [],
    "openDaysNote": ""
  },
  {
    "id": "3671900094",
    "name": "特別養護老人ホーム　健祥会たんぽぽ",
    "kana": "トクベツヨウゴロウジンホーム　ケンショウカイタンポポ",
    "address": "徳島県三好郡東みよし町中庄1653番地1",
    "lat": 34.0341557,
    "lng": 133.9608188,
    "tel": "0883-82-3711",
    "url": "http://www.kenshokai.group/",
    "pref": "徳島県",
    "city": "東みよし町",
    "category": "tokuyou",
    "serviceType": "介護老人福祉施設",
    "capacity": 36,
    "openDays": [],
    "openDaysNote": ""
  },
  {
    "id": "3671900110",
    "name": "特別養護老人ホームみよし苑",
    "kana": "トクベツヨウゴロウジンホームミヨシエン",
    "address": "徳島県三好郡東みよし町昼間７７番地１特別養護老人ホームみよし苑 特別養護老人ホームみよし苑",
    "lat": 34.0457486,
    "lng": 133.8880566,
    "tel": "０８８３－７９－３６３６",
    "url": "Http://WWW.miyoshien.jp",
    "pref": "徳島県",
    "city": "東みよし町",
    "category": "tokuyou",
    "serviceType": "介護老人福祉施設",
    "capacity": 0,
    "openDays": [],
    "openDaysNote": ""
  },
  {
    "id": "3670103955",
    "name": "阿波老人ホーム仙寿園",
    "kana": "アワロウジンホームセンジュエン",
    "address": "徳島県徳島市住吉四丁目12番10号",
    "lat": 34.0827271,
    "lng": 134.5690172,
    "tel": "088-626-1080",
    "url": "http://hakuju-kai.or.jp/",
    "pref": "徳島県",
    "city": "徳島市",
    "category": "tokuyou",
    "serviceType": "介護老人福祉施設",
    "capacity": 0,
    "openDays": [],
    "openDaysNote": ""
  },
  {
    "id": "3670100175",
    "name": "阿波老人ホーム仙寿園",
    "kana": "アワロウジンホームセンジュエン",
    "address": "徳島県徳島市住吉四丁目12番10号",
    "lat": 34.0827271,
    "lng": 134.5690172,
    "tel": "088-626-1080",
    "url": "http://hakuju-kai.or.jp/",
    "pref": "徳島県",
    "city": "徳島市",
    "category": "tokuyou",
    "serviceType": "介護老人福祉施設",
    "capacity": null,
    "openDays": [],
    "openDaysNote": ""
  },
  {
    "id": "3670101009",
    "name": "介護老人福祉施設　ヴィラ勝占",
    "kana": "カイゴロウジンフクシシセツ　ウ゛ィラカツラ",
    "address": "徳島県徳島市勝占町松成43-1",
    "lat": 34.0204447,
    "lng": 134.5514809,
    "tel": "088-669-3610",
    "url": "https://katsura.tokuyou.jp",
    "pref": "徳島県",
    "city": "徳島市",
    "category": "tokuyou",
    "serviceType": "介護老人福祉施設",
    "capacity": 0,
    "openDays": [],
    "openDaysNote": ""
  },
  {
    "id": "3670100027",
    "name": "介護老人福祉施設やまもも荘",
    "kana": "カイゴロウジンフクシシセツヤマモモソウ",
    "address": "徳島県徳島市下町本丁59-19",
    "lat": 34.0366362,
    "lng": 134.4868527,
    "tel": "088-644-1111",
    "url": "http://www.tk2.nmt.ne.jp/~kouhuukai/index.html",
    "pref": "徳島県",
    "city": "徳島市",
    "category": "tokuyou",
    "serviceType": "介護老人福祉施設",
    "capacity": 0,
    "openDays": [],
    "openDaysNote": ""
  },
  {
    "id": "3670102619",
    "name": "特別養護老人ホーム　ライム",
    "kana": "トクベツヨウゴロウジンホーム　ライム",
    "address": "徳島県徳島市国府町中字松ﾉ本28-1",
    "lat": 34.0682185,
    "lng": 134.4808561,
    "tel": "088-642-3263",
    "url": "http://www.lemon.or.jp/",
    "pref": "徳島県",
    "city": "徳島市",
    "category": "tokuyou",
    "serviceType": "介護老人福祉施設",
    "capacity": 45,
    "openDays": [],
    "openDaysNote": ""
  },
  {
    "id": "3670100803",
    "name": "特別養護老人ホーム　健祥会モルダウ",
    "kana": "トクベツヨウゴロウジンホーム　ケンショウカイモルダウ",
    "address": "徳島県徳島市応神町古川字北36番地",
    "lat": 34.1067546,
    "lng": 134.5481072,
    "tel": "088-683-3600",
    "url": "https://www.kenshokai.group/",
    "pref": "徳島県",
    "city": "徳島市",
    "category": "tokuyou",
    "serviceType": "介護老人福祉施設",
    "capacity": 50,
    "openDays": [],
    "openDaysNote": ""
  },
  {
    "id": "3670100035",
    "name": "特別養護老人ホームかもな園",
    "kana": "トクベツヨウゴロウジンホームカモナエン",
    "address": "徳島県徳島市名東町２丁目４５４番地特別養護老人ホームかもな園 特別養護老人ホームかもな園",
    "lat": 34.0591143,
    "lng": 134.4961297,
    "tel": "０８８－６３３－６５６５",
    "url": "http://www.sawarabikai.or.jp",
    "pref": "徳島県",
    "city": "徳島市",
    "category": "tokuyou",
    "serviceType": "介護老人福祉施設",
    "capacity": 0,
    "openDays": [],
    "openDaysNote": ""
  },
  {
    "id": "3670102726",
    "name": "特別養護老人ホームなつめ荘",
    "kana": "トクベツヨウゴロウジンホームナツメソウ",
    "address": "徳島県徳島市新浜本町1丁目7番70号特別養護老人ホームなつめ荘 特別養護老人ホームなつめ荘",
    "lat": 34.0440842,
    "lng": 134.5724863,
    "tel": "088-636-1160",
    "url": "http://natsumesou.com/",
    "pref": "徳島県",
    "city": "徳島市",
    "category": "tokuyou",
    "serviceType": "介護老人福祉施設",
    "capacity": 0,
    "openDays": [],
    "openDaysNote": ""
  },
  {
    "id": "3670100050",
    "name": "特別養護老人ホームピア",
    "kana": "トクベツヨウゴロウジンホームピア",
    "address": "徳島市八万町大野5-5特別養護老人ホームピア 特別養護老人ホームピア",
    "lat": 34.043834,
    "lng": 134.5500096,
    "tel": "088-669-3339",
    "url": "https://keirou-group.jp/",
    "pref": "徳島県",
    "city": "徳島市",
    "category": "tokuyou",
    "serviceType": "介護老人福祉施設",
    "capacity": 0,
    "openDays": [],
    "openDaysNote": ""
  },
  {
    "id": "3670100209",
    "name": "特別養護老人ホーム青香園",
    "kana": "トクベツヨウゴロウジンホームセイカエン",
    "address": "徳島市川内町平石住吉183番地",
    "lat": 34.1140428,
    "lng": 134.5859258,
    "tel": "088-665-5511",
    "url": "http://www.seikahukushikai.jp",
    "pref": "徳島県",
    "city": "徳島市",
    "category": "tokuyou",
    "serviceType": "介護老人福祉施設",
    "capacity": 50,
    "openDays": [],
    "openDaysNote": ""
  },
  {
    "id": "3670100019",
    "name": "特別養護老人ホーム青葉荘",
    "kana": "トクベツヨウゴロウジンホームアオバソウ",
    "address": "徳島県徳島市飯谷町上里42-1",
    "lat": 33.9662956,
    "lng": 134.5485645,
    "tel": "088-645-1300",
    "url": "htt://seiyohkai.jp/",
    "pref": "徳島県",
    "city": "徳島市",
    "category": "tokuyou",
    "serviceType": "介護老人福祉施設",
    "capacity": 0,
    "openDays": [],
    "openDaysNote": ""
  },
  {
    "id": "3670103450",
    "name": "特別養護老人ホーム大神子園",
    "kana": "トクベツヨウゴロウジンホームオオミコエン",
    "address": "徳島市大原町大神子１９番",
    "lat": 34.0284869880274,
    "lng": 134.584692035889,
    "tel": "088-663-2660",
    "url": "https://www.sudachikai.jp/",
    "pref": "徳島県",
    "city": "徳島市",
    "category": "tokuyou",
    "serviceType": "介護老人福祉施設",
    "capacity": 0,
    "openDays": [],
    "openDaysNote": ""
  },
  {
    "id": "3670100191",
    "name": "特別養護老人ホーム大神子園",
    "kana": "トクベツヨウゴロウジンホームオオミコエン",
    "address": "徳島市大原町大神子１９番",
    "lat": 34.028540337756,
    "lng": 134.584751044487,
    "tel": "088-663-2660",
    "url": "http://www.sudachikai.jp/",
    "pref": "徳島県",
    "city": "徳島市",
    "category": "tokuyou",
    "serviceType": "介護老人福祉施設",
    "capacity": 0,
    "openDays": [],
    "openDaysNote": ""
  },
  {
    "id": "3671300048",
    "name": "特別養護老人ホーム水の花荘",
    "kana": "トクベツヨウゴロウジンホーム　スイノハナソウ",
    "address": "徳島県那賀郡那賀町延野字大原４０番地１",
    "lat": 33.8255249235112,
    "lng": 134.485064064239,
    "tel": "0884-62-2010",
    "url": "http://care-net.biz/36/suinohana/",
    "pref": "徳島県",
    "city": "那賀町",
    "category": "tokuyou",
    "serviceType": "介護老人福祉施設",
    "capacity": null,
    "openDays": [],
    "openDaysNote": ""
  },
  {
    "id": "3671300121",
    "name": "特別養護老人ホーム緑風会チロル",
    "kana": "トクベツヨウゴロウジンホームリョクフウカイチロル",
    "address": "徳島県那賀郡那賀町成瀬字小谷口２番地",
    "lat": 33.7828668,
    "lng": 134.2849835,
    "tel": "０８８４－６７－０８８８",
    "url": "http://www.ryokufu1984.or.jp/",
    "pref": "徳島県",
    "city": "那賀町",
    "category": "tokuyou",
    "serviceType": "介護老人福祉施設",
    "capacity": 30,
    "openDays": [],
    "openDaysNote": ""
  },
  {
    "id": "3671500084",
    "name": "穂波園指定介護老人福祉施設",
    "kana": "ホナミエンシテイカイゴロウジンフクシシセツ",
    "address": "徳島県板野郡板野町吹田字西山68番地10",
    "lat": 34.1460011,
    "lng": 134.4554712,
    "tel": "088-672-5577",
    "url": "https://lumiere-tokushima.com/",
    "pref": "徳島県",
    "city": "板野町",
    "category": "tokuyou",
    "serviceType": "介護老人福祉施設",
    "capacity": 50,
    "openDays": [],
    "openDaysNote": ""
  },
  {
    "id": "3671400053",
    "name": "特別養護老人ホーム　ヒワサ荘",
    "kana": "トクベツヨウゴロウジンホーム　ヒワサソウ",
    "address": "徳島県海部郡美波町西河内字丹前106番地1",
    "lat": 33.7334515527867,
    "lng": 134.519138455295,
    "tel": "0884-77-2001",
    "url": "http://toukoukai.com/",
    "pref": "徳島県",
    "city": "美波町",
    "category": "tokuyou",
    "serviceType": "介護老人福祉施設",
    "capacity": 0,
    "openDays": [],
    "openDaysNote": ""
  },
  {
    "id": "3671400038",
    "name": "特別養護老人ホームねんりん",
    "kana": "トクベツヨウゴロウジンホームネンリン",
    "address": "徳島県海部郡美波町西の地字志和岐谷３７番１",
    "lat": 33.7797271479327,
    "lng": 134.600893455074,
    "tel": "0884-78-2300",
    "url": "http://nennrin.jp/",
    "pref": "徳島県",
    "city": "美波町",
    "category": "tokuyou",
    "serviceType": "介護老人福祉施設",
    "capacity": 0,
    "openDays": [],
    "openDaysNote": ""
  },
  {
    "id": "3670500135",
    "name": "特別養護老人ホーム　はなのおか",
    "kana": "トクベツヨウゴロウジンホーム　ハナノオカ",
    "address": "徳島県美馬市美馬町字天神87-8",
    "lat": 34.0495668,
    "lng": 134.0540218,
    "tel": "０８８３－５５－２６６２",
    "url": "http://www.hananooka.sakura.ne.jp/",
    "pref": "徳島県",
    "city": "美馬市",
    "category": "tokuyou",
    "serviceType": "介護老人福祉施設",
    "capacity": 0,
    "openDays": [],
    "openDaysNote": ""
  },
  {
    "id": "3671800385",
    "name": "特別養護老人ホームケアプラザみま",
    "kana": "トクベツヨウゴロウジンホームケアプラザミマ",
    "address": "徳島県美馬市美馬町字高畑8番地1",
    "lat": 34.0581995,
    "lng": 134.0793034,
    "tel": "0883-63-6065",
    "url": "https://horaikai.or.jp",
    "pref": "徳島県",
    "city": "美馬市",
    "category": "tokuyou",
    "serviceType": "介護老人福祉施設",
    "capacity": 40,
    "openDays": [],
    "openDaysNote": ""
  },
  {
    "id": "3671800369",
    "name": "特別養護老人ホーム健祥会家康",
    "kana": "トクベツヨウゴロウジンホームケンショウカイイエヤス",
    "address": "徳島県美馬市脇町大字脇町966番地",
    "lat": 34.0725486531711,
    "lng": 134.137168375055,
    "tel": "0883-53-7778",
    "url": "https://www.kenshokai.group/",
    "pref": "徳島県",
    "city": "美馬市",
    "category": "tokuyou",
    "serviceType": "介護老人福祉施設",
    "capacity": 40,
    "openDays": [],
    "openDaysNote": ""
  },
  {
    "id": "3671500019",
    "name": "特別養護老人ホーム吉野川荘",
    "kana": "トクベツヨウゴロウジンホームヨシノガワソウ",
    "address": "徳島県板野郡北島町中村字八丁野４番地１９",
    "lat": 34.1308213,
    "lng": 134.5372297,
    "tel": "088-698-3249",
    "url": "http://care-net.biz/36/yoshi2023/",
    "pref": "徳島県",
    "city": "北島町",
    "category": "tokuyou",
    "serviceType": "介護老人福祉施設",
    "capacity": 0,
    "openDays": [],
    "openDaysNote": ""
  },
  {
    "id": "3671400095",
    "name": "特別養護老人ホーム緑風荘",
    "kana": "トクベツヨウゴロウジンホームリョクフウソウ",
    "address": "徳島県海部郡牟岐町大字中村字山田30番地",
    "lat": 33.6684733,
    "lng": 134.4131397,
    "tel": "0884-72-3155",
    "url": "http://www.kenshokai.group",
    "pref": "徳島県",
    "city": "牟岐町",
    "category": "tokuyou",
    "serviceType": "介護老人福祉施設",
    "capacity": 0,
    "openDays": [],
    "openDaysNote": ""
  },
  {
    "id": "3670200488",
    "name": "介護老人福祉施設　おおつ苑",
    "kana": "カイゴロウジンフクシシセツ　オオツエン",
    "address": "徳島県鳴門市大津町大代字戎野472",
    "lat": 36.204824,
    "lng": 138.252924,
    "tel": "088-684-3788",
    "url": "http://www.ryokujyukai.com",
    "pref": "徳島県",
    "city": "鳴門市",
    "category": "tokuyou",
    "serviceType": "介護老人福祉施設",
    "capacity": 0,
    "openDays": [],
    "openDaysNote": ""
  },
  {
    "id": "3670200033",
    "name": "特別養護老人ホーム　おおあさ苑",
    "kana": "トクベツヨウゴロウジンホーム　オオアサエン",
    "address": "徳島県鳴門市大麻町桧字東山田５７－１０",
    "lat": 34.1662284,
    "lng": 134.5002363,
    "tel": "０８８－６８９－３７８８",
    "url": "http://ryokujyukai.com",
    "pref": "徳島県",
    "city": "鳴門市",
    "category": "tokuyou",
    "serviceType": "介護老人福祉施設",
    "capacity": 0,
    "openDays": [],
    "openDaysNote": ""
  },
  {
    "id": "3670200058",
    "name": "特別養護老人ホーム　春潮苑",
    "kana": "トクベツヨウゴロウジンホーム　シュンチョウエン",
    "address": "徳島県鳴門市撫養町立岩字五枚１４６",
    "lat": 34.1665106,
    "lng": 134.6207425,
    "tel": "088－686－2080",
    "url": "http://syunchoen.jp/",
    "pref": "徳島県",
    "city": "鳴門市",
    "category": "tokuyou",
    "serviceType": "介護老人福祉施設",
    "capacity": 50,
    "openDays": [],
    "openDaysNote": ""
  },
  {
    "id": "3670200918",
    "name": "特別養護老人ホーム　鳴優荘",
    "kana": "トクベツヨウゴロウジンホーム　メイユウソウ",
    "address": "徳島県鳴門市鳴門町土佐泊浦字黒山１１８番地２５７",
    "lat": 34.2065512187714,
    "lng": 134.625895546033,
    "tel": "０８８－６８７－１００７",
    "url": "https://meijyukai.com/meiyu/",
    "pref": "徳島県",
    "city": "鳴門市",
    "category": "tokuyou",
    "serviceType": "介護老人福祉施設",
    "capacity": 0,
    "openDays": [],
    "openDaysNote": ""
  },
  {
    "id": "3670200041",
    "name": "特別養護老人ホーム鳴光荘",
    "kana": "トクベツヨウゴロウジンホームメイコウソウ",
    "address": "徳島県鳴門市鳴門町三ツ石字江尻山85番地",
    "lat": 34.1978338,
    "lng": 134.6044642,
    "tel": "088-687-1130",
    "url": "http://midorikai-naruto.jp/meikousou/",
    "pref": "徳島県",
    "city": "鳴門市",
    "category": "tokuyou",
    "serviceType": "介護老人福祉施設",
    "capacity": 0,
    "openDays": [],
    "openDaysNote": ""
  },
  {
    "id": "3671501777",
    "name": "特別養護老人ホーム藍寿苑",
    "kana": "トクベツヨウゴロウジンホームアイジュエン",
    "address": "徳島県板野郡藍住町富吉字穂実66-3",
    "lat": 34.141086801727,
    "lng": 134.488690410828,
    "tel": "088-692-5166",
    "url": "http://www.ryoun.com",
    "pref": "徳島県",
    "city": "藍住町",
    "category": "tokuyou",
    "serviceType": "介護老人福祉施設",
    "capacity": 0,
    "openDays": [],
    "openDaysNote": ""
  },
  {
    "id": "3671501785",
    "name": "特別養護老人ホーム藍寿苑",
    "kana": "トクベツヨウゴロウジンホームアイジュエン",
    "address": "徳島県板野郡藍住町富吉字穂実66番地3",
    "lat": 34.1411137,
    "lng": 134.488671,
    "tel": "088-692-5166",
    "url": "http://www.ryoun.com/",
    "pref": "徳島県",
    "city": "藍住町",
    "category": "tokuyou",
    "serviceType": "介護老人福祉施設",
    "capacity": 30,
    "openDays": [],
    "openDaysNote": ""
  }
]