[
  {
    "id": "3874000726",
    "name": "ユニット型特別養護老人ホーム自在園",
    "kana": "ユニットガタトクベツヨウゴロウジンホームジザイエン",
    "address": "愛媛県南宇和郡愛南町満倉2301番地1",
    "lat": 32.953128278356,
    "lng": 132.60206632209,
    "tel": "０８９５‐７２‐３１１１",
    "url": "https://m-fukushi.or.jp/",
    "pref": "愛媛県",
    "city": "愛南町",
    "category": "tokuyou",
    "serviceType": "介護老人福祉施設",
    "capacity": 40,
    "openDays": [],
    "openDaysNote": ""
  },
  {
    "id": "3874000254",
    "name": "特別養護老人ホーム　自在園",
    "kana": "トクベツヨウゴロウジンホーム　ジザイエン",
    "address": "愛媛県南宇和郡愛南町満倉2301番地1",
    "lat": 32.9529937063836,
    "lng": 132.60281266727,
    "tel": "0895-72-3111",
    "url": "https://m-fukushi.or.jp",
    "pref": "愛媛県",
    "city": "愛南町",
    "category": "tokuyou",
    "serviceType": "介護老人福祉施設",
    "capacity": 70,
    "openDays": [],
    "openDaysNote": ""
  },
  {
    "id": "3874000262",
    "name": "特別養護老人ホーム一本松荘",
    "kana": "トクベツヨウゴロウジンホームイッポンマツソウ",
    "address": "愛媛県南宇和郡愛南町中川1438番地1",
    "lat": 32.9566424,
    "lng": 132.6448418,
    "tel": "0895-84-3588",
    "url": "http://www.nanpu.or.jp/",
    "pref": "愛媛県",
    "city": "愛南町",
    "category": "tokuyou",
    "serviceType": "介護老人福祉施設",
    "capacity": 0,
    "openDays": [],
    "openDaysNote": ""
  },
  {
    "id": "3874000270",
    "name": "特別養護老人ホーム城辺みしま荘",
    "kana": "トクベツヨウゴロウジンホームジョウヘンミシマソウ",
    "address": "愛媛県南宇和郡愛南町城辺乙561番地",
    "lat": 32.9637832,
    "lng": 132.5782689,
    "tel": "0895-70-1175",
    "url": "",
    "pref": "愛媛県",
    "city": "愛南町",
    "category": "tokuyou",
    "serviceType": "介護老人福祉施設",
    "capacity": 0,
    "openDays": [],
    "openDaysNote": ""
  },
  {
    "id": "3874000320",
    "name": "特別養護老人ホーム柏寿園",
    "kana": "トクベツヨウゴロウジンホームハクジュエン",
    "address": "愛媛県南宇和郡愛南町柏1542番地1",
    "lat": 33.0227204,
    "lng": 132.5046808,
    "tel": "0895-85-0008",
    "url": "https://www.nanpu.or.jp/gyosei/tokuyo.html",
    "pref": "愛媛県",
    "city": "愛南町",
    "category": "tokuyou",
    "serviceType": "介護老人福祉施設",
    "capacity": 50,
    "openDays": [],
    "openDaysNote": ""
  },
  {
    "id": "3873700227",
    "name": "特別養護老人ホ－ム　つわぶき荘",
    "kana": "トクベツヨウゴロウジンホ－ム　ツワブキソウ",
    "address": "愛媛県西宇和郡伊方町湊浦861-1",
    "lat": 33.490021,
    "lng": 132.3560173,
    "tel": "0894-38-0700",
    "url": "https://tuwabuki-sou.jp",
    "pref": "愛媛県",
    "city": "伊方町",
    "category": "tokuyou",
    "serviceType": "介護老人福祉施設",
    "capacity": 0,
    "openDays": [],
    "openDaysNote": ""
  },
  {
    "id": "3873700334",
    "name": "特別養護老人ホーム　瀬戸あいじゅ",
    "kana": "トクベツヨウゴロウジンホーム　セトアイジュ",
    "address": "愛媛県西宇和郡伊方町川之浜594",
    "lat": 33.4264078,
    "lng": 132.2291363,
    "tel": "0894-53-0622",
    "url": "http://www.aijukai-group.com/",
    "pref": "愛媛県",
    "city": "伊方町",
    "category": "tokuyou",
    "serviceType": "介護老人福祉施設",
    "capacity": 45,
    "openDays": [],
    "openDaysNote": ""
  },
  {
    "id": "3871000166",
    "name": "介護老人福祉施設伊予あいじゅ",
    "kana": "カイゴロウジンフクシシセツイヨアイジュ",
    "address": "愛媛県伊予市下吾川字北西原1781番地1",
    "lat": 33.772204269149,
    "lng": 132.700161147565,
    "tel": "089-982-6800",
    "url": "http://www.aijukai-group.com/",
    "pref": "愛媛県",
    "city": "伊予市",
    "category": "tokuyou",
    "serviceType": "介護老人福祉施設",
    "capacity": 100,
    "openDays": [],
    "openDaysNote": ""
  },
  {
    "id": "3873500361",
    "name": "指定介護老人福祉施設　なかやま幸梅園",
    "kana": "シテイカイゴロウジンフクシシセツ　ナカヤマコウバイエン",
    "address": "愛媛県伊予市中山町中山寅381番地",
    "lat": 33.6386598,
    "lng": 132.7066246,
    "tel": "089-967-1605",
    "url": "http://www.koubaien-b.jp/",
    "pref": "愛媛県",
    "city": "伊予市",
    "category": "tokuyou",
    "serviceType": "介護老人福祉施設",
    "capacity": 30,
    "openDays": [],
    "openDaysNote": ""
  },
  {
    "id": "3873500379",
    "name": "双海夕なぎ荘",
    "kana": "フタミユウナギソウ",
    "address": "愛媛県伊予市双海町上灘甲5269番地1",
    "lat": 33.6879397,
    "lng": 132.6381995,
    "tel": "089-986-0055",
    "url": "http://www2.odn.ne.jp/~aav34770/",
    "pref": "愛媛県",
    "city": "伊予市",
    "category": "tokuyou",
    "serviceType": "介護老人福祉施設",
    "capacity": 50,
    "openDays": [],
    "openDaysNote": ""
  },
  {
    "id": "3871000265",
    "name": "特別養護老人ホーム森の園",
    "kana": "トクベツヨウゴロウジンホームモリノソノ",
    "address": "愛媛県伊予市森甲440-1",
    "lat": 33.7390978343225,
    "lng": 132.688362773915,
    "tel": "089-982-7474",
    "url": "http://morinosono.sakura.ne.jp",
    "pref": "愛媛県",
    "city": "伊予市",
    "category": "tokuyou",
    "serviceType": "介護老人福祉施設",
    "capacity": 0,
    "openDays": [],
    "openDaysNote": ""
  },
  {
    "id": "3870301011",
    "name": "特別養護老人ホーム　あさひ苑",
    "kana": "トクベツヨウゴロウジンホーム　アサヒエン",
    "address": "愛媛県宇和島市三浦西4979",
    "lat": 33.1681996966857,
    "lng": 132.503874928836,
    "tel": "0895-30-2707",
    "url": "http://wwwd.pikara.ne.jp/uwajima-asahien/",
    "pref": "愛媛県",
    "city": "宇和島市",
    "category": "tokuyou",
    "serviceType": "介護老人福祉施設",
    "capacity": 50,
    "openDays": [],
    "openDaysNote": ""
  },
  {
    "id": "3873900348",
    "name": "特別養護老人ホーム　サンランド",
    "kana": "トクベツヨウゴロウジンホーム　サンランド",
    "address": "愛媛県宇和島市吉田町立間尻甲727番地1",
    "lat": 33.2726164430963,
    "lng": 132.545760247282,
    "tel": "0895-20-2711",
    "url": "http//www.sanland.or.jp",
    "pref": "愛媛県",
    "city": "宇和島市",
    "category": "tokuyou",
    "serviceType": "介護老人福祉施設",
    "capacity": null,
    "openDays": [],
    "openDaysNote": ""
  },
  {
    "id": "3873900298",
    "name": "特別養護老人ホーム　白浦茜荘",
    "kana": "トクベツヨウゴロウジンホーム　シロウラアカネソウ",
    "address": "愛媛県宇和島市吉田町白浦3番地2",
    "lat": 33.3126467,
    "lng": 132.5270814,
    "tel": "0895-52-0203",
    "url": "http://wwwa.pikara.ne.jp/akanesou/",
    "pref": "愛媛県",
    "city": "宇和島市",
    "category": "tokuyou",
    "serviceType": "介護老人福祉施設",
    "capacity": 50,
    "openDays": [],
    "openDaysNote": ""
  },
  {
    "id": "3870300328",
    "name": "特別養護老人ホーム光来園",
    "kana": "トクベツヨウゴロウジンホームコウライエン",
    "address": "愛媛県宇和島市保田甲806番地",
    "lat": 33.1908461,
    "lng": 132.545923,
    "tel": "0895-27-0173",
    "url": "https://www.nanpu.or.jp/",
    "pref": "愛媛県",
    "city": "宇和島市",
    "category": "tokuyou",
    "serviceType": "介護老人福祉施設",
    "capacity": 0,
    "openDays": [],
    "openDaysNote": ""
  },
  {
    "id": "3850380035",
    "name": "特別養護老人ホーム祝の郷",
    "kana": "トクベツヨウゴロウジンホームイワイノサト",
    "address": "愛媛県宇和島市祝森甲2407番地特別養護老人ホーム祝の郷 特別養護老人ホーム祝の郷",
    "lat": 33.1739419792002,
    "lng": 132.557261233804,
    "tel": "0895-27-1165",
    "url": "http://iwainosato2605.wix.com/iwainosato",
    "pref": "愛媛県",
    "city": "宇和島市",
    "category": "tokuyou",
    "serviceType": "介護老人福祉施設",
    "capacity": 0,
    "openDays": [],
    "openDaysNote": ""
  },
  {
    "id": "3873900728",
    "name": "特別養護老人ホーム湯乃香荘",
    "kana": "トクベツヨウゴロウジンホームユノカソウ",
    "address": "愛媛県宇和島市津島町山財5861番地",
    "lat": 33.1068487,
    "lng": 132.5754137,
    "tel": "0895-32-1611",
    "url": "",
    "pref": "愛媛県",
    "city": "宇和島市",
    "category": "tokuyou",
    "serviceType": "介護老人福祉施設",
    "capacity": 0,
    "openDays": [],
    "openDaysNote": ""
  },
  {
    "id": "3873900272",
    "name": "特別養護老人ホーム美沼荘",
    "kana": "トクベツヨウゴロウジンホームミヌマソウ",
    "address": "愛媛県宇和島市三間町宮野下129番地",
    "lat": 33.2995277,
    "lng": 132.6111594,
    "tel": "0895-58-2211",
    "url": "",
    "pref": "愛媛県",
    "city": "宇和島市",
    "category": "tokuyou",
    "serviceType": "介護老人福祉施設",
    "capacity": 0,
    "openDays": [],
    "openDaysNote": ""
  },
  {
    "id": "3873900371",
    "name": "特別養護老人ホームひろみ奈良の里",
    "kana": "トクベツヨウゴロウジンホームヒロミナラノサト",
    "address": "愛媛県北宇和郡鬼北町大字奈良2067番地",
    "lat": 33.2512321,
    "lng": 132.6574255,
    "tel": "0895-45-3800",
    "url": "https://www.nanpu.or.jp/",
    "pref": "愛媛県",
    "city": "鬼北町",
    "category": "tokuyou",
    "serviceType": "介護老人福祉施設",
    "capacity": 0,
    "openDays": [],
    "openDaysNote": ""
  },
  {
    "id": "3873900264",
    "name": "特別養護老人ホーム勝山荘",
    "kana": "トクベツヨウゴロウジンホームカツヤマソウ",
    "address": "愛媛県北宇和郡鬼北町大字上大野322番地",
    "lat": 33.3258185,
    "lng": 132.7960386,
    "tel": "0895-44-2781",
    "url": "http://www.nanpu.or.jp/",
    "pref": "愛媛県",
    "city": "鬼北町",
    "category": "tokuyou",
    "serviceType": "介護老人福祉施設",
    "capacity": 50,
    "openDays": [],
    "openDaysNote": ""
  },
  {
    "id": "3873400182",
    "name": "指定介護老人福祉施設久万の里",
    "kana": "シテイカイゴロウジンフクシシセツクマノサト",
    "address": "愛媛県上浮穴郡久万高原町菅生3番耕地580番地24",
    "lat": 33.6592303,
    "lng": 132.9044844,
    "tel": "0892-21-1000",
    "url": "http://kikuju.or.jp/",
    "pref": "愛媛県",
    "city": "久万高原町",
    "category": "tokuyou",
    "serviceType": "介護老人福祉施設",
    "capacity": 0,
    "openDays": [],
    "openDaysNote": ""
  },
  {
    "id": "3873400505",
    "name": "指定介護老人福祉施設久万の里新館",
    "kana": "シテイカイゴロウジンフクシシセツクマノサトシンカン",
    "address": "愛媛県上浮穴郡久万高原町菅生三番耕地580番地24",
    "lat": 33.6592303,
    "lng": 132.9044844,
    "tel": "0892-21-1000",
    "url": "http://kikuju.or.jp",
    "pref": "愛媛県",
    "city": "久万高原町",
    "category": "tokuyou",
    "serviceType": "介護老人福祉施設",
    "capacity": 0,
    "openDays": [],
    "openDaysNote": ""
  },
  {
    "id": "3870200346",
    "name": "シルバーハウス吹揚",
    "kana": "シルバーハウスフキアゲ",
    "address": "愛媛県今治市黄金町3丁目2番地6",
    "lat": 34.0629988,
    "lng": 133.004784,
    "tel": "0898-25-7575",
    "url": "http://www.yuyukaifukiage.com/",
    "pref": "愛媛県",
    "city": "今治市",
    "category": "tokuyou",
    "serviceType": "介護老人福祉施設",
    "capacity": 0,
    "openDays": [],
    "openDaysNote": ""
  },
  {
    "id": "3873200590",
    "name": "はかた寿園",
    "kana": "ハカタコトブキエン",
    "address": "愛媛県今治市伯方町木浦甲3930番地3",
    "lat": 34.2114787330217,
    "lng": 133.113005344566,
    "tel": "0897-74-0155",
    "url": "http://www.hk-kotobuki.com",
    "pref": "愛媛県",
    "city": "今治市",
    "category": "tokuyou",
    "serviceType": "介護老人福祉施設",
    "capacity": 50,
    "openDays": [],
    "openDaysNote": ""
  },
  {
    "id": "3873200681",
    "name": "リーフガーデンあさくら",
    "kana": "リーフガーデンアサクラ",
    "address": "愛媛県今治市朝倉下乙102番地2",
    "lat": 34.0010146,
    "lng": 133.0055941,
    "tel": "0898-56-1300",
    "url": "http://www.hirose-youseikai.org/",
    "pref": "愛媛県",
    "city": "今治市",
    "category": "tokuyou",
    "serviceType": "介護老人福祉施設",
    "capacity": 50,
    "openDays": [],
    "openDaysNote": ""
  },
  {
    "id": "3873200566",
    "name": "阿育苑",
    "kana": "アショカエン",
    "address": "愛媛県今治市吉海町仁江262番地1",
    "lat": 34.1511437,
    "lng": 133.0539103,
    "tel": "0897-84-4608",
    "url": "http://asyokaen.jp",
    "pref": "愛媛県",
    "city": "今治市",
    "category": "tokuyou",
    "serviceType": "介護老人福祉施設",
    "capacity": 53,
    "openDays": [],
    "openDaysNote": ""
  },
  {
    "id": "3873200574",
    "name": "菊仙荘",
    "kana": "キクセンソウ",
    "address": "愛媛県今治市菊間町種3560番地5",
    "lat": 34.0485478,
    "lng": 132.8658969,
    "tel": "0898-54-3401",
    "url": "http://www.kazahaya-k.org/",
    "pref": "愛媛県",
    "city": "今治市",
    "category": "tokuyou",
    "serviceType": "介護老人福祉施設",
    "capacity": null,
    "openDays": [],
    "openDaysNote": ""
  },
  {
    "id": "3870200684",
    "name": "今治なごみ苑",
    "kana": "イマバリナゴミエン",
    "address": "愛媛県今治市別名251番地",
    "lat": 34.0419588,
    "lng": 132.9754586,
    "tel": "0898-25-7530",
    "url": "http://www.nagomino-kai.jp/",
    "pref": "愛媛県",
    "city": "今治市",
    "category": "tokuyou",
    "serviceType": "介護老人福祉施設",
    "capacity": 50,
    "openDays": [],
    "openDaysNote": ""
  },
  {
    "id": "3873200558",
    "name": "指定介護老人福祉施設瑞鶴荘",
    "kana": "シテイカイゴロウジンフクシシセツズイカクソウ",
    "address": "愛媛県今治市玉川町畑寺甲15-1",
    "lat": 34.0085156121984,
    "lng": 132.943830666626,
    "tel": "0898-55-2131",
    "url": "http://www.toujukai.jp/",
    "pref": "愛媛県",
    "city": "今治市",
    "category": "tokuyou",
    "serviceType": "介護老人福祉施設",
    "capacity": 57,
    "openDays": [],
    "openDaysNote": ""
  },
  {
    "id": "3873200731",
    "name": "多々羅の里",
    "kana": "タタラノサト",
    "address": "愛媛県今治市上浦町井口3865番地1",
    "lat": 34.2675296,
    "lng": 133.0335907,
    "tel": "0897-87-3800",
    "url": "http://www.tataranosato.jp/",
    "pref": "愛媛県",
    "city": "今治市",
    "category": "tokuyou",
    "serviceType": "介護老人福祉施設",
    "capacity": 0,
    "openDays": [],
    "openDaysNote": ""
  },
  {
    "id": "3870201476",
    "name": "特別養護老人ホーム　幸風園",
    "kana": "トクベツヨウゴロウジンホーム　コウフウエン",
    "address": "愛媛県今治市大西町紺原甲288番地1",
    "lat": 34.0678222,
    "lng": 132.9379635,
    "tel": "0898-53-6500",
    "url": "http://kouhukai.com",
    "pref": "愛媛県",
    "city": "今治市",
    "category": "tokuyou",
    "serviceType": "介護老人福祉施設",
    "capacity": 0,
    "openDays": [],
    "openDaysNote": ""
  },
  {
    "id": "3870202409",
    "name": "特別養護老人ホームすずらん",
    "kana": "トクベツヨウゴロウジンホームスズラン",
    "address": "愛媛県今治市宮下町1丁目1番62号",
    "lat": 34.0676602686956,
    "lng": 132.990168934461,
    "tel": "0898-23-5000",
    "url": "http://www.shimanamifukushikai.com",
    "pref": "愛媛県",
    "city": "今治市",
    "category": "tokuyou",
    "serviceType": "介護老人福祉施設",
    "capacity": 50,
    "openDays": [],
    "openDaysNote": ""
  },
  {
    "id": "3870200353",
    "name": "特別養護老人ホームみどりの郷",
    "kana": "トクベツヨウゴロウジンホームミドリノサト",
    "address": "愛媛県今治市上徳甲１１０番地１",
    "lat": 34.0373409063166,
    "lng": 133.020467166579,
    "tel": "0898-48-6106",
    "url": "https://www.kiharabyouin.jp/midori/",
    "pref": "愛媛県",
    "city": "今治市",
    "category": "tokuyou",
    "serviceType": "介護老人福祉施設",
    "capacity": null,
    "openDays": [],
    "openDaysNote": ""
  },
  {
    "id": "3873200582",
    "name": "特別養護老人ホーム寿山苑",
    "kana": "トクベツヨウゴロウジンホームジュザンエン",
    "address": "愛媛県今治市波方町養老甲1006番地",
    "lat": 34.1074471,
    "lng": 132.9466646,
    "tel": "0898-36-5300",
    "url": "http://www.jyuzanen.com/",
    "pref": "愛媛県",
    "city": "今治市",
    "category": "tokuyou",
    "serviceType": "介護老人福祉施設",
    "capacity": 0,
    "openDays": [],
    "openDaysNote": ""
  },
  {
    "id": "3870200338",
    "name": "特別養護老人ホーム唐子荘",
    "kana": "トクベツヨウゴロウジンホームカラコソウ",
    "address": "愛媛県今治市旦甲472番地1",
    "lat": 34.0158820270365,
    "lng": 133.029858117856,
    "tel": "0898-48-6241",
    "url": "http://imabari-shisetsukyo.or.jp",
    "pref": "愛媛県",
    "city": "今治市",
    "category": "tokuyou",
    "serviceType": "介護老人福祉施設",
    "capacity": 0,
    "openDays": [],
    "openDaysNote": ""
  },
  {
    "id": "3870200320",
    "name": "日高荘",
    "kana": "ヒダカソウ",
    "address": "愛媛県今治市小泉五丁目6番38号",
    "lat": 34.0428801,
    "lng": 132.9809506,
    "tel": "0898-22-7069",
    "url": "http://www.imabari-shisetsukyo.or.jp/",
    "pref": "愛媛県",
    "city": "今治市",
    "category": "tokuyou",
    "serviceType": "介護老人福祉施設",
    "capacity": 55,
    "openDays": [],
    "openDaysNote": ""
  },
  {
    "id": "3871301002",
    "name": "特別養護老人ホーム　豊寿園",
    "kana": "トクベツヨウゴロウジンホーム　ホウジュエン",
    "address": "愛媛県四国中央市土居町津根2639",
    "lat": 33.9670292214059,
    "lng": 133.458142728836,
    "tel": "0896-22-4116",
    "url": "https://www.aibikai.jp",
    "pref": "愛媛県",
    "city": "四国中央市",
    "category": "tokuyou",
    "serviceType": "介護老人福祉施設",
    "capacity": 50,
    "openDays": [],
    "openDaysNote": ""
  },
  {
    "id": "3870900283",
    "name": "特別養護老人ホームしあわせの家",
    "kana": "トクベツヨウゴロウジンホームシアワセノイエ",
    "address": "愛媛県四国中央市豊岡町大町2786番地2",
    "lat": 33.9701695,
    "lng": 133.4872182,
    "tel": "0896-28-2871",
    "url": "http://shiawasenoie.jp/",
    "pref": "愛媛県",
    "city": "四国中央市",
    "category": "tokuyou",
    "serviceType": "介護老人福祉施設",
    "capacity": 100,
    "openDays": [],
    "openDaysNote": ""
  },
  {
    "id": "3870800160",
    "name": "特別養護老人ホーム川之江荘",
    "kana": "トクベツヨウゴロウジンホームカワノエソウ",
    "address": "愛媛県四国中央市川之江町長須713",
    "lat": 34.0305532,
    "lng": 133.5867213,
    "tel": "0896-58-5530",
    "url": "http://care-net.biz/38/kawanoesou/",
    "pref": "愛媛県",
    "city": "四国中央市",
    "category": "tokuyou",
    "serviceType": "介護老人福祉施設",
    "capacity": 0,
    "openDays": [],
    "openDaysNote": ""
  },
  {
    "id": "3871301200",
    "name": "特別養護老人ホーム萬翠荘",
    "kana": "トクベツヨウゴロウジンホームバンスイソウ",
    "address": "愛媛県四国中央市中之庄町542番地",
    "lat": 33.9776830317354,
    "lng": 133.534746811639,
    "tel": "0896-28-7755",
    "url": "http://www.aibikai.jp",
    "pref": "愛媛県",
    "city": "四国中央市",
    "category": "tokuyou",
    "serviceType": "介護老人福祉施設",
    "capacity": 0,
    "openDays": [],
    "openDaysNote": ""
  },
  {
    "id": "3870800178",
    "name": "樋谷荘",
    "kana": "ヒノタニソウ",
    "address": "愛媛県四国中央市上分町乙8-2",
    "lat": 33.9803829,
    "lng": 133.5871303,
    "tel": "0896-56-2333",
    "url": "https://www.aibikai.jp/",
    "pref": "愛媛県",
    "city": "四国中央市",
    "category": "tokuyou",
    "serviceType": "介護老人福祉施設",
    "capacity": 0,
    "openDays": [],
    "openDaysNote": ""
  },
  {
    "id": "3870101791",
    "name": "りつりん館アドバンス",
    "kana": "リツリンカンアドバンス",
    "address": "愛媛県松山市畑寺町丙1-2",
    "lat": 33.8331954,
    "lng": 132.8035575,
    "tel": "089-931-8080",
    "url": "http://yuhokai.net",
    "pref": "愛媛県",
    "city": "松山市",
    "category": "tokuyou",
    "serviceType": "介護老人福祉施設",
    "capacity": 0,
    "openDays": [],
    "openDaysNote": ""
  },
  {
    "id": "3870101759",
    "name": "介護老人福祉施設　梅本の里",
    "kana": "カイゴロウジンフクシシセツ　ウメモトノサト",
    "address": "愛媛県松山市北梅本町1624番地1",
    "lat": 33.814637,
    "lng": 132.8531809,
    "tel": "089-975-6985",
    "url": "http://www.umemotonosato.com/",
    "pref": "愛媛県",
    "city": "松山市",
    "category": "tokuyou",
    "serviceType": "介護老人福祉施設",
    "capacity": 0,
    "openDays": [],
    "openDaysNote": ""
  },
  {
    "id": "3870109885",
    "name": "介護老人福祉施設　味酒野ていれぎ荘",
    "kana": "カイゴロウジンフクシシセツ　ミサケノテイレギソウ",
    "address": "愛媛県松山市衣山5丁目719番地1",
    "lat": 33.8483415,
    "lng": 132.7355474,
    "tel": "089-989-5571",
    "url": "https://www.jikoukai-ehime.or.jp/misakeno/parent_info/blog/",
    "pref": "愛媛県",
    "city": "松山市",
    "category": "tokuyou",
    "serviceType": "介護老人福祉施設",
    "capacity": 0,
    "openDays": [],
    "openDaysNote": ""
  },
  {
    "id": "3870101783",
    "name": "介護老人福祉施設ていれぎ荘",
    "kana": "カイゴロウジンフクシシセツテイレギソウ",
    "address": "愛媛県松山市水泥町405番地1",
    "lat": 33.8009655,
    "lng": 132.8221062,
    "tel": "089-975-5558",
    "url": "https://www.jikoukai-ehime.or.jp/teiregisou",
    "pref": "愛媛県",
    "city": "松山市",
    "category": "tokuyou",
    "serviceType": "介護老人福祉施設",
    "capacity": null,
    "openDays": [],
    "openDaysNote": ""
  },
  {
    "id": "3870101692",
    "name": "済生会姫原特別養護老人ホーム",
    "kana": "サイセイカイヒメバラトクベツヨウゴロウジンホーム",
    "address": "愛媛県松山市姫原1丁目1656番地",
    "lat": 33.8677123,
    "lng": 132.7646697,
    "tel": "089-926-8388",
    "url": "http://www.himebara-saiseikai.jp/",
    "pref": "愛媛県",
    "city": "松山市",
    "category": "tokuyou",
    "serviceType": "介護老人福祉施設",
    "capacity": 0,
    "openDays": [],
    "openDaysNote": ""
  },
  {
    "id": "3870101767",
    "name": "指定介護老人福祉施設　幸富久荘",
    "kana": "シテイカイゴロウジンフクシシセツ　コウフクソウ",
    "address": "愛媛県松山市富久町412-1",
    "lat": 33.8197919,
    "lng": 132.7250678,
    "tel": "089-972-8338",
    "url": "https://dousinkai.jp/",
    "pref": "愛媛県",
    "city": "松山市",
    "category": "tokuyou",
    "serviceType": "介護老人福祉施設",
    "capacity": 0,
    "openDays": [],
    "openDaysNote": ""
  },
  {
    "id": "3871100180",
    "name": "指定介護老人福祉施設　高縄荘",
    "kana": "シテカイゴロウジンフクシシセツ　タカナワソウ",
    "address": "愛媛県松山市立岩中村甲345番地",
    "lat": 33.8391574,
    "lng": 132.7655752,
    "tel": "089-996-0333",
    "url": "http://www.takanawasou.jp",
    "pref": "愛媛県",
    "city": "松山市",
    "category": "tokuyou",
    "serviceType": "介護老人福祉施設",
    "capacity": 0,
    "openDays": [],
    "openDaysNote": ""
  },
  {
    "id": "3870106386",
    "name": "松山特別養護老人ホーム",
    "kana": "マツヤマトクベツヨウゴロウジンホーム",
    "address": "松山市久万ノ台１７１７番地",
    "lat": 33.861626,
    "lng": 132.7354252,
    "tel": "089-922-5455",
    "url": "http://www.m-tokuro.com",
    "pref": "愛媛県",
    "city": "松山市",
    "category": "tokuyou",
    "serviceType": "介護老人福祉施設",
    "capacity": 75,
    "openDays": [],
    "openDaysNote": ""
  },
  {
    "id": "3871100297",
    "name": "聖マルチンの家",
    "kana": "セイマルチンノイエ",
    "address": "愛媛県松山市中西内250番地2",
    "lat": 33.9738975,
    "lng": 132.7825522,
    "tel": "089-992-0573",
    "url": "http://www.martin.or.jp/",
    "pref": "愛媛県",
    "city": "松山市",
    "category": "tokuyou",
    "serviceType": "介護老人福祉施設",
    "capacity": 55,
    "openDays": [],
    "openDaysNote": ""
  },
  {
    "id": "3870101734",
    "name": "第二権現荘",
    "kana": "ダイニゴンゲンソウ",
    "address": "愛媛県松山市権現町甲648番地1",
    "lat": 33.8993842,
    "lng": 132.7655891,
    "tel": "089-978-1110",
    "url": "https://www.gongensou.or.jｐ/03/",
    "pref": "愛媛県",
    "city": "松山市",
    "category": "tokuyou",
    "serviceType": "介護老人福祉施設",
    "capacity": 0,
    "openDays": [],
    "openDaysNote": ""
  },
  {
    "id": "3870112079",
    "name": "特別養護老人ホーム　あいじゅ祝谷",
    "kana": "トクベツヨウゴロウジンホーム　アイジュイワイダニ",
    "address": "愛媛県松山市祝谷6丁目1027番地1",
    "lat": 33.862941,
    "lng": 132.7754966,
    "tel": "089-994-5851",
    "url": "http://www.aijukai-group.com",
    "pref": "愛媛県",
    "city": "松山市",
    "category": "tokuyou",
    "serviceType": "介護老人福祉施設",
    "capacity": 60,
    "openDays": [],
    "openDaysNote": ""
  },
  {
    "id": "3870105115",
    "name": "特別養護老人ホーム　さや",
    "kana": "トクベツヨウゴロウジンホーム　サヤ",
    "address": "愛媛県松山市南斎院町1158番地",
    "lat": 33.8347459,
    "lng": 132.7356696,
    "tel": "089-972-6000",
    "url": "http://www.aijukai-group.com/",
    "pref": "愛媛県",
    "city": "松山市",
    "category": "tokuyou",
    "serviceType": "介護老人福祉施設",
    "capacity": 0,
    "openDays": [],
    "openDaysNote": ""
  },
  {
    "id": "3870112822",
    "name": "特別養護老人ホーム　サンシティ北条",
    "kana": "トクベツヨウゴロウジンホーム　サンシティホウジョウ",
    "address": "愛媛県松山市下難波甲1377番地2高齢者総合福祉施設　サンシティ北条 高齢者総合福祉施設　サンシティ北条",
    "lat": 33.9877328467495,
    "lng": 132.775663154454,
    "tel": "089-992-3300",
    "url": "https://suncity-hojo.jp/",
    "pref": "愛媛県",
    "city": "松山市",
    "category": "tokuyou",
    "serviceType": "介護老人福祉施設",
    "capacity": 0,
    "openDays": [],
    "openDaysNote": ""
  },
  {
    "id": "3870104423",
    "name": "特別養護老人ホーム　であい",
    "kana": "トクベツヨウゴロウジンホーム　デアイ",
    "address": "愛媛県松山市余戸南5丁目3-18",
    "lat": 33.8088459,
    "lng": 132.7244456,
    "tel": "089-972-5511",
    "url": "http://www.aijukai-group.com",
    "pref": "愛媛県",
    "city": "松山市",
    "category": "tokuyou",
    "serviceType": "介護老人福祉施設",
    "capacity": 0,
    "openDays": [],
    "openDaysNote": ""
  },
  {
    "id": "3873300242",
    "name": "特別養護老人ホーム　姫ヶ浜荘",
    "kana": "トクベツヨウゴロウジンホーム　ヒメガハマソウ",
    "address": "愛媛県松山市長師156番地1",
    "lat": 33.9587645,
    "lng": 132.6266611,
    "tel": "089-997-0777",
    "url": "tokuyou-himegahama@joy.ocn.ne.jp",
    "pref": "愛媛県",
    "city": "松山市",
    "category": "tokuyou",
    "serviceType": "介護老人福祉施設",
    "capacity": 0,
    "openDays": [],
    "openDaysNote": ""
  },
  {
    "id": "3870110057",
    "name": "特別養護老人ホーム　姫ヶ浜荘（ユニット）",
    "kana": "トクベツヨウゴロウジンホーム　ヒメガハマソウ（ユニット）",
    "address": "愛媛県松山市長師156番地1",
    "lat": 33.9587645,
    "lng": 132.6266611,
    "tel": "089-997-0777",
    "url": "tokuyou-himegahama@joy.ocn.ne.jp",
    "pref": "愛媛県",
    "city": "松山市",
    "category": "tokuyou",
    "serviceType": "介護老人福祉施設",
    "capacity": 0,
    "openDays": [],
    "openDaysNote": ""
  },
  {
    "id": "3870106238",
    "name": "特別養護老人ホームアテーナ",
    "kana": "トクベツヨウゴロウジンホームアテーナ",
    "address": "愛媛県松山市保免中三丁目3番23号",
    "lat": 33.814482,
    "lng": 132.7459525,
    "tel": "089-905-6622",
    "url": "http://ate-na.jp",
    "pref": "愛媛県",
    "city": "松山市",
    "category": "tokuyou",
    "serviceType": "介護老人福祉施設",
    "capacity": 0,
    "openDays": [],
    "openDaysNote": ""
  },
  {
    "id": "3870113531",
    "name": "特別養護老人ホームゆずの里",
    "kana": "トクベツヨウゴロウジンホームユズノサト",
    "address": "愛媛県松山市星岡５丁目９番２５号",
    "lat": 33.8115761,
    "lng": 132.7883511,
    "tel": "089-968-1992",
    "url": "https://mikankai.com/yuzu/",
    "pref": "愛媛県",
    "city": "松山市",
    "category": "tokuyou",
    "serviceType": "介護老人福祉施設",
    "capacity": 0,
    "openDays": [],
    "openDaysNote": ""
  },
  {
    "id": "3870101742",
    "name": "特別養護老人ホーム愛寿荘",
    "kana": "トクベツヨウゴロウジンホームアイジュソウ",
    "address": "愛媛県松山市来住町1171番地１",
    "lat": 33.8086636992415,
    "lng": 132.797496919877,
    "tel": "089-970-7000",
    "url": "http://www.aijukai-group.com/",
    "pref": "愛媛県",
    "city": "松山市",
    "category": "tokuyou",
    "serviceType": "介護老人福祉施設",
    "capacity": 109,
    "openDays": [],
    "openDaysNote": ""
  },
  {
    "id": "3870101809",
    "name": "特別養護老人ホーム安寿荘",
    "kana": "トクベツヨウゴロウジンホームアンジュソウ",
    "address": "愛媛県松山市安城寺町1427番地1",
    "lat": 33.8851952015888,
    "lng": 132.736993388361,
    "tel": "089-978-6910",
    "url": "http://anju-kai.jp",
    "pref": "愛媛県",
    "city": "松山市",
    "category": "tokuyou",
    "serviceType": "介護老人福祉施設",
    "capacity": 0,
    "openDays": [],
    "openDaysNote": ""
  },
  {
    "id": "3870101700",
    "name": "特別養護老人ホーム久谷荘",
    "kana": "トクベツヨウゴロウジンホームクタニソウ",
    "address": "愛媛県松山市恵原町甲940番地",
    "lat": 33.7649223,
    "lng": 132.8114182,
    "tel": "089-963-2338",
    "url": "http://www.city.matsuyama.ehime.jp/kouiki/",
    "pref": "愛媛県",
    "city": "松山市",
    "category": "tokuyou",
    "serviceType": "介護老人福祉施設",
    "capacity": 150,
    "openDays": [],
    "openDaysNote": ""
  },
  {
    "id": "3870101718",
    "name": "特別養護老人ホーム五明苑",
    "kana": "トクベツヨウゴロウジンホームゴミョウエン",
    "address": "愛媛県松山市菅沢町乙４１１－１",
    "lat": 33.9018382223017,
    "lng": 132.807333402884,
    "tel": "089-977-3711",
    "url": "http://www.gomyoen.jp/",
    "pref": "愛媛県",
    "city": "松山市",
    "category": "tokuyou",
    "serviceType": "介護老人福祉施設",
    "capacity": 55,
    "openDays": [],
    "openDaysNote": ""
  },
  {
    "id": "3870101775",
    "name": "特別養護老人ホーム道後",
    "kana": "トクベツヨウゴロウジンホームドウゴ",
    "address": "愛媛県松山市溝辺町乙539番地1",
    "lat": 33.8531652,
    "lng": 132.8028881,
    "tel": "089-977-8111",
    "url": "http://aijukai-group.com/facilities/fukushi.html",
    "pref": "愛媛県",
    "city": "松山市",
    "category": "tokuyou",
    "serviceType": "介護老人福祉施設",
    "capacity": 0,
    "openDays": [],
    "openDaysNote": ""
  },
  {
    "id": "3870110206",
    "name": "特別養護老人ホーム梅本の里ゆにっと",
    "kana": "トクベツヨウゴロウジンホームウメモトノサトユニット",
    "address": "愛媛県松山市北梅本町1624番地1",
    "lat": 33.8146565,
    "lng": 132.8527893,
    "tel": "089-975-6985",
    "url": "http://www.umemotonosato.com/",
    "pref": "愛媛県",
    "city": "松山市",
    "category": "tokuyou",
    "serviceType": "介護老人福祉施設",
    "capacity": 0,
    "openDays": [],
    "openDaysNote": ""
  },
  {
    "id": "3870101726",
    "name": "白寿荘",
    "kana": "ハクジュソウ",
    "address": "愛媛県松山市天山2丁目3-26",
    "lat": 33.8191102,
    "lng": 132.7781659,
    "tel": "089-946-3345",
    "url": "http://www.atomgroup.jp/fukushi/list.html#a04",
    "pref": "愛媛県",
    "city": "松山市",
    "category": "tokuyou",
    "serviceType": "介護老人福祉施設",
    "capacity": 0,
    "openDays": [],
    "openDaysNote": ""
  },
  {
    "id": "3870102484",
    "name": "和光苑",
    "kana": "ワコウエン",
    "address": "愛媛県松山市井門町1099番地",
    "lat": 33.796821,
    "lng": 132.7771356,
    "tel": "089-969-0001",
    "url": "http://wakouen.okoshi-yasu.com/",
    "pref": "愛媛県",
    "city": "松山市",
    "category": "tokuyou",
    "serviceType": "介護老人福祉施設",
    "capacity": 0,
    "openDays": [],
    "openDaysNote": ""
  },
  {
    "id": "3870110636",
    "name": "和光苑新館",
    "kana": "ワコウエンシンカン",
    "address": "愛媛県松山市井門町1099番地",
    "lat": 33.796821,
    "lng": 132.7771356,
    "tel": "089-969-0001",
    "url": "http://wakouen.okoshi-yasu.com/",
    "pref": "愛媛県",
    "city": "松山市",
    "category": "tokuyou",
    "serviceType": "介護老人福祉施設",
    "capacity": 0,
    "openDays": [],
    "openDaysNote": ""
  },
  {
    "id": "3873500353",
    "name": "鶴寿荘",
    "kana": "カクジュソウ",
    "address": "愛媛県伊予郡松前町大字鶴吉635番地1",
    "lat": 33.782838,
    "lng": 132.7358229,
    "tel": "089-985-0170",
    "url": "http://kakuju.or.jp/",
    "pref": "愛媛県",
    "city": "松前町",
    "category": "tokuyou",
    "serviceType": "介護老人福祉施設",
    "capacity": 0,
    "openDays": [],
    "openDaysNote": ""
  },
  {
    "id": "3873500452",
    "name": "特別養護老人ホーム玉泉",
    "kana": "トクベツヨウゴロウジンホームギョクセン",
    "address": "愛媛県伊予郡松前町北川原33番地1",
    "lat": 33.7993023,
    "lng": 132.7130164,
    "tel": "089-984-6407",
    "url": "http://www.angel-welfare.jp/",
    "pref": "愛媛県",
    "city": "松前町",
    "category": "tokuyou",
    "serviceType": "介護老人福祉施設",
    "capacity": 0,
    "openDays": [],
    "openDaysNote": ""
  },
  {
    "id": "3873501245",
    "name": "特別養護老人ホーム松前",
    "kana": "トクベツヨウゴロウジンホームマサキ",
    "address": "愛媛県伊予郡松前町大字西古泉301番地1",
    "lat": 33.789865221882,
    "lng": 132.721086497992,
    "tel": "089-994-6830",
    "url": "http://jurakukai.jp/facility-info/masaki",
    "pref": "愛媛県",
    "city": "松前町",
    "category": "tokuyou",
    "serviceType": "介護老人福祉施設",
    "capacity": 0,
    "openDays": [],
    "openDaysNote": ""
  },
  {
    "id": "3873900280",
    "name": "特別養護老人ホーム古城園",
    "kana": "トクベツヨウゴロウジンホームコジョウエン",
    "address": "愛媛県北宇和郡松野町大字豊岡4598番地第1",
    "lat": 33.2226341,
    "lng": 132.7045493,
    "tel": "0895-42-1901",
    "url": "",
    "pref": "愛媛県",
    "city": "松野町",
    "category": "tokuyou",
    "serviceType": "介護老人福祉施設",
    "capacity": 0,
    "openDays": [],
    "openDaysNote": ""
  },
  {
    "id": "3873200939",
    "name": "上島町特別養護老人ホーム　海光園",
    "kana": "カミジマチョウトクベツヨウゴロウジンホームカイコウエン",
    "address": "愛媛県越智郡上島町生名1268番地1",
    "lat": 34.2705127,
    "lng": 133.1830939,
    "tel": "0897-76-2250",
    "url": "",
    "pref": "愛媛県",
    "city": "上島町",
    "category": "tokuyou",
    "serviceType": "介護老人福祉施設",
    "capacity": null,
    "openDays": [],
    "openDaysNote": ""
  },
  {
    "id": "3870500596",
    "name": "アソカ園",
    "kana": "アソカエン",
    "address": "愛媛県新居浜市清住町1-36",
    "lat": 33.9607426,
    "lng": 133.3109343,
    "tel": "0897-46-5353",
    "url": "http://www.asokaen.jp/",
    "pref": "愛媛県",
    "city": "新居浜市",
    "category": "tokuyou",
    "serviceType": "介護老人福祉施設",
    "capacity": 0,
    "openDays": [],
    "openDaysNote": ""
  },
  {
    "id": "3870502485",
    "name": "介護老人福祉施設　ハートランド三恵南館",
    "kana": "カイゴロウジンフクシシセツハートランドサンケイミナミカン",
    "address": "愛媛県新居浜市萩生17",
    "lat": 33.9304507,
    "lng": 133.259788,
    "tel": "0897-40-0006",
    "url": "http://www.heartland.sankeikai.com/",
    "pref": "愛媛県",
    "city": "新居浜市",
    "category": "tokuyou",
    "serviceType": "介護老人福祉施設",
    "capacity": 0,
    "openDays": [],
    "openDaysNote": ""
  },
  {
    "id": "3870500562",
    "name": "介護老人福祉施設きぼうの苑",
    "kana": "カイゴロウジンフクシシセツキボウノソノ",
    "address": "愛媛県新居浜市西の土居町二丁目8番12号",
    "lat": 33.949421,
    "lng": 133.2748847,
    "tel": "0897-33-4477",
    "url": "http://www.sankeikai.or.jp",
    "pref": "愛媛県",
    "city": "新居浜市",
    "category": "tokuyou",
    "serviceType": "介護老人福祉施設",
    "capacity": 0,
    "openDays": [],
    "openDaysNote": ""
  },
  {
    "id": "3870500588",
    "name": "介護老人福祉施設ハートランド三恵",
    "kana": "カイゴロウジンフクシシセツハートランドサンケイ",
    "address": "愛媛県新居浜市萩生17",
    "lat": 33.9304507,
    "lng": 133.259788,
    "tel": "0897-40-0006",
    "url": "http://www.heartland.sankeikai.com/",
    "pref": "愛媛県",
    "city": "新居浜市",
    "category": "tokuyou",
    "serviceType": "介護老人福祉施設",
    "capacity": 0,
    "openDays": [],
    "openDaysNote": ""
  },
  {
    "id": "3870500885",
    "name": "特別養護老人ホームおくらの里",
    "kana": "トクベツヨウゴロウジンホーム　オクラノサト",
    "address": "愛媛県新居浜市御蔵町11番23号",
    "lat": 33.9165802,
    "lng": 133.2855114,
    "tel": "0897-31-6113",
    "url": "http://www.okuranosato.com/",
    "pref": "愛媛県",
    "city": "新居浜市",
    "category": "tokuyou",
    "serviceType": "介護老人福祉施設",
    "capacity": 100,
    "openDays": [],
    "openDaysNote": ""
  },
  {
    "id": "3870500570",
    "name": "特別養護老人ホームふたば荘",
    "kana": "トクベツヨウゴロウジンホームフタバソウ",
    "address": "愛媛県新居浜市船木959-3",
    "lat": 33.9348874,
    "lng": 133.346705,
    "tel": "0897-40-0515",
    "url": "http://ww9.tiki.ne.jp/~futaba/",
    "pref": "愛媛県",
    "city": "新居浜市",
    "category": "tokuyou",
    "serviceType": "介護老人福祉施設",
    "capacity": 0,
    "openDays": [],
    "openDaysNote": ""
  },
  {
    "id": "3870502527",
    "name": "特別養護老人ホームプラチナプレイス",
    "kana": "トクベツヨウゴロウジンホームプラチナプレイス",
    "address": "愛媛県新居浜市一宮町二丁目6番72号",
    "lat": 33.9583118,
    "lng": 133.2780348,
    "tel": "0897-35-3000",
    "url": "http://www.hapinesu.com/",
    "pref": "愛媛県",
    "city": "新居浜市",
    "category": "tokuyou",
    "serviceType": "介護老人福祉施設",
    "capacity": null,
    "openDays": [],
    "openDaysNote": ""
  },
  {
    "id": "3870500794",
    "name": "特別養護老人ホーム若水館",
    "kana": "トクベツヨウゴロウジンホームワカミズカン",
    "address": "愛媛県新居浜市若水町一丁目9番13号",
    "lat": 33.9659138,
    "lng": 133.2777017,
    "tel": "0897-31-2000",
    "url": "https://www.hapinesu.com/",
    "pref": "愛媛県",
    "city": "新居浜市",
    "category": "tokuyou",
    "serviceType": "介護老人福祉施設",
    "capacity": 70,
    "openDays": [],
    "openDaysNote": ""
  },
  {
    "id": "3870500083",
    "name": "豊園荘",
    "kana": "ホウエンソウ",
    "address": "愛媛県新居浜市船木甲2216番地の29",
    "lat": 33.9403871014842,
    "lng": 133.340781597575,
    "tel": "0897-40-1111",
    "url": "http://www.hapinesu.com/",
    "pref": "愛媛県",
    "city": "新居浜市",
    "category": "tokuyou",
    "serviceType": "介護老人福祉施設",
    "capacity": 0,
    "openDays": [],
    "openDaysNote": ""
  },
  {
    "id": "3871200105",
    "name": "亀天荘",
    "kana": "キテンソウ",
    "address": "西条市大野190番地１",
    "lat": 33.9463514,
    "lng": 133.0498465,
    "tel": "0898-66-0066",
    "url": "http://kitenkai.or.jp/",
    "pref": "愛媛県",
    "city": "西条市",
    "category": "tokuyou",
    "serviceType": "介護老人福祉施設",
    "capacity": 0,
    "openDays": [],
    "openDaysNote": ""
  },
  {
    "id": "3870601477",
    "name": "済生会西条特別養護老人ホーム",
    "kana": "サイセイカイサイジョウトクベツヨウゴロウジンホーム",
    "address": "愛媛県西条市新田109番地1",
    "lat": 33.9287709547445,
    "lng": 133.19270024438,
    "tel": "0897-55-5130",
    "url": "http://www.saiseikaisaijo.jp/",
    "pref": "愛媛県",
    "city": "西条市",
    "category": "tokuyou",
    "serviceType": "介護老人福祉施設",
    "capacity": null,
    "openDays": [],
    "openDaysNote": ""
  },
  {
    "id": "3870601147",
    "name": "社会福祉法人聖風会　特別養護老人ホーム　道前荘",
    "kana": "シャカイフクシホウジンセイフウカイトクベツヨウゴロウジンホームドウゼンソウ",
    "address": "愛媛県西条市小松町大頭甲1085番地1",
    "lat": 33.8845308524011,
    "lng": 133.074509315869,
    "tel": "0898-72-2290",
    "url": "saijo-seifuukai.or.jp/",
    "pref": "愛媛県",
    "city": "西条市",
    "category": "tokuyou",
    "serviceType": "介護老人福祉施設",
    "capacity": 0,
    "openDays": [],
    "openDaysNote": ""
  },
  {
    "id": "3870600818",
    "name": "特別養護老人ホーム　ル・ソレイユ",
    "kana": "トクベツヨウゴロウジンホーム　ル・ソレイユ",
    "address": "愛媛県西条市丹原町今井457番地1",
    "lat": 33.9014734,
    "lng": 133.060478,
    "tel": "0898-76-2111",
    "url": "http://www.le-soleil.or.jp/",
    "pref": "愛媛県",
    "city": "西条市",
    "category": "tokuyou",
    "serviceType": "介護老人福祉施設",
    "capacity": 0,
    "openDays": [],
    "openDaysNote": ""
  },
  {
    "id": "3870600313",
    "name": "特別養護老人ホーム　光風館",
    "kana": "トクベツヨウゴロウジンホーム　コウフウカン",
    "address": "愛媛県西条市氷見字上寺丙１９５番地",
    "lat": 33.9195105,
    "lng": 133.1811697,
    "tel": "0897-57-6600",
    "url": "saijo-seifuukai.or.jp/facilities/tokuyou-koufuukan/",
    "pref": "愛媛県",
    "city": "西条市",
    "category": "tokuyou",
    "serviceType": "介護老人福祉施設",
    "capacity": 40,
    "openDays": [],
    "openDaysNote": ""
  },
  {
    "id": "3870601386",
    "name": "特別養護老人ホーム　光風館氷見の丘",
    "kana": "トクベツヨウゴロウジンホーム　コウフウカンヒミノオカ",
    "address": "愛媛県西条市氷見丙195番地",
    "lat": 33.8896515,
    "lng": 133.135504,
    "tel": "0897-57-6600",
    "url": "http://saijo-seifuukai.or.jp/facilities/tokuyou-himinooka/",
    "pref": "愛媛県",
    "city": "西条市",
    "category": "tokuyou",
    "serviceType": "介護老人福祉施設",
    "capacity": 0,
    "openDays": [],
    "openDaysNote": ""
  },
  {
    "id": "3870600305",
    "name": "特別養護老人ホーム　福武荘",
    "kana": "トクベツヨウゴロウジンホーム　フクタケソウ",
    "address": "愛媛県西条市飯岡３４０２番地",
    "lat": 33.9113566,
    "lng": 133.2102479,
    "tel": "0897-55-8388",
    "url": "http://www.saijo-kaiseikai.jp/",
    "pref": "愛媛県",
    "city": "西条市",
    "category": "tokuyou",
    "serviceType": "介護老人福祉施設",
    "capacity": 0,
    "openDays": [],
    "openDaysNote": ""
  },
  {
    "id": "3871200246",
    "name": "特別養護老人ホームなごみ",
    "kana": "トクベツヨウゴロウジンホームナゴミ",
    "address": "愛媛県西条市周布326番地",
    "lat": 33.9259575,
    "lng": 133.0881644,
    "tel": "0898-64-7003",
    "url": "www.nagomi2012.com",
    "pref": "愛媛県",
    "city": "西条市",
    "category": "tokuyou",
    "serviceType": "介護老人福祉施設",
    "capacity": 50,
    "openDays": [],
    "openDaysNote": ""
  },
  {
    "id": "3870600909",
    "name": "特別養護老人ホーム伊予千寿苑",
    "kana": "トクベツヨウゴロウジンホームイヨセンジュエン",
    "address": "愛媛県西条市飯岡3383番地",
    "lat": 33.9118232,
    "lng": 133.2112839,
    "tel": "0897-55-1000",
    "url": "http://www.saijo-kaiseikai.jp/",
    "pref": "愛媛県",
    "city": "西条市",
    "category": "tokuyou",
    "serviceType": "介護老人福祉施設",
    "capacity": 50,
    "openDays": [],
    "openDaysNote": ""
  },
  {
    "id": "3871400473",
    "name": "宇和町特別養護老人ホーム　松葉寮",
    "kana": "ウワチョウトクベツヨウゴロウジンホーム　マツバリョウ",
    "address": "愛媛県西予市宇和町久枝1434番地1宇和町特別養護老人ホーム松葉寮 宇和町特別養護老人ホーム松葉寮",
    "lat": 33.3651718,
    "lng": 132.4934384,
    "tel": "0894-62-2111",
    "url": "http://www.seiyofukushi.com/",
    "pref": "愛媛県",
    "city": "西予市",
    "category": "tokuyou",
    "serviceType": "介護老人福祉施設",
    "capacity": 75,
    "openDays": [],
    "openDaysNote": ""
  },
  {
    "id": "3871400432",
    "name": "特別養護老人ホーム　しいのき園",
    "kana": "トクベツヨウゴロウジンホーム　シイノキエン",
    "address": "愛媛県西予市野村町野村8号467番地",
    "lat": 33.3678738,
    "lng": 132.6313173,
    "tel": "0894-72-3554",
    "url": "http://www.noshiro-f.jp",
    "pref": "愛媛県",
    "city": "西予市",
    "category": "tokuyou",
    "serviceType": "介護老人福祉施設",
    "capacity": 50,
    "openDays": [],
    "openDaysNote": ""
  },
  {
    "id": "3871400390",
    "name": "特別養護老人ホーム　皆楽園",
    "kana": "トクベツヨウゴロウジンホーム　カイラクエン",
    "address": "愛媛県西予市三瓶町皆江2598-1",
    "lat": 33.3483991,
    "lng": 132.4114675,
    "tel": "0894-20-5710",
    "url": "http://www.seiyofukushi.com/",
    "pref": "愛媛県",
    "city": "西予市",
    "category": "tokuyou",
    "serviceType": "介護老人福祉施設",
    "capacity": 0,
    "openDays": [],
    "openDaysNote": ""
  },
  {
    "id": "3871400465",
    "name": "特別養護老人ホームあけはま荘",
    "kana": "トクベツヨウゴロウジンホームアケハマソウ",
    "address": "愛媛県西予市明浜町狩浜２番耕地１１７７番地",
    "lat": 33.3160714,
    "lng": 132.4631838,
    "tel": "0894-65-0137",
    "url": "http://www.seiyofukushi.com/about/index.html",
    "pref": "愛媛県",
    "city": "西予市",
    "category": "tokuyou",
    "serviceType": "介護老人福祉施設",
    "capacity": 0,
    "openDays": [],
    "openDaysNote": ""
  },
  {
    "id": "3871400689",
    "name": "特別養護老人ホーム寿楽苑",
    "kana": "トクベツヨウゴロウジンホームジュラクエン",
    "address": "愛媛県西予市城川町魚成7026番地1",
    "lat": 33.379989,
    "lng": 132.7310206,
    "tel": "0894-82-0021",
    "url": "http://noshiro-f.jp/",
    "pref": "愛媛県",
    "city": "西予市",
    "category": "tokuyou",
    "serviceType": "介護老人福祉施設",
    "capacity": 50,
    "openDays": [],
    "openDaysNote": ""
  },
  {
    "id": "3873800274",
    "name": "特別養護老人ホーム法正園",
    "kana": "トクベツヨウゴロウジンホームホウショウエン",
    "address": "愛媛県西予市野村町野村13-288特別養護老人ホーム法正園 特別養護老人ホーム法正園",
    "lat": 33.3772783,
    "lng": 132.6395634,
    "tel": "0894-72-2851",
    "url": "http://noshiro-f.jp/",
    "pref": "愛媛県",
    "city": "西予市",
    "category": "tokuyou",
    "serviceType": "介護老人福祉施設",
    "capacity": 50,
    "openDays": [],
    "openDaysNote": ""
  },
  {
    "id": "3870700188",
    "name": "指定介護老人福祉施設特別養護老人ホームとみす寮",
    "kana": "シテイカイゴロウジンフクシシセツトクベツヨウゴロウジンホームトミスリョウ",
    "address": "愛媛県大洲市大洲810番地1",
    "lat": 33.5100013,
    "lng": 132.5382535,
    "tel": "0893-23-0210",
    "url": "https://tomisuryou.com/",
    "pref": "愛媛県",
    "city": "大洲市",
    "category": "tokuyou",
    "serviceType": "介護老人福祉施設",
    "capacity": 0,
    "openDays": [],
    "openDaysNote": ""
  },
  {
    "id": "3873600146",
    "name": "特別養護老人ホームかわかみ荘",
    "kana": "トクベツヨウゴロウジンホームカワカミソウ",
    "address": "愛媛県大洲市肱川町山鳥坂2800番地",
    "lat": 33.478637327966,
    "lng": 132.711748283467,
    "tel": "0893-34-2655",
    "url": "http://kawakamisou.com/",
    "pref": "愛媛県",
    "city": "大洲市",
    "category": "tokuyou",
    "serviceType": "介護老人福祉施設",
    "capacity": 50,
    "openDays": [],
    "openDaysNote": ""
  },
  {
    "id": "3870700212",
    "name": "特別養護老人ホーム希望ヶ丘荘",
    "kana": "トクベツヨウゴロウジンホームキボウガオカソウ",
    "address": "愛媛県大洲市菅田町菅田丙495番地34",
    "lat": 33.5121937,
    "lng": 132.5734174,
    "tel": "0893-25-3101",
    "url": "https://kibougaokasou.jp/",
    "pref": "愛媛県",
    "city": "大洲市",
    "category": "tokuyou",
    "serviceType": "介護老人福祉施設",
    "capacity": 90,
    "openDays": [],
    "openDaysNote": ""
  },
  {
    "id": "3870700758",
    "name": "特別養護老人ホーム希望ヶ丘荘アネックス",
    "kana": "トクベツヨウゴロウジンホームキボウガオカソウアネックス",
    "address": "愛媛県大洲市菅田町菅田丙495番地34",
    "lat": 33.5121937,
    "lng": 132.5734174,
    "tel": "0893-25-3101",
    "url": "https://kibougaokasou.jp/",
    "pref": "愛媛県",
    "city": "大洲市",
    "category": "tokuyou",
    "serviceType": "介護老人福祉施設",
    "capacity": 35,
    "openDays": [],
    "openDaysNote": ""
  },
  {
    "id": "3873500346",
    "name": "砥部オレンジ荘",
    "kana": "トベオレンジソウ",
    "address": "愛媛県伊予郡砥部町大南2267",
    "lat": 33.7295898,
    "lng": 132.7929608,
    "tel": "089-962-7820",
    "url": "http://tobe-k.com",
    "pref": "愛媛県",
    "city": "砥部町",
    "category": "tokuyou",
    "serviceType": "介護老人福祉施設",
    "capacity": 55,
    "openDays": [],
    "openDaysNote": ""
  },
  {
    "id": "3873500437",
    "name": "特別養護老人ホームひろた",
    "kana": "トクベツヨウゴロウジンホームヒロタ",
    "address": "愛媛県伊予郡砥部町総津405番地",
    "lat": 33.6300689,
    "lng": 132.7988935,
    "tel": "089-969-2155",
    "url": "https://www.koujukai-hirota.com/",
    "pref": "愛媛県",
    "city": "砥部町",
    "category": "tokuyou",
    "serviceType": "介護老人福祉施設",
    "capacity": 30,
    "openDays": [],
    "openDaysNote": ""
  },
  {
    "id": "3873300259",
    "name": "ウェルケア重信（介護老人福祉施設）",
    "kana": "ウェルケアシゲノブ",
    "address": "愛媛県東温市北野田533番1",
    "lat": 33.7934473,
    "lng": 132.8329108,
    "tel": "089-955-0310",
    "url": "http://kikuju.or.jp/",
    "pref": "愛媛県",
    "city": "東温市",
    "category": "tokuyou",
    "serviceType": "介護老人福祉施設",
    "capacity": 50,
    "openDays": [],
    "openDaysNote": ""
  },
  {
    "id": "3871500082",
    "name": "特別養護老人ホーム　ガリラヤ荘",
    "kana": "トクベツヨウゴロウジンホーム　ガリラヤソウ",
    "address": "愛媛県東温市南方１７６６番地１",
    "lat": 33.7978697843055,
    "lng": 132.897894306746,
    "tel": "089-966-2293",
    "url": "https://www.ailinen.jp/",
    "pref": "愛媛県",
    "city": "東温市",
    "category": "tokuyou",
    "serviceType": "介護老人福祉施設",
    "capacity": 0,
    "openDays": [],
    "openDaysNote": ""
  },
  {
    "id": "3873400190",
    "name": "小田特別養護老人ホーム緑風荘",
    "kana": "オダトクベツヨウゴロウジンホームリョクフウソウ",
    "address": "愛媛県喜多郡内子町小田149番地1",
    "lat": 33.567929,
    "lng": 132.8042021,
    "tel": "0892-52-3101",
    "url": "ryokuhuusou.com",
    "pref": "愛媛県",
    "city": "内子町",
    "category": "tokuyou",
    "serviceType": "介護老人福祉施設",
    "capacity": 0,
    "openDays": [],
    "openDaysNote": ""
  },
  {
    "id": "3873600021",
    "name": "特別養護老人ホームみどり苑",
    "kana": "トクベツヨウゴロウジンホームミドリエン",
    "address": "愛媛県喜多郡内子町立山4740番地1",
    "lat": 33.5914344,
    "lng": 132.6721453,
    "tel": "0893-45-0141",
    "url": "http://userweb.u-broad.jp/ozukita-midori/",
    "pref": "愛媛県",
    "city": "内子町",
    "category": "tokuyou",
    "serviceType": "介護老人福祉施設",
    "capacity": 0,
    "openDays": [],
    "openDaysNote": ""
  },
  {
    "id": "3873600195",
    "name": "特別養護老人ホーム神南荘",
    "kana": "トクベツヨウゴロウジンホームカンナンソウ",
    "address": "愛媛県喜多郡内子町五十崎甲881番地",
    "lat": 33.5316839519318,
    "lng": 132.65398320846,
    "tel": "0893-43-1901",
    "url": "http://kannansou.server-shared.com/",
    "pref": "愛媛県",
    "city": "内子町",
    "category": "tokuyou",
    "serviceType": "介護老人福祉施設",
    "capacity": 50,
    "openDays": [],
    "openDaysNote": ""
  },
  {
    "id": "3870400219",
    "name": "特別養護老人ホームことぶき荘",
    "kana": "トクベツヨウゴロウジンホームコトブキソウ",
    "address": "愛媛県八幡浜市向灘229番地18",
    "lat": 33.4663947,
    "lng": 132.4245971,
    "tel": "0894-24-6655",
    "url": "http://tokuyou-kotobuki.or.jp/",
    "pref": "愛媛県",
    "city": "八幡浜市",
    "category": "tokuyou",
    "serviceType": "介護老人福祉施設",
    "capacity": 0,
    "openDays": [],
    "openDaysNote": ""
  },
  {
    "id": "3873700185",
    "name": "八幡浜地区施設事務組合特別養護老人ホーム青石寮",
    "kana": "ヤワタハマチクシセツジムクミアイトクベツヨウゴロウジンホームセイセキリョウ",
    "address": "愛媛県八幡浜市保内町磯崎2114番地3",
    "lat": 33.5386237,
    "lng": 132.4065461,
    "tel": "0894-35-0510",
    "url": "",
    "pref": "愛媛県",
    "city": "八幡浜市",
    "category": "tokuyou",
    "serviceType": "介護老人福祉施設",
    "capacity": 110,
    "openDays": [],
    "openDaysNote": ""
  }
]