[
  {
    "id": "2375600992",
    "name": "特別養護老人ホームあま恵寿荘",
    "kana": "トクベツヨウゴロウジンホームアマケイジュソウ",
    "address": "愛知県あま市二ツ寺西高須賀２番地",
    "lat": 35.2124089,
    "lng": 136.7923443,
    "tel": "052-445-0211",
    "url": "http://www.ama-k.com",
    "pref": "愛知県",
    "city": "あま市",
    "category": "tokuyou",
    "serviceType": "介護老人福祉施設",
    "capacity": 85,
    "openDays": [],
    "openDaysNote": ""
  },
  {
    "id": "2377601048",
    "name": "特別養護老人ホーム第Ⅱあま恵寿荘",
    "kana": "トクベツヨウゴロウジンホーム　ダイニアマケイジュソウ",
    "address": "愛知県あま市坂牧向江24番地",
    "lat": 35.1790751,
    "lng": 136.8320326,
    "tel": "052-462-0124",
    "url": "http://www.ama2-k.com",
    "pref": "愛知県",
    "city": "あま市",
    "category": "tokuyou",
    "serviceType": "介護老人福祉施設",
    "capacity": null,
    "openDays": [],
    "openDaysNote": ""
  },
  {
    "id": "2376100356",
    "name": "特別養護老人ホームみよしの里",
    "kana": "トクベツヨウゴロウジンホームミヨシノサト",
    "address": "愛知県みよし市三好町八和田山１８番地",
    "lat": 35.07797,
    "lng": 137.0769124,
    "tel": "0561-34-9933",
    "url": "http://okafuku.com/",
    "pref": "愛知県",
    "city": "みよし市",
    "category": "tokuyou",
    "serviceType": "介護老人福祉施設",
    "capacity": 0,
    "openDays": [],
    "openDaysNote": ""
  },
  {
    "id": "2376100034",
    "name": "特別養護老人ホーム安立荘",
    "kana": "トクベツヨウゴロウジンホームアンリュウソウ",
    "address": "愛知県みよし市打越町山ノ神６０番地",
    "lat": 35.085964,
    "lng": 137.1052429,
    "tel": "0561-32-0115",
    "url": "http://www.syoutokukai.or.jp/anryuso/",
    "pref": "愛知県",
    "city": "みよし市",
    "category": "tokuyou",
    "serviceType": "介護老人福祉施設",
    "capacity": 80,
    "openDays": [],
    "openDaysNote": ""
  },
  {
    "id": "2375700578",
    "name": "特別養護老人ホーム阿久比一期一会荘",
    "kana": "トクベツヨウゴロウジンホームアグイイチゴイチエソウ",
    "address": "愛知県知多郡阿久比町大字卯坂字桜ヶ丘１９５番地",
    "lat": 34.9335357,
    "lng": 136.9094714,
    "tel": "0569-47-0205",
    "url": "https://www.ichigoichie.or.jp/",
    "pref": "愛知県",
    "city": "阿久比町",
    "category": "tokuyou",
    "serviceType": "介護老人福祉施設",
    "capacity": 0,
    "openDays": [],
    "openDaysNote": ""
  },
  {
    "id": "2375600299",
    "name": "愛厚ホーム佐屋苑",
    "kana": "アイコウホームサヤエン",
    "address": "愛知県愛西市大井町浦田面２６８番地６",
    "lat": 35.1452204963808,
    "lng": 136.749294679517,
    "tel": "0567-32-1777",
    "url": "http://www.ai-kou.or.jp",
    "pref": "愛知県",
    "city": "愛西市",
    "category": "tokuyou",
    "serviceType": "介護老人福祉施設",
    "capacity": 100,
    "openDays": [],
    "openDaysNote": ""
  },
  {
    "id": "2375600323",
    "name": "特別養護老人ホーム佐織寿敬園",
    "kana": "トクベツヨウゴロウジンホームサオリジュケイエン",
    "address": "愛知県愛西市西川端町南須原4-1",
    "lat": 35.2173021,
    "lng": 136.7133765,
    "tel": "0567-37-3030",
    "url": "http://kisenkai.or.jp/",
    "pref": "愛知県",
    "city": "愛西市",
    "category": "tokuyou",
    "serviceType": "介護老人福祉施設",
    "capacity": 80,
    "openDays": [],
    "openDaysNote": ""
  },
  {
    "id": "2375600307",
    "name": "特別養護老人ホーム悠々の里",
    "kana": "トクベツヨウゴロウジンホームユウユウノサト",
    "address": "愛知県愛西市小茂井町宮浦６４番地１",
    "lat": 35.161264,
    "lng": 136.6954722,
    "tel": "0567-28-6618",
    "url": "http://www.yuuyuu.or.jp/",
    "pref": "愛知県",
    "city": "愛西市",
    "category": "tokuyou",
    "serviceType": "介護老人福祉施設",
    "capacity": 0,
    "openDays": [],
    "openDaysNote": ""
  },
  {
    "id": "2375601552",
    "name": "明範荘特別養護老人ホーム",
    "kana": "メイハンソウトクベツヨウゴロウジンホーム",
    "address": "愛知県愛西市赤目町山之神　３０番地１",
    "lat": 35.1986261,
    "lng": 136.6971484,
    "tel": "0567-33-3077",
    "url": "http://teitokukai.jp",
    "pref": "愛知県",
    "city": "愛西市",
    "category": "tokuyou",
    "serviceType": "介護老人福祉施設",
    "capacity": 110,
    "openDays": [],
    "openDaysNote": ""
  },
  {
    "id": "2373101175",
    "name": "社会福祉法人　安祥福祉会",
    "kana": "シャカイフクシホウジン　アンショウフクシカイ",
    "address": "愛知県安城市福釜町矢場８８番地",
    "lat": 34.9484698,
    "lng": 137.0586187,
    "tel": "0566-71-3171",
    "url": "http://www.annon.or.jp/",
    "pref": "愛知県",
    "city": "安城市",
    "category": "tokuyou",
    "serviceType": "介護老人福祉施設",
    "capacity": 0,
    "openDays": [],
    "openDaysNote": ""
  },
  {
    "id": "2373102165",
    "name": "特別養護老人ホーム　ひまわり・安城",
    "kana": "トクベツヨウゴロウジンホーム　ヒマワリ・アンジョウ",
    "address": "愛知県安城市福釜町下山81番地1特別養護老人ホーム　ひまわり・安城 特別養護老人ホーム　ひまわり・安城",
    "lat": 34.9392324,
    "lng": 137.0383489,
    "tel": "0566-92-0088",
    "url": "http://aiseikan.xsrv.jp/01/",
    "pref": "愛知県",
    "city": "安城市",
    "category": "tokuyou",
    "serviceType": "介護老人福祉施設",
    "capacity": 0,
    "openDays": [],
    "openDaysNote": ""
  },
  {
    "id": "2373100086",
    "name": "特別養護老人ホーム　安寿の郷ホーム",
    "kana": "トクベツヨウゴロウジンホーム　アスノサトホーム",
    "address": "愛知県安城市別郷町油石105",
    "lat": 34.9612898,
    "lng": 137.111885,
    "tel": "0566-76-6133",
    "url": "https://misuzu.or.jp",
    "pref": "愛知県",
    "city": "安城市",
    "category": "tokuyou",
    "serviceType": "介護老人福祉施設",
    "capacity": 100,
    "openDays": [],
    "openDaysNote": ""
  },
  {
    "id": "2373102496",
    "name": "特別養護老人ホーム　鎌倉街道東山",
    "kana": "トクベツヨウゴロウジンホーム　カマクラカイドウヒガシヤマ",
    "address": "愛知県安城市里町壱斗山249番地",
    "lat": 34.9934175,
    "lng": 137.1073313,
    "tel": "566985515",
    "url": "https://ymnt.jp/",
    "pref": "愛知県",
    "city": "安城市",
    "category": "tokuyou",
    "serviceType": "介護老人福祉施設",
    "capacity": 120,
    "openDays": [],
    "openDaysNote": ""
  },
  {
    "id": "2373101639",
    "name": "特別養護老人ホームひがしばた",
    "kana": "トクベツヨウゴロウジンホームヒガシバタ",
    "address": "愛知県安城市東端町鴻ノ巣72番地2",
    "lat": 34.9146462472336,
    "lng": 137.027892467598,
    "tel": "0566-73-8211",
    "url": "http://www.higashibata.org/",
    "pref": "愛知県",
    "city": "安城市",
    "category": "tokuyou",
    "serviceType": "介護老人福祉施設",
    "capacity": 0,
    "openDays": [],
    "openDaysNote": ""
  },
  {
    "id": "2373100532",
    "name": "特別養護老人ホーム小川の里",
    "kana": "トクベツヨウゴロウジンホームオガワノサト",
    "address": "愛知県安城市小川町三ツ塚1番地1",
    "lat": 34.9099669,
    "lng": 137.0778133,
    "tel": "0566-73-7011",
    "url": "http://www.iful-jikeikai.com",
    "pref": "愛知県",
    "city": "安城市",
    "category": "tokuyou",
    "serviceType": "介護老人福祉施設",
    "capacity": 100,
    "openDays": [],
    "openDaysNote": ""
  },
  {
    "id": "2372200218",
    "name": "愛厚ホーム一宮苑",
    "kana": "アイコウホームイチノミヤエン",
    "address": "愛知県一宮市大和町苅安賀字狭間70",
    "lat": 35.2885059638261,
    "lng": 136.770631740475,
    "tel": "0586-44-8300",
    "url": "http://www.ai-kou.or.jp",
    "pref": "愛知県",
    "city": "一宮市",
    "category": "tokuyou",
    "serviceType": "介護老人福祉施設",
    "capacity": 0,
    "openDays": [],
    "openDaysNote": ""
  },
  {
    "id": "2372200754",
    "name": "一宮市萩の里特別養護老人ホーム",
    "kana": "イチノミヤシハギノサトトクベツヨウゴロウジンホーム",
    "address": "愛知県一宮市萩原町東宮重字蓮原36－1",
    "lat": 35.2722099,
    "lng": 136.778892,
    "tel": "0586-68-7311",
    "url": "http://www.jikeikai-net.jp",
    "pref": "愛知県",
    "city": "一宮市",
    "category": "tokuyou",
    "serviceType": "介護老人福祉施設",
    "capacity": 0,
    "openDays": [],
    "openDaysNote": ""
  },
  {
    "id": "2372201190",
    "name": "介護老人福祉施設いわと",
    "kana": "カイゴロウジンフクシシセツイワト",
    "address": "愛知県一宮市浅井町黒岩字宮東７番地１",
    "lat": 35.3518114,
    "lng": 136.8354812,
    "tel": "0586-51-6767",
    "url": "https://f-raikoukai.or.jp",
    "pref": "愛知県",
    "city": "一宮市",
    "category": "tokuyou",
    "serviceType": "介護老人福祉施設",
    "capacity": null,
    "openDays": [],
    "openDaysNote": ""
  },
  {
    "id": "2372204921",
    "name": "介護老人福祉施設えもり",
    "kana": "カイゴロウジンフクシシセツエモリ",
    "address": "愛知県一宮市浅井町江森字楼光寺１６番地１介護老人福祉施設えもり 介護老人福祉施設えもり",
    "lat": 35.3368173508935,
    "lng": 136.81752966218,
    "tel": "0586-82-0211",
    "url": "www.f-raikoukai.or.jp",
    "pref": "愛知県",
    "city": "一宮市",
    "category": "tokuyou",
    "serviceType": "介護老人福祉施設",
    "capacity": 100,
    "openDays": [],
    "openDaysNote": ""
  },
  {
    "id": "2375400088",
    "name": "介護老人福祉施設サンリバー",
    "kana": "カイゴロウジンフクシシセツサンリバー",
    "address": "愛知県一宮市木曽川町里小牧字笹原１４８番地",
    "lat": 35.3474603,
    "lng": 136.7609507,
    "tel": "0586-87-0010",
    "url": "http://www.seisyukai.com",
    "pref": "愛知県",
    "city": "一宮市",
    "category": "tokuyou",
    "serviceType": "介護老人福祉施設",
    "capacity": 80,
    "openDays": [],
    "openDaysNote": ""
  },
  {
    "id": "2372203386",
    "name": "特別養護老人ホ－ム　たんぽぽ祢々の里",
    "kana": "トクベツヨウゴロウジンホ－ム　タンポポネネノサト",
    "address": "愛知県一宮市千秋町加納馬場字松下６０番地",
    "lat": 35.3060357,
    "lng": 136.8706513,
    "tel": "0586-77-7667",
    "url": "http://www.tanpopo-fukushi.or.jp",
    "pref": "愛知県",
    "city": "一宮市",
    "category": "tokuyou",
    "serviceType": "介護老人福祉施設",
    "capacity": 0,
    "openDays": [],
    "openDaysNote": ""
  },
  {
    "id": "2372206322",
    "name": "特別養護老人ホーム　ガーデンハウス今伊勢",
    "kana": "トクベツヨウゴロウジンホーム　ガーデンハウスイマイセ",
    "address": "愛知県一宮市今伊勢町馬寄字御祭田2番地1",
    "lat": 35.3227305,
    "lng": 136.7826196,
    "tel": "0586-82-3711",
    "url": "http://teitokukai.jp",
    "pref": "愛知県",
    "city": "一宮市",
    "category": "tokuyou",
    "serviceType": "介護老人福祉施設",
    "capacity": 0,
    "openDays": [],
    "openDaysNote": ""
  },
  {
    "id": "2372201828",
    "name": "特別養護老人ホーム　たんぽぽ加茂の里",
    "kana": "トクベツヨウゴロウジンホーム　タンポポカモノサト",
    "address": "愛知県一宮市千秋町加茂字海戸２２番地",
    "lat": 35.3114407,
    "lng": 136.852344,
    "tel": "0586-75-3132",
    "url": "http://www.tanpopo-fukushi.or.jp/",
    "pref": "愛知県",
    "city": "一宮市",
    "category": "tokuyou",
    "serviceType": "介護老人福祉施設",
    "capacity": 100,
    "openDays": [],
    "openDaysNote": ""
  },
  {
    "id": "2372205399",
    "name": "特別養護老人ホーム　奥町",
    "kana": "トクベツヨウゴロウジンホーム　オクチョウ",
    "address": "愛知県一宮市奥町字大切前7-4",
    "lat": 35.3284289,
    "lng": 136.7626615,
    "tel": "0586-52-3611",
    "url": "http://www.haruokakai.or.jp/",
    "pref": "愛知県",
    "city": "一宮市",
    "category": "tokuyou",
    "serviceType": "介護老人福祉施設",
    "capacity": 100,
    "openDays": [],
    "openDaysNote": ""
  },
  {
    "id": "2372204327",
    "name": "特別養護老人ホーム　西御堂の里三笠",
    "kana": "トクベツヨウゴロウジンホーム　ニシミドウノサトミカサ",
    "address": "愛知県一宮市萩原町西御堂字虫祭1番地１",
    "lat": 35.2626340987353,
    "lng": 136.769658864418,
    "tel": "0586-67-2430",
    "url": "http:www.iful-jikeikai.com",
    "pref": "愛知県",
    "city": "一宮市",
    "category": "tokuyou",
    "serviceType": "介護老人福祉施設",
    "capacity": 0,
    "openDays": [],
    "openDaysNote": ""
  },
  {
    "id": "2372202495",
    "name": "特別養護老人ホーム　丹陽",
    "kana": "トクベツヨウゴロウジンホーム　タンヨウ",
    "address": "愛知県一宮市丹陽町九日市場字新猫塚85番地",
    "lat": 35.2614571,
    "lng": 136.8364738,
    "tel": "0586-76-9908",
    "url": "http://www.haruokakai.or.jp/",
    "pref": "愛知県",
    "city": "一宮市",
    "category": "tokuyou",
    "serviceType": "介護老人福祉施設",
    "capacity": 80,
    "openDays": [],
    "openDaysNote": ""
  },
  {
    "id": "2372200226",
    "name": "特別養護老人ホームあいふるの里",
    "kana": "トクベツヨウゴロウジンホームアイフルノサト",
    "address": "愛知県一宮市浅井町西海戸字余陸寺45番地1",
    "lat": 35.3349101,
    "lng": 136.8282879,
    "tel": "0586-78-8441",
    "url": "https://www.iful-jikeikai.com",
    "pref": "愛知県",
    "city": "一宮市",
    "category": "tokuyou",
    "serviceType": "介護老人福祉施設",
    "capacity": 0,
    "openDays": [],
    "openDaysNote": ""
  },
  {
    "id": "2372202875",
    "name": "特別養護老人ホームアルメゾンみづほ",
    "kana": "トクベツヨウゴロウジンホームアルメゾンミヅホ",
    "address": "愛知県一宮市三条字野間２６番地１",
    "lat": 35.3137525,
    "lng": 136.7544652,
    "tel": "0586-61-7277",
    "url": "http://www.jiunfukushikai.com",
    "pref": "愛知県",
    "city": "一宮市",
    "category": "tokuyou",
    "serviceType": "介護老人福祉施設",
    "capacity": 100,
    "openDays": [],
    "openDaysNote": ""
  },
  {
    "id": "2372200234",
    "name": "特別養護老人ホームウエルコートみづほ",
    "kana": "トクベツヨウゴロウジンホームウエルコートミヅホ",
    "address": "一宮市浅井町尾関字同者１６３番地２",
    "lat": 35.3493755,
    "lng": 136.8317817,
    "tel": "0586-51-7333",
    "url": "http://www.jiunfukushikai.com",
    "pref": "愛知県",
    "city": "一宮市",
    "category": "tokuyou",
    "serviceType": "介護老人福祉施設",
    "capacity": 80,
    "openDays": [],
    "openDaysNote": ""
  },
  {
    "id": "2372205217",
    "name": "特別養護老人ホームコムネックスみづほ",
    "kana": "トクベツヨウゴロウジンホームコムネックスミヅホ",
    "address": "愛知県一宮市木曽川町里小牧字寺東200番地",
    "lat": 35.3512721957721,
    "lng": 136.771452742803,
    "tel": "0586-86-7000",
    "url": "http://www.jiunfukushikai.com",
    "pref": "愛知県",
    "city": "一宮市",
    "category": "tokuyou",
    "serviceType": "介護老人福祉施設",
    "capacity": 40,
    "openDays": [],
    "openDaysNote": ""
  },
  {
    "id": "2373700059",
    "name": "特別養護老人ホーム朝日荘",
    "kana": "トクベツヨウゴロウジンホームアサヒソウ",
    "address": "愛知県一宮市明地字西阿古井１番地",
    "lat": 35.2824781,
    "lng": 136.7322358,
    "tel": "0586-69-4455",
    "url": "http://www.asahisou.or.jp",
    "pref": "愛知県",
    "city": "一宮市",
    "category": "tokuyou",
    "serviceType": "介護老人福祉施設",
    "capacity": 70,
    "openDays": [],
    "openDaysNote": ""
  },
  {
    "id": "2372202107",
    "name": "特別養護老人ホーム葉栗の郷",
    "kana": "トクベツヨウゴロウジンホームハグリノサト",
    "address": "愛知県一宮市島村字六反田60",
    "lat": 35.3412035,
    "lng": 136.8115231,
    "tel": "0586-78-1010",
    "url": "http://www.hagurinosato.com",
    "pref": "愛知県",
    "city": "一宮市",
    "category": "tokuyou",
    "serviceType": "介護老人福祉施設",
    "capacity": 0,
    "openDays": [],
    "openDaysNote": ""
  },
  {
    "id": "2373900063",
    "name": "介護老人福祉施設　大和の里",
    "kana": "カイゴロウジンフクシシセツ　ダイワノサト",
    "address": "愛知県稲沢市六角堂東町一丁目3番地6",
    "lat": 35.2346712,
    "lng": 136.8304846,
    "tel": "0587-23-7700",
    "url": "http://www.ans.co.jp/u/daiwanosato/",
    "pref": "愛知県",
    "city": "稲沢市",
    "category": "tokuyou",
    "serviceType": "介護老人福祉施設",
    "capacity": 0,
    "openDays": [],
    "openDaysNote": ""
  },
  {
    "id": "2373900915",
    "name": "特別養護老人ホーム　すずの郷",
    "kana": "トクベツヨウゴロウジンホーム　スズノサト",
    "address": "愛知県稲沢市船橋町江向193番地１",
    "lat": 35.2482042,
    "lng": 136.7729139,
    "tel": "0587-23-6970",
    "url": "http://suzunosato.org/",
    "pref": "愛知県",
    "city": "稲沢市",
    "category": "tokuyou",
    "serviceType": "介護老人福祉施設",
    "capacity": 0,
    "openDays": [],
    "openDaysNote": ""
  },
  {
    "id": "2373902002",
    "name": "特別養護老人ホーム　稲沢白寿苑",
    "kana": "トクベツヨウゴロウジンホーム　イナザワハクジュエン",
    "address": "治郎丸元町３４番地",
    "lat": 35.2628063,
    "lng": 136.8116636,
    "tel": "0587-24-3800",
    "url": "http://www.i-hakujuen.or.jp",
    "pref": "愛知県",
    "city": "稲沢市",
    "category": "tokuyou",
    "serviceType": "介護老人福祉施設",
    "capacity": 100,
    "openDays": [],
    "openDaysNote": ""
  },
  {
    "id": "2375500093",
    "name": "特別養護老人ホーム寿敬園",
    "kana": "トクベツヨウゴロウジンホームジュケイエン",
    "address": "愛知県稲沢市平和町観音堂東海塚26番地",
    "lat": 35.2256923,
    "lng": 136.7551611,
    "tel": "0567-46-1175",
    "url": "http://kisenkai.or.jp/",
    "pref": "愛知県",
    "city": "稲沢市",
    "category": "tokuyou",
    "serviceType": "介護老人福祉施設",
    "capacity": 0,
    "openDays": [],
    "openDaysNote": ""
  },
  {
    "id": "2373902192",
    "name": "特別養護老人ホーム寿敬園(ユニット型)",
    "kana": "トクベツヨウゴロウジンホームジュケイエン(ユニットガタ)",
    "address": "愛知県稲沢市平和町観音堂東海塚26番地",
    "lat": 35.2261315,
    "lng": 136.755406,
    "tel": "0567-46-1175",
    "url": "http://kisenkai.or.jp/",
    "pref": "愛知県",
    "city": "稲沢市",
    "category": "tokuyou",
    "serviceType": "介護老人福祉施設",
    "capacity": 0,
    "openDays": [],
    "openDaysNote": ""
  },
  {
    "id": "2373901764",
    "name": "特別養護老人ホーム信竜",
    "kana": "トクベツヨウゴロウジンホウムシンリュウ",
    "address": "愛知県稲沢市大塚北九丁目４５番地",
    "lat": 35.2426327145471,
    "lng": 136.801409722368,
    "tel": "0587-33-0550",
    "url": "http://www.shinryu.or.jp/",
    "pref": "愛知県",
    "city": "稲沢市",
    "category": "tokuyou",
    "serviceType": "介護老人福祉施設",
    "capacity": 100,
    "openDays": [],
    "openDaysNote": ""
  },
  {
    "id": "2375500085",
    "name": "特別養護老人ホーム祖父江グリーンハウス",
    "kana": "トクベツヨウゴロウジンホームソブエグリーンハウス",
    "address": "愛知県稲沢市祖父江町祖父江中沼15番地",
    "lat": 35.2695019,
    "lng": 136.7074395,
    "tel": "0587-97-8311",
    "url": "http://www.sobue-gh.or.jp",
    "pref": "愛知県",
    "city": "稲沢市",
    "category": "tokuyou",
    "serviceType": "介護老人福祉施設",
    "capacity": 0,
    "openDays": [],
    "openDaysNote": ""
  },
  {
    "id": "2373900196",
    "name": "特別養護老人ホーム第二大和の里",
    "kana": "トクベツヨウゴロウジンホームダイニダイワノサト",
    "address": "愛知県稲沢市井堀野口町27番地",
    "lat": 35.2343663,
    "lng": 136.7576217,
    "tel": "0587-36-8011",
    "url": "http://www.ans.co.jp/u/daiwanosato/",
    "pref": "愛知県",
    "city": "稲沢市",
    "category": "tokuyou",
    "serviceType": "介護老人福祉施設",
    "capacity": 80,
    "openDays": [],
    "openDaysNote": ""
  },
  {
    "id": "2373901582",
    "name": "特別養護老人ホーム第二大和の里（ユニット）",
    "kana": "トクベツヨウゴロウジンホーム　ダイニダイワノサト（ユニット）",
    "address": "愛知県稲沢市井堀野口町27番地",
    "lat": 35.2343663,
    "lng": 136.7576217,
    "tel": "0587-36-8011",
    "url": "http://www.ans.co.jp/u/daiwanosato/",
    "pref": "愛知県",
    "city": "稲沢市",
    "category": "tokuyou",
    "serviceType": "介護老人福祉施設",
    "capacity": 30,
    "openDays": [],
    "openDaysNote": ""
  },
  {
    "id": "2372100301",
    "name": "愛厚ホーム岡崎苑",
    "kana": "アイコウホームオカザキエン",
    "address": "愛知県岡崎市竜泉寺町字松本３４－６",
    "lat": 34.9010737,
    "lng": 137.2028334,
    "tel": "0564-52-7715",
    "url": "http://www.ai-kou.or.jp",
    "pref": "愛知県",
    "city": "岡崎市",
    "category": "tokuyou",
    "serviceType": "介護老人福祉施設",
    "capacity": 60,
    "openDays": [],
    "openDaysNote": ""
  },
  {
    "id": "2372104386",
    "name": "愛厚ホーム岡崎苑",
    "kana": "アイコウホームオカザキエン",
    "address": "岡崎市竜泉寺町字松本３４番地６",
    "lat": 34.9010737,
    "lng": 137.2028334,
    "tel": "0564-52-7715",
    "url": "http://www.ai-kou.or.jp",
    "pref": "愛知県",
    "city": "岡崎市",
    "category": "tokuyou",
    "serviceType": "介護老人福祉施設",
    "capacity": 40,
    "openDays": [],
    "openDaysNote": ""
  },
  {
    "id": "2372100327",
    "name": "特別養護老人ホ－ム　やはぎ苑",
    "kana": "トクベツヨウゴロウジンホ-ム　ヤハギエン",
    "address": "愛知県岡崎市上佐々木町字大官49番地",
    "lat": 34.9404977,
    "lng": 137.1213956,
    "tel": "0564-34-3666",
    "url": "http://www.mizuho-kai.or.jp/",
    "pref": "愛知県",
    "city": "岡崎市",
    "category": "tokuyou",
    "serviceType": "介護老人福祉施設",
    "capacity": 0,
    "openDays": [],
    "openDaysNote": ""
  },
  {
    "id": "2372102794",
    "name": "特別養護老人ホーム　アルクオーレ岡崎大平",
    "kana": "トクベツヨウゴロウジンホーム　アルクオーレオカザキオオヒラ",
    "address": "愛知県岡崎市大平町字古渕25番地",
    "lat": 34.9377666,
    "lng": 137.1872064,
    "tel": "0564-25-0294",
    "url": "http://www.hyakuyoukai.jp/",
    "pref": "愛知県",
    "city": "岡崎市",
    "category": "tokuyou",
    "serviceType": "介護老人福祉施設",
    "capacity": 0,
    "openDays": [],
    "openDaysNote": ""
  },
  {
    "id": "2372100319",
    "name": "特別養護老人ホーム　かわいの里",
    "kana": "トクベツヨウゴロウジンホーム　カワイノサト",
    "address": "愛知県岡崎市秦梨町字平畑16番地1",
    "lat": 34.9565533,
    "lng": 137.2489104,
    "tel": "0564-47-3339",
    "url": "http://okafuku.com/",
    "pref": "愛知県",
    "city": "岡崎市",
    "category": "tokuyou",
    "serviceType": "介護老人福祉施設",
    "capacity": 0,
    "openDays": [],
    "openDaysNote": ""
  },
  {
    "id": "2372101796",
    "name": "特別養護老人ホーム　くわがい",
    "kana": "トクベツヨウゴロウジンホーム　クワガイ",
    "address": "愛知県岡崎市桑谷町字西平地45番地",
    "lat": 34.8908816,
    "lng": 137.2154539,
    "tel": "0564-48-8780",
    "url": "http://www.mizuho-kai.or.jp/",
    "pref": "愛知県",
    "city": "岡崎市",
    "category": "tokuyou",
    "serviceType": "介護老人福祉施設",
    "capacity": 0,
    "openDays": [],
    "openDaysNote": ""
  },
  {
    "id": "2372100335",
    "name": "特別養護老人ホーム　なのはな苑ふくおか",
    "kana": "トクベツヨウゴロウジンホーム　ナノハナエンフクオカ",
    "address": "岡崎市福岡町字四反田２６番地",
    "lat": 34.8957311,
    "lng": 137.1577918,
    "tel": "0564-57-8150",
    "url": "http://meisuikai.or.jp/wordpress/",
    "pref": "愛知県",
    "city": "岡崎市",
    "category": "tokuyou",
    "serviceType": "介護老人福祉施設",
    "capacity": 0,
    "openDays": [],
    "openDaysNote": ""
  },
  {
    "id": "2376000093",
    "name": "特別養護老人ホーム額田の里",
    "kana": "トクベツヨウゴロウジンホームヌカタノサト",
    "address": "愛知県岡崎市夏山町字シモツキテン1-1",
    "lat": 34.9566856,
    "lng": 137.3076496,
    "tel": "0564-82-4370",
    "url": "http://www.you-and-i-.or.jp/",
    "pref": "愛知県",
    "city": "岡崎市",
    "category": "tokuyou",
    "serviceType": "介護老人福祉施設",
    "capacity": 0,
    "openDays": [],
    "openDaysNote": ""
  },
  {
    "id": "2372102315",
    "name": "特別養護老人ホーム真福の郷",
    "kana": "トクベツヨウゴロウジンホームシンプクノサト",
    "address": "愛知県岡崎市真福寺町字神田100番地1",
    "lat": 35.0014746,
    "lng": 137.1855445,
    "tel": "0564-66-2212",
    "url": "http://www.kyoufukukai.or.jp",
    "pref": "愛知県",
    "city": "岡崎市",
    "category": "tokuyou",
    "serviceType": "介護老人福祉施設",
    "capacity": 0,
    "openDays": [],
    "openDaysNote": ""
  },
  {
    "id": "2375600331",
    "name": "特別養護老人ホームカリヨンの郷",
    "kana": "トクベツヨウゴロウジンホームカリヨンノサト",
    "address": "愛知県海部郡蟹江町大字今字伊勢苗代１番地１",
    "lat": 35.1413072,
    "lng": 136.787581,
    "tel": "0567-95-8830",
    "url": "http://www.carillon.or.jp",
    "pref": "愛知県",
    "city": "蟹江町",
    "category": "tokuyou",
    "serviceType": "介護老人福祉施設",
    "capacity": 0,
    "openDays": [],
    "openDaysNote": ""
  },
  {
    "id": "2373300124",
    "name": "特別養護老人ホーム　蒲郡眺海園",
    "kana": "トクベツヨウゴロウジンホーム　ガマゴオリチョウカイエン",
    "address": "愛知県蒲郡市拾石町浅岡１－７蒲郡眺海園 蒲郡眺海園",
    "lat": 34.8142741,
    "lng": 137.1984852,
    "tel": "0533-69-1122",
    "url": "http://f-fukushi.com/",
    "pref": "愛知県",
    "city": "蒲郡市",
    "category": "tokuyou",
    "serviceType": "介護老人福祉施設",
    "capacity": 100,
    "openDays": [],
    "openDaysNote": ""
  },
  {
    "id": "2373300769",
    "name": "特別養護老人ホーム　五井眺海園",
    "kana": "トクベツヨウゴロウジンホームゴイチョウカイエン",
    "address": "蒲郡市五井町五反田7番地1",
    "lat": 34.8355167,
    "lng": 137.2465603,
    "tel": "0533-67-1055",
    "url": "http://f-fukushi.com/",
    "pref": "愛知県",
    "city": "蒲郡市",
    "category": "tokuyou",
    "serviceType": "介護老人福祉施設",
    "capacity": 80,
    "openDays": [],
    "openDaysNote": ""
  },
  {
    "id": "2373301270",
    "name": "特別養護老人ホーム　楓の杜",
    "kana": "トクベツヨウゴロウジンホームカエデノモリ",
    "address": "愛知県蒲郡市神ノ郷町下向山35番地",
    "lat": 34.8307694,
    "lng": 137.2163772,
    "tel": "0533-56-8845",
    "url": "http://juhoukai.jp",
    "pref": "愛知県",
    "city": "蒲郡市",
    "category": "tokuyou",
    "serviceType": "介護老人福祉施設",
    "capacity": null,
    "openDays": [],
    "openDaysNote": ""
  },
  {
    "id": "2373300132",
    "name": "特別養護老人ホーム形原眺海園",
    "kana": "トクベツヨウゴロウジンホームカタハラチョウカイエン",
    "address": "愛知県蒲郡市形原町西稲荷18-2",
    "lat": 34.8092524,
    "lng": 137.1765,
    "tel": "0533-58-1133",
    "url": "http://f-fukushi.com",
    "pref": "愛知県",
    "city": "蒲郡市",
    "category": "tokuyou",
    "serviceType": "介護老人福祉施設",
    "capacity": 60,
    "openDays": [],
    "openDaysNote": ""
  },
  {
    "id": "2372900866",
    "name": "特別養護老人ホーム　シルバーピアかりや",
    "kana": "トクベツヨウゴロウジンホーム　シルバーピアカリヤ",
    "address": "愛知県刈谷市小垣江町白沢４５番地",
    "lat": 34.9587704,
    "lng": 137.0094432,
    "tel": "0566-24-7070",
    "url": "http://www.choujyukai.or.jp",
    "pref": "愛知県",
    "city": "刈谷市",
    "category": "tokuyou",
    "serviceType": "介護老人福祉施設",
    "capacity": null,
    "openDays": [],
    "openDaysNote": ""
  },
  {
    "id": "2372900494",
    "name": "特別養護老人ホームヴェルバレー",
    "kana": "トクベツヨウゴロウジンホームベルバレー",
    "address": "愛知県刈谷市井ヶ谷町石根1番地558特別養護老人ホーム　ヴェルバレー 特別養護老人ホーム　ヴェルバレー",
    "lat": 35.0587304,
    "lng": 137.0602669,
    "tel": "0566-36-1302",
    "url": "https://misuzu.or.jp/",
    "pref": "愛知県",
    "city": "刈谷市",
    "category": "tokuyou",
    "serviceType": "介護老人福祉施設",
    "capacity": 110,
    "openDays": [],
    "openDaysNote": ""
  },
  {
    "id": "2372901781",
    "name": "特別養護老人ホームオーネスト杜若",
    "kana": "トクベツヨウゴロウジンホームオーネストカキツバタ",
    "address": "愛知県刈谷市港町六丁目33番地",
    "lat": 34.9805481142819,
    "lng": 136.985572812166,
    "tel": "0566-91-3366",
    "url": "ｈｔｔｐ://www.shisuikai.or.jp",
    "pref": "愛知県",
    "city": "刈谷市",
    "category": "tokuyou",
    "serviceType": "介護老人福祉施設",
    "capacity": 0,
    "openDays": [],
    "openDaysNote": ""
  },
  {
    "id": "2372901963",
    "name": "特別養護老人ホームパレット",
    "kana": "トクベツヨウゴロウジンホームパレット",
    "address": "愛知県刈谷市東境町大池27－1特別養護老人ホームパレット 特別養護老人ホームパレット",
    "lat": 35.0437322648549,
    "lng": 137.03847189371,
    "tel": "0566-36-6333",
    "url": "https://megurine.or.jp/",
    "pref": "愛知県",
    "city": "刈谷市",
    "category": "tokuyou",
    "serviceType": "介護老人福祉施設",
    "capacity": null,
    "openDays": [],
    "openDaysNote": ""
  },
  {
    "id": "2372900056",
    "name": "特別養護老人ホーム洲原ほーむ",
    "kana": "トクベツヨウゴロウジンホームスハラホーム",
    "address": "愛知県刈谷市井ヶ谷町西石根1番地10",
    "lat": 35.058261,
    "lng": 137.0591476,
    "tel": "0566-36-8133",
    "url": "www.misuzu.or.jp",
    "pref": "愛知県",
    "city": "刈谷市",
    "category": "tokuyou",
    "serviceType": "介護老人福祉施設",
    "capacity": 100,
    "openDays": [],
    "openDaysNote": ""
  },
  {
    "id": "2374700553",
    "name": "特別養護老人ホーム　岩倉一期一会荘花むすび",
    "kana": "トクベツヨウゴロウジンホーム　イワクライチゴイチエソウハナムスビ",
    "address": "愛知県岩倉市北島町七反田15番地",
    "lat": 35.2778637898164,
    "lng": 136.855927614819,
    "tel": "0587-81-8158",
    "url": "http://www.ichigoichie.or.jp/",
    "pref": "愛知県",
    "city": "岩倉市",
    "category": "tokuyou",
    "serviceType": "介護老人福祉施設",
    "capacity": 0,
    "openDays": [],
    "openDaysNote": ""
  },
  {
    "id": "2374700041",
    "name": "特別養護老人ホーム岩倉一期一会荘",
    "kana": "トクベツヨウゴロウジンホームイワクライチゴイチエソウ",
    "address": "愛知県岩倉市北島町二本木7番地",
    "lat": 35.2768919,
    "lng": 136.8556852,
    "tel": "0587-66-2110",
    "url": "https://www.ichigoichie.or.jp/",
    "pref": "愛知県",
    "city": "岩倉市",
    "category": "tokuyou",
    "serviceType": "介護老人福祉施設",
    "capacity": 0,
    "openDays": [],
    "openDaysNote": ""
  },
  {
    "id": "2373400809",
    "name": "ユニット型　特別養護老人ホーム　ぬく森",
    "kana": "ユニットガタ　トクベツヨウゴロウジンホーム　ヌクモリ",
    "address": "愛知県犬山市大字前原字橋爪山１５番地１２１",
    "lat": 35.3689716,
    "lng": 136.982624,
    "tel": "０５６８-６５-１８８８",
    "url": "http://www.tomoiki.or.jp",
    "pref": "愛知県",
    "city": "犬山市",
    "category": "tokuyou",
    "serviceType": "介護老人福祉施設",
    "capacity": 34,
    "openDays": [],
    "openDaysNote": ""
  },
  {
    "id": "2373400080",
    "name": "特別養護老人ホーム　ぬく森",
    "kana": "トクベツヨウゴロウジンホーム　ヌクモリ",
    "address": "愛知県犬山市大字前原字橋爪山１５番地１２１",
    "lat": 35.3689716,
    "lng": 136.982624,
    "tel": "0568-65-1888",
    "url": "http://www.tomoiki.or.jp",
    "pref": "愛知県",
    "city": "犬山市",
    "category": "tokuyou",
    "serviceType": "介護老人福祉施設",
    "capacity": 79,
    "openDays": [],
    "openDaysNote": ""
  },
  {
    "id": "2373400072",
    "name": "特別養護老人ホーム　犬山白寿苑",
    "kana": "トクベツヨウゴロウジンホーム　イヌヤマハクジュエン",
    "address": "愛知県犬山市字洞田30番地の１",
    "lat": 35.3313019,
    "lng": 136.967061,
    "tel": "0568-67-6699",
    "url": "http://www.i-hakujuen.or.jp",
    "pref": "愛知県",
    "city": "犬山市",
    "category": "tokuyou",
    "serviceType": "介護老人福祉施設",
    "capacity": 80,
    "openDays": [],
    "openDaysNote": ""
  },
  {
    "id": "2373400924",
    "name": "特別養護老人ホーム　犬山白寿苑（ユニット）",
    "kana": "トクベツヨウゴロウジンホーム　イヌヤマハクジュエン（ユニット）",
    "address": "愛知県犬山市字洞田３０番地の１",
    "lat": 35.3313019,
    "lng": 136.967061,
    "tel": "0568-67-6699",
    "url": "http://www.i-hakujuen.or.jp",
    "pref": "愛知県",
    "city": "犬山市",
    "category": "tokuyou",
    "serviceType": "介護老人福祉施設",
    "capacity": 50,
    "openDays": [],
    "openDaysNote": ""
  },
  {
    "id": "2373400965",
    "name": "特別養護老人ホームぬく森・第二",
    "kana": "トクベツヨウゴロウジンホームヌクモリ・ダイニ",
    "address": "愛知県犬山市羽黒安戸南一丁目57番地",
    "lat": 35.3567172004747,
    "lng": 136.969422007826,
    "tel": "0568-68-3100",
    "url": "https://www.tomoiki.or.jp",
    "pref": "愛知県",
    "city": "犬山市",
    "category": "tokuyou",
    "serviceType": "介護老人福祉施設",
    "capacity": 100,
    "openDays": [],
    "openDaysNote": ""
  },
  {
    "id": "2376000085",
    "name": "特別養護老人ホーム　まどかの郷",
    "kana": "トクベツヨウゴロウジンホーム　マドカノサト",
    "address": "愛知県額田郡幸田町大字野場字石荒２３番地",
    "lat": 34.8637769645306,
    "lng": 137.152200590508,
    "tel": "0564-63-1626",
    "url": "https://www.wakyokai.or.jp/care/madokanosato/",
    "pref": "愛知県",
    "city": "幸田町",
    "category": "tokuyou",
    "serviceType": "介護老人福祉施設",
    "capacity": 0,
    "openDays": [],
    "openDaysNote": ""
  },
  {
    "id": "2376000580",
    "name": "特別養護老人ホーム　メリーホーム幸田",
    "kana": "トクベツヨウゴロウジンホーム　メリーホームコウタ",
    "address": "愛知県額田郡幸田町大字深溝字皿入１番１",
    "lat": 34.8373352,
    "lng": 137.1888352,
    "tel": "0564-64-6961",
    "url": "http://www.merry-h.or.jp",
    "pref": "愛知県",
    "city": "幸田町",
    "category": "tokuyou",
    "serviceType": "介護老人福祉施設",
    "capacity": 100,
    "openDays": [],
    "openDaysNote": ""
  },
  {
    "id": "2376000333",
    "name": "特別養護老人ホームつつじヶ丘",
    "kana": "トクベツヨウゴロウジンホームツツジガオカ",
    "address": "愛知県額田郡幸田町大字坂崎字七曲り１番地２",
    "lat": 34.9004977,
    "lng": 137.1813583,
    "tel": "0564-62-7177",
    "url": "http://www.jukoukai.com/",
    "pref": "愛知県",
    "city": "幸田町",
    "category": "tokuyou",
    "serviceType": "介護老人福祉施設",
    "capacity": 0,
    "openDays": [],
    "openDaysNote": ""
  },
  {
    "id": "2373601315",
    "name": "特別養護老人ホーム　ジョイフル布袋",
    "kana": "トクベツヨウゴロウジンホーム　ジョイフルホテイ",
    "address": "愛知県江南市北山町東196",
    "lat": 35.3165283236735,
    "lng": 136.880750273447,
    "tel": "0587-51-1811",
    "url": "https://sun-vision.or.jp",
    "pref": "愛知県",
    "city": "江南市",
    "category": "tokuyou",
    "serviceType": "介護老人福祉施設",
    "capacity": 30,
    "openDays": [],
    "openDaysNote": ""
  },
  {
    "id": "2373601323",
    "name": "特別養護老人ホームジョイフル江南",
    "kana": "トクベツヨウゴロウジンホームジョイフルコウナン",
    "address": "愛知県江南市河野町五十間５９番地",
    "lat": 35.3462153,
    "lng": 136.8392199,
    "tel": "0587-57-3301",
    "url": "http://www.sun-vision.or.jp",
    "pref": "愛知県",
    "city": "江南市",
    "category": "tokuyou",
    "serviceType": "介護老人福祉施設",
    "capacity": 80,
    "openDays": [],
    "openDaysNote": ""
  },
  {
    "id": "2373601489",
    "name": "特別養護老人ホームたんぽぽ絆の里",
    "kana": "トクベツヨウゴロウジンホームタンポポキズナノサト",
    "address": "愛知県江南市島宮町桐野200番地",
    "lat": 35.3270879852475,
    "lng": 136.848453160713,
    "tel": "0587-50-2202",
    "url": "http://www.tanpopo-fukushi.or.jp/kizuna/top.html",
    "pref": "愛知県",
    "city": "江南市",
    "category": "tokuyou",
    "serviceType": "介護老人福祉施設",
    "capacity": 56,
    "openDays": [],
    "openDaysNote": ""
  },
  {
    "id": "2373600721",
    "name": "特別養護老人ホームふぁみりい恕苑",
    "kana": "トクベツヨウゴロウジンホーム　ファミリイジョエン",
    "address": "愛知県江南市小杁町林125番地",
    "lat": 35.3678959,
    "lng": 136.878032,
    "tel": "0587-52-4700",
    "url": "https://suito-net.com",
    "pref": "愛知県",
    "city": "江南市",
    "category": "tokuyou",
    "serviceType": "介護老人福祉施設",
    "capacity": 80,
    "openDays": [],
    "openDaysNote": ""
  },
  {
    "id": "2373601307",
    "name": "特別養護老人ホーム第2サンライフ江南",
    "kana": "トクベツヨウゴロウジンホームダイニサンライフコウナン",
    "address": "愛知県江南市河野町五十間73第2サンライフ江南 第2サンライフ江南",
    "lat": 35.3470763,
    "lng": 136.8402514,
    "tel": "0587-57-9811",
    "url": "https://sun-vision.or.jp",
    "pref": "愛知県",
    "city": "江南市",
    "category": "tokuyou",
    "serviceType": "介護老人福祉施設",
    "capacity": 0,
    "openDays": [],
    "openDaysNote": ""
  },
  {
    "id": "2373601331",
    "name": "特別養護老人ホーム第２ジョイフル江南",
    "kana": "トクベツヨウゴロウジンホームダイニジョイフルコウナン",
    "address": "江南市河野町五十間51番地",
    "lat": 35.3465135,
    "lng": 136.8393997,
    "tel": "0587-57-8411",
    "url": "https://sun-vision.or.jp",
    "pref": "愛知県",
    "city": "江南市",
    "category": "tokuyou",
    "serviceType": "介護老人福祉施設",
    "capacity": 80,
    "openDays": [],
    "openDaysNote": ""
  },
  {
    "id": "2374600035",
    "name": "特別養護老人ホーム高浜安立荘",
    "kana": "トクベツヨウゴロウジンホーム　タカハマアンリュウソウ",
    "address": "愛知県高浜市芳川町1丁目2番地73",
    "lat": 34.9409695,
    "lng": 136.9818462,
    "tel": "0566-52-5050",
    "url": "https://tokuyo.anryuso.org",
    "pref": "愛知県",
    "city": "高浜市",
    "category": "tokuyou",
    "serviceType": "介護老人福祉施設",
    "capacity": 120,
    "openDays": [],
    "openDaysNote": ""
  },
  {
    "id": "2372501128",
    "name": "介護老人福祉施設　第２グレイスフル春日井",
    "kana": "カイゴロウジンフクシシセツ　　ダイニグレイスフルカスガイ",
    "address": "春日井市牛山町3195-1",
    "lat": 35.2720874,
    "lng": 136.9445052,
    "tel": "0568-32-1231",
    "url": "https://sun-vision.or.jp/",
    "pref": "愛知県",
    "city": "春日井市",
    "category": "tokuyou",
    "serviceType": "介護老人福祉施設",
    "capacity": 0,
    "openDays": [],
    "openDaysNote": ""
  },
  {
    "id": "2372501953",
    "name": "特別養護老人ホーム　あさひが丘",
    "kana": "トクベツヨウゴロウジンホーム　アサヒガオカ",
    "address": "愛知県春日井市神屋町1306番地1",
    "lat": 35.3034288,
    "lng": 137.0191025,
    "tel": "0568-93-1310",
    "url": "http://www.asahigaoka-fukushi.or.jp/",
    "pref": "愛知県",
    "city": "春日井市",
    "category": "tokuyou",
    "serviceType": "介護老人福祉施設",
    "capacity": 100,
    "openDays": [],
    "openDaysNote": ""
  },
  {
    "id": "2372500187",
    "name": "特別養護老人ホーム　グレイスフル春日井",
    "kana": "トクベツヨウゴロウジンホーム　グレイスフルカスガイ",
    "address": "愛知県春日井市桃山町字北山5079-1",
    "lat": 35.2844647,
    "lng": 136.9684332,
    "tel": "0568-89-2301",
    "url": "http://www.e-sunlife.or.jp",
    "pref": "愛知県",
    "city": "春日井市",
    "category": "tokuyou",
    "serviceType": "介護老人福祉施設",
    "capacity": 0,
    "openDays": [],
    "openDaysNote": ""
  },
  {
    "id": "2372503645",
    "name": "特別養護老人ホーム　しょうなあさひが丘",
    "kana": "トクベツヨウゴロウジンホーム　ショウナアサヒガオカ",
    "address": "春日井市庄名町918番地1",
    "lat": 35.2795708,
    "lng": 137.0253255,
    "tel": "0568-29-9922",
    "url": "http://www.asahigaoka-fukushi.or.jp",
    "pref": "愛知県",
    "city": "春日井市",
    "category": "tokuyou",
    "serviceType": "介護老人福祉施設",
    "capacity": 0,
    "openDays": [],
    "openDaysNote": ""
  },
  {
    "id": "2372502746",
    "name": "特別養護老人ホーム春日井樹の里",
    "kana": "トクベツヨウゴロウジンホームカスガイキノサト",
    "address": "愛知県春日井市四ツ家町字四ツ家２２１番地１",
    "lat": 35.2588253,
    "lng": 136.9434836,
    "tel": "0568-33-3222",
    "url": "http://www.kinosato-seto.com",
    "pref": "愛知県",
    "city": "春日井市",
    "category": "tokuyou",
    "serviceType": "介護老人福祉施設",
    "capacity": 0,
    "openDays": [],
    "openDaysNote": ""
  },
  {
    "id": "2372500179",
    "name": "特別養護老人ホーム春緑苑",
    "kana": "トクベツヨウゴロウジンホームシュンリョクエン",
    "address": "愛知県春日井市廻間町字神屋洞703番地1",
    "lat": 35.2942725,
    "lng": 137.0372401,
    "tel": "0568-88-5585",
    "url": "https://www.douen.or.jp/",
    "pref": "愛知県",
    "city": "春日井市",
    "category": "tokuyou",
    "serviceType": "介護老人福祉施設",
    "capacity": 0,
    "openDays": [],
    "openDaysNote": ""
  },
  {
    "id": "2372502159",
    "name": "特別養護老人ホーム第２春緑苑",
    "kana": "トクベツヨウゴロウジンホームダイニシュンリョクエン",
    "address": "愛知県春日井市下津町500番地",
    "lat": 35.2272618,
    "lng": 136.9788156,
    "tel": "0568-56-9171",
    "url": "https://douen.or.jp",
    "pref": "愛知県",
    "city": "春日井市",
    "category": "tokuyou",
    "serviceType": "介護老人福祉施設",
    "capacity": 0,
    "openDays": [],
    "openDaysNote": ""
  },
  {
    "id": "2373800073",
    "name": "愛厚ホーム小牧苑",
    "kana": "アイコウホームコマキエン",
    "address": "愛知県小牧市大字大山字岩次208-15",
    "lat": 35.3168142694668,
    "lng": 136.999737982811,
    "tel": "0568-79-8555",
    "url": "http://www.ai-kou.or.jp/",
    "pref": "愛知県",
    "city": "小牧市",
    "category": "tokuyou",
    "serviceType": "介護老人福祉施設",
    "capacity": 100,
    "openDays": [],
    "openDaysNote": ""
  },
  {
    "id": "2373801006",
    "name": "特別養護老人ホーム　オーネスト桃花林",
    "kana": "トクベツヨウゴロウジンホーム　オーネストトウカリン",
    "address": "小牧市大字上末字道場５８０番地１",
    "lat": 35.2903104,
    "lng": 136.9109515,
    "tel": "0568-78-3300",
    "url": "http://shisuikai.or.jp",
    "pref": "愛知県",
    "city": "小牧市",
    "category": "tokuyou",
    "serviceType": "介護老人福祉施設",
    "capacity": 80,
    "openDays": [],
    "openDaysNote": ""
  },
  {
    "id": "2373801998",
    "name": "特別養護老人ホーム　幸の郷",
    "kana": "トクベツヨウゴロウジンホーム　シアワセノサト",
    "address": "愛知県小牧市大字北外山字掛割８番地１",
    "lat": 35.274784916704,
    "lng": 136.924103742256,
    "tel": "０５６８－７１－１５１１",
    "url": "http://genki-kotobukikai.jp/shiawasenosato/",
    "pref": "愛知県",
    "city": "小牧市",
    "category": "tokuyou",
    "serviceType": "介護老人福祉施設",
    "capacity": 100,
    "openDays": [],
    "openDaysNote": ""
  },
  {
    "id": "2373800081",
    "name": "特別養護老人ホームゆうあい",
    "kana": "トクベツヨウゴロウジンホーム　ユウアイ",
    "address": "愛知県小牧市小木南二丁目８８番",
    "lat": 35.2693597,
    "lng": 136.8953146,
    "tel": "0568-73-2211",
    "url": "http://www.seisho-fukushi.org/yuuai/",
    "pref": "愛知県",
    "city": "小牧市",
    "category": "tokuyou",
    "serviceType": "介護老人福祉施設",
    "capacity": 80,
    "openDays": [],
    "openDaysNote": ""
  },
  {
    "id": "2373800677",
    "name": "特別養護老人ホーム岩崎あいの郷",
    "kana": "トクベツヨウゴロウジンホームイワサキアイノサト",
    "address": "愛知県小牧市岩崎原三丁目２９２番地",
    "lat": 35.3128829,
    "lng": 136.9254409,
    "tel": "0568-75-2700",
    "url": "http://www.seisho-fukushi.org",
    "pref": "愛知県",
    "city": "小牧市",
    "category": "tokuyou",
    "serviceType": "介護老人福祉施設",
    "capacity": 0,
    "openDays": [],
    "openDaysNote": ""
  },
  {
    "id": "2373500269",
    "name": "介護老人福祉施設しろやま",
    "kana": "カイゴロウジンフクシシセツシロヤマ",
    "address": "愛知県常滑市金山字屋敷30番地１",
    "lat": 34.9304703,
    "lng": 136.8382157,
    "tel": "0569-44-4680",
    "url": "http://f-raikoukai.or.jp",
    "pref": "愛知県",
    "city": "常滑市",
    "category": "tokuyou",
    "serviceType": "介護老人福祉施設",
    "capacity": 80,
    "openDays": [],
    "openDaysNote": ""
  },
  {
    "id": "2373500046",
    "name": "特別養護老人ホーム　むらさき野苑",
    "kana": "トクベツヨウゴロウジンホーム　ムラサキノエン",
    "address": "愛知県常滑市字長峰一ノ切17",
    "lat": 34.8902533,
    "lng": 136.8647166,
    "tel": "0569-35-6681",
    "url": "http://www.chita-gakuen.or.jp/murasaki",
    "pref": "愛知県",
    "city": "常滑市",
    "category": "tokuyou",
    "serviceType": "介護老人福祉施設",
    "capacity": 0,
    "openDays": [],
    "openDaysNote": ""
  },
  {
    "id": "2376400046",
    "name": "特別養護老人ホームくるみ荘",
    "kana": "トクベツヨウゴロウジンホームクルミソウ",
    "address": "愛知県新城市玖老勢字クルミ沢１番地の２",
    "lat": 34.99597,
    "lng": 137.5595388,
    "tel": "0536-35-0694",
    "url": "https://www.houjukai.org/",
    "pref": "愛知県",
    "city": "新城市",
    "category": "tokuyou",
    "serviceType": "介護老人福祉施設",
    "capacity": 0,
    "openDays": [],
    "openDaysNote": ""
  },
  {
    "id": "2374000749",
    "name": "特別養護老人ホーム翠華の里",
    "kana": "トクベツヨウゴロウジンホームスイカノサト",
    "address": "愛知県新城市豊岡字田ノ島５２番９",
    "lat": 34.9781909856681,
    "lng": 137.612636804791,
    "tel": "0536-32-2510",
    "url": "https://www.suikanosato.or.jp",
    "pref": "愛知県",
    "city": "新城市",
    "category": "tokuyou",
    "serviceType": "介護老人福祉施設",
    "capacity": 0,
    "openDays": [],
    "openDaysNote": ""
  },
  {
    "id": "2374000053",
    "name": "特別養護老人ホーム麗楽荘",
    "kana": "トクベツヨウゴロウジンホームウララソウ",
    "address": "新城市矢部字上ノ川1番地4",
    "lat": 34.9168886,
    "lng": 137.5080273,
    "tel": "0536-22-4111",
    "url": "http://www.i-f.or.jp",
    "pref": "愛知県",
    "city": "新城市",
    "category": "tokuyou",
    "serviceType": "介護老人福祉施設",
    "capacity": 84,
    "openDays": [],
    "openDaysNote": ""
  },
  {
    "id": "2372300083",
    "name": "愛厚ホーム瀬戸苑",
    "kana": "アイコウホームセトエン",
    "address": "愛知県瀬戸市原山町１‐１０",
    "lat": 35.2185338,
    "lng": 137.0924817,
    "tel": "0561-84-5271",
    "url": "http://www.ai-kou.or.jp",
    "pref": "愛知県",
    "city": "瀬戸市",
    "category": "tokuyou",
    "serviceType": "介護老人福祉施設",
    "capacity": 0,
    "openDays": [],
    "openDaysNote": ""
  },
  {
    "id": "2372302717",
    "name": "愛厚ホーム瀬戸苑",
    "kana": "アイコウホームセトエン",
    "address": "愛知県瀬戸市原山町１-１０",
    "lat": 35.2178052,
    "lng": 137.0921735,
    "tel": "0561-84-5271",
    "url": "http://www.ai-kou.or.jp",
    "pref": "愛知県",
    "city": "瀬戸市",
    "category": "tokuyou",
    "serviceType": "介護老人福祉施設",
    "capacity": 0,
    "openDays": [],
    "openDaysNote": ""
  },
  {
    "id": "2372300091",
    "name": "特別養護老人ホーム　ウィローふたば",
    "kana": "トクベツヨウゴロウジンホーム　ウィローフタバ",
    "address": "愛知県瀬戸市西山町１丁目４６番地の１８",
    "lat": 35.2209825,
    "lng": 137.0581769,
    "tel": "0561-87-4128",
    "url": "http://www.willowfutaba.jp",
    "pref": "愛知県",
    "city": "瀬戸市",
    "category": "tokuyou",
    "serviceType": "介護老人福祉施設",
    "capacity": 60,
    "openDays": [],
    "openDaysNote": ""
  },
  {
    "id": "2372301313",
    "name": "特別養護老人ホーム　たんぽぽ菱野の里",
    "kana": "トクベツヨウゴロウジンホーム　タンポポヒシノノサト",
    "address": "愛知県瀬戸市南菱野町１２８番１",
    "lat": 35.1992689,
    "lng": 137.0743062,
    "tel": "0561-21-1101",
    "url": "http://www.tanpopo-fukushi.or.jp",
    "pref": "愛知県",
    "city": "瀬戸市",
    "category": "tokuyou",
    "serviceType": "介護老人福祉施設",
    "capacity": 80,
    "openDays": [],
    "openDaysNote": ""
  },
  {
    "id": "2372302568",
    "name": "特別養護老人ホームつばき",
    "kana": "トクベツヨウゴロウジンホームツバキ",
    "address": "愛知県瀬戸市中水野町2-758",
    "lat": 35.2490237442833,
    "lng": 137.078161671233,
    "tel": "0561-48-6030",
    "url": "http://setochuo.com/chuokai/",
    "pref": "愛知県",
    "city": "瀬戸市",
    "category": "tokuyou",
    "serviceType": "介護老人福祉施設",
    "capacity": 60,
    "openDays": [],
    "openDaysNote": ""
  },
  {
    "id": "2372300927",
    "name": "特別養護老人ホーム樹の里",
    "kana": "トクベツヨウゴロウジンホームキノサト",
    "address": "愛知県瀬戸市紺屋田町９３番１０６",
    "lat": 35.2350658,
    "lng": 137.113771,
    "tel": "0561-89-7211",
    "url": "https://kinosato-seto.com/",
    "pref": "愛知県",
    "city": "瀬戸市",
    "category": "tokuyou",
    "serviceType": "介護老人福祉施設",
    "capacity": 70,
    "openDays": [],
    "openDaysNote": ""
  },
  {
    "id": "2377300070",
    "name": "特別養護老人ホーム　清洲の里",
    "kana": "トクベツヨウゴロウジンホーム　キヨスノサト",
    "address": "愛知県清須市廻間堂畑１番地",
    "lat": 35.2158261,
    "lng": 136.8258439,
    "tel": "052-401-7007",
    "url": "http://nishikasugai-fukushikai.or.jp",
    "pref": "愛知県",
    "city": "清須市",
    "category": "tokuyou",
    "serviceType": "介護老人福祉施設",
    "capacity": 80,
    "openDays": [],
    "openDaysNote": ""
  },
  {
    "id": "2375200611",
    "name": "特別養護老人ホームペガサス春日",
    "kana": "トクベツヨウゴロウジンホームペガサスハルヒ",
    "address": "愛知県清須市春日新町１０５番地",
    "lat": 35.2266559,
    "lng": 136.850247,
    "tel": "052-408-5550",
    "url": "https://nishikasugai-fukushikai.or.jp",
    "pref": "愛知県",
    "city": "清須市",
    "category": "tokuyou",
    "serviceType": "介護老人福祉施設",
    "capacity": 100,
    "openDays": [],
    "openDaysNote": ""
  },
  {
    "id": "2377300294",
    "name": "特別養護老人ホーム平安の里",
    "kana": "トクベツヨウゴロウジンホームヘイアンノサト",
    "address": "愛知県清須市春日新町９５番地",
    "lat": 35.2264985,
    "lng": 136.8517023,
    "tel": "052-401-0333",
    "url": "https://nishikasugai-fukushikai.or.jp/",
    "pref": "愛知県",
    "city": "清須市",
    "category": "tokuyou",
    "serviceType": "介護老人福祉施設",
    "capacity": 96,
    "openDays": [],
    "openDaysNote": ""
  },
  {
    "id": "2373201181",
    "name": "せんねん村矢曽根",
    "kana": "センネンムラヤゾネ",
    "address": "愛知県西尾市矢曽根町蓮雲寺２９番地１",
    "lat": 34.8563677,
    "lng": 137.0501509,
    "tel": "0563-65-5533",
    "url": "http://www.sen-nen.or.jp",
    "pref": "愛知県",
    "city": "西尾市",
    "category": "tokuyou",
    "serviceType": "介護老人福祉施設",
    "capacity": 0,
    "openDays": [],
    "openDaysNote": ""
  },
  {
    "id": "2373200092",
    "name": "愛厚ホーム西尾苑",
    "kana": "アイコウホームニシオエン",
    "address": "西尾市八ツ面町蔵屋敷１２０番地",
    "lat": 34.8786624,
    "lng": 137.0767007,
    "tel": "0563-56-7350",
    "url": "http://www.ai-kou.or.jp/",
    "pref": "愛知県",
    "city": "西尾市",
    "category": "tokuyou",
    "serviceType": "介護老人福祉施設",
    "capacity": 120,
    "openDays": [],
    "openDaysNote": ""
  },
  {
    "id": "2373200654",
    "name": "特別養護老人ホーム　いちご",
    "kana": "トクベツヨウゴロウジンホーム　イチゴ",
    "address": "愛知県西尾市市子町稲荷122番地",
    "lat": 34.8313054033119,
    "lng": 137.037918359525,
    "tel": "0563-55-3915",
    "url": "http://www.seiseikai15.or.jp/",
    "pref": "愛知県",
    "city": "西尾市",
    "category": "tokuyou",
    "serviceType": "介護老人福祉施設",
    "capacity": 0,
    "openDays": [],
    "openDaysNote": ""
  },
  {
    "id": "2375900061",
    "name": "特別養護老人ホームしはとの郷",
    "kana": "トクベツヨウゴロウジンホームシハトノサト",
    "address": "愛知県西尾市鳥羽町迎49番地2",
    "lat": 34.7967013535347,
    "lng": 137.097331093254,
    "tel": "0563-62-6677",
    "url": "http://www.shihato.com/",
    "pref": "愛知県",
    "city": "西尾市",
    "category": "tokuyou",
    "serviceType": "介護老人福祉施設",
    "capacity": 78,
    "openDays": [],
    "openDaysNote": ""
  },
  {
    "id": "2373200290",
    "name": "特別養護老人ホームせんねん村",
    "kana": "トクベツヨウゴロウジンホームセンネンムラ",
    "address": "愛知県西尾市平口町大溝77番地",
    "lat": 34.82558,
    "lng": 137.0514239,
    "tel": "0563-64-0001",
    "url": "http://www.sen-nen.or.jp",
    "pref": "愛知県",
    "city": "西尾市",
    "category": "tokuyou",
    "serviceType": "介護老人福祉施設",
    "capacity": 80,
    "openDays": [],
    "openDaysNote": ""
  },
  {
    "id": "2373201694",
    "name": "特別養護老人ホームとくつぎ",
    "kana": "トクベツヨウゴロウジンホームトクツギ",
    "address": "愛知県西尾市徳次町明大寺61番地2",
    "lat": 34.8632573,
    "lng": 137.0722928,
    "tel": "0563-56-1158",
    "url": "https://shuureikai.com",
    "pref": "愛知県",
    "city": "西尾市",
    "category": "tokuyou",
    "serviceType": "介護老人福祉施設",
    "capacity": null,
    "openDays": [],
    "openDaysNote": ""
  },
  {
    "id": "2375900376",
    "name": "特別養護老人ホームレジデンス宮崎",
    "kana": "トクベツヨウゴロウジンホームレジデンスミヤザキ",
    "address": "愛知県西尾市吉良町宮崎丸山14番地1",
    "lat": 34.7783589,
    "lng": 137.0864382,
    "tel": "0563-34-9018",
    "url": "http://www.rdmiya.com/",
    "pref": "愛知県",
    "city": "西尾市",
    "category": "tokuyou",
    "serviceType": "介護老人福祉施設",
    "capacity": 63,
    "openDays": [],
    "openDaysNote": ""
  },
  {
    "id": "2376300394",
    "name": "愛厚ホーム設楽苑",
    "kana": "アイコウホームシタラエン",
    "address": "愛知県北設楽郡設楽町清崎字沖１３－４愛厚ホーム設楽苑（ユニット型施設） 愛厚ホーム設楽苑（ユニット型施設）",
    "lat": 35.0631477,
    "lng": 137.5493837,
    "tel": "0536-62-1104",
    "url": "http://www.ai-kou.or.jp",
    "pref": "愛知県",
    "city": "設楽町",
    "category": "tokuyou",
    "serviceType": "介護老人福祉施設",
    "capacity": 0,
    "openDays": [],
    "openDaysNote": ""
  },
  {
    "id": "2376300113",
    "name": "愛厚ホーム設楽苑（多床室型施設）",
    "kana": "アイコウホームシタラエン　タショウシツガタシセツ",
    "address": "愛知県北設楽郡設楽町清崎字沖１3番地4",
    "lat": 35.0631477,
    "lng": 137.5493837,
    "tel": "0536-62-1104",
    "url": "http://www.ai-kou.or.jp",
    "pref": "愛知県",
    "city": "設楽町",
    "category": "tokuyou",
    "serviceType": "介護老人福祉施設",
    "capacity": 40,
    "openDays": [],
    "openDaysNote": ""
  },
  {
    "id": "2375300114",
    "name": "特別養護老人ホーム御桜乃里",
    "kana": "トクベツヨウゴロウジンホームミザクラノサト",
    "address": "愛知県丹羽郡大口町下小口六丁目124番地2",
    "lat": 35.3305914,
    "lng": 136.9111275,
    "tel": "0587-95-8151",
    "url": "http://www.aiseifukusikai.jp/",
    "pref": "愛知県",
    "city": "大口町",
    "category": "tokuyou",
    "serviceType": "介護老人福祉施設",
    "capacity": 80,
    "openDays": [],
    "openDaysNote": ""
  },
  {
    "id": "2375602170",
    "name": "特別養護老人ホーム希望の郷大治",
    "kana": "トクベツヨウゴロウジンホームキボウノサトオオハル",
    "address": "愛知県海部郡大治町大字中島字中田103特別養護老人ホーム希望の郷大治 特別養護老人ホーム希望の郷大治",
    "lat": 35.1735339,
    "lng": 136.8168286,
    "tel": "052-445-7300",
    "url": "https://kitokukai.org/",
    "pref": "愛知県",
    "city": "大治町",
    "category": "tokuyou",
    "serviceType": "介護老人福祉施設",
    "capacity": 0,
    "openDays": [],
    "openDaysNote": ""
  },
  {
    "id": "2374200133",
    "name": "特別養護老人ホーム　愛厚ホーム大府苑",
    "kana": "トクベツヨウゴロウジンホーム　アイコウホームオオブエン",
    "address": "愛知県大府市森岡町七丁目４０８番地",
    "lat": 35.0002104,
    "lng": 136.9537109,
    "tel": "0562-48-3121",
    "url": "http://www.ai-kou.or.jp/",
    "pref": "愛知県",
    "city": "大府市",
    "category": "tokuyou",
    "serviceType": "介護老人福祉施設",
    "capacity": 0,
    "openDays": [],
    "openDaysNote": ""
  },
  {
    "id": "2374201131",
    "name": "特別養護老人ホームオーネスト尚武",
    "kana": "トクベツヨウゴロウジンホームオーネストショウブ",
    "address": "愛知県大府市神田町五丁目7番地特別養護老人ホームオーネスト尚武 特別養護老人ホームオーネスト尚武",
    "lat": 35.0304504287026,
    "lng": 136.985073167909,
    "tel": "０５６２－８５－３３６６",
    "url": "http://www.shisuikai.or.jp/",
    "pref": "愛知県",
    "city": "大府市",
    "category": "tokuyou",
    "serviceType": "介護老人福祉施設",
    "capacity": 0,
    "openDays": [],
    "openDaysNote": ""
  },
  {
    "id": "2374200489",
    "name": "特別養護老人ホームデイパーク大府",
    "kana": "トクベツヨウゴロウジンホーム　デイパークオオブ",
    "address": "愛知県大府市横根町箕手８７番地１",
    "lat": 35.0324156,
    "lng": 136.9761085,
    "tel": "0562-43-7885",
    "url": "https://www.choufukukai.jp",
    "pref": "愛知県",
    "city": "大府市",
    "category": "tokuyou",
    "serviceType": "介護老人福祉施設",
    "capacity": 77,
    "openDays": [],
    "openDaysNote": ""
  },
  {
    "id": "2374200927",
    "name": "特別養護老人ホーム大府の郷",
    "kana": "トクベツヨウゴロウジンホームオオブノサト",
    "address": "愛知県大府市長草町ドンド19",
    "lat": 35.0308244773713,
    "lng": 136.942530035582,
    "tel": "0562-48-8844",
    "url": "https://douen.or.jp/",
    "pref": "愛知県",
    "city": "大府市",
    "category": "tokuyou",
    "serviceType": "介護老人福祉施設",
    "capacity": 100,
    "openDays": [],
    "openDaysNote": ""
  },
  {
    "id": "2374300537",
    "name": "特別養護老人ホーム　知多",
    "kana": "トクベツヨウゴロウジン　ホーム　チタ",
    "address": "愛知県知多市旭南5丁目31-1",
    "lat": 34.9424098,
    "lng": 136.8329047,
    "tel": "0569-44-1811",
    "url": "http://www.ans.co.jp/u/daiwanosato/",
    "pref": "愛知県",
    "city": "知多市",
    "category": "tokuyou",
    "serviceType": "介護老人福祉施設",
    "capacity": 90,
    "openDays": [],
    "openDaysNote": ""
  },
  {
    "id": "2374300826",
    "name": "特別養護老人ホーム　知多共愛の里",
    "kana": "トクベツヨウゴロウジンホーム　チタキョウアイノサト",
    "address": "愛知県知多市西巽が丘二丁目20番地3",
    "lat": 34.9616228,
    "lng": 136.9055128,
    "tel": "0562-34-1133",
    "url": "www.kyouaikai.org",
    "pref": "愛知県",
    "city": "知多市",
    "category": "tokuyou",
    "serviceType": "介護老人福祉施設",
    "capacity": 100,
    "openDays": [],
    "openDaysNote": ""
  },
  {
    "id": "2374300131",
    "name": "特別養護老人ホームふれあいの里",
    "kana": "トクベツヨウゴロウジンホームフレアイノサト",
    "address": "愛知県知多市新知字二股10番地の1",
    "lat": 34.9762606,
    "lng": 136.8627012,
    "tel": "0562-56-1411",
    "url": "https://chitafukushikai.or.jp",
    "pref": "愛知県",
    "city": "知多市",
    "category": "tokuyou",
    "serviceType": "介護老人福祉施設",
    "capacity": 0,
    "openDays": [],
    "openDaysNote": ""
  },
  {
    "id": "2374400097",
    "name": "特別養護老人ホーム　ヴィラトピア知立",
    "kana": "トクベツヨウゴロウジンホームヴィラトピアチリュウ",
    "address": "愛知県知立市山屋敷町富士塚１番地３３６",
    "lat": 35.0110097,
    "lng": 137.05959,
    "tel": "0566-83-1020",
    "url": "http://www.villatopia.org",
    "pref": "愛知県",
    "city": "知立市",
    "category": "tokuyou",
    "serviceType": "介護老人福祉施設",
    "capacity": 0,
    "openDays": [],
    "openDaysNote": ""
  },
  {
    "id": "2374400394",
    "name": "特別養護老人ホーム　ほほえみの里",
    "kana": "トクベツヨウゴロウジンホーム　ホホエミノサト",
    "address": "愛知県知立市昭和2丁目４－３",
    "lat": 34.9943476,
    "lng": 137.0629121,
    "tel": "0566-85-2525",
    "url": "http://www.hohoeminosato.com",
    "pref": "愛知県",
    "city": "知立市",
    "category": "tokuyou",
    "serviceType": "介護老人福祉施設",
    "capacity": 0,
    "openDays": [],
    "openDaysNote": ""
  },
  {
    "id": "2374400733",
    "name": "特別養護老人ホームかおん",
    "kana": "トクベツヨウゴロウジンホームカオン",
    "address": "愛知県知立市上重原町蔵福寺１６２",
    "lat": 34.9972979956877,
    "lng": 137.03661871771,
    "tel": "0566-81-3636",
    "url": "https://www.kaon-c.com",
    "pref": "愛知県",
    "city": "知立市",
    "category": "tokuyou",
    "serviceType": "介護老人福祉施設",
    "capacity": 0,
    "openDays": [],
    "openDaysNote": ""
  },
  {
    "id": "2375000110",
    "name": "特別養護老人ホーム　愛知たいようの杜　ハモリー館",
    "kana": "トクベツヨウゴロウジンホーム　アイチタイヨウノモリ　ハモリーハウス",
    "address": "愛知県長久手市根嶽1201",
    "lat": 35.1631191,
    "lng": 137.0232378,
    "tel": "0561-62-5151",
    "url": "http://gojikaramura.jp",
    "pref": "愛知県",
    "city": "長久手市",
    "category": "tokuyou",
    "serviceType": "介護老人福祉施設",
    "capacity": null,
    "openDays": [],
    "openDaysNote": ""
  },
  {
    "id": "2375001043",
    "name": "特別養護老人ホーム　愛知たいようの杜　杜っと館",
    "kana": "トクベツヨウゴロウジンホーム　アイチタイヨウノモリ　モリットカン",
    "address": "愛知県長久手市根嶽1201",
    "lat": 35.1634469,
    "lng": 137.0235683,
    "tel": "0561-62-5151",
    "url": "http://gojikaramura.jp/",
    "pref": "愛知県",
    "city": "長久手市",
    "category": "tokuyou",
    "serviceType": "介護老人福祉施設",
    "capacity": 0,
    "openDays": [],
    "openDaysNote": ""
  },
  {
    "id": "2372700795",
    "name": "介護老人福祉施設　第二陽だまりの里",
    "kana": "カイゴロウジンフクシシセツ　ダイニヒダマリノサト",
    "address": "愛知県津島市寺野町字好土４４番地",
    "lat": 35.1908835,
    "lng": 136.7734911,
    "tel": "0567-69-7999",
    "url": "http://www.at-ml.jp",
    "pref": "愛知県",
    "city": "津島市",
    "category": "tokuyou",
    "serviceType": "介護老人福祉施設",
    "capacity": 0,
    "openDays": [],
    "openDaysNote": ""
  },
  {
    "id": "2372700076",
    "name": "特別養護老人ホーム恵寿荘",
    "kana": "トクベツヨウゴロウジンホームケイジュソウ",
    "address": "愛知県津島市唐臼町半池７２番地６",
    "lat": 35.155663,
    "lng": 136.7491114,
    "tel": "0567-32-2631",
    "url": "http://www5.ocn.ne.jp/~keijusou/",
    "pref": "愛知県",
    "city": "津島市",
    "category": "tokuyou",
    "serviceType": "介護老人福祉施設",
    "capacity": 0,
    "openDays": [],
    "openDaysNote": ""
  },
  {
    "id": "2372700241",
    "name": "特別養護老人ホーム長寿の里・津島",
    "kana": "トクベツヨウゴロウジンホームチョウジュノサトツシマ",
    "address": "愛知県津島市江西町一丁目3番1",
    "lat": 35.1786091,
    "lng": 136.7135471,
    "tel": "0567-28-0294",
    "url": "http：//www.aisankai.jp",
    "pref": "愛知県",
    "city": "津島市",
    "category": "tokuyou",
    "serviceType": "介護老人福祉施設",
    "capacity": 88,
    "openDays": [],
    "openDaysNote": ""
  },
  {
    "id": "2376600298",
    "name": "特別養護老人ホーム渥美福寿園",
    "kana": "トクベツヨウゴロウジンホームアツミフクジュエン",
    "address": "愛知県田原市小中山町一膳松1番地93",
    "lat": 34.6414687,
    "lng": 137.0610034,
    "tel": "0531-34-6688",
    "url": "http://www.fukujuen.or.jp",
    "pref": "愛知県",
    "city": "田原市",
    "category": "tokuyou",
    "serviceType": "介護老人福祉施設",
    "capacity": 80,
    "openDays": [],
    "openDaysNote": ""
  },
  {
    "id": "2377100397",
    "name": "特別養護老人ホーム田原福寿園（南館）",
    "kana": "トクベツヨウゴロウジンホームタハラフクジュエン（ミナミカン）",
    "address": "愛知県田原市六連町神ノ釜9番地3",
    "lat": 34.65601,
    "lng": 137.2963597,
    "tel": "0531-27-0008",
    "url": "http://www.fukujuen.or.jp",
    "pref": "愛知県",
    "city": "田原市",
    "category": "tokuyou",
    "serviceType": "介護老人福祉施設",
    "capacity": 70,
    "openDays": [],
    "openDaysNote": ""
  },
  {
    "id": "2376600090",
    "name": "特別養護老人ホーム田原福寿園（本館）",
    "kana": "トクベツヨウゴロウジンホームタハラフクジュエン（ホンカン）",
    "address": "愛知県田原市六連町神ノ釜9番地3",
    "lat": 34.65601,
    "lng": 137.2963597,
    "tel": "0531-27-0008",
    "url": "http://www.fukujuen.or.jp",
    "pref": "愛知県",
    "city": "田原市",
    "category": "tokuyou",
    "serviceType": "介護老人福祉施設",
    "capacity": 0,
    "openDays": [],
    "openDaysNote": ""
  },
  {
    "id": "2375701196",
    "name": "特別養護老人ホーム　メドック東浦",
    "kana": "トクベツヨウゴロウジンホーム　メドックヒガシウラ",
    "address": "愛知県知多郡東浦町大字緒川字猪伏釜１１０番地",
    "lat": 34.9816639755989,
    "lng": 136.955058400664,
    "tel": "0562-82-2226",
    "url": "http://www.medoc-care.jp/",
    "pref": "愛知県",
    "city": "東浦町",
    "category": "tokuyou",
    "serviceType": "介護老人福祉施設",
    "capacity": 120,
    "openDays": [],
    "openDaysNote": ""
  },
  {
    "id": "2375700180",
    "name": "特別養護老人ホーム　東和荘",
    "kana": "トクベツヨウゴロウジンホーム　トウワソウ",
    "address": "愛知県知多郡東浦町大字石浜字飛山池上41番地",
    "lat": 34.9577525,
    "lng": 136.9575729,
    "tel": "0562-83-2878",
    "url": "http://touwasou.com",
    "pref": "愛知県",
    "city": "東浦町",
    "category": "tokuyou",
    "serviceType": "介護老人福祉施設",
    "capacity": 0,
    "openDays": [],
    "openDaysNote": ""
  },
  {
    "id": "2376300121",
    "name": "やまゆり荘",
    "kana": "ヤマユリソウ",
    "address": "愛知県北設楽郡東栄町大字中設楽字松久保１番地３",
    "lat": 35.0834882,
    "lng": 137.6842738,
    "tel": "0536-79-3534",
    "url": "http://www.meiho-f.com",
    "pref": "愛知県",
    "city": "東栄町",
    "category": "tokuyou",
    "serviceType": "介護老人福祉施設",
    "capacity": 80,
    "openDays": [],
    "openDaysNote": ""
  },
  {
    "id": "2374101059",
    "name": "特別養護老人ホーム　東海清凉苑",
    "kana": "トクベツヨウゴロウジンホーム　トウカイセイリョウエン",
    "address": "愛知県東海市加木屋町冬至池4番15",
    "lat": 34.9781226393241,
    "lng": 136.921315138901,
    "tel": "0562-85-7721",
    "url": "http://www.sei-ryou-kai.or.jp/",
    "pref": "愛知県",
    "city": "東海市",
    "category": "tokuyou",
    "serviceType": "介護老人福祉施設",
    "capacity": 0,
    "openDays": [],
    "openDaysNote": ""
  },
  {
    "id": "2374100721",
    "name": "特別養護老人ホーム　東海福寿園",
    "kana": "トクベツヨウゴロウジンホーム　トウカイフクジュエン",
    "address": "愛知県東海市中ノ池３丁目１番地の９",
    "lat": 34.9982035,
    "lng": 136.8988705,
    "tel": "0562-39-2288",
    "url": "http://www.fukujuen.or.jp",
    "pref": "愛知県",
    "city": "東海市",
    "category": "tokuyou",
    "serviceType": "介護老人福祉施設",
    "capacity": 80,
    "openDays": [],
    "openDaysNote": ""
  },
  {
    "id": "2374101448",
    "name": "特別養護老人ホームセレナ東海",
    "kana": "トクベツヨウゴロウジンホームセレナトウカイ",
    "address": "愛知県東海市加木屋町裾77番地1",
    "lat": 35.0110093781214,
    "lng": 136.908472025795,
    "tel": "0562-57-7555",
    "url": "https://www.kenshikai.net/",
    "pref": "愛知県",
    "city": "東海市",
    "category": "tokuyou",
    "serviceType": "介護老人福祉施設",
    "capacity": 120,
    "openDays": [],
    "openDaysNote": ""
  },
  {
    "id": "2374101265",
    "name": "特別養護老人ホームレモンの樹東海",
    "kana": "トクベツヨウゴロウジンホームレモンノキトウカイ",
    "address": "愛知県東海市名和町南之山10番地の12",
    "lat": 35.0427601,
    "lng": 136.9121114,
    "tel": "052-601-3510",
    "url": "http://www.lemon-swc.com/",
    "pref": "愛知県",
    "city": "東海市",
    "category": "tokuyou",
    "serviceType": "介護老人福祉施設",
    "capacity": 110,
    "openDays": [],
    "openDaysNote": ""
  },
  {
    "id": "2374100150",
    "name": "特別養護老人ホーム東海の里",
    "kana": "トクベツヨウゴロウジンホームトウカイノサト",
    "address": "東海市富木島町藤ノ棚１番地の１",
    "lat": 35.0140967,
    "lng": 136.9227306,
    "tel": "052-601-9621",
    "url": "http://www.tokainosato.jp/",
    "pref": "愛知県",
    "city": "東海市",
    "category": "tokuyou",
    "serviceType": "介護老人福祉施設",
    "capacity": 100,
    "openDays": [],
    "openDaysNote": ""
  },
  {
    "id": "2375000102",
    "name": "愛厚ホーム東郷苑",
    "kana": "アイコウホームトウゴウエン",
    "address": "愛知県愛知郡東郷町大字春木字下正葉廻間４３３７－１３",
    "lat": 35.0838106,
    "lng": 137.0432708,
    "tel": "0561-39-0028",
    "url": "http://www.ai-kou.or.jp",
    "pref": "愛知県",
    "city": "東郷町",
    "category": "tokuyou",
    "serviceType": "介護老人福祉施設",
    "capacity": 103,
    "openDays": [],
    "openDaysNote": ""
  },
  {
    "id": "2375000524",
    "name": "特別養護老人ホーム　イースト・ヴィレッジ",
    "kana": "トクベツヨウゴロウジンホーム　　イースト・ウ゛ィレッジ",
    "address": "愛知県愛知郡東郷町大字春木字下鏡田446-1104",
    "lat": 35.0959421,
    "lng": 137.0309882,
    "tel": "0561-38-1033",
    "url": "http://www.e-village.or.jp",
    "pref": "愛知県",
    "city": "東郷町",
    "category": "tokuyou",
    "serviceType": "介護老人福祉施設",
    "capacity": 0,
    "openDays": [],
    "openDaysNote": ""
  },
  {
    "id": "2375700198",
    "name": "特別養護老人ホーム　あい寿の丘",
    "kana": "トクベツヨウゴロウジンホーム　アイジュノオカ",
    "address": "愛知県知多郡南知多町大字豊丘字中平井14番地1",
    "lat": 34.7256747,
    "lng": 136.9424823,
    "tel": "0569-65-2965",
    "url": "http://www.aijyu.or.jp",
    "pref": "愛知県",
    "city": "南知多町",
    "category": "tokuyou",
    "serviceType": "介護老人福祉施設",
    "capacity": 60,
    "openDays": [],
    "openDaysNote": ""
  },
  {
    "id": "2375701139",
    "name": "特別養護老人ホーム大地の丘",
    "kana": "トクベツヨウゴロウジンホームダイチノオカ",
    "address": "愛知県知多郡南知多町大字内海字奥鈴ケ谷70-5",
    "lat": 34.760916,
    "lng": 136.8940997,
    "tel": "0569-62-0117",
    "url": "http://daichinooka.com/",
    "pref": "愛知県",
    "city": "南知多町",
    "category": "tokuyou",
    "serviceType": "介護老人福祉施設",
    "capacity": 0,
    "openDays": [],
    "openDaysNote": ""
  },
  {
    "id": "2374900344",
    "name": "特別養護老人ホーム　のぞみ",
    "kana": "トクベツヨウゴロウジンホーム　ノゾミ",
    "address": "愛知県日進市米野木町南山９８７－１０４",
    "lat": 35.1327495,
    "lng": 137.0860932,
    "tel": "0561-75-4321",
    "url": "https://www.sanaifukushikai.jp",
    "pref": "愛知県",
    "city": "日進市",
    "category": "tokuyou",
    "serviceType": "介護老人福祉施設",
    "capacity": 50,
    "openDays": [],
    "openDaysNote": ""
  },
  {
    "id": "2374900708",
    "name": "特別養護老人ホーム寿老苑",
    "kana": "トクベツヨウゴロウジンホームジュロウエン",
    "address": "愛知県日進市赤池町屋下３６０番地",
    "lat": 35.1242853,
    "lng": 137.0085485,
    "tel": "052-800-3080",
    "url": "http://jyuroukai.main.jp/",
    "pref": "愛知県",
    "city": "日進市",
    "category": "tokuyou",
    "serviceType": "介護老人福祉施設",
    "capacity": 50,
    "openDays": [],
    "openDaysNote": ""
  },
  {
    "id": "2374900054",
    "name": "特別養護老人ホーム日進ホーム",
    "kana": "トクベツヨウゴロウジンホームニッシンホーム",
    "address": "愛知県日進市浅田平子二丁目２０番地",
    "lat": 35.1186865,
    "lng": 137.0291269,
    "tel": "052-806-2600",
    "url": "http://nisshin-fukushi.jp/",
    "pref": "愛知県",
    "city": "日進市",
    "category": "tokuyou",
    "serviceType": "介護老人福祉施設",
    "capacity": 100,
    "openDays": [],
    "openDaysNote": ""
  },
  {
    "id": "2372400149",
    "name": "特別養護老人ホーム　瑞光の里",
    "kana": "トクベツヨウゴロウジンホーム　ズイコウノサト",
    "address": "愛知県半田市椎ノ木町一丁目６９番地",
    "lat": 34.8844367,
    "lng": 136.8803149,
    "tel": "0569-27-6262",
    "url": "http://www.zuikoh.jp",
    "pref": "愛知県",
    "city": "半田市",
    "category": "tokuyou",
    "serviceType": "介護老人福祉施設",
    "capacity": 0,
    "openDays": [],
    "openDaysNote": ""
  },
  {
    "id": "2372401402",
    "name": "特別養護老人ホーム　瑞光の里ユニット型",
    "kana": "トクベツヨウゴロウジンホーム　ズイコウノサトユニットガタ",
    "address": "愛知県半田市椎ノ木町一丁目６９番地",
    "lat": 34.8844423,
    "lng": 136.8802399,
    "tel": "0569-27-6262",
    "url": "http://www.zuikoh.jp",
    "pref": "愛知県",
    "city": "半田市",
    "category": "tokuyou",
    "serviceType": "介護老人福祉施設",
    "capacity": 0,
    "openDays": [],
    "openDaysNote": ""
  },
  {
    "id": "2372400669",
    "name": "特別養護老人ホーム　第二瑞光の里",
    "kana": "トクベツヨウゴロウジンホーム　ダイニズイコウノサト",
    "address": "半田市土井山町二丁目１０５番地",
    "lat": 34.8985057,
    "lng": 136.9053531,
    "tel": "0569-26-5510",
    "url": "http://www.zuikoh.jp/index.html",
    "pref": "愛知県",
    "city": "半田市",
    "category": "tokuyou",
    "serviceType": "介護老人福祉施設",
    "capacity": 0,
    "openDays": [],
    "openDaysNote": ""
  },
  {
    "id": "2372401592",
    "name": "特別養護老人ホーム瑞光の里緑ヶ丘",
    "kana": "トクベツヨウゴロウジンホームズイコウノサト　ミドリガオカ",
    "address": "愛知県半田市緑ヶ丘二丁目35番1",
    "lat": 34.9318846586965,
    "lng": 136.952391475899,
    "tel": "0569-47-7711",
    "url": "http://www.zuikoh.jp",
    "pref": "愛知県",
    "city": "半田市",
    "category": "tokuyou",
    "serviceType": "介護老人福祉施設",
    "capacity": 0,
    "openDays": [],
    "openDaysNote": ""
  },
  {
    "id": "2375600273",
    "name": "特別養護老人ホームやすらぎの里",
    "kana": "トクベツヨウゴロウジンホームヤスラギノサト",
    "address": "愛知県海部郡飛島村大宝字八島113-1",
    "lat": 35.0900131,
    "lng": 136.7640779,
    "tel": "0567-52-1800",
    "url": "http://www.yasuraginosato.jp",
    "pref": "愛知県",
    "city": "飛島村",
    "category": "tokuyou",
    "serviceType": "介護老人福祉施設",
    "capacity": 0,
    "openDays": [],
    "openDaysNote": ""
  },
  {
    "id": "2374500383",
    "name": "特別養護老人ホーム　アメニティあさひ",
    "kana": "トクベツヨウゴロウジンホーム　アメニティアサヒ",
    "address": "愛知県尾張旭市旭ヶ丘町濁池１１５５番地１８",
    "lat": 35.2267504,
    "lng": 137.0405424,
    "tel": "0561-51-5222",
    "url": "http://asahi-kai.jp/",
    "pref": "愛知県",
    "city": "尾張旭市",
    "category": "tokuyou",
    "serviceType": "介護老人福祉施設",
    "capacity": 0,
    "openDays": [],
    "openDaysNote": ""
  },
  {
    "id": "2374501118",
    "name": "特別養護老人ホームサンヴェール尾張旭",
    "kana": "トクベツヨウゴロウジンホーム　サンゔェールオワリアサヒ",
    "address": "愛知県尾張旭市南栄町黒石４８番１",
    "lat": 35.1921829661684,
    "lng": 137.031625481615,
    "tel": "0561-52-2992",
    "url": "http://www.sunvale.net",
    "pref": "愛知県",
    "city": "尾張旭市",
    "category": "tokuyou",
    "serviceType": "介護老人福祉施設",
    "capacity": 80,
    "openDays": [],
    "openDaysNote": ""
  },
  {
    "id": "2374500086",
    "name": "特別養護老人ホーム敬愛園",
    "kana": "トクベツヨウゴロウジンホームケイアイエン",
    "address": "愛知県尾張旭市平子町長池上６４４７‐１",
    "lat": 35.2256743106068,
    "lng": 137.022524668123,
    "tel": "0561-53-9507",
    "url": "https://www.keiaien.jp/",
    "pref": "愛知県",
    "city": "尾張旭市",
    "category": "tokuyou",
    "serviceType": "介護老人福祉施設",
    "capacity": 70,
    "openDays": [],
    "openDaysNote": ""
  },
  {
    "id": "2375700206",
    "name": "特別養護老人ホーム　ビラ・オレンジ",
    "kana": "トクベツヨウゴロウジンホーム　ビラ・オレンジ",
    "address": "愛知県知多郡美浜町大字野間字新前田212番地の１",
    "lat": 34.7659777,
    "lng": 136.8487226,
    "tel": "0569-87-3200",
    "url": "http://www.villa-orange.com",
    "pref": "愛知県",
    "city": "美浜町",
    "category": "tokuyou",
    "serviceType": "介護老人福祉施設",
    "capacity": 100,
    "openDays": [],
    "openDaysNote": ""
  },
  {
    "id": "2375701832",
    "name": "特別養護老人ホーム　ビラ・オレンジ（ユニット型）",
    "kana": "トクベツヨウゴロウジンホーム　ビラ・オレンジ（ユニットガタ）",
    "address": "愛知県知多郡美浜町大字野間字新前田２１２番地の１",
    "lat": 34.7656251548635,
    "lng": 136.849532627122,
    "tel": "0569-87-3200",
    "url": "http://www.villa-orange.com/",
    "pref": "愛知県",
    "city": "美浜町",
    "category": "tokuyou",
    "serviceType": "介護老人福祉施設",
    "capacity": 0,
    "openDays": [],
    "openDaysNote": ""
  },
  {
    "id": "2375300122",
    "name": "特別養護老人ホーム　扶桑苑",
    "kana": "トクベツヨウゴロウジンホーム　フソウエン",
    "address": "愛知県丹羽郡扶桑町大字山那字番所下８３－５",
    "lat": 35.373641,
    "lng": 136.9181334,
    "tel": "0587-92-1600",
    "url": "http://takasaka.info.",
    "pref": "愛知県",
    "city": "扶桑町",
    "category": "tokuyou",
    "serviceType": "介護老人福祉施設",
    "capacity": 0,
    "openDays": [],
    "openDaysNote": ""
  },
  {
    "id": "2375701360",
    "name": "特別養護老人ホームくすのきの里",
    "kana": "トクベツヨウゴロウジンホームクスノキノサト",
    "address": "愛知県知多郡武豊町字梨子ノ木475番特別養護老人ホーム　くすのきの里 特別養護老人ホーム　くすのきの里",
    "lat": 34.8660875,
    "lng": 136.8967496,
    "tel": "0569-74-1688",
    "url": "http://www.fukujuen.or.jp",
    "pref": "愛知県",
    "city": "武豊町",
    "category": "tokuyou",
    "serviceType": "介護老人福祉施設",
    "capacity": 120,
    "openDays": [],
    "openDaysNote": ""
  },
  {
    "id": "2375700214",
    "name": "特別養護老人ホーム武豊福寿園",
    "kana": "トクベツヨウゴロウジンホーム　タケトヨフクジュエン",
    "address": "愛知県知多郡武豊町大字東大高字鎮守33-2",
    "lat": 34.8337575,
    "lng": 136.9050857,
    "tel": "0569-72-8811",
    "url": "http://www.fukujuen.or.jp",
    "pref": "愛知県",
    "city": "武豊町",
    "category": "tokuyou",
    "serviceType": "介護老人福祉施設",
    "capacity": 80,
    "openDays": [],
    "openDaysNote": ""
  },
  {
    "id": "2372800074",
    "name": "特別養護老人ホーム　シルバーピアみどり苑",
    "kana": "トクベツヨウゴロウジンホーム　シルバーピアミドリエン",
    "address": "愛知県碧南市油渕町３丁目５０番地",
    "lat": 34.9066604,
    "lng": 137.0094812,
    "tel": "0566-48-7111",
    "url": "http://www.choujyukai.or.jp/midorien/",
    "pref": "愛知県",
    "city": "碧南市",
    "category": "tokuyou",
    "serviceType": "介護老人福祉施設",
    "capacity": 0,
    "openDays": [],
    "openDaysNote": ""
  },
  {
    "id": "2372800470",
    "name": "特別養護老人ホーム　川口結いの家",
    "kana": "トクベツヨウゴロウジンホーム　カワグチユイノイエ",
    "address": "愛知県碧南市川口町1丁目178番地１",
    "lat": 34.8395633,
    "lng": 136.9747134,
    "tel": "0566-46-5210",
    "url": "http://yuinoie.or.jp",
    "pref": "愛知県",
    "city": "碧南市",
    "category": "tokuyou",
    "serviceType": "介護老人福祉施設",
    "capacity": 0,
    "openDays": [],
    "openDaysNote": ""
  },
  {
    "id": "2372800819",
    "name": "特別養護老人ホームひまわり",
    "kana": "トクベツヨウゴロウジンホームヒマワリ",
    "address": "愛知県碧南市鷲林町４丁目１０９番地1",
    "lat": 34.8830276,
    "lng": 137.0232943,
    "tel": "0566-41-0865",
    "url": "http://www.aiseikan.or.jp",
    "pref": "愛知県",
    "city": "碧南市",
    "category": "tokuyou",
    "serviceType": "介護老人福祉施設",
    "capacity": 80,
    "openDays": [],
    "openDaysNote": ""
  },
  {
    "id": "2372000287",
    "name": "特別養護老人ホーム　永生苑豊橋",
    "kana": "トクベツヨウゴロウジンホーム",
    "address": "愛知県豊橋市大村町字花次８３",
    "lat": 34.7946844,
    "lng": 137.3869798,
    "tel": "0532-55-5011",
    "url": "http://www.eishin.or.jo",
    "pref": "愛知県",
    "city": "豊橋市",
    "category": "tokuyou",
    "serviceType": "介護老人福祉施設",
    "capacity": 80,
    "openDays": [],
    "openDaysNote": ""
  },
  {
    "id": "2372000295",
    "name": "特別養護老人ホーム　王寿園",
    "kana": "トクベツヨウゴロウジンホーム　オウジュエン",
    "address": "愛知県豊橋市小松原町字浜４１番地",
    "lat": 34.6690351,
    "lng": 137.43813,
    "tel": "0532-21-3511",
    "url": "http://www.oujukai.or.jp",
    "pref": "愛知県",
    "city": "豊橋市",
    "category": "tokuyou",
    "serviceType": "介護老人福祉施設",
    "capacity": 0,
    "openDays": [],
    "openDaysNote": ""
  },
  {
    "id": "2372002481",
    "name": "特別養護老人ホーム　喜寿苑",
    "kana": "トクベツヨウゴロウジンホーム　キジュエン",
    "address": "愛知県豊橋市前芝町加藤381番地２",
    "lat": 34.7794853,
    "lng": 137.3451053,
    "tel": "0532-34-1414",
    "url": "http://juhoukai.jp",
    "pref": "愛知県",
    "city": "豊橋市",
    "category": "tokuyou",
    "serviceType": "介護老人福祉施設",
    "capacity": 0,
    "openDays": [],
    "openDaysNote": ""
  },
  {
    "id": "2372001525",
    "name": "特別養護老人ホーム　第二さわらび荘",
    "kana": "トクベツヨウゴロウジンホーム　ダイニサワラビソウ",
    "address": "愛知県豊橋市野依町字山中19-17",
    "lat": 34.7009357,
    "lng": 137.4002704,
    "tel": "0532-37-1209",
    "url": "http://www.sawarabi.or.jp",
    "pref": "愛知県",
    "city": "豊橋市",
    "category": "tokuyou",
    "serviceType": "介護老人福祉施設",
    "capacity": 104,
    "openDays": [],
    "openDaysNote": ""
  },
  {
    "id": "2372004669",
    "name": "特別養護老人ホーム　谷川王寿園",
    "kana": "トクベツヨウゴロウジンホーム　タニガワオウジュエン",
    "address": "愛知県豊橋市中原町字西荒神11",
    "lat": 34.7287317,
    "lng": 137.4711078,
    "tel": "0532-41-5011",
    "url": "oujukai.or.jp/",
    "pref": "愛知県",
    "city": "豊橋市",
    "category": "tokuyou",
    "serviceType": "介護老人福祉施設",
    "capacity": 0,
    "openDays": [],
    "openDaysNote": ""
  },
  {
    "id": "2372000261",
    "name": "特別養護老人ホームさわらび荘",
    "kana": "トクベツヨウゴロウジンホームサワラビソウ",
    "address": "愛知県豊橋市浪ノ上町７番地の２",
    "lat": 34.7866817,
    "lng": 137.4222565,
    "tel": "0532-54-3501",
    "url": "http://www.sawarabi.or.jp",
    "pref": "愛知県",
    "city": "豊橋市",
    "category": "tokuyou",
    "serviceType": "介護老人福祉施設",
    "capacity": 80,
    "openDays": [],
    "openDaysNote": ""
  },
  {
    "id": "2372000303",
    "name": "特別養護老人ホーム彩幸",
    "kana": "トクベツヨウゴロウジンホームサイコウ",
    "address": "愛知県豊橋市西赤沢町字深山９５番地",
    "lat": 34.677804,
    "lng": 137.3621641,
    "tel": "0532-23-6011",
    "url": "https://saikou.or.jp",
    "pref": "愛知県",
    "city": "豊橋市",
    "category": "tokuyou",
    "serviceType": "介護老人福祉施設",
    "capacity": 84,
    "openDays": [],
    "openDaysNote": ""
  },
  {
    "id": "2372000279",
    "name": "特別養護老人ホーム作楽荘",
    "kana": "トクベツヨウゴロウジンホームサクラソウ",
    "address": "愛知県豊橋市王ヶ崎町字上原1番地145",
    "lat": 34.7383472,
    "lng": 137.3752187,
    "tel": "0532-48-5111",
    "url": "http://www.i-f.or.jp/",
    "pref": "愛知県",
    "city": "豊橋市",
    "category": "tokuyou",
    "serviceType": "介護老人福祉施設",
    "capacity": 0,
    "openDays": [],
    "openDaysNote": ""
  },
  {
    "id": "2372000253",
    "name": "豊橋市特別養護老人ホームつつじ荘",
    "kana": "トヨハシシトクベツヨウゴロウジンホームツツジソウ",
    "address": "愛知県豊橋市飯村町字高山11番地65",
    "lat": 34.7465229,
    "lng": 137.4366695,
    "tel": "0532-61-7150",
    "url": "http://www.city.toyohashi.lg.jp/2748htm",
    "pref": "愛知県",
    "city": "豊橋市",
    "category": "tokuyou",
    "serviceType": "介護老人福祉施設",
    "capacity": 0,
    "openDays": [],
    "openDaysNote": ""
  },
  {
    "id": "2372600193",
    "name": "愛厚ホーム豊川苑",
    "kana": "アイコウホームトヨカワエン",
    "address": "愛知県豊川市平尾町諏訪下73-1",
    "lat": 34.8566601,
    "lng": 137.3527124,
    "tel": "0533-87-2577",
    "url": "http://www.ai-kou.or.jp/home_toyokawa/2012022614511530.html",
    "pref": "愛知県",
    "city": "豊川市",
    "category": "tokuyou",
    "serviceType": "介護老人福祉施設",
    "capacity": 110,
    "openDays": [],
    "openDaysNote": ""
  },
  {
    "id": "2376500340",
    "name": "介護老人福祉施設　ジャルダン・リラ",
    "kana": "カイゴロウジンフクシシセツ　ジャルダン・リラ",
    "address": "愛知県豊川市萩町上近久８８番地",
    "lat": 34.8744628,
    "lng": 137.3339136,
    "tel": "0533-88-6333",
    "url": "http://www.lilas.or.jp",
    "pref": "愛知県",
    "city": "豊川市",
    "category": "tokuyou",
    "serviceType": "介護老人福祉施設",
    "capacity": 0,
    "openDays": [],
    "openDaysNote": ""
  },
  {
    "id": "2372601142",
    "name": "特別養護老人ホーム　秋桜の里",
    "kana": "トクベツヨウゴロウジンホーム　コスモスノサト",
    "address": "愛知県豊川市三蔵子町北浦4番地",
    "lat": 34.8455686,
    "lng": 137.3822795,
    "tel": "0533-80-2006",
    "url": "http://www.shinaikai1936med.or.jp/",
    "pref": "愛知県",
    "city": "豊川市",
    "category": "tokuyou",
    "serviceType": "介護老人福祉施設",
    "capacity": 0,
    "openDays": [],
    "openDaysNote": ""
  },
  {
    "id": "2376500456",
    "name": "特別養護老人ホームあおい",
    "kana": "トクベツヨウゴロウジンホームアオイ",
    "address": "豊川市宿町金山93番地",
    "lat": 34.8048879,
    "lng": 137.3630781,
    "tel": "0533-73-1000",
    "url": "http://takarakai.ec-net.jp/",
    "pref": "愛知県",
    "city": "豊川市",
    "category": "tokuyou",
    "serviceType": "介護老人福祉施設",
    "capacity": 80,
    "openDays": [],
    "openDaysNote": ""
  },
  {
    "id": "2372602645",
    "name": "特別養護老人ホームせんりょう万両",
    "kana": "トクベツヨウゴロウジンホームセンリョウマンリョウ",
    "address": "愛知県豊川市千両町上西谷75番地１",
    "lat": 34.8496286168186,
    "lng": 137.365261939287,
    "tel": "0533-83-9083",
    "url": "http://www.apatheia.jp/",
    "pref": "愛知県",
    "city": "豊川市",
    "category": "tokuyou",
    "serviceType": "介護老人福祉施設",
    "capacity": 0,
    "openDays": [],
    "openDaysNote": ""
  },
  {
    "id": "2372602967",
    "name": "特別養護老人ホームちぎり（ユニット型施設）",
    "kana": "トクベツヨウゴロウジンホームチギリ（ユニットガタシセツ）",
    "address": "愛知県豊川市篠田町四ツ家７５番地１",
    "lat": 34.8383945505931,
    "lng": 137.395229979623,
    "tel": "0533-95-0222",
    "url": "http://www.chigirisou.jp/",
    "pref": "愛知県",
    "city": "豊川市",
    "category": "tokuyou",
    "serviceType": "介護老人福祉施設",
    "capacity": null,
    "openDays": [],
    "openDaysNote": ""
  },
  {
    "id": "2372600201",
    "name": "特別養護老人ホームちぎり（多床室型施設）",
    "kana": "トクベツヨウゴロウジンホームチギリ（タショウシツガタシセツ）",
    "address": "愛知県豊川市篠田町四ツ家７５番地１",
    "lat": 34.8383993054195,
    "lng": 137.395224334183,
    "tel": "0533-95-0222",
    "url": "http://www.chigirisou.jp/",
    "pref": "愛知県",
    "city": "豊川市",
    "category": "tokuyou",
    "serviceType": "介護老人福祉施設",
    "capacity": 100,
    "openDays": [],
    "openDaysNote": ""
  },
  {
    "id": "2376500274",
    "name": "特別養護老人ホーム一晃",
    "kana": "トクベツヨウゴロウジンホームイッコウ",
    "address": "愛知県豊川市御津町赤根山田１２番地",
    "lat": 34.8205646,
    "lng": 137.3027485,
    "tel": "0533-75-2800",
    "url": "http://juhoukai.jp",
    "pref": "愛知県",
    "city": "豊川市",
    "category": "tokuyou",
    "serviceType": "介護老人福祉施設",
    "capacity": null,
    "openDays": [],
    "openDaysNote": ""
  },
  {
    "id": "2376500050",
    "name": "特別養護老人ホーム穂の国荘",
    "kana": "トクベツヨウゴロウジンホームホノクニソウ",
    "address": "愛知県豊川市西原町松葉１０－１６",
    "lat": 34.8606731,
    "lng": 137.3990359,
    "tel": "0533-93-7575",
    "url": "https://www.honokuni-toyokawa.com",
    "pref": "愛知県",
    "city": "豊川市",
    "category": "tokuyou",
    "serviceType": "介護老人福祉施設",
    "capacity": 80,
    "openDays": [],
    "openDaysNote": ""
  },
  {
    "id": "2373004320",
    "name": "ユニット型特別養護老人ホーム三九園",
    "kana": "ユニットガタトクベツヨウゴロウジンホームサンキュウエン",
    "address": "愛知県豊田市本地町９丁目６３番",
    "lat": 35.0711412,
    "lng": 137.1092521,
    "tel": "0565-41-3960",
    "url": "https://sankuro-welfare.or.jp",
    "pref": "愛知県",
    "city": "豊田市",
    "category": "tokuyou",
    "serviceType": "介護老人福祉施設",
    "capacity": 0,
    "openDays": [],
    "openDaysNote": ""
  },
  {
    "id": "2373002233",
    "name": "特別養護老人ホーム　笑いの家",
    "kana": "トクベツヨウゴロウジンホーム　ワライノイエ",
    "address": "愛知県豊田市滝脇町杉長入23",
    "lat": 35.0397415,
    "lng": 137.2481211,
    "tel": "0565-58-4165",
    "url": "http://www.midorinosato4165.or.jp",
    "pref": "愛知県",
    "city": "豊田市",
    "category": "tokuyou",
    "serviceType": "介護老人福祉施設",
    "capacity": 0,
    "openDays": [],
    "openDaysNote": ""
  },
  {
    "id": "2373000229",
    "name": "特別養護老人ホーム　豊田福寿園",
    "kana": "トクベツヨウゴロウジンホーム　トヨタフクジュエン",
    "address": "愛知県豊田市高町東山７－４６",
    "lat": 35.1320644,
    "lng": 137.1753836,
    "tel": "0565-45-8880",
    "url": "http://www.fukujuen.or.jp",
    "pref": "愛知県",
    "city": "豊田市",
    "category": "tokuyou",
    "serviceType": "介護老人福祉施設",
    "capacity": 100,
    "openDays": [],
    "openDaysNote": ""
  },
  {
    "id": "2373003900",
    "name": "特別養護老人ホームアメニティ豊田駅前",
    "kana": "トクベツヨウゴロウジンホームアメニティトヨタエキマエ",
    "address": "豊田市喜多町２丁目１７０",
    "lat": 35.0871016938613,
    "lng": 137.15848151678,
    "tel": "0565-34-0002",
    "url": "http://asahi-kai.jp/",
    "pref": "愛知県",
    "city": "豊田市",
    "category": "tokuyou",
    "serviceType": "介護老人福祉施設",
    "capacity": 0,
    "openDays": [],
    "openDaysNote": ""
  },
  {
    "id": "2373000690",
    "name": "特別養護老人ホームすばる",
    "kana": "トクベツヨウゴロウジンホームスバル",
    "address": "愛知県豊田市本新町７丁目５０番地７",
    "lat": 35.0787652,
    "lng": 137.1162005,
    "tel": "0565-32-2222",
    "url": "https://tokueikaisubaru.com",
    "pref": "愛知県",
    "city": "豊田市",
    "category": "tokuyou",
    "serviceType": "介護老人福祉施設",
    "capacity": 0,
    "openDays": [],
    "openDaysNote": ""
  },
  {
    "id": "2373000237",
    "name": "特別養護老人ホームとよた苑",
    "kana": "トクベツヨウゴロウジンホームトヨタエン",
    "address": "愛知県豊田市野見山町5丁目80番地1",
    "lat": 35.0667033463992,
    "lng": 137.187214858336,
    "tel": "0565-88-1700",
    "url": "https://douen.or.jp",
    "pref": "愛知県",
    "city": "豊田市",
    "category": "tokuyou",
    "serviceType": "介護老人福祉施設",
    "capacity": 0,
    "openDays": [],
    "openDaysNote": ""
  },
  {
    "id": "2373002100",
    "name": "特別養護老人ホームひまわりの街",
    "kana": "トクベツヨウゴロウジンホームヒマワリノマチ",
    "address": "愛知県豊田市本町本竜48",
    "lat": 35.051388,
    "lng": 137.1189649,
    "tel": "0565-51-0880",
    "url": "http://www.fukujuen.or.jp",
    "pref": "愛知県",
    "city": "豊田市",
    "category": "tokuyou",
    "serviceType": "介護老人福祉施設",
    "capacity": 80,
    "openDays": [],
    "openDaysNote": ""
  },
  {
    "id": "2373000245",
    "name": "特別養護老人ホームみなみ福寿園",
    "kana": "トクベツヨウゴロウジンホームミナミフクジュエン",
    "address": "愛知県豊田市永覚新町5-194",
    "lat": 35.035196,
    "lng": 137.136061,
    "tel": "0565-24-8888",
    "url": "http://www.fukujuen.or.jp",
    "pref": "愛知県",
    "city": "豊田市",
    "category": "tokuyou",
    "serviceType": "介護老人福祉施設",
    "capacity": 100,
    "openDays": [],
    "openDaysNote": ""
  },
  {
    "id": "2373004346",
    "name": "特別養護老人ホーム三九園",
    "kana": "トクベツヨウゴロウジンホームサンキュウエン",
    "address": "愛知県豊田市本地町９丁目６３番",
    "lat": 35.0711412,
    "lng": 137.1092521,
    "tel": "0565-41-3960",
    "url": "https://sankuro-welfare.or.jp",
    "pref": "愛知県",
    "city": "豊田市",
    "category": "tokuyou",
    "serviceType": "介護老人福祉施設",
    "capacity": 0,
    "openDays": [],
    "openDaysNote": ""
  },
  {
    "id": "2376100182",
    "name": "特別養護老人ホーム小原安立",
    "kana": "トクベツヨウゴロウジンホームオバラアンリュウ",
    "address": "愛知県豊田市沢田町座内２２番地",
    "lat": 35.2435084666839,
    "lng": 137.271657884656,
    "tel": "0565-66-0012",
    "url": "http://www.syoutokukai.or.jp/obara/",
    "pref": "愛知県",
    "city": "豊田市",
    "category": "tokuyou",
    "serviceType": "介護老人福祉施設",
    "capacity": 0,
    "openDays": [],
    "openDaysNote": ""
  },
  {
    "id": "2373002191",
    "name": "特別養護老人ホーム第２とよた苑",
    "kana": "トクベツヨウゴロウジンホームダイ２トヨタエン",
    "address": "愛知県豊田市大清水町大清水１７９－１",
    "lat": 35.1113351,
    "lng": 137.1436658,
    "tel": "0565-43-0672",
    "url": "https://douen.or.jp",
    "pref": "愛知県",
    "city": "豊田市",
    "category": "tokuyou",
    "serviceType": "介護老人福祉施設",
    "capacity": 0,
    "openDays": [],
    "openDaysNote": ""
  },
  {
    "id": "2376200206",
    "name": "特別養護老人ホーム巴の里",
    "kana": "トクベツヨウゴロウジンホームトモエノサト",
    "address": "愛知県豊田市岩神町仲田38番地5",
    "lat": 35.1305579,
    "lng": 137.306177,
    "tel": "0565-61-2002",
    "url": "https://fukushi.higashikamo.or.jp/",
    "pref": "愛知県",
    "city": "豊田市",
    "category": "tokuyou",
    "serviceType": "介護老人福祉施設",
    "capacity": 0,
    "openDays": [],
    "openDaysNote": ""
  },
  {
    "id": "2373001219",
    "name": "特別養護老人ホーム豊水園",
    "kana": "トクベツヨウゴロウジンホームホウスイエン",
    "address": "愛知県豊田市今町5丁目40番地1",
    "lat": 35.0422468,
    "lng": 137.1713378,
    "tel": "0565-74-4165",
    "url": "http://www.midorinosato4165.or.jp",
    "pref": "愛知県",
    "city": "豊田市",
    "category": "tokuyou",
    "serviceType": "介護老人福祉施設",
    "capacity": 80,
    "openDays": [],
    "openDaysNote": ""
  },
  {
    "id": "2373001383",
    "name": "特別養護老人ホーム豊田みのり園",
    "kana": "トクベツヨウゴロウジンホ―ムトヨタミノリエン",
    "address": "愛知県豊田市中根町男松79番地",
    "lat": 35.0278504,
    "lng": 137.0853489,
    "tel": "0565-51-0676",
    "url": "http://www.hm7.aitai.ne.jp/~minorien/",
    "pref": "愛知県",
    "city": "豊田市",
    "category": "tokuyou",
    "serviceType": "介護老人福祉施設",
    "capacity": 0,
    "openDays": [],
    "openDaysNote": ""
  },
  {
    "id": "2374800106",
    "name": "特別養護老人ホーム　勅使苑",
    "kana": "トクベツヨウゴロウジンホーム　チョクシエン",
    "address": "愛知県豊明市沓掛町勅使８番地１０５",
    "lat": 35.0819323,
    "lng": 137.01724,
    "tel": "0562-95-0200",
    "url": "https://www.chokushikai.or.jp",
    "pref": "愛知県",
    "city": "豊明市",
    "category": "tokuyou",
    "serviceType": "介護老人福祉施設",
    "capacity": 0,
    "openDays": [],
    "openDaysNote": ""
  },
  {
    "id": "2374800098",
    "name": "特別養護老人ホーム　豊明苑",
    "kana": "トクベツヨウゴロウジンホーム　トヨアケエン",
    "address": "愛知県豊明市栄町大根1-143",
    "lat": 35.0472199,
    "lng": 136.9793527,
    "tel": "0562-98-2121",
    "url": "http://www.toyoakeen.fukuden-kai.or.jp/",
    "pref": "愛知県",
    "city": "豊明市",
    "category": "tokuyou",
    "serviceType": "介護老人福祉施設",
    "capacity": 0,
    "openDays": [],
    "openDaysNote": ""
  },
  {
    "id": "2374800494",
    "name": "特別養護老人ホーム第二勅使苑",
    "kana": "トクベツヨウゴロウジンホーム　ダイニチョクシエン",
    "address": "豊明市沓掛町勅使8番地51特別養護老人ホーム第二勅使苑 特別養護老人ホーム第二勅使苑",
    "lat": 35.0821163796117,
    "lng": 137.017808588885,
    "tel": "0562-95-0280",
    "url": "http://chokushikai.or.jp/",
    "pref": "愛知県",
    "city": "豊明市",
    "category": "tokuyou",
    "serviceType": "介護老人福祉施設",
    "capacity": 60,
    "openDays": [],
    "openDaysNote": ""
  },
  {
    "id": "2375200124",
    "name": "特別養護老人ホームあいせの里",
    "kana": "トクベツヨウゴロウジンホームアイセノサト",
    "address": "愛知県北名古屋市六ツ師大島１５０番地",
    "lat": 35.2521458,
    "lng": 136.9010402,
    "tel": "0568-22-4611",
    "url": "https://nishikasugai-fukushikai.or.jp",
    "pref": "愛知県",
    "city": "北名古屋市",
    "category": "tokuyou",
    "serviceType": "介護老人福祉施設",
    "capacity": 80,
    "openDays": [],
    "openDaysNote": ""
  },
  {
    "id": "2377400821",
    "name": "特別養護老人ホームかもだの里（ユニット型）",
    "kana": "トクベツヨウゴロウジンホームカモダノサト",
    "address": "愛知県北名古屋市九之坪笹塚１０９番地",
    "lat": 35.2374965,
    "lng": 136.876771,
    "tel": "0568-48-6611",
    "url": "https://nishikasugai-fukushikai.or.jp",
    "pref": "愛知県",
    "city": "北名古屋市",
    "category": "tokuyou",
    "serviceType": "介護老人福祉施設",
    "capacity": 60,
    "openDays": [],
    "openDaysNote": ""
  },
  {
    "id": "2377400839",
    "name": "特別養護老人ホームかもだの里（従来型）",
    "kana": "トクベツヨウゴロウジンホームカモダノサト",
    "address": "愛知県北名古屋市九之坪笹塚109番地",
    "lat": 35.2374965,
    "lng": 136.876771,
    "tel": "0568-48-6611",
    "url": "https://nishikasugai-fukushikai.or.jp",
    "pref": "愛知県",
    "city": "北名古屋市",
    "category": "tokuyou",
    "serviceType": "介護老人福祉施設",
    "capacity": 40,
    "openDays": [],
    "openDaysNote": ""
  },
  {
    "id": "2375200132",
    "name": "特別養護老人ホーム五条の里",
    "kana": "トクベツヨウゴロウジンホーム　ゴジョウノサト",
    "address": "北名古屋市鍜治ヶ一色鍜治前10番地",
    "lat": 35.2595579,
    "lng": 136.8598387,
    "tel": "0568-21-5511",
    "url": "https://nishikasugai-fukushikai.or.jp/index.html",
    "pref": "愛知県",
    "city": "北名古屋市",
    "category": "tokuyou",
    "serviceType": "介護老人福祉施設",
    "capacity": 0,
    "openDays": [],
    "openDaysNote": ""
  },
  {
    "id": "2371100559",
    "name": "特別養護老人ホーム　こすも",
    "kana": "トクベツヨウゴロウジンホーム　コスモ",
    "address": "名古屋市港区木場町２番地の125",
    "lat": 35.1046396,
    "lng": 136.8982654,
    "tel": "052-692-0070",
    "url": "http://www.seisho-fukushi.org",
    "pref": "愛知県",
    "city": "名古屋市港区",
    "category": "tokuyou",
    "serviceType": "介護老人福祉施設",
    "capacity": 100,
    "openDays": [],
    "openDaysNote": ""
  },
  {
    "id": "2371100153",
    "name": "特別養護老人ホーム　サービスネットワーク南陽",
    "kana": "トクベツヨウゴロウジンホーム　サービスネットワーク　ナンヨウ",
    "address": "名古屋市港区新茶屋１丁目１７０１",
    "lat": 35.10927,
    "lng": 136.8078089,
    "tel": "052-303-0152",
    "url": "http://www.kayoukai.net",
    "pref": "愛知県",
    "city": "名古屋市港区",
    "category": "tokuyou",
    "serviceType": "介護老人福祉施設",
    "capacity": 0,
    "openDays": [],
    "openDaysNote": ""
  },
  {
    "id": "2371100401",
    "name": "特別養護老人ホーム　なごやかハウス丸池",
    "kana": "トクベツヨウゴロウジンホーム　ナゴヤカハウスマルイケ",
    "address": "名古屋市港区丸池町1丁目3番地",
    "lat": 35.1181786,
    "lng": 136.870504,
    "tel": "052-659-7730",
    "url": "http://nagoyaka.or.jp/",
    "pref": "愛知県",
    "city": "名古屋市港区",
    "category": "tokuyou",
    "serviceType": "介護老人福祉施設",
    "capacity": 80,
    "openDays": [],
    "openDaysNote": ""
  },
  {
    "id": "2371100500",
    "name": "特別養護老人ホーム　なごやかハウス神宮寺",
    "kana": "トクベツヨウゴロウジンホーム　ナゴヤカハウスジングウジ",
    "address": "名古屋市港区神宮寺二丁目２０１番地",
    "lat": 35.0976475,
    "lng": 136.8460025,
    "tel": "052-389-0170",
    "url": "https://nagoyaka.or.jp/pages/417/",
    "pref": "愛知県",
    "city": "名古屋市港区",
    "category": "tokuyou",
    "serviceType": "介護老人福祉施設",
    "capacity": 0,
    "openDays": [],
    "openDaysNote": ""
  },
  {
    "id": "2371100120",
    "name": "特別養護老人ホーム　港寿楽苑",
    "kana": "トクベツヨウゴロウジンホーム　ミナトジュラクエン",
    "address": "愛知県名古屋市港区寛政町6丁目10番地",
    "lat": 35.1063829,
    "lng": 136.8595394,
    "tel": "052-381-4122",
    "url": "http://www.shoumei.or.jp",
    "pref": "愛知県",
    "city": "名古屋市港区",
    "category": "tokuyou",
    "serviceType": "介護老人福祉施設",
    "capacity": 60,
    "openDays": [],
    "openDaysNote": ""
  },
  {
    "id": "2371100146",
    "name": "特別養護老人ホームなごやかハウス野跡",
    "kana": "トクベツヨウゴロウジンホーム　ナゴヤカハウスノゼキ",
    "address": "愛知県名古屋市港区野跡五丁目2番3号",
    "lat": 35.0832661,
    "lng": 136.8541714,
    "tel": "052-384-7483",
    "url": "http://www.nagoyaka.or.jp/",
    "pref": "愛知県",
    "city": "名古屋市港区",
    "category": "tokuyou",
    "serviceType": "介護老人福祉施設",
    "capacity": 80,
    "openDays": [],
    "openDaysNote": ""
  },
  {
    "id": "2371100872",
    "name": "特別養護老人ホーム希望の郷",
    "kana": "トクベツヨウゴロウジンホームキボウノサト",
    "address": "名古屋市港区新茶屋2丁目1501番地",
    "lat": 35.1063008,
    "lng": 136.8061842,
    "tel": "052-304-1001",
    "url": "http://www.ipc-tokai.or.jp/~kibou/index.htm",
    "pref": "愛知県",
    "city": "名古屋市港区",
    "category": "tokuyou",
    "serviceType": "介護老人福祉施設",
    "capacity": 0,
    "openDays": [],
    "openDaysNote": ""
  },
  {
    "id": "2371100138",
    "name": "特別養護老人ホーム幸楽荘",
    "kana": "トクベツヨウゴロウジンホームコウラクソウ",
    "address": "愛知県名古屋市港区小川一丁目17番地",
    "lat": 35.0981299,
    "lng": 136.8182279,
    "tel": "052-301-1001",
    "url": "http://daikoufukushikai.jp",
    "pref": "愛知県",
    "city": "名古屋市港区",
    "category": "tokuyou",
    "serviceType": "介護老人福祉施設",
    "capacity": 100,
    "openDays": [],
    "openDaysNote": ""
  },
  {
    "id": "2371102381",
    "name": "特別養護老人ホーム東茶屋御苑",
    "kana": "トクベツヨウゴロウジンホームヒガシチャヤギョエン",
    "address": "名古屋市港区東茶屋二丁目401番地の1",
    "lat": 35.1059505694401,
    "lng": 136.827280660351,
    "tel": "523559812",
    "url": "http://www.aiko-fukushikai.jp/",
    "pref": "愛知県",
    "city": "名古屋市港区",
    "category": "tokuyou",
    "serviceType": "介護老人福祉施設",
    "capacity": 0,
    "openDays": [],
    "openDaysNote": ""
  },
  {
    "id": "2371300100",
    "name": "社会福祉法人愛知玉葉会　第二尾張荘",
    "kana": "シャカイフクシホウジン　アイチギョクヨウカイ　ダイニオワリソウ",
    "address": "愛知県名古屋市守山区川東山３３２１",
    "lat": 35.2199186,
    "lng": 136.9813796,
    "tel": "052-794-1611",
    "url": "http://www.gyokuyokai.com",
    "pref": "愛知県",
    "city": "名古屋市守山区",
    "category": "tokuyou",
    "serviceType": "介護老人福祉施設",
    "capacity": 140,
    "openDays": [],
    "openDaysNote": ""
  },
  {
    "id": "2371301298",
    "name": "守牧苑",
    "kana": "モリマキエン",
    "address": "名古屋市守山区守牧町１２８－５",
    "lat": 35.200593,
    "lng": 136.9535013,
    "tel": "052-795-5400",
    "url": "http://www.fukuseikai.jp/",
    "pref": "愛知県",
    "city": "名古屋市守山区",
    "category": "tokuyou",
    "serviceType": "介護老人福祉施設",
    "capacity": 80,
    "openDays": [],
    "openDaysNote": ""
  },
  {
    "id": "2371304664",
    "name": "特別養護老人ホーム　しだみの里",
    "kana": "トクベツヨウゴロウジンホーム　シダミノサト",
    "address": "愛知県名古屋市守山区上志段味東谷2074番3",
    "lat": 35.2511669,
    "lng": 137.04263,
    "tel": "052-739-1155",
    "url": "http://www.aiseifukusikai.jp",
    "pref": "愛知県",
    "city": "名古屋市守山区",
    "category": "tokuyou",
    "serviceType": "介護老人福祉施設",
    "capacity": null,
    "openDays": [],
    "openDaysNote": ""
  },
  {
    "id": "2371300134",
    "name": "特別養護老人ホーム　ユートピア第２つくも",
    "kana": "トクベツヨウゴロウジンホーム　ユートピアダイ２ツクモ",
    "address": "愛知県名古屋市守山区鼓が丘一丁目１１５番地",
    "lat": 35.2290043,
    "lng": 137.0100567,
    "tel": "052-739-1677",
    "url": "http://www.tsukumokai.jp",
    "pref": "愛知県",
    "city": "名古屋市守山区",
    "category": "tokuyou",
    "serviceType": "介護老人福祉施設",
    "capacity": 96,
    "openDays": [],
    "openDaysNote": ""
  },
  {
    "id": "2371302858",
    "name": "特別養護老人ホーム　ユートピア第２つくもユニット",
    "kana": "トクベツヨウゴロウジンホーム　ユートピアダイ２ツクモユニット",
    "address": "愛知県名古屋市守山区鼓が丘一丁目１１５番地",
    "lat": 35.2290043,
    "lng": 137.0100567,
    "tel": "052-739-1677",
    "url": "http://www.tsukumokai.jp",
    "pref": "愛知県",
    "city": "名古屋市守山区",
    "category": "tokuyou",
    "serviceType": "介護老人福祉施設",
    "capacity": 60,
    "openDays": [],
    "openDaysNote": ""
  },
  {
    "id": "2371300118",
    "name": "特別養護老人ホーム　瀬古第一マザー園",
    "kana": "トクベツヨウゴロウジンホーム　セコダイイチマザーエン",
    "address": "名古屋市守山区瀬古２－３０１",
    "lat": 35.2133434,
    "lng": 136.9344777,
    "tel": "052-792-5556",
    "url": "http://www.nagoya-lighthouse.jp/mather/index.html",
    "pref": "愛知県",
    "city": "名古屋市守山区",
    "category": "tokuyou",
    "serviceType": "介護老人福祉施設",
    "capacity": 60,
    "openDays": [],
    "openDaysNote": ""
  },
  {
    "id": "2371304185",
    "name": "特別養護老人ホームオーネスト紫花",
    "kana": "トクベツヨウゴロウジンホームオーネストキキョウ",
    "address": "愛知県名古屋市守山区森孝二丁目225番地",
    "lat": 35.1939610138788,
    "lng": 137.006642156436,
    "tel": "052-737-7766",
    "url": "http://www.shisuikai.or.jp/",
    "pref": "愛知県",
    "city": "名古屋市守山区",
    "category": "tokuyou",
    "serviceType": "介護老人福祉施設",
    "capacity": 100,
    "openDays": [],
    "openDaysNote": ""
  },
  {
    "id": "2371304011",
    "name": "特別養護老人ホーム愛の里名古屋東",
    "kana": "トクベツヨウゴロウジンホームアイノサトナゴヤヒガシ",
    "address": "愛知県名古屋市守山区大字上志段味字川原156番特別養護老人ホーム愛の里名古屋東 特別養護老人ホーム愛の里名古屋東",
    "lat": 35.2561435,
    "lng": 137.0308951,
    "tel": "052-736-5151",
    "url": "https://ainosato-nagoya.jp/",
    "pref": "愛知県",
    "city": "名古屋市守山区",
    "category": "tokuyou",
    "serviceType": "介護老人福祉施設",
    "capacity": 100,
    "openDays": [],
    "openDaysNote": ""
  },
  {
    "id": "2371300126",
    "name": "特別養護老人ホーム建国ビハーラ",
    "kana": "トクベツヨウゴロウジンホームケンコクビハーラ",
    "address": "愛知県名古屋市守山区青葉台２０６番地",
    "lat": 35.2258543,
    "lng": 136.9940894,
    "tel": "052-736-5776",
    "url": "http://www.kenkoku-vihara.com",
    "pref": "愛知県",
    "city": "名古屋市守山区",
    "category": "tokuyou",
    "serviceType": "介護老人福祉施設",
    "capacity": 64,
    "openDays": [],
    "openDaysNote": ""
  },
  {
    "id": "2371303757",
    "name": "特別養護老人ホーム瀬古の家",
    "kana": "トクベツヨウゴロウジンホームセコノイエ",
    "address": "瀬古東二丁目２０９－１",
    "lat": 35.2096838278122,
    "lng": 136.940160404595,
    "tel": "052-758-6201",
    "url": "http://sekonoie.jp/",
    "pref": "愛知県",
    "city": "名古屋市守山区",
    "category": "tokuyou",
    "serviceType": "介護老人福祉施設",
    "capacity": 60,
    "openDays": [],
    "openDaysNote": ""
  },
  {
    "id": "2370700086",
    "name": "特別養護老人ホームなごやかハウス福原",
    "kana": "トクベツヨウゴロウジンホームナゴヤカハウスフクハラ",
    "address": "名古屋市昭和区福原町1丁目40番地",
    "lat": 35.1571076,
    "lng": 136.9592716,
    "tel": "052-781-7703",
    "url": "",
    "pref": "愛知県",
    "city": "名古屋市昭和区",
    "category": "tokuyou",
    "serviceType": "介護老人福祉施設",
    "capacity": 0,
    "openDays": [],
    "openDaysNote": ""
  },
  {
    "id": "2370701902",
    "name": "特別養護老人ホーム川名山荘",
    "kana": "トクベツヨウゴロウジンホームカワナサンソウ",
    "address": "愛知県名古屋市昭和区川名山町6番地の7",
    "lat": 35.1460789358623,
    "lng": 136.959469056869,
    "tel": "052-893-7301",
    "url": "http://www.meihansou.or.jp/",
    "pref": "愛知県",
    "city": "名古屋市昭和区",
    "category": "tokuyou",
    "serviceType": "介護老人福祉施設",
    "capacity": 80,
    "openDays": [],
    "openDaysNote": ""
  },
  {
    "id": "2370700094",
    "name": "特別養護老人ホーム南山の郷",
    "kana": "トクベツヨウゴロウジンホーム　ナンザンノサト",
    "address": "愛知県名古屋市昭和区南山町５番地",
    "lat": 35.1399096,
    "lng": 136.9554697,
    "tel": "052-831-3451",
    "url": "http://www.nanzan-v.com",
    "pref": "愛知県",
    "city": "名古屋市昭和区",
    "category": "tokuyou",
    "serviceType": "介護老人福祉施設",
    "capacity": 0,
    "openDays": [],
    "openDaysNote": ""
  },
  {
    "id": "2370802114",
    "name": "特別養護老人ホーム　オーネスト神穂",
    "kana": "トクベツヨウゴロウジンホーム　オーネストカミホ",
    "address": "愛知県名古屋市瑞穂区神穂町5番10号",
    "lat": 35.1140934304938,
    "lng": 136.924310685319,
    "tel": "052-602-8008",
    "url": "http://www.shisuikai.or.jp",
    "pref": "愛知県",
    "city": "名古屋市瑞穂区",
    "category": "tokuyou",
    "serviceType": "介護老人福祉施設",
    "capacity": 100,
    "openDays": [],
    "openDaysNote": ""
  },
  {
    "id": "2370800068",
    "name": "特別養護老人ホーム　なごやかハウス岳見",
    "kana": "トクベツヨウゴロウジンホーム　ナゴヤカハウスタケミ",
    "address": "名古屋市瑞穂区岳見町3丁目4番地の1",
    "lat": 35.126525,
    "lng": 136.9533119,
    "tel": "052-837-4917",
    "url": "http://www.nagoyaka.or.jp/",
    "pref": "愛知県",
    "city": "名古屋市瑞穂区",
    "category": "tokuyou",
    "serviceType": "介護老人福祉施設",
    "capacity": 0,
    "openDays": [],
    "openDaysNote": ""
  },
  {
    "id": "2370800712",
    "name": "特別養護老人ホーム　メリーホーム大喜",
    "kana": "トクベツヨウゴロウジンホーム　メリーホームダイキ",
    "address": "愛知県名古屋市瑞穂区大喜町一丁目5番5",
    "lat": 35.1253656,
    "lng": 136.9238118,
    "tel": "052-889-6820",
    "url": "http://www.merry-h.or.jp",
    "pref": "愛知県",
    "city": "名古屋市瑞穂区",
    "category": "tokuyou",
    "serviceType": "介護老人福祉施設",
    "capacity": 90,
    "openDays": [],
    "openDaysNote": ""
  },
  {
    "id": "2370801868",
    "name": "特別養護老人ホーム　美保岐の丘",
    "kana": "ミホギノオカ",
    "address": "愛知県名古屋市瑞穂区田辺通一丁目21番地",
    "lat": 35.1355487,
    "lng": 136.9445485,
    "tel": "052-833-3385",
    "url": "http://www.tomita-fukushikai.com/",
    "pref": "愛知県",
    "city": "名古屋市瑞穂区",
    "category": "tokuyou",
    "serviceType": "介護老人福祉施設",
    "capacity": 80,
    "openDays": [],
    "openDaysNote": ""
  },
  {
    "id": "2370801694",
    "name": "特別養護老人ホームシルバーピアみずほ",
    "kana": "トクベツヨウゴロウジンホームシルバーピアミズホ",
    "address": "名古屋市瑞穂区明前町15-17",
    "lat": 35.1101490273421,
    "lng": 136.922342293912,
    "tel": "052-819-0012",
    "url": "http://www.choujyukai.or.jp/mizuho/",
    "pref": "愛知県",
    "city": "名古屋市瑞穂区",
    "category": "tokuyou",
    "serviceType": "介護老人福祉施設",
    "capacity": 80,
    "openDays": [],
    "openDaysNote": ""
  },
  {
    "id": "2370402907",
    "name": "特別養護老人ホーム　オーネスト名西",
    "kana": "トクベツヨウゴロウジンホーム　オーネストメイセイ",
    "address": "愛知県名古屋市西区名西二丁目38番52号オーネスト名西 オーネスト名西",
    "lat": 35.1900941,
    "lng": 136.8800533,
    "tel": "052-523-3331",
    "url": "www.shisuikai.or.jp",
    "pref": "愛知県",
    "city": "名古屋市西区",
    "category": "tokuyou",
    "serviceType": "介護老人福祉施設",
    "capacity": 0,
    "openDays": [],
    "openDaysNote": ""
  },
  {
    "id": "2370400083",
    "name": "特別養護老人ホーム　なごやかハウス名西",
    "kana": "トクベツヨウゴロウジンホーム　ナゴヤカハウスメイセイ",
    "address": "愛知県名古屋市西区名西一丁目24番8号",
    "lat": 35.1883054,
    "lng": 136.8761814,
    "tel": "052-521-9771",
    "url": "https://nagoyaka.or.jp/",
    "pref": "愛知県",
    "city": "名古屋市西区",
    "category": "tokuyou",
    "serviceType": "介護老人福祉施設",
    "capacity": 0,
    "openDays": [],
    "openDaysNote": ""
  },
  {
    "id": "2370400067",
    "name": "特別養護老人ホーム　山田清里苑",
    "kana": "トクベツヨウゴロウジンホーム　ヤマダキヨサトエン",
    "address": "愛知県名古屋市西区五才美町２１１番地",
    "lat": 35.2191188,
    "lng": 136.8884683,
    "tel": "052-503-7581",
    "url": "http://www.kiyosatoen.or.jp/",
    "pref": "愛知県",
    "city": "名古屋市西区",
    "category": "tokuyou",
    "serviceType": "介護老人福祉施設",
    "capacity": 0,
    "openDays": [],
    "openDaysNote": ""
  },
  {
    "id": "2370400091",
    "name": "特別養護老人ホーム　庄内の里",
    "kana": "トクベツヨウゴロウジンホーム　ショウナイノサト",
    "address": "愛知県名古屋市西区中小田井２－９８特別養護老人ホーム　庄内の里 特別養護老人ホーム　庄内の里",
    "lat": 35.2127828,
    "lng": 136.8754283,
    "tel": "052-505-1165",
    "url": "http://www.aiseifukusikai.jp/facility/shonai/index.html",
    "pref": "愛知県",
    "city": "名古屋市西区",
    "category": "tokuyou",
    "serviceType": "介護老人福祉施設",
    "capacity": 0,
    "openDays": [],
    "openDaysNote": ""
  },
  {
    "id": "2370403335",
    "name": "特別養護老人ホーム　比良清里苑",
    "kana": "トクベツヨウゴロウジンホーム　ヒラキヨサトエン",
    "address": "愛知県名古屋市西区比良3丁目121番地の2",
    "lat": 35.2294679156431,
    "lng": 136.898088385285,
    "tel": "052-504-7581",
    "url": "http://kiyosatoen.or.jp/",
    "pref": "愛知県",
    "city": "名古屋市西区",
    "category": "tokuyou",
    "serviceType": "介護老人福祉施設",
    "capacity": 30,
    "openDays": [],
    "openDaysNote": ""
  },
  {
    "id": "2370403954",
    "name": "特別養護老人ホームオーネスト二方の郷",
    "kana": "トクベツヨウゴロウジンホームオーネストフタカタノサト",
    "address": "愛知県名古屋市西区二方町15番地",
    "lat": 35.2250071,
    "lng": 136.8785632,
    "tel": "052-505-2941",
    "url": "futakatanosato@shisuikai.or.jp",
    "pref": "愛知県",
    "city": "名古屋市西区",
    "category": "tokuyou",
    "serviceType": "介護老人福祉施設",
    "capacity": 0,
    "openDays": [],
    "openDaysNote": ""
  },
  {
    "id": "2370400075",
    "name": "平田豊生苑",
    "kana": "ヒラタホウセイエン",
    "address": "名古屋市西区平出町８７番地",
    "lat": 35.2277563,
    "lng": 136.8697504,
    "tel": "052-505-7201",
    "url": "http://washin.or.jp/",
    "pref": "愛知県",
    "city": "名古屋市西区",
    "category": "tokuyou",
    "serviceType": "介護老人福祉施設",
    "capacity": 84,
    "openDays": [],
    "openDaysNote": ""
  },
  {
    "id": "2370100154",
    "name": "なごやかハウス希望ケ丘",
    "kana": "ナゴヤカハウスキボウガオカ",
    "address": "愛知県名古屋市千種区希望ケ丘二丁目3番9号",
    "lat": 35.1784354,
    "lng": 136.9691149,
    "tel": "052-752-1552",
    "url": "http://nagoyaka.or.jp",
    "pref": "愛知県",
    "city": "名古屋市千種区",
    "category": "tokuyou",
    "serviceType": "介護老人福祉施設",
    "capacity": 0,
    "openDays": [],
    "openDaysNote": ""
  },
  {
    "id": "2370103059",
    "name": "特別養護老人ホーム　すないの家　千種",
    "kana": "トクベツヨウゴロウジンホーム　スナイノイエ　チクサ",
    "address": "愛知県名古屋市千種区京命１丁目11番13号",
    "lat": 35.1861067,
    "lng": 136.9829611,
    "tel": "052-773-7955",
    "url": "http://www.kanaekai.net",
    "pref": "愛知県",
    "city": "名古屋市千種区",
    "category": "tokuyou",
    "serviceType": "介護老人福祉施設",
    "capacity": 80,
    "openDays": [],
    "openDaysNote": ""
  },
  {
    "id": "2370103943",
    "name": "特別養護老人ホームすないの家京命",
    "kana": "トクベツヨウゴロウジンホームスナイノイエキョウメイ",
    "address": "愛知県名古屋市千種区京命１丁目３番４４号",
    "lat": 35.1867543,
    "lng": 136.9839116,
    "tel": "052-778-7911",
    "url": "http：//ｗｗｗ.kanaekai.net",
    "pref": "愛知県",
    "city": "名古屋市千種区",
    "category": "tokuyou",
    "serviceType": "介護老人福祉施設",
    "capacity": null,
    "openDays": [],
    "openDaysNote": ""
  },
  {
    "id": "2370100147",
    "name": "特別養護老人ホーム藤美苑",
    "kana": "フジミエン",
    "address": "愛知県名古屋市千種区鍋屋上野町字北山３５１５番地",
    "lat": 35.1806497513465,
    "lng": 136.962715741139,
    "tel": "052-722-2232",
    "url": "http://www.houkoukai.com/",
    "pref": "愛知県",
    "city": "名古屋市千種区",
    "category": "tokuyou",
    "serviceType": "介護老人福祉施設",
    "capacity": 82,
    "openDays": [],
    "openDaysNote": ""
  },
  {
    "id": "2370601540",
    "name": "介護老人福祉施設　グレイスフル上前津",
    "kana": "カイゴロウジンフクシシセツ　グレイスフルカミマエヅ",
    "address": "千代田2-24-30",
    "lat": 35.1570388,
    "lng": 136.9104454,
    "tel": "052-251-8311",
    "url": "http://www.sun-vision.or.jp",
    "pref": "愛知県",
    "city": "名古屋市中区",
    "category": "tokuyou",
    "serviceType": "介護老人福祉施設",
    "capacity": 100,
    "openDays": [],
    "openDaysNote": ""
  },
  {
    "id": "2370600179",
    "name": "特別養護老人ホーム　ユートピアつくも",
    "kana": "トクベツヨウゴロウジンホームユートピアツクモ",
    "address": "名古屋市中区新栄三丁目32番17号",
    "lat": 35.1658853,
    "lng": 136.9240189,
    "tel": "052-263-3380",
    "url": "http://www.tsukumokai.jp/",
    "pref": "愛知県",
    "city": "名古屋市中区",
    "category": "tokuyou",
    "serviceType": "介護老人福祉施設",
    "capacity": 90,
    "openDays": [],
    "openDaysNote": ""
  },
  {
    "id": "2371000957",
    "name": "特別養護老人ホーム　オーネスト戸田川",
    "kana": "トクベツヨウゴロウジンホーム　オーネストトダガワ",
    "address": "愛知県名古屋市中川区富永四丁目266番地",
    "lat": 35.1212351,
    "lng": 136.8052779,
    "tel": "052-309-3339",
    "url": "http://www.shisuikai.or.jp",
    "pref": "愛知県",
    "city": "名古屋市中川区",
    "category": "tokuyou",
    "serviceType": "介護老人福祉施設",
    "capacity": 90,
    "openDays": [],
    "openDaysNote": ""
  },
  {
    "id": "2371004462",
    "name": "特別養護老人ホーム　オーネスト堀川",
    "kana": "オーネストホリカワ",
    "address": "十一番町4丁目5番地の1",
    "lat": 38.2635267,
    "lng": 140.8716697,
    "tel": "052-651-8338",
    "url": "http://www.shisuikai.or.jp/",
    "pref": "愛知県",
    "city": "名古屋市中川区",
    "category": "tokuyou",
    "serviceType": "介護老人福祉施設",
    "capacity": 0,
    "openDays": [],
    "openDaysNote": ""
  },
  {
    "id": "2371000213",
    "name": "特別養護老人ホーム　共愛の里",
    "kana": "トクベツヨウゴロウジンホーム　キョウアイノサト",
    "address": "名古屋市中川区下之一色町字権野108-4",
    "lat": 35.1243659,
    "lng": 136.8284837,
    "tel": "052-302-8011",
    "url": "http://kyoaikai.org/kyoainosato/",
    "pref": "愛知県",
    "city": "名古屋市中川区",
    "category": "tokuyou",
    "serviceType": "介護老人福祉施設",
    "capacity": 100,
    "openDays": [],
    "openDaysNote": ""
  },
  {
    "id": "2371000783",
    "name": "特別養護老人ホーム　高杉共愛の里",
    "kana": "トクベツヨウゴロウジンホーム　タカスギキョウアイノサト",
    "address": "愛知県名古屋市中川区高杉町２６１番地",
    "lat": 35.1263296,
    "lng": 136.8419209,
    "tel": "052-365-3383",
    "url": "htt://www.kyoaikai.org/index2html",
    "pref": "愛知県",
    "city": "名古屋市中川区",
    "category": "tokuyou",
    "serviceType": "介護老人福祉施設",
    "capacity": 60,
    "openDays": [],
    "openDaysNote": ""
  },
  {
    "id": "2371000197",
    "name": "特別養護老人ホーム　松寿苑",
    "kana": "トクベツヨウゴロウジンホーム　ショウジュエン",
    "address": "愛知県名古屋市中川区中須町235番地",
    "lat": 35.1364504,
    "lng": 136.8402094,
    "tel": "052-363-0800",
    "url": "http://www.tomita-fukushikai.com",
    "pref": "愛知県",
    "city": "名古屋市中川区",
    "category": "tokuyou",
    "serviceType": "介護老人福祉施設",
    "capacity": 100,
    "openDays": [],
    "openDaysNote": ""
  },
  {
    "id": "2371003084",
    "name": "特別養護老人ホームオーネスト千の音",
    "kana": "トクベツヨウゴロウジンホームオーネストセンノネ",
    "address": "名古屋市中川区冨田町大字千音寺字下川西８３３番地オーネスト千の音 オーネスト千の音",
    "lat": 35.1631824,
    "lng": 136.8032863,
    "tel": "052-439-0333",
    "url": "http://shisuikai.or.jp",
    "pref": "愛知県",
    "city": "名古屋市中川区",
    "category": "tokuyou",
    "serviceType": "介護老人福祉施設",
    "capacity": 110,
    "openDays": [],
    "openDaysNote": ""
  },
  {
    "id": "2371000205",
    "name": "特別養護老人ホームフラワー園",
    "kana": "トクベツヨウゴロウジンホームフラワーエン",
    "address": "愛知県名古屋市中川区尾頭橋四丁目１０番１８号",
    "lat": 35.1478251,
    "lng": 136.8887338,
    "tel": "052-321-2251",
    "url": "http://flower1991.com",
    "pref": "愛知県",
    "city": "名古屋市中川区",
    "category": "tokuyou",
    "serviceType": "介護老人福祉施設",
    "capacity": 60,
    "openDays": [],
    "openDaysNote": ""
  },
  {
    "id": "2371000221",
    "name": "特別養護老人ホーム第２共愛の里",
    "kana": "トクベツヨウゴロウジンホームダイ２キョウアイノサト",
    "address": "愛知県名古屋市中川区下之一色町権野108-6",
    "lat": 35.1240131,
    "lng": 136.8287143,
    "tel": "052-302-8029",
    "url": "http://www.kyoaikai.org",
    "pref": "愛知県",
    "city": "名古屋市中川区",
    "category": "tokuyou",
    "serviceType": "介護老人福祉施設",
    "capacity": 100,
    "openDays": [],
    "openDaysNote": ""
  },
  {
    "id": "2371002037",
    "name": "特別養護老人ホーム豊治共愛の里",
    "kana": "トクベツヨウゴロウジンホームトヨハルキョウアイノサト",
    "address": "愛知県名古屋市中川区水里五丁目７５７番地",
    "lat": 35.1258594,
    "lng": 136.8018862,
    "tel": "052-309-3150",
    "url": "http://www.kyoaikai.org",
    "pref": "愛知県",
    "city": "名古屋市中川区",
    "category": "tokuyou",
    "serviceType": "介護老人福祉施設",
    "capacity": 0,
    "openDays": [],
    "openDaysNote": ""
  },
  {
    "id": "2370503688",
    "name": "介護老人福祉施設　ジョイフル名駅",
    "kana": "カイゴロウジンフクシシセツ　ジョイフルメイエキ",
    "address": "愛知県名古屋市中村区名駅五丁目25番12号",
    "lat": 35.1685233,
    "lng": 136.8915837,
    "tel": "052-533-9321",
    "url": "https://sun-vision.or.jp",
    "pref": "愛知県",
    "city": "名古屋市中村区",
    "category": "tokuyou",
    "serviceType": "介護老人福祉施設",
    "capacity": 0,
    "openDays": [],
    "openDaysNote": ""
  },
  {
    "id": "2370503860",
    "name": "特別養護老人ホーム　アカデミックケアホーム太閤",
    "kana": "トクベツヨウゴロウジンホーム　アカデミックケアホームタイコウ",
    "address": "愛知県名古屋市中村区日吉町２２番地の２",
    "lat": 35.1719614647995,
    "lng": 136.865476176057,
    "tel": "０５２－５２６－２３０３",
    "url": "http://www.kiwakai.org",
    "pref": "愛知県",
    "city": "名古屋市中村区",
    "category": "tokuyou",
    "serviceType": "介護老人福祉施設",
    "capacity": 0,
    "openDays": [],
    "openDaysNote": ""
  },
  {
    "id": "2370500502",
    "name": "特別養護老人ホーム　なごやかハウス名楽",
    "kana": "トクベツヨウゴロウジンホーム　ナゴヤカハウスメイラク",
    "address": "名古屋市中村区名楽町4丁目7番地の18",
    "lat": 35.1695699834196,
    "lng": 136.862847779098,
    "tel": "052-486-1931",
    "url": "http://www.nagoyaka.or.jp/",
    "pref": "愛知県",
    "city": "名古屋市中村区",
    "category": "tokuyou",
    "serviceType": "介護老人福祉施設",
    "capacity": 0,
    "openDays": [],
    "openDaysNote": ""
  },
  {
    "id": "2370503076",
    "name": "特別養護老人ホームアメニティ城西",
    "kana": "トクベツヨウゴロウジンホームアメニティジョウサイ",
    "address": "愛知県名古屋市中村区牛田通１丁目１番５",
    "lat": 35.1593019858555,
    "lng": 136.865024365082,
    "tel": "052-471-2220",
    "url": "http://asahi-kai.jp/",
    "pref": "愛知県",
    "city": "名古屋市中村区",
    "category": "tokuyou",
    "serviceType": "介護老人福祉施設",
    "capacity": 120,
    "openDays": [],
    "openDaysNote": ""
  },
  {
    "id": "2370500122",
    "name": "特別養護老人ホーム永生苑",
    "kana": "トクベツヨウゴロウジンホームエイセイエン",
    "address": "愛知県名古屋市中村区名駅２丁目３９番１１号",
    "lat": 35.1753048,
    "lng": 136.8829558,
    "tel": "052-541-3780",
    "url": "http://www.eishin.or.jp/eiseien/#",
    "pref": "愛知県",
    "city": "名古屋市中村区",
    "category": "tokuyou",
    "serviceType": "介護老人福祉施設",
    "capacity": 0,
    "openDays": [],
    "openDaysNote": ""
  },
  {
    "id": "2371602679",
    "name": "ユニット型　特別養護老人ホーム　第二八事苑",
    "kana": "ユニットガタ　トクベツヨウゴロウジンホーム　ダイニヤゴトエン",
    "address": "愛知県名古屋市天白区大坪二丁目701番地第二八事苑 第二八事苑",
    "lat": 35.1370884,
    "lng": 136.9792982,
    "tel": "052-861-0345",
    "url": "d2yagotoen.＠yagotofukushikai.or.jp",
    "pref": "愛知県",
    "city": "名古屋市天白区",
    "category": "tokuyou",
    "serviceType": "介護老人福祉施設",
    "capacity": 29,
    "openDays": [],
    "openDaysNote": ""
  },
  {
    "id": "2371600343",
    "name": "特別養護老人ホーム　　第二八事苑",
    "kana": "ダイニヤゴトエン",
    "address": "愛知県名古屋市天白区大坪二丁目７０１番地第二八事苑 第二八事苑",
    "lat": 35.1370884,
    "lng": 136.9792982,
    "tel": "052-861-0345",
    "url": "http://www.yagotofukushikai.or.jp/",
    "pref": "愛知県",
    "city": "名古屋市天白区",
    "category": "tokuyou",
    "serviceType": "介護老人福祉施設",
    "capacity": 50,
    "openDays": [],
    "openDaysNote": ""
  },
  {
    "id": "2371601952",
    "name": "特別養護老人ホーム　アメニティ天白",
    "kana": "トクベツヨウゴロウジンホーム　アメニティテンパク",
    "address": "愛知県名古屋市天白区土原二丁目122番地",
    "lat": 35.1178492,
    "lng": 136.9827123,
    "tel": "052-801-2100",
    "url": "http://asahi-kai.jp/",
    "pref": "愛知県",
    "city": "名古屋市天白区",
    "category": "tokuyou",
    "serviceType": "介護老人福祉施設",
    "capacity": 100,
    "openDays": [],
    "openDaysNote": ""
  },
  {
    "id": "2371600525",
    "name": "特別養護老人ホーム　千寿乃里",
    "kana": "センジュノサト",
    "address": "愛知県名古屋市天白区原三丁目1905番地",
    "lat": 35.1200408,
    "lng": 136.9910031,
    "tel": "052-847-2941",
    "url": "https://www.tenpaku-tokuyo.com/",
    "pref": "愛知県",
    "city": "名古屋市天白区",
    "category": "tokuyou",
    "serviceType": "介護老人福祉施設",
    "capacity": 60,
    "openDays": [],
    "openDaysNote": ""
  },
  {
    "id": "2371600111",
    "name": "特別養護老人ホーム　八事苑",
    "kana": "トクベツヨウゴロウジンホーム　ヤゴトエン",
    "address": "愛知県名古屋市天白区大坪二丁目801番地",
    "lat": 35.1375487905542,
    "lng": 136.980172816898,
    "tel": "052-834-3000",
    "url": "http://www.yagotofukushikai.or.jp",
    "pref": "愛知県",
    "city": "名古屋市天白区",
    "category": "tokuyou",
    "serviceType": "介護老人福祉施設",
    "capacity": 0,
    "openDays": [],
    "openDaysNote": ""
  },
  {
    "id": "2371603149",
    "name": "特別養護老人ホームケアマキス笹原",
    "kana": "トクベツヨウゴロウジンホームケアマキスササハラ",
    "address": "愛知県名古屋市天白区笹原町1701番地",
    "lat": 35.1101690743216,
    "lng": 136.961448507935,
    "tel": "052-918-3000",
    "url": "http://care-makis.org/",
    "pref": "愛知県",
    "city": "名古屋市天白区",
    "category": "tokuyou",
    "serviceType": "介護老人福祉施設",
    "capacity": 80,
    "openDays": [],
    "openDaysNote": ""
  },
  {
    "id": "2371600137",
    "name": "特別養護老人ホーム高坂苑",
    "kana": "トクベツヨウゴロウジンホームタカサカエン",
    "address": "愛知県名古屋市天白区高坂町１９７番地の１",
    "lat": 35.1080033,
    "lng": 136.9876011,
    "tel": "052-805-0100",
    "url": "http://www.takasaka.info",
    "pref": "愛知県",
    "city": "名古屋市天白区",
    "category": "tokuyou",
    "serviceType": "介護老人福祉施設",
    "capacity": 143,
    "openDays": [],
    "openDaysNote": ""
  },
  {
    "id": "2371600129",
    "name": "特別養護老人ホーム誠和荘",
    "kana": "トクベツヨウゴロウジンホームセイワソウ",
    "address": "愛知県名古屋市天白区植田山二丁目１０１番地",
    "lat": 35.1474704,
    "lng": 136.9864003,
    "tel": "052-781-2859",
    "url": "http://hakkisya.com/",
    "pref": "愛知県",
    "city": "名古屋市天白区",
    "category": "tokuyou",
    "serviceType": "介護老人福祉施設",
    "capacity": 0,
    "openDays": [],
    "openDaysNote": ""
  },
  {
    "id": "2370201671",
    "name": "特別養護老人ホーム　ジョイフル千種",
    "kana": "トクベツヨウゴロウジンホーム　ジョイフルチクサ",
    "address": "愛知県名古屋市東区葵三丁目25番23号",
    "lat": 35.1697832,
    "lng": 136.9286984,
    "tel": "052-856-8811",
    "url": "http://www.sun-vision.or.jp/",
    "pref": "愛知県",
    "city": "名古屋市東区",
    "category": "tokuyou",
    "serviceType": "介護老人福祉施設",
    "capacity": 90,
    "openDays": [],
    "openDaysNote": ""
  },
  {
    "id": "2370200087",
    "name": "特別養護老人ホーム　なごやかハウス出来町",
    "kana": "トクベツヨウゴロウジンホーム　ナゴヤカハウスデキマチ",
    "address": "愛知県名古屋市東区出来町三丁目16番11号",
    "lat": 35.1851918,
    "lng": 136.9376116,
    "tel": "052-711-8122",
    "url": "http://",
    "pref": "愛知県",
    "city": "名古屋市東区",
    "category": "tokuyou",
    "serviceType": "介護老人福祉施設",
    "capacity": 0,
    "openDays": [],
    "openDaysNote": ""
  },
  {
    "id": "2370200319",
    "name": "特別養護老人ホーム東桜の里",
    "kana": "トクベツヨウゴロウジンホームヒガシサクラノサト",
    "address": "愛知県名古屋市東区東桜二丁目22番2号",
    "lat": 35.1701649,
    "lng": 136.9160945,
    "tel": "052-939-3303",
    "url": "http://www.koujyukai.com",
    "pref": "愛知県",
    "city": "名古屋市東区",
    "category": "tokuyou",
    "serviceType": "介護老人福祉施設",
    "capacity": 100,
    "openDays": [],
    "openDaysNote": ""
  },
  {
    "id": "2371200607",
    "name": "ゆうあいの里大同",
    "kana": "ユウアイノサトダイドウ",
    "address": "愛知県名古屋市南区白水町２０番地",
    "lat": 35.075632,
    "lng": 136.9058261,
    "tel": "052-612-3030",
    "url": "http://yuuai.daidohp.or.jp/",
    "pref": "愛知県",
    "city": "名古屋市南区",
    "category": "tokuyou",
    "serviceType": "介護老人福祉施設",
    "capacity": null,
    "openDays": [],
    "openDaysNote": ""
  },
  {
    "id": "2371200227",
    "name": "特別養護老人ホーム　なごやかハウス三条",
    "kana": "トクベツヨウゴロウジンホーム　ナゴヤカハウスサンジョウ",
    "address": "名古屋市南区三条二丁目16番42号",
    "lat": 35.1062588,
    "lng": 136.9042702,
    "tel": "052-692-7781",
    "url": "https://sanjyo0.wixsite.com/sanjyo",
    "pref": "愛知県",
    "city": "名古屋市南区",
    "category": "tokuyou",
    "serviceType": "介護老人福祉施設",
    "capacity": 80,
    "openDays": [],
    "openDaysNote": ""
  },
  {
    "id": "2371202033",
    "name": "特別養護老人ホーム　内田橋清凉苑",
    "kana": "トクベツヨウゴロウジンホーム　ウチダバシセイリョウエン",
    "address": "愛知県名古屋市南区明治一丁目6番9号",
    "lat": 35.1159077,
    "lng": 136.905839,
    "tel": "052-626-5912",
    "url": "http://www.sei-ryou-kai.or.jp/uchidabashi",
    "pref": "愛知県",
    "city": "名古屋市南区",
    "category": "tokuyou",
    "serviceType": "介護老人福祉施設",
    "capacity": 100,
    "openDays": [],
    "openDaysNote": ""
  },
  {
    "id": "2371202694",
    "name": "特別養護老人ホームオレンジタウン笠寺",
    "kana": "トクベツヨウゴロウジンホームオレンジタウンカサデラ",
    "address": "愛知県名古屋市南区前浜通二丁目１番地の２",
    "lat": 35.0940117766902,
    "lng": 136.928242090738,
    "tel": "052-811-5585",
    "url": "http://orangetown.zenjokai.jp/",
    "pref": "愛知県",
    "city": "名古屋市南区",
    "category": "tokuyou",
    "serviceType": "介護老人福祉施設",
    "capacity": 80,
    "openDays": [],
    "openDaysNote": ""
  },
  {
    "id": "2371203031",
    "name": "特別養護老人ホームオレンジタウン笠寺Ⅱ",
    "kana": "トクベツヨウゴロウジンホームオレンジタウンカサデラツゥ",
    "address": "名古屋市南区前浜通２丁目１番地の３特別養護老人ホームオレンジタウン笠寺Ⅱ 特別養護老人ホームオレンジタウン笠寺Ⅱ",
    "lat": 35.0937885770434,
    "lng": 136.92815219259,
    "tel": "052-819-0550",
    "url": "http://orangetown.zenjokai.jp/index.html",
    "pref": "愛知県",
    "city": "名古屋市南区",
    "category": "tokuyou",
    "serviceType": "介護老人福祉施設",
    "capacity": 80,
    "openDays": [],
    "openDaysNote": ""
  },
  {
    "id": "2371201985",
    "name": "特別養護老人ホームケアマキス柴田",
    "kana": "トクベツヨウゴロウジンホームケアマキスシバタ",
    "address": "柴田本通四丁目15番地",
    "lat": 35.072499,
    "lng": 136.9104227,
    "tel": "052-693-5461",
    "url": "http://care-makis.org/",
    "pref": "愛知県",
    "city": "名古屋市南区",
    "category": "tokuyou",
    "serviceType": "介護老人福祉施設",
    "capacity": 85,
    "openDays": [],
    "openDaysNote": ""
  },
  {
    "id": "2371201001",
    "name": "特別養護老人ホームはるかぜ",
    "kana": "トクベツヨウゴロウジンホーム",
    "address": "名古屋市南区要町４丁目１３番地",
    "lat": 35.0758653,
    "lng": 136.9240791,
    "tel": "052-612-6600",
    "url": "http://www.haru-kaze.jp",
    "pref": "愛知県",
    "city": "名古屋市南区",
    "category": "tokuyou",
    "serviceType": "介護老人福祉施設",
    "capacity": 0,
    "openDays": [],
    "openDaysNote": ""
  },
  {
    "id": "2371200839",
    "name": "特別養護老人ホーム南生苑",
    "kana": "トクベツヨウゴロウジンホームナンセイエン",
    "address": "名古屋市南区西又兵ヱ町4丁目8番2",
    "lat": 35.0928438,
    "lng": 136.9150469,
    "tel": "052-619-5310",
    "url": "http://ryokusei-fukushi.jp",
    "pref": "愛知県",
    "city": "名古屋市南区",
    "category": "tokuyou",
    "serviceType": "介護老人福祉施設",
    "capacity": 100,
    "openDays": [],
    "openDaysNote": ""
  },
  {
    "id": "2370900843",
    "name": "グレイスフル熱田",
    "kana": "グレイスフルアツタ",
    "address": "名古屋市熱田区花表町1番26号",
    "lat": 35.1283289,
    "lng": 136.9166624,
    "tel": "052-855-2211",
    "url": "http://www.sun-vision.or.jp",
    "pref": "愛知県",
    "city": "名古屋市熱田区",
    "category": "tokuyou",
    "serviceType": "介護老人福祉施設",
    "capacity": 90,
    "openDays": [],
    "openDaysNote": ""
  },
  {
    "id": "2370901593",
    "name": "ひびのファミリア",
    "kana": "ヒビノファミリア",
    "address": "愛知県名古屋市熱田区比々野町27番地",
    "lat": 35.1340631,
    "lng": 136.8918228,
    "tel": "052-681-0311",
    "url": "http://www.kyoenfukushi.or.jp/",
    "pref": "愛知県",
    "city": "名古屋市熱田区",
    "category": "tokuyou",
    "serviceType": "介護老人福祉施設",
    "capacity": 110,
    "openDays": [],
    "openDaysNote": ""
  },
  {
    "id": "2370902021",
    "name": "特別養護老人ホーム　オーネストひびの大宝",
    "kana": "トクベツヨウゴロウジンホーム　オーネストヒビノタカラ",
    "address": "愛知県名古屋市熱田区大宝一丁目1番3号",
    "lat": 35.1337125,
    "lng": 136.8938188,
    "tel": "052-682-0333",
    "url": "http：//www.shisuikai.or.jp",
    "pref": "愛知県",
    "city": "名古屋市熱田区",
    "category": "tokuyou",
    "serviceType": "介護老人福祉施設",
    "capacity": 0,
    "openDays": [],
    "openDaysNote": ""
  },
  {
    "id": "2370900512",
    "name": "特別養護老人ホーム　オーネスト熱田の杜",
    "kana": "トクベツヨウゴロウジンホーム　オーネストアツタノモリ",
    "address": "愛知県名古屋市熱田区二番一丁目5番8号",
    "lat": 35.1256866,
    "lng": 136.8934398,
    "tel": "052-678-3388",
    "url": "http://www.shisuikai.or.jp/",
    "pref": "愛知県",
    "city": "名古屋市熱田区",
    "category": "tokuyou",
    "serviceType": "介護老人福祉施設",
    "capacity": 0,
    "openDays": [],
    "openDaysNote": ""
  },
  {
    "id": "2370901965",
    "name": "特別養護老人ホームあつたファミリア",
    "kana": "トクベツヨウゴロウジンホーム　アツタファミリア",
    "address": "愛知県名古屋市熱田区六番一丁目1番5号",
    "lat": 35.1262356,
    "lng": 136.8892722,
    "tel": "052-683-7111",
    "url": "",
    "pref": "愛知県",
    "city": "名古屋市熱田区",
    "category": "tokuyou",
    "serviceType": "介護老人福祉施設",
    "capacity": null,
    "openDays": [],
    "openDaysNote": ""
  },
  {
    "id": "2370900090",
    "name": "特別養護老人ホームなごやかハウス横田",
    "kana": "トクベツヨウゴロウジンホームナゴヤカハウスヨコタ",
    "address": "名古屋市熱田区横田二丁目3番35号",
    "lat": 35.1332919,
    "lng": 136.9087852,
    "tel": "052-671-0616",
    "url": "https://nagoyaka.or.jp/pages/117/",
    "pref": "愛知県",
    "city": "名古屋市熱田区",
    "category": "tokuyou",
    "serviceType": "介護老人福祉施設",
    "capacity": 85,
    "openDays": [],
    "openDaysNote": ""
  },
  {
    "id": "2370900660",
    "name": "特別養護老人ホーム喜多乃郷",
    "kana": "トクベツヨウゴロウジンホームキタノサト",
    "address": "名古屋市熱田区一番二丁目１２番２０号",
    "lat": 35.1236898,
    "lng": 136.8963396,
    "tel": "052-659-3758",
    "url": "http://www.kitanosato.jp/",
    "pref": "愛知県",
    "city": "名古屋市熱田区",
    "category": "tokuyou",
    "serviceType": "介護老人福祉施設",
    "capacity": 81,
    "openDays": [],
    "openDaysNote": ""
  },
  {
    "id": "2370305118",
    "name": "特別養護老人ホーム　オーネスト紫季桜",
    "kana": "オーネストシキサクラ",
    "address": "愛知県名古屋市北区楠２丁目８２２番地",
    "lat": 35.2255638,
    "lng": 136.9197403,
    "tel": "052-901-3331",
    "url": "https://www.shisuikai.or.jp/",
    "pref": "愛知県",
    "city": "名古屋市北区",
    "category": "tokuyou",
    "serviceType": "介護老人福祉施設",
    "capacity": 0,
    "openDays": [],
    "openDaysNote": ""
  },
  {
    "id": "2370303311",
    "name": "特別養護老人ホーム　オーネスト名城",
    "kana": "トクベツヨウゴロウジンホーム　オーネストメイジョウ",
    "address": "名古屋市北区名城三丁目2番12号",
    "lat": 35.1894869,
    "lng": 136.904948,
    "tel": "052-915-3330",
    "url": "http://www.shisuikai.or.jp",
    "pref": "愛知県",
    "city": "名古屋市北区",
    "category": "tokuyou",
    "serviceType": "介護老人福祉施設",
    "capacity": 120,
    "openDays": [],
    "openDaysNote": ""
  },
  {
    "id": "2370302842",
    "name": "特別養護老人ホーム　レスペート落合",
    "kana": "トクベツヨウゴロウジンホーム　レスペート　オチアイ",
    "address": "愛知県名古屋市北区落合町２８８番地",
    "lat": 35.2254568348085,
    "lng": 136.906544277814,
    "tel": "０５２－８５５－３７００",
    "url": "http://www.casa.or.jp/ochiai/",
    "pref": "愛知県",
    "city": "名古屋市北区",
    "category": "tokuyou",
    "serviceType": "介護老人福祉施設",
    "capacity": 100,
    "openDays": [],
    "openDaysNote": ""
  },
  {
    "id": "2370300218",
    "name": "特別養護老人ホーム愛生苑",
    "kana": "トクベツヨウゴロウジンホームアイセイエン",
    "address": "名古屋市北区五反田町１０８番地２",
    "lat": 35.2270523,
    "lng": 136.9116738,
    "tel": "052-901-7621",
    "url": "http://www.aiseifukusikai.jp",
    "pref": "愛知県",
    "city": "名古屋市北区",
    "category": "tokuyou",
    "serviceType": "介護老人福祉施設",
    "capacity": 0,
    "openDays": [],
    "openDaysNote": ""
  },
  {
    "id": "2370300812",
    "name": "特別養護老人ホーム楠清里苑",
    "kana": "トクベツヨウゴロウジンホームクスノキキヨサトエン",
    "address": "名古屋市北区会所町73番地の1",
    "lat": 35.239759,
    "lng": 136.9075848,
    "tel": "052-902-7581",
    "url": "kusunoki@kiyosatoen.or.jp/",
    "pref": "愛知県",
    "city": "名古屋市北区",
    "category": "tokuyou",
    "serviceType": "介護老人福祉施設",
    "capacity": 120,
    "openDays": [],
    "openDaysNote": ""
  },
  {
    "id": "2370301745",
    "name": "特別養護老人ホーム鳩の丘",
    "kana": "トクベツヨウゴロウジンホームハトノオカ",
    "address": "名古屋市北区鳩岡町１丁目７番地２０",
    "lat": 35.2071962,
    "lng": 136.9130967,
    "tel": "052-916-3755",
    "url": "http://www.aiseifukusikai.jp",
    "pref": "愛知県",
    "city": "名古屋市北区",
    "category": "tokuyou",
    "serviceType": "介護老人福祉施設",
    "capacity": 91,
    "openDays": [],
    "openDaysNote": ""
  },
  {
    "id": "2371500162",
    "name": "特別養護老人ホーム　極楽苑",
    "kana": "トクベツヨウゴロウジンホーム　ゴクラクエン",
    "address": "名古屋市名東区大針一丁目265番地",
    "lat": 35.1550509,
    "lng": 137.0239408,
    "tel": "052-701-0707",
    "url": "http://takabarifukushikai.jp",
    "pref": "愛知県",
    "city": "名古屋市名東区",
    "category": "tokuyou",
    "serviceType": "介護老人福祉施設",
    "capacity": 150,
    "openDays": [],
    "openDaysNote": ""
  },
  {
    "id": "2371500154",
    "name": "名古屋市厚生院",
    "kana": "ナゴヤシコウセイイン",
    "address": "名古屋市名東区勢子坊二丁目1501番地名古屋市厚生院 名古屋市厚生院",
    "lat": 35.1636217,
    "lng": 137.0190161,
    "tel": "052-704-8432",
    "url": "http://www.city.nagoya.jp/kurashi/shisetsu/byoin/fukushi/kouseiin",
    "pref": "愛知県",
    "city": "名古屋市名東区",
    "category": "tokuyou",
    "serviceType": "介護老人福祉施設",
    "capacity": 0,
    "openDays": [],
    "openDaysNote": ""
  },
  {
    "id": "2371400173",
    "name": "特別養護老人ホーム　オーネスト鳴海",
    "kana": "トクベツヨウゴロウジンホーム　オーネストナルミ",
    "address": "名古屋市緑区鳴海町下汐田77番地の3",
    "lat": 35.072764474736,
    "lng": 136.940185864418,
    "tel": "052-621-1133",
    "url": "http://www.shisuikai.or.jp",
    "pref": "愛知県",
    "city": "名古屋市緑区",
    "category": "tokuyou",
    "serviceType": "介護老人福祉施設",
    "capacity": 70,
    "openDays": [],
    "openDaysNote": ""
  },
  {
    "id": "2371401205",
    "name": "特別養護老人ホーム　かきつばたの里",
    "kana": "トクベツヨウゴロウジンホーム　カキツバタノサト",
    "address": "愛知県名古屋市緑区水広三丁目７２１番地特別養護老人ホーム　かきつばたの里 特別養護老人ホーム　かきつばたの里",
    "lat": 35.0764110738955,
    "lng": 136.9961288,
    "tel": "052-876-8885",
    "url": "http://www.kakitsubatanosato.com/",
    "pref": "愛知県",
    "city": "名古屋市緑区",
    "category": "tokuyou",
    "serviceType": "介護老人福祉施設",
    "capacity": 70,
    "openDays": [],
    "openDaysNote": ""
  },
  {
    "id": "2371400157",
    "name": "特別養護老人ホーム　なごやかハウス滝ノ水",
    "kana": "トクベツヨウゴロウジンホーム　ナゴヤカハウスタキノミズ",
    "address": "名古屋市緑区滝ノ水三丁目２１０３番地",
    "lat": 35.0848166,
    "lng": 136.9784635,
    "tel": "052-895-7671",
    "url": "http://nagoyaka-takinomizu.wixsite.com/taki/",
    "pref": "愛知県",
    "city": "名古屋市緑区",
    "category": "tokuyou",
    "serviceType": "介護老人福祉施設",
    "capacity": 0,
    "openDays": [],
    "openDaysNote": ""
  },
  {
    "id": "2371402419",
    "name": "特別養護老人ホーム黒石荘",
    "kana": "トクベツヨウゴロウジンホームクロイシソウ",
    "address": "黒沢台5丁目211番地",
    "lat": 35.0995712,
    "lng": 136.9965975,
    "tel": "052-876-2611",
    "url": "http://www.aiseifukusikai.jp/",
    "pref": "愛知県",
    "city": "名古屋市緑区",
    "category": "tokuyou",
    "serviceType": "介護老人福祉施設",
    "capacity": 0,
    "openDays": [],
    "openDaysNote": ""
  },
  {
    "id": "2371402559",
    "name": "特別養護老人ホーム大高",
    "kana": "トクベツヨウゴロウジンホームオオダカ",
    "address": "名古屋市緑区大高町字東千正坊６",
    "lat": 35.0692466,
    "lng": 136.9336949,
    "tel": "052-625-3314",
    "url": "http://www.nisshin-fukushi.jp",
    "pref": "愛知県",
    "city": "名古屋市緑区",
    "category": "tokuyou",
    "serviceType": "介護老人福祉施設",
    "capacity": 90,
    "openDays": [],
    "openDaysNote": ""
  },
  {
    "id": "2371400165",
    "name": "特別養護老人ホーム楓林花の里",
    "kana": "トクベツヨウゴロウジンホームフウリンハナノサト",
    "address": "名古屋市緑区大高町字上蝮池10番地",
    "lat": 35.0582091,
    "lng": 136.9548791,
    "tel": "052-625-0294",
    "url": "https://www.fuurin-hana.com",
    "pref": "愛知県",
    "city": "名古屋市緑区",
    "category": "tokuyou",
    "serviceType": "介護老人福祉施設",
    "capacity": 0,
    "openDays": [],
    "openDaysNote": ""
  },
  {
    "id": "2371403128",
    "name": "特別養護老人ホーム楓林花の里南館",
    "kana": "トクベツヨウゴロウジンホームフウリンハナノサトミナミカン",
    "address": "大高町字上蝮池10番地",
    "lat": 35.0582091,
    "lng": 136.9548791,
    "tel": "052-625-0294",
    "url": "https://www.fuurin-hana.com",
    "pref": "愛知県",
    "city": "名古屋市緑区",
    "category": "tokuyou",
    "serviceType": "介護老人福祉施設",
    "capacity": 0,
    "openDays": [],
    "openDaysNote": ""
  },
  {
    "id": "2371400140",
    "name": "特別養護老人ホーム緑生苑",
    "kana": "トクベツヨウゴロウジンホームリョクセイエン",
    "address": "愛知県名古屋市緑区大高町字上蝮池１４緑生苑 緑生苑",
    "lat": 35.0581813,
    "lng": 136.9543347,
    "tel": "052-625-1538",
    "url": "http://www.ryokusei-fukushi.jp/",
    "pref": "愛知県",
    "city": "名古屋市緑区",
    "category": "tokuyou",
    "serviceType": "介護老人福祉施設",
    "capacity": 0,
    "openDays": [],
    "openDaysNote": ""
  },
  {
    "id": "2377500323",
    "name": "特別養護老人ホーム　おふくろの家",
    "kana": "トクベツヨウゴロウジンホーム　オフクロノイエ",
    "address": "又八二丁目１２８番地１",
    "lat": 35.1239088816078,
    "lng": 136.753420922406,
    "tel": "０５６７-６７-７２０１",
    "url": "http://jyunyukai.jp/",
    "pref": "愛知県",
    "city": "弥富市",
    "category": "tokuyou",
    "serviceType": "介護老人福祉施設",
    "capacity": 80,
    "openDays": [],
    "openDaysNote": ""
  },
  {
    "id": "2377500083",
    "name": "特別養護老人ホーム長寿の里・十四山",
    "kana": "トクベツヨウゴロウジンホームチョウジュノサト・ジュウシヤマ",
    "address": "愛知県弥富市六條町大崎69番地1",
    "lat": 35.1024562,
    "lng": 136.753554,
    "tel": "0567-52-3294",
    "url": "http://www.aisankai.jp/facility/jushiyama.php",
    "pref": "愛知県",
    "city": "弥富市",
    "category": "tokuyou",
    "serviceType": "介護老人福祉施設",
    "capacity": 93,
    "openDays": [],
    "openDaysNote": ""
  },
  {
    "id": "2375600281",
    "name": "特別養護老人ホーム輪中の郷",
    "kana": "トクベツヨウゴロウジンホームワジュウノサト",
    "address": "愛知県弥富市大藤町5番地3",
    "lat": 35.1004556,
    "lng": 136.7273064,
    "tel": "0567-65-5531",
    "url": "http://yatomifukushikai.com",
    "pref": "愛知県",
    "city": "弥富市",
    "category": "tokuyou",
    "serviceType": "介護老人福祉施設",
    "capacity": 80,
    "openDays": [],
    "openDaysNote": ""
  }
]