[
  {
    "id": "1575400096",
    "name": "特別養護老人ホーム東蒲の里",
    "kana": "トクベツヨウゴロウジンホームトウカンノサト",
    "address": "新潟県東蒲原郡阿賀町津川207番地1",
    "lat": 37.6785656,
    "lng": 139.4633127,
    "tel": "0254-92-3367",
    "url": "http://www.toukan-fukushi.com",
    "pref": "新潟県",
    "city": "阿賀町",
    "category": "tokuyou",
    "serviceType": "介護老人福祉施設",
    "capacity": 0,
    "openDays": [],
    "openDaysNote": ""
  },
  {
    "id": "1575400104",
    "name": "特別養護老人ホーム東蒲の里みかわ園",
    "kana": "トクベツヨウゴロウジンホームトウカンノサトミカワエン",
    "address": "新潟県東蒲原郡阿賀町あが野南４３１９－４",
    "lat": 37.70784370866,
    "lng": 139.368384307935,
    "tel": "0254-99-3730",
    "url": "http://www.toukan-fukushi.com",
    "pref": "新潟県",
    "city": "阿賀町",
    "category": "tokuyou",
    "serviceType": "介護老人福祉施設",
    "capacity": 50,
    "openDays": [],
    "openDaysNote": ""
  },
  {
    "id": "1572100921",
    "name": "広域型特別養護老人ホームシンパシー",
    "kana": "コウイキガタトクベツヨウゴロウジンホームシンパシー",
    "address": "新潟県阿賀野市南安野町８番２０号広域型特別養護老人ホームシンパシー 広域型特別養護老人ホームシンパシー",
    "lat": 37.8367649227265,
    "lng": 139.211890030025,
    "tel": "0250-62-9190",
    "url": "http://www.hisyoufukushikai.or.jp/",
    "pref": "新潟県",
    "city": "阿賀野市",
    "category": "tokuyou",
    "serviceType": "介護老人福祉施設",
    "capacity": 0,
    "openDays": [],
    "openDaysNote": ""
  },
  {
    "id": "1572100103",
    "name": "特別養護老人ホーム　白鳥荘",
    "kana": "トクベツヨウゴロウジンホーム　ハクチョウソウ",
    "address": "新潟県阿賀野市百津８８",
    "lat": 37.8308373,
    "lng": 139.2136873,
    "tel": "0250-62-0333",
    "url": "http://www.agakita.or.jp/",
    "pref": "新潟県",
    "city": "阿賀野市",
    "category": "tokuyou",
    "serviceType": "介護老人福祉施設",
    "capacity": 0,
    "openDays": [],
    "openDaysNote": ""
  },
  {
    "id": "1572100640",
    "name": "特別養護老人ホームあがの八雲苑",
    "kana": "トクベツヨウゴロウジンホーム　アガノヤクモエン",
    "address": "新潟県阿賀野市保田５６８５番地１",
    "lat": 37.7807614,
    "lng": 139.273536,
    "tel": "0250-68-1722",
    "url": "http://www.aganoyakumoen.com",
    "pref": "新潟県",
    "city": "阿賀野市",
    "category": "tokuyou",
    "serviceType": "介護老人福祉施設",
    "capacity": 80,
    "openDays": [],
    "openDaysNote": ""
  },
  {
    "id": "1572100889",
    "name": "特別養護老人ホームかがやき苑",
    "kana": "トクベツヨウゴロウジンホームカガヤキエン",
    "address": "新潟県阿賀野市寺社甲3848番地212",
    "lat": 37.7860897332339,
    "lng": 139.234634980627,
    "tel": "０２５０-６８-７７７０",
    "url": "http://www.fukushi-kagayaki.jp/",
    "pref": "新潟県",
    "city": "阿賀野市",
    "category": "tokuyou",
    "serviceType": "介護老人福祉施設",
    "capacity": 40,
    "openDays": [],
    "openDaysNote": ""
  },
  {
    "id": "1572100897",
    "name": "特別養護老人ホームかがやき苑",
    "kana": "トクベツヨウゴロウジンホウムカガヤキエン",
    "address": "新潟県阿賀野市寺社甲3848番地212",
    "lat": 37.7860610316282,
    "lng": 139.234892419078,
    "tel": "0250-68-7770",
    "url": "http://www.fukushi-kagayaki.jp",
    "pref": "新潟県",
    "city": "阿賀野市",
    "category": "tokuyou",
    "serviceType": "介護老人福祉施設",
    "capacity": 60,
    "openDays": [],
    "openDaysNote": ""
  },
  {
    "id": "1572100111",
    "name": "特別養護老人ホームコスモスの里",
    "kana": "トクベツヨウゴロウジンホームコスモスノサト",
    "address": "新潟県阿賀野市飯森杉437-2特別養護老人ホーム　コスモスの里 特別養護老人ホーム　コスモスの里",
    "lat": 37.8379079,
    "lng": 139.1876763,
    "tel": "0250-67-9065",
    "url": "http://www.agakita.or.jp/",
    "pref": "新潟県",
    "city": "阿賀野市",
    "category": "tokuyou",
    "serviceType": "介護老人福祉施設",
    "capacity": 41,
    "openDays": [],
    "openDaysNote": ""
  },
  {
    "id": "1572100129",
    "name": "特別養護老人ホームはぐろの里",
    "kana": "トクベツヨウゴロウジンホームハグロノサト",
    "address": "新潟県阿賀野市畑江333",
    "lat": 37.8224321088952,
    "lng": 139.2925134,
    "tel": "0250-63-9871",
    "url": "http://www.agakita.or.jp",
    "pref": "新潟県",
    "city": "阿賀野市",
    "category": "tokuyou",
    "serviceType": "介護老人福祉施設",
    "capacity": 0,
    "openDays": [],
    "openDaysNote": ""
  },
  {
    "id": "1572100095",
    "name": "特別養護老人ホームやすだの里",
    "kana": "トクベツヨウゴロウジンホームヤスダノサト",
    "address": "阿賀野市保田5683番地23",
    "lat": 37.7803059,
    "lng": 139.270889,
    "tel": "0250-68-1510",
    "url": "http://www.agakita.or.jp/",
    "pref": "新潟県",
    "city": "阿賀野市",
    "category": "tokuyou",
    "serviceType": "介護老人福祉施設",
    "capacity": 54,
    "openDays": [],
    "openDaysNote": ""
  },
  {
    "id": "1571300720",
    "name": "特別養護老人ホーム　さわたりの郷",
    "kana": "トクベツヨウゴロウジンホーム　サワタリノサト",
    "address": "燕市佐渡741番地1",
    "lat": 37.6673399412,
    "lng": 138.953444473016,
    "tel": "0256-61-6631",
    "url": "http://www.tsubame-fukushi.jp/",
    "pref": "新潟県",
    "city": "燕市",
    "category": "tokuyou",
    "serviceType": "介護老人福祉施設",
    "capacity": 70,
    "openDays": [],
    "openDaysNote": ""
  },
  {
    "id": "1571300514",
    "name": "特別養護老人ホーム　太陽の園",
    "kana": "トクベツヨウゴロウジンホーム　タイヨウノソノ",
    "address": "新潟県燕市吉田法花堂740番地",
    "lat": 37.6860781,
    "lng": 138.8842595,
    "tel": "0256-92-3339",
    "url": "https://yoshihuku.com/",
    "pref": "新潟県",
    "city": "燕市",
    "category": "tokuyou",
    "serviceType": "介護老人福祉施設",
    "capacity": 90,
    "openDays": [],
    "openDaysNote": ""
  },
  {
    "id": "1571300167",
    "name": "特別養護老人ホーム　白ふじの里",
    "kana": "トクベツヨウゴロウジンホーム　シロフジノサト",
    "address": "燕市大曲２４７２－１",
    "lat": 37.6469486,
    "lng": 138.9148966,
    "tel": "0256-61-6150",
    "url": "http://www.tsubame-fukushi.jp",
    "pref": "新潟県",
    "city": "燕市",
    "category": "tokuyou",
    "serviceType": "介護老人福祉施設",
    "capacity": 95,
    "openDays": [],
    "openDaysNote": ""
  },
  {
    "id": "1571300035",
    "name": "特別養護老人ホームつばめ福寿園",
    "kana": "トクベツヨウゴロウジンホームツバメフクジュエン",
    "address": "新潟県燕市佐渡７４５番地１",
    "lat": 37.6660142,
    "lng": 138.9534611,
    "tel": "0256-62-6157",
    "url": "http://www.tsubame-fukushi.jp",
    "pref": "新潟県",
    "city": "燕市",
    "category": "tokuyou",
    "serviceType": "介護老人福祉施設",
    "capacity": 104,
    "openDays": [],
    "openDaysNote": ""
  },
  {
    "id": "1571301090",
    "name": "特別養護老人ホーム燕愛宕の園",
    "kana": "トクベツヨウゴロウジンホーム　ツバメアタゴノソノ",
    "address": "新潟県燕市東太田1066番地5",
    "lat": 37.6778317295607,
    "lng": 138.939792084656,
    "tel": "0256-61-3750",
    "url": "http://www.atago.or.jp",
    "pref": "新潟県",
    "city": "燕市",
    "category": "tokuyou",
    "serviceType": "介護老人福祉施設",
    "capacity": 100,
    "openDays": [],
    "openDaysNote": ""
  },
  {
    "id": "1571300746",
    "name": "特別養護老人ホーム吉田愛宕の園",
    "kana": "トクベツヨウゴロウジンホームヨシダアタゴノソノ",
    "address": "燕市粟生津855番地",
    "lat": 37.6497771,
    "lng": 138.8719874,
    "tel": "0256-92-9911",
    "url": "https://www.atago.or.jp",
    "pref": "新潟県",
    "city": "燕市",
    "category": "tokuyou",
    "serviceType": "介護老人福祉施設",
    "capacity": 80,
    "openDays": [],
    "openDaysNote": ""
  },
  {
    "id": "1571300621",
    "name": "特別養護老人ホーム分水の里",
    "kana": "トクベツヨウゴロウジンホームブンスイノサト",
    "address": "新潟県燕市新堀2479番地2",
    "lat": 37.6375363,
    "lng": 138.8373967,
    "tel": "0256-97-7111",
    "url": "http://www.sakurai-fukushi.or.jp",
    "pref": "新潟県",
    "city": "燕市",
    "category": "tokuyou",
    "serviceType": "介護老人福祉施設",
    "capacity": 60,
    "openDays": [],
    "openDaysNote": ""
  },
  {
    "id": "1570900090",
    "name": "特別養護老人ホーム　第二平成園",
    "kana": "トクベツヨウゴロウジンホーム　ダイニヘイセイエン",
    "address": "加茂市石川２丁目２４７３番地１",
    "lat": 37.6705018,
    "lng": 139.044414,
    "tel": "0256-41-4031",
    "url": "https://kamo-fukushikai.com/",
    "pref": "新潟県",
    "city": "加茂市",
    "category": "tokuyou",
    "serviceType": "介護老人福祉施設",
    "capacity": 0,
    "openDays": [],
    "openDaysNote": ""
  },
  {
    "id": "1570900199",
    "name": "特別養護老人ホーム第三平成園",
    "kana": "トクベツヨウゴロウジンホームダイサンヘイセイエン",
    "address": "加茂市神明町１丁目７番１号",
    "lat": 37.6608617,
    "lng": 139.0619682,
    "tel": "0256-57-1661",
    "url": "https://kamo-fukushikai.com/",
    "pref": "新潟県",
    "city": "加茂市",
    "category": "tokuyou",
    "serviceType": "介護老人福祉施設",
    "capacity": 80,
    "openDays": [],
    "openDaysNote": ""
  },
  {
    "id": "1570900082",
    "name": "特別養護老人ホーム平成園",
    "kana": "トクベツヨウゴロウジンホームヘイセイエン",
    "address": "新潟県加茂市石川2丁目2472番地1",
    "lat": 37.6707795,
    "lng": 139.0437086,
    "tel": "0256-52-1711",
    "url": "https://kamo-fukushikai.com",
    "pref": "新潟県",
    "city": "加茂市",
    "category": "tokuyou",
    "serviceType": "介護老人福祉施設",
    "capacity": 0,
    "openDays": [],
    "openDaysNote": ""
  },
  {
    "id": "1576400327",
    "name": "特別養護老人ホーム　垂水の里",
    "kana": "トクベツヨウゴロウジンホーム　タルミノサト",
    "address": "新潟県岩船郡関川村大字湯沢　728番地1",
    "lat": 38.0950834,
    "lng": 139.5739054,
    "tel": "0254-64-2322",
    "url": "http://www.murakamiiwafune.or.jp",
    "pref": "新潟県",
    "city": "関川村",
    "category": "tokuyou",
    "serviceType": "介護老人福祉施設",
    "capacity": 50,
    "openDays": [],
    "openDaysNote": ""
  },
  {
    "id": "1572300307",
    "name": "特別養護老人ホーム　あぶるま苑",
    "kana": "トクベツヨウゴロウジンホウム　アブルマエン",
    "address": "魚沼市須原1293番地",
    "lat": 37.3183799,
    "lng": 139.0183549,
    "tel": "025-798-3100",
    "url": "http://www.uofuku.net/",
    "pref": "新潟県",
    "city": "魚沼市",
    "category": "tokuyou",
    "serviceType": "介護老人福祉施設",
    "capacity": 52,
    "openDays": [],
    "openDaysNote": ""
  },
  {
    "id": "1572300273",
    "name": "特別養護老人ホームうおの園",
    "kana": "トクベツヨウゴロウジンホームウオノエン",
    "address": "新潟県魚沼市原虫野438番地4",
    "lat": 37.2148886,
    "lng": 138.9621592,
    "tel": "025-792-1096",
    "url": "https://www.uonofukushikai.or.jp/",
    "pref": "新潟県",
    "city": "魚沼市",
    "category": "tokuyou",
    "serviceType": "介護老人福祉施設",
    "capacity": null,
    "openDays": [],
    "openDaysNote": ""
  },
  {
    "id": "1572300281",
    "name": "特別養護老人ホームうかじ園",
    "kana": "トクベツヨウゴロウジンホーム　ウカジエン",
    "address": "新潟県魚沼市徳田112番地1",
    "lat": 37.2565193,
    "lng": 138.9094649,
    "tel": "025-794-6000",
    "url": "https://www.uofuku.net",
    "pref": "新潟県",
    "city": "魚沼市",
    "category": "tokuyou",
    "serviceType": "介護老人福祉施設",
    "capacity": 77,
    "openDays": [],
    "openDaysNote": ""
  },
  {
    "id": "1572300315",
    "name": "特別養護老人ホーム寿和ホーム",
    "kana": "トクベツヨウゴロウジンホームスワホーム",
    "address": "新潟県魚沼市大栃山628番地1",
    "lat": 37.3555154,
    "lng": 139.0690984,
    "tel": "025-796-3711",
    "url": "http://www.uofuku.net/",
    "pref": "新潟県",
    "city": "魚沼市",
    "category": "tokuyou",
    "serviceType": "介護老人福祉施設",
    "capacity": 0,
    "openDays": [],
    "openDaysNote": ""
  },
  {
    "id": "1572300299",
    "name": "特別養護老人ホーム美雪園",
    "kana": "トクベツヨウゴロウジンホウム　ミユキエン",
    "address": "新潟県魚沼市和田413番地1",
    "lat": 37.2785289,
    "lng": 138.9794439,
    "tel": "025-799-3000",
    "url": "http://www.uofuku.net/",
    "pref": "新潟県",
    "city": "魚沼市",
    "category": "tokuyou",
    "serviceType": "介護老人福祉施設",
    "capacity": 80,
    "openDays": [],
    "openDaysNote": ""
  },
  {
    "id": "1571100625",
    "name": "特別養護老人ホーム　ケアガーデン新幸",
    "kana": "トクベツヨウゴロウジンホーム　ケアガーデンシンコウ",
    "address": "新潟県見附市新幸町7番18号特別養護老人ホーム　ケアガーデン新幸 特別養護老人ホーム　ケアガーデン新幸",
    "lat": 37.5401052,
    "lng": 138.8925324,
    "tel": "0258-86-6775",
    "url": "http://mitsukefukushikai.com/cg/index.htm",
    "pref": "新潟県",
    "city": "見附市",
    "category": "tokuyou",
    "serviceType": "介護老人福祉施設",
    "capacity": 0,
    "openDays": [],
    "openDaysNote": ""
  },
  {
    "id": "1571100484",
    "name": "特別養護老人ホーム　フローラ",
    "kana": "トクベツヨウゴロウジンホーム　フローラ",
    "address": "新潟県見附市新幸町７番９号",
    "lat": 37.5401941,
    "lng": 138.8936295,
    "tel": "0258-89-5880",
    "url": "http://mitsukefukushikai.com",
    "pref": "新潟県",
    "city": "見附市",
    "category": "tokuyou",
    "serviceType": "介護老人福祉施設",
    "capacity": 60,
    "openDays": [],
    "openDaysNote": ""
  },
  {
    "id": "1571100575",
    "name": "特別養護老人ホーム　古志乃里",
    "kana": "トクベツヨウゴロウジンホーム　コシノサト",
    "address": "新潟県見附市緑町20番1号",
    "lat": 37.5126676,
    "lng": 138.9193695,
    "tel": "0258-62-1600",
    "url": "http://suzuran-sono.or.jp",
    "pref": "新潟県",
    "city": "見附市",
    "category": "tokuyou",
    "serviceType": "介護老人福祉施設",
    "capacity": 0,
    "openDays": [],
    "openDaysNote": ""
  },
  {
    "id": "1571100229",
    "name": "特別養護老人ホームすずらんの園",
    "kana": "トクベツヨウゴロウジンホームスズランノソノ",
    "address": "新潟県見附市田井町1715番地1",
    "lat": 37.4961973,
    "lng": 138.9292027,
    "tel": "0258-61-3520",
    "url": "https://suzuran-sono.or.jp",
    "pref": "新潟県",
    "city": "見附市",
    "category": "tokuyou",
    "serviceType": "介護老人福祉施設",
    "capacity": 50,
    "openDays": [],
    "openDaysNote": ""
  },
  {
    "id": "1571100120",
    "name": "特別養護老人ホーム大平園",
    "kana": "トクベツヨウゴロウジンホームオオヒラエン",
    "address": "見附市学校町2丁目13番31号",
    "lat": 37.5354149,
    "lng": 138.9196543,
    "tel": "0258-63-3500",
    "url": "http://mitsukefukushikai.com/",
    "pref": "新潟県",
    "city": "見附市",
    "category": "tokuyou",
    "serviceType": "介護老人福祉施設",
    "capacity": 0,
    "openDays": [],
    "openDaysNote": ""
  },
  {
    "id": "1571700085",
    "name": "特別養護老人ホーム　すもとの里",
    "kana": "トクベツヨウゴロウジンホーム　スモトノサト",
    "address": "新潟県五泉市論瀬5975番地12",
    "lat": 37.7469393,
    "lng": 139.2045791,
    "tel": "0250-43-5307",
    "url": "http://gosenfukushi.com/",
    "pref": "新潟県",
    "city": "五泉市",
    "category": "tokuyou",
    "serviceType": "介護老人福祉施設",
    "capacity": 0,
    "openDays": [],
    "openDaysNote": ""
  },
  {
    "id": "1571700861",
    "name": "特別養護老人ホーム　まおろしの郷",
    "kana": "トクベツヨウゴロウジンホーム　マオロシノサト",
    "address": "新潟県五泉市馬下1429番地",
    "lat": 37.7356659,
    "lng": 139.2600948,
    "tel": "0250-47-1070",
    "url": "http://tyutofukushikai.com/publics/index/41/",
    "pref": "新潟県",
    "city": "五泉市",
    "category": "tokuyou",
    "serviceType": "介護老人福祉施設",
    "capacity": null,
    "openDays": [],
    "openDaysNote": ""
  },
  {
    "id": "1571700077",
    "name": "特別養護老人ホーム　菅名の里",
    "kana": "トクベツヨウゴロウジンホーム　スガナノサト",
    "address": "新潟県五泉市馬下1814-19",
    "lat": 37.7367693,
    "lng": 139.2703265,
    "tel": "0250-47-1080",
    "url": "http://tyutofukushikai.com/pages/89/",
    "pref": "新潟県",
    "city": "五泉市",
    "category": "tokuyou",
    "serviceType": "介護老人福祉施設",
    "capacity": 80,
    "openDays": [],
    "openDaysNote": ""
  },
  {
    "id": "1571700804",
    "name": "特別養護老人ホームうずらはし",
    "kana": "トクベツヨウゴロウジンホームウズラハシ",
    "address": "新潟県五泉市橋田丙497-2特別養護老人ホームうずらはし 特別養護老人ホームうずらはし",
    "lat": 37.7282726,
    "lng": 139.1358305,
    "tel": "0250-48-5577",
    "url": "http://tyutofukushikai.com/publics/index/42/",
    "pref": "新潟県",
    "city": "五泉市",
    "category": "tokuyou",
    "serviceType": "介護老人福祉施設",
    "capacity": 60,
    "openDays": [],
    "openDaysNote": ""
  },
  {
    "id": "1571700473",
    "name": "特別養護老人ホーム愛松園",
    "kana": "トクベツヨウゴロウジンホームアイショウエン",
    "address": "新潟県五泉市番坂新１７４番地2",
    "lat": 37.6867091,
    "lng": 139.1965494,
    "tel": "0250-58-5725",
    "url": "http://www.sakurafukushihoken.jp/index.html",
    "pref": "新潟県",
    "city": "五泉市",
    "category": "tokuyou",
    "serviceType": "介護老人福祉施設",
    "capacity": 0,
    "openDays": [],
    "openDaysNote": ""
  },
  {
    "id": "1571700481",
    "name": "特別養護老人ホーム山王苑",
    "kana": "トクベツヨウゴロウジンホーム　サンノウエン",
    "address": "新潟県五泉市村松203番地1",
    "lat": 37.6863058,
    "lng": 139.1671071,
    "tel": "0250-58-8989",
    "url": "http://www.ibaraduka.or.jp/",
    "pref": "新潟県",
    "city": "五泉市",
    "category": "tokuyou",
    "serviceType": "介護老人福祉施設",
    "capacity": 0,
    "openDays": [],
    "openDaysNote": ""
  },
  {
    "id": "1572200275",
    "name": "特別養護老人ホーム　やはたの里",
    "kana": "トクベツヨウゴロウジンホーム　ヤハタノサト",
    "address": "新潟県佐渡市八幡町340番地",
    "lat": 37.995965,
    "lng": 138.3254006,
    "tel": "0259-51-1200",
    "url": "http://sado.sakura.ne.jp/yahatanosato/",
    "pref": "新潟県",
    "city": "佐渡市",
    "category": "tokuyou",
    "serviceType": "介護老人福祉施設",
    "capacity": 79,
    "openDays": [],
    "openDaysNote": ""
  },
  {
    "id": "1572201042",
    "name": "特別養護老人ホーム　新穂愛宕の園",
    "kana": "トクベツヨウゴロウジンホーム　ニイボアタゴノソノ",
    "address": "佐渡市新穂瓜生屋339番地2",
    "lat": 38.0162433,
    "lng": 138.4238961,
    "tel": "0259-24-6430",
    "url": "http://www.atago.or.jp/",
    "pref": "新潟県",
    "city": "佐渡市",
    "category": "tokuyou",
    "serviceType": "介護老人福祉施設",
    "capacity": 0,
    "openDays": [],
    "openDaysNote": ""
  },
  {
    "id": "1572200879",
    "name": "特別養護老人ホームスマイル赤泊",
    "kana": "トクベツヨウゴロウジンホームスマイルアカドマリ",
    "address": "新潟県佐渡市徳和６２０７番地２",
    "lat": 37.87164,
    "lng": 138.4161481,
    "tel": "0259-81-5750",
    "url": "http://sumairu.daa.jp/",
    "pref": "新潟県",
    "city": "佐渡市",
    "category": "tokuyou",
    "serviceType": "介護老人福祉施設",
    "capacity": 90,
    "openDays": [],
    "openDaysNote": ""
  },
  {
    "id": "1572200291",
    "name": "特別養護老人ホームはもちの里",
    "kana": "トクベツヨウゴロウジンホームハモチノサト",
    "address": "新潟県佐渡市羽茂本郷２５番地",
    "lat": 37.8432684369689,
    "lng": 138.312282761485,
    "tel": "0259-88-3811",
    "url": "http://hamochinosato.com",
    "pref": "新潟県",
    "city": "佐渡市",
    "category": "tokuyou",
    "serviceType": "介護老人福祉施設",
    "capacity": 80,
    "openDays": [],
    "openDaysNote": ""
  },
  {
    "id": "1572290037",
    "name": "特別養護老人ホーム朱鷺いろの杜　梅津",
    "kana": "トクベツヨウゴロウジンホームトキイロノモリウメヅ",
    "address": "新潟県佐渡市梅津2317番地1",
    "lat": 38.0954638,
    "lng": 138.4304772,
    "tel": "0259‐58‐7103",
    "url": "https://yuukikai.com/tokuyouumezu/",
    "pref": "新潟県",
    "city": "佐渡市",
    "category": "tokuyou",
    "serviceType": "介護老人福祉施設",
    "capacity": null,
    "openDays": [],
    "openDaysNote": ""
  },
  {
    "id": "1572290045",
    "name": "特別養護老人ホーム朱鷺いろの杜　梅津",
    "kana": "トクベツヨウゴロウジンホームトキイロノモリウメヅ",
    "address": "新潟県佐渡市梅津2317-1",
    "lat": 38.0954638,
    "lng": 138.4304772,
    "tel": "0259‐58-7103",
    "url": "https://yuukikai.com/tokuyouumezu/",
    "pref": "新潟県",
    "city": "佐渡市",
    "category": "tokuyou",
    "serviceType": "介護老人福祉施設",
    "capacity": null,
    "openDays": [],
    "openDaysNote": ""
  },
  {
    "id": "1572200283",
    "name": "特別養護老人ホーム真野の里",
    "kana": "トクベツヨウゴロウジンホームマノノサト",
    "address": "新潟県佐渡市真野新町624番地2",
    "lat": 37.964461,
    "lng": 138.3483282,
    "tel": "0259-55-4015",
    "url": "http://manonosato.com/",
    "pref": "新潟県",
    "city": "佐渡市",
    "category": "tokuyou",
    "serviceType": "介護老人福祉施設",
    "capacity": 0,
    "openDays": [],
    "openDaysNote": ""
  },
  {
    "id": "1572200267",
    "name": "特別養護老人ホーム大浦の里",
    "kana": "トクベツヨウゴロウジンホームオオウラノサト",
    "address": "新潟県佐渡市相川大浦５３３番地２",
    "lat": 38.0155125,
    "lng": 138.226938,
    "tel": "0259-74-0108",
    "url": "http://www.oouranosato.or.jp",
    "pref": "新潟県",
    "city": "佐渡市",
    "category": "tokuyou",
    "serviceType": "介護老人福祉施設",
    "capacity": 0,
    "openDays": [],
    "openDaysNote": ""
  },
  {
    "id": "1570401602",
    "name": "特別養護老人ホーム　おおじまの里",
    "kana": "トクベツヨウゴロウジンホーム　オオジマノサト",
    "address": "新潟県三条市大島3783番地1",
    "lat": 37.6768946983572,
    "lng": 138.967621115466,
    "tel": "0256-33-7780",
    "url": "http://kenfuku.jp/",
    "pref": "新潟県",
    "city": "三条市",
    "category": "tokuyou",
    "serviceType": "介護老人福祉施設",
    "capacity": 80,
    "openDays": [],
    "openDaysNote": ""
  },
  {
    "id": "1570400265",
    "name": "特別養護老人ホーム　つかのめの里",
    "kana": "トクベツヨウゴロウジンホーム　ツカノメノサト",
    "address": "新潟県三条市塚野目2380番地2",
    "lat": 37.6593656,
    "lng": 138.9758783,
    "tel": "0256-38-5865",
    "url": "http://kenfuku.jp",
    "pref": "新潟県",
    "city": "三条市",
    "category": "tokuyou",
    "serviceType": "介護老人福祉施設",
    "capacity": 0,
    "openDays": [],
    "openDaysNote": ""
  },
  {
    "id": "1570401057",
    "name": "特別養護老人ホームいっぷく",
    "kana": "トクベツヨウゴロウジンホームイップク",
    "address": "新潟県三条市庭月６３０番地４",
    "lat": 37.5397321042276,
    "lng": 139.113695588361,
    "tel": "0256-41-3322",
    "url": "http://fukushitada.com/",
    "pref": "新潟県",
    "city": "三条市",
    "category": "tokuyou",
    "serviceType": "介護老人福祉施設",
    "capacity": null,
    "openDays": [],
    "openDaysNote": ""
  },
  {
    "id": "1570400273",
    "name": "特別養護老人ホームうらだての里",
    "kana": "トクベツヨウゴロウジンホームウラダテノサト",
    "address": "三条市東裏館3丁目6番58号",
    "lat": 37.6429672,
    "lng": 138.9618277,
    "tel": "0256-35-8801",
    "url": "http://www.kenfuku.jp/",
    "pref": "新潟県",
    "city": "三条市",
    "category": "tokuyou",
    "serviceType": "介護老人福祉施設",
    "capacity": 80,
    "openDays": [],
    "openDaysNote": ""
  },
  {
    "id": "1570401107",
    "name": "特別養護老人ホームさかえの里",
    "kana": "トクベツヨウゴロウジンホームサカエノサト",
    "address": "新潟県三条市福島新田丁1481番地1",
    "lat": 37.5876031,
    "lng": 138.91852,
    "tel": "0256-45-0500",
    "url": "http://care-net.biz/15/sakaenosato/",
    "pref": "新潟県",
    "city": "三条市",
    "category": "tokuyou",
    "serviceType": "介護老人福祉施設",
    "capacity": 70,
    "openDays": [],
    "openDaysNote": ""
  },
  {
    "id": "1570401644",
    "name": "特別養護老人ホームさかえの里（ユニット型）",
    "kana": "トクベツヨウゴロウジンホームサカエノサト（ユニットガタ）",
    "address": "新潟県三条市福島新田丁1481番地1",
    "lat": 37.5876086,
    "lng": 138.9184978,
    "tel": "0256-45-0500",
    "url": "http://care-net.biz/15/sakaenosato/",
    "pref": "新潟県",
    "city": "三条市",
    "category": "tokuyou",
    "serviceType": "介護老人福祉施設",
    "capacity": 30,
    "openDays": [],
    "openDaysNote": ""
  },
  {
    "id": "1570400257",
    "name": "特別養護老人ホーム長和園",
    "kana": "トクベツヨウゴロウジンホームチョウワエン",
    "address": "三条市大野畑６－８６－７",
    "lat": 37.627585,
    "lng": 138.9393696,
    "tel": "0256-35-2131",
    "url": "http://www.tyouwaen.com",
    "pref": "新潟県",
    "city": "三条市",
    "category": "tokuyou",
    "serviceType": "介護老人福祉施設",
    "capacity": 0,
    "openDays": [],
    "openDaysNote": ""
  },
  {
    "id": "1571500386",
    "name": "特別養護老人ホームおおさわの里",
    "kana": "トクベツヨウゴロウジンホームオオサワノサト",
    "address": "新潟県糸魚川市大字大沢313番地1",
    "lat": 37.0815751,
    "lng": 138.028054,
    "tel": "025-566-5333",
    "url": "http://nounadachi-fukushikai.com/",
    "pref": "新潟県",
    "city": "糸魚川市",
    "category": "tokuyou",
    "serviceType": "介護老人福祉施設",
    "capacity": 80,
    "openDays": [],
    "openDaysNote": ""
  },
  {
    "id": "1571500816",
    "name": "特別養護老人ホームおおさわの里（ユニット型）",
    "kana": "トクベツヨウゴロウジンホーム　オオサワノサト　（ユニットガタ）",
    "address": "新潟県糸魚川市大字大沢313-1",
    "lat": 37.0815751,
    "lng": 138.028054,
    "tel": "025-566-5333",
    "url": "http://nounadachi-fukushikai.com/",
    "pref": "新潟県",
    "city": "糸魚川市",
    "category": "tokuyou",
    "serviceType": "介護老人福祉施設",
    "capacity": 0,
    "openDays": [],
    "openDaysNote": ""
  },
  {
    "id": "1571500105",
    "name": "特別養護老人ホームクレイドルやけやま",
    "kana": "トクベツヨウゴロウジンホウムクレイドルヤケヤマ",
    "address": "糸魚川市大字梶屋敷915番地",
    "lat": 37.0498419,
    "lng": 137.9153376,
    "tel": "025-550-2015",
    "url": "http://hisui-fukushi.com/",
    "pref": "新潟県",
    "city": "糸魚川市",
    "category": "tokuyou",
    "serviceType": "介護老人福祉施設",
    "capacity": 70,
    "openDays": [],
    "openDaysNote": ""
  },
  {
    "id": "1571500410",
    "name": "特別養護老人ホームふくがくちの里",
    "kana": "トクベツヨウゴロウジンホームフクガクチノサト",
    "address": "新潟県糸魚川市大字寺地３０７４番地",
    "lat": 37.0170552,
    "lng": 137.8114155,
    "tel": "025-562-1260",
    "url": "http://www.hisui-fukushi.com/",
    "pref": "新潟県",
    "city": "糸魚川市",
    "category": "tokuyou",
    "serviceType": "介護老人福祉施設",
    "capacity": 0,
    "openDays": [],
    "openDaysNote": ""
  },
  {
    "id": "1571500097",
    "name": "特別養護老人ホームみやまの里",
    "kana": "トクベツヨウゴロウジンホーム　ミヤマノサト",
    "address": "新潟県糸魚川市大字大野129番地",
    "lat": 37.0272212,
    "lng": 137.8611,
    "tel": "025-552-8101",
    "url": "http://nunagawa-fukushikai.com/",
    "pref": "新潟県",
    "city": "糸魚川市",
    "category": "tokuyou",
    "serviceType": "介護老人福祉施設",
    "capacity": null,
    "openDays": [],
    "openDaysNote": ""
  },
  {
    "id": "1571500774",
    "name": "特別養護老人ホームみやまの里　ユニット型",
    "kana": "トクベツヨウゴロウジンホームミヤマノサト　ユニットガタ",
    "address": "新潟県糸魚川市大字大野129番地",
    "lat": 37.0272212,
    "lng": 137.8611,
    "tel": "025-552-8101",
    "url": "http://nunagawa-fukushikai.com/",
    "pref": "新潟県",
    "city": "糸魚川市",
    "category": "tokuyou",
    "serviceType": "介護老人福祉施設",
    "capacity": null,
    "openDays": [],
    "openDaysNote": ""
  },
  {
    "id": "1571000213",
    "name": "特別養護老人ホーム　　三好園",
    "kana": "トクベツヨウゴロウジンホーム　　ミヨシエン",
    "address": "新潟県十日町市下条3丁目485番地１",
    "lat": 37.1962216,
    "lng": 138.7781083,
    "tel": "025-756-2106",
    "url": "http://fuku-tokamachi.or.jp/",
    "pref": "新潟県",
    "city": "十日町市",
    "category": "tokuyou",
    "serviceType": "介護老人福祉施設",
    "capacity": null,
    "openDays": [],
    "openDaysNote": ""
  },
  {
    "id": "1571001005",
    "name": "特別養護老人ホーム　まほろばの里川治",
    "kana": "トクベツヨウゴロウジンホームマホロバノサトカワジ",
    "address": "新潟県十日町市川治４５２５番地特別養護老人ホーム　まほろばの里川治 特別養護老人ホーム　まほろばの里川治",
    "lat": 37.1183773,
    "lng": 138.7416756,
    "tel": "０２５－７６１－７３３３",
    "url": "http://naebafukushikai.com/",
    "pref": "新潟県",
    "city": "十日町市",
    "category": "tokuyou",
    "serviceType": "介護老人福祉施設",
    "capacity": 70,
    "openDays": [],
    "openDaysNote": ""
  },
  {
    "id": "1571001120",
    "name": "特別養護老人ホーム　桜湯の里",
    "kana": "トクベツヨウゴロウジンホーム　サクラユノサト",
    "address": "新潟県十日町市田中会所前字ロ475番地1",
    "lat": 37.0547562,
    "lng": 138.695317,
    "tel": "025-763-2555",
    "url": "http://kiyotufukusikai.jimdo.com",
    "pref": "新潟県",
    "city": "十日町市",
    "category": "tokuyou",
    "serviceType": "介護老人福祉施設",
    "capacity": 0,
    "openDays": [],
    "openDaysNote": ""
  },
  {
    "id": "1571000593",
    "name": "特別養護老人ホーム　七川荘",
    "kana": "トクベツヨウゴロウジンホーム　シチカワソウ",
    "address": "新潟県十日町市上山己2739番地",
    "lat": 37.055384,
    "lng": 138.6988889,
    "tel": "025-763-2669",
    "url": "http://227.ds-subb5.com/nakasato/",
    "pref": "新潟県",
    "city": "十日町市",
    "category": "tokuyou",
    "serviceType": "介護老人福祉施設",
    "capacity": 0,
    "openDays": [],
    "openDaysNote": ""
  },
  {
    "id": "1571000585",
    "name": "特別養護老人ホームあかね園",
    "kana": "トクベツヨウゴロウジンホームアカネエン",
    "address": "新潟県十日町市高原田２７８番地１",
    "lat": 37.1707788,
    "lng": 138.7404716,
    "tel": "025-768-4565",
    "url": "http://fuku-tokamachi.or.jp/",
    "pref": "新潟県",
    "city": "十日町市",
    "category": "tokuyou",
    "serviceType": "介護老人福祉施設",
    "capacity": 0,
    "openDays": [],
    "openDaysNote": ""
  },
  {
    "id": "1571001245",
    "name": "特別養護老人ホームなの花",
    "kana": "トクベツヨウゴロウジンホームナノハナ",
    "address": "新潟県十日町市中条己2958番地1特別養護老人ホームなの花 特別養護老人ホームなの花",
    "lat": 37.1758573,
    "lng": 138.7757694,
    "tel": "025-755-5811",
    "url": "http://naebafukushikai.com/facilities/facility/20742",
    "pref": "新潟県",
    "city": "十日町市",
    "category": "tokuyou",
    "serviceType": "介護老人福祉施設",
    "capacity": 0,
    "openDays": [],
    "openDaysNote": ""
  },
  {
    "id": "1571000668",
    "name": "特別養護老人ホームほくほくの里",
    "kana": "トクベツヨウゴロウジンホームホクホクノサト",
    "address": "十日町市太平664-4",
    "lat": 37.1351671,
    "lng": 138.6220639,
    "tel": "025-597-2020",
    "url": "http://matsudaifukushikai.webes.jp/",
    "pref": "新潟県",
    "city": "十日町市",
    "category": "tokuyou",
    "serviceType": "介護老人福祉施設",
    "capacity": 0,
    "openDays": [],
    "openDaysNote": ""
  },
  {
    "id": "1571001153",
    "name": "特別養護老人ホーム桜湯の里2号館　レインボー",
    "kana": "トクベツヨウゴロウジンホーム　サクラユノサトニゴウカン　レインボー",
    "address": "十日町市田中庚42番地",
    "lat": 37.0550312,
    "lng": 138.6969169,
    "tel": "025-763-2811",
    "url": "https://kiyotufukusikai.jimdo.com/",
    "pref": "新潟県",
    "city": "十日町市",
    "category": "tokuyou",
    "serviceType": "介護老人福祉施設",
    "capacity": 85,
    "openDays": [],
    "openDaysNote": ""
  },
  {
    "id": "1571000379",
    "name": "特別養護老人ホーム三好園しんざ",
    "kana": "トクベツヨウゴロウジンホームミヨシエンシンザ",
    "address": "十日町市新座甲609番地2",
    "lat": 37.1433662,
    "lng": 138.7675505,
    "tel": "025-752-7670",
    "url": "http://fuku-tokamachi.or.jp/",
    "pref": "新潟県",
    "city": "十日町市",
    "category": "tokuyou",
    "serviceType": "介護老人福祉施設",
    "capacity": 0,
    "openDays": [],
    "openDaysNote": ""
  },
  {
    "id": "1571000601",
    "name": "特別養護老人ホーム不老閣",
    "kana": "トクベツヨウゴロウジンホームフロウカク",
    "address": "新潟県十日町市松之山1028-8",
    "lat": 37.0794401,
    "lng": 138.6092171,
    "tel": "025-596-3366",
    "url": "https://www.toukeifukushikai.com",
    "pref": "新潟県",
    "city": "十日町市",
    "category": "tokuyou",
    "serviceType": "介護老人福祉施設",
    "capacity": 50,
    "openDays": [],
    "openDaysNote": ""
  },
  {
    "id": "1575500242",
    "name": "特別養護老人ホームやすらぎの里",
    "kana": "トクベツヨウゴロウジンホームヤスラギノサト",
    "address": "新潟県三島郡出雲崎町大字川西660番地１",
    "lat": 37.5227802,
    "lng": 138.707417,
    "tel": "0258-78-3311",
    "url": "http://chuetsu-roufukukyo.com/",
    "pref": "新潟県",
    "city": "出雲崎町",
    "category": "tokuyou",
    "serviceType": "介護老人福祉施設",
    "capacity": 100,
    "openDays": [],
    "openDaysNote": ""
  },
  {
    "id": "1570800068",
    "name": "特別養護老人ホーム　小粟田の里",
    "kana": "トクベツヨウゴロウジンホーム　コワダノサト",
    "address": "新潟県小千谷市大字小粟田2732番地7",
    "lat": 37.3403908,
    "lng": 138.7957038,
    "tel": "0258-83-2100",
    "url": "https://www.ok-fukushikai.com/",
    "pref": "新潟県",
    "city": "小千谷市",
    "category": "tokuyou",
    "serviceType": "介護老人福祉施設",
    "capacity": 0,
    "openDays": [],
    "openDaysNote": ""
  },
  {
    "id": "1570800340",
    "name": "特別養護老人ホームおぢやさくら",
    "kana": "トクベツヨウゴロウジンホームオヂヤサクラ",
    "address": "小千谷市小粟田字幅2732-14",
    "lat": 37.3345166,
    "lng": 138.7929988,
    "tel": "0258-83-1786",
    "url": "http://www.ojiya-sakura.jp",
    "pref": "新潟県",
    "city": "小千谷市",
    "category": "tokuyou",
    "serviceType": "介護老人福祉施設",
    "capacity": 0,
    "openDays": [],
    "openDaysNote": ""
  },
  {
    "id": "1570800654",
    "name": "特別養護老人ホーム春風堂",
    "kana": "トクベツヨウゴロウジンホームシュンプウドウ",
    "address": "新潟県小千谷市山谷1635番地100",
    "lat": 37.3370067,
    "lng": 138.7742405,
    "tel": "0258-83-1311",
    "url": "https://care-net.biz/15/keiyuukai/",
    "pref": "新潟県",
    "city": "小千谷市",
    "category": "tokuyou",
    "serviceType": "介護老人福祉施設",
    "capacity": 0,
    "openDays": [],
    "openDaysNote": ""
  },
  {
    "id": "1570800605",
    "name": "特別養護老人ホーム雪あかり",
    "kana": "トクベツヨウゴロウジンホームユキアカリ",
    "address": "新潟県小千谷市元町10番1号",
    "lat": 37.3086551,
    "lng": 138.7997729,
    "tel": "0258-89-6711",
    "url": "https://naebafukushikai.com",
    "pref": "新潟県",
    "city": "小千谷市",
    "category": "tokuyou",
    "serviceType": "介護老人福祉施設",
    "capacity": 0,
    "openDays": [],
    "openDaysNote": ""
  },
  {
    "id": "1570300812",
    "name": "介護老人福祉施設　和久楽",
    "kana": "カイゴロウジンフクシシセツ　ワクラ",
    "address": "新潟県上越市五智4-7-21",
    "lat": 37.1709724,
    "lng": 138.2256467,
    "tel": "025-539-0208",
    "url": "https://www.fuchukai.jp/facility/wakura/",
    "pref": "新潟県",
    "city": "上越市",
    "category": "tokuyou",
    "serviceType": "介護老人福祉施設",
    "capacity": 0,
    "openDays": [],
    "openDaysNote": ""
  },
  {
    "id": "1570302511",
    "name": "太陽と緑の家今泉",
    "kana": "タイヨウトミドリノイエイマイズミ",
    "address": "新潟県上越市大字今泉字西蓮池1310-8",
    "lat": 37.0940509679656,
    "lng": 138.248337895198,
    "tel": "025-521-0334",
    "url": "https://syoutoukai.jp",
    "pref": "新潟県",
    "city": "上越市",
    "category": "tokuyou",
    "serviceType": "介護老人福祉施設",
    "capacity": 0,
    "openDays": [],
    "openDaysNote": ""
  },
  {
    "id": "1570303717",
    "name": "特別養護老人ホーム　サンクスレルヒの森",
    "kana": "トクベツヨウゴロウジンホーム　サンクスレルヒノモリ",
    "address": "新潟県上越市大貫二丁目１６番２３号",
    "lat": 37.1061634871001,
    "lng": 138.231272685319,
    "tel": "025-530-6200",
    "url": "http://www.minna-de-ikiru.org",
    "pref": "新潟県",
    "city": "上越市",
    "category": "tokuyou",
    "serviceType": "介護老人福祉施設",
    "capacity": 0,
    "openDays": [],
    "openDaysNote": ""
  },
  {
    "id": "1570301471",
    "name": "特別養護老人ホーム　三和愛宕の園",
    "kana": "トクベツヨウゴロウジンホーム　サンワアタゴノソノ",
    "address": "上越市三和区井ノ口1718番地4",
    "lat": 37.1273508,
    "lng": 138.3505155,
    "tel": "025-532-2699",
    "url": "http://www.joetsu-atago.or.jp",
    "pref": "新潟県",
    "city": "上越市",
    "category": "tokuyou",
    "serviceType": "介護老人福祉施設",
    "capacity": 0,
    "openDays": [],
    "openDaysNote": ""
  },
  {
    "id": "1570302610",
    "name": "特別養護老人ホーム　上吉野愛宕の園",
    "kana": "トクベツヨウゴロウジンホーム　カミヨシノアタゴノソノ",
    "address": "上越市大字上吉野１９１２番地１",
    "lat": 37.1702201,
    "lng": 138.3311352,
    "tel": "025-539-1855",
    "url": "http://www.joetsu-atago.or.jp",
    "pref": "新潟県",
    "city": "上越市",
    "category": "tokuyou",
    "serviceType": "介護老人福祉施設",
    "capacity": 0,
    "openDays": [],
    "openDaysNote": ""
  },
  {
    "id": "1570303030",
    "name": "特別養護老人ホームあいれふ安塚",
    "kana": "トクベツヨウゴロウジンホームアイレフヤスヅカ",
    "address": "新潟県上越市安塚区安塚２２０９番地３",
    "lat": 37.1354861,
    "lng": 138.4471786,
    "tel": "025-595-1311",
    "url": "https://airefu.or.jp/",
    "pref": "新潟県",
    "city": "上越市",
    "category": "tokuyou",
    "serviceType": "介護老人福祉施設",
    "capacity": 100,
    "openDays": [],
    "openDaysNote": ""
  },
  {
    "id": "1570301505",
    "name": "特別養護老人ホームいたくら桜園",
    "kana": "トクベツヨウゴロウジンホームイタクラサクラエン",
    "address": "上越市板倉区曽根田101番地7",
    "lat": 37.04566,
    "lng": 138.3092794,
    "tel": "0255-81-4848",
    "url": "http://care-net.biz/15/n-kotobuki/",
    "pref": "新潟県",
    "city": "上越市",
    "category": "tokuyou",
    "serviceType": "介護老人福祉施設",
    "capacity": 0,
    "openDays": [],
    "openDaysNote": ""
  },
  {
    "id": "1570300325",
    "name": "特別養護老人ホームいなほ園",
    "kana": "トクベツヨウゴロウジンホウムイナホエン",
    "address": "上越市上真砂219番地",
    "lat": 37.1438724,
    "lng": 138.3012541,
    "tel": "025-520-2121",
    "url": "https://www.inaho-s-net.com/",
    "pref": "新潟県",
    "city": "上越市",
    "category": "tokuyou",
    "serviceType": "介護老人福祉施設",
    "capacity": 0,
    "openDays": [],
    "openDaysNote": ""
  },
  {
    "id": "1570300333",
    "name": "特別養護老人ホームさくら聖母の園",
    "kana": "トクベツヨウゴロウジンホームサクラセイボノソノ",
    "address": "上越市西城町２丁目３番２０号",
    "lat": 37.1116392,
    "lng": 138.249911,
    "tel": "025-526-2020",
    "url": "http://www.care-net.biz/15/sakura/",
    "pref": "新潟県",
    "city": "上越市",
    "category": "tokuyou",
    "serviceType": "介護老人福祉施設",
    "capacity": 0,
    "openDays": [],
    "openDaysNote": ""
  },
  {
    "id": "1570301497",
    "name": "特別養護老人ホームしおさいの里",
    "kana": "トクベツヨウゴロウジンホームシオサイノサト",
    "address": "新潟県上越市大潟区犀潟４１０番地２",
    "lat": 37.2088953,
    "lng": 138.3038124,
    "tel": "025-534-6225",
    "url": "https://www.siosainosato.jp",
    "pref": "新潟県",
    "city": "上越市",
    "category": "tokuyou",
    "serviceType": "介護老人福祉施設",
    "capacity": 104,
    "openDays": [],
    "openDaysNote": ""
  },
  {
    "id": "1570301513",
    "name": "特別養護老人ホームほくら園",
    "kana": "トクベツヨウゴロウジンホームホクラエン",
    "address": "新潟県上越市大島区大平5131番地",
    "lat": 37.1561126,
    "lng": 138.511356,
    "tel": "025-594-3311",
    "url": "http://www.kubiki-sjk.or.jp",
    "pref": "新潟県",
    "city": "上越市",
    "category": "tokuyou",
    "serviceType": "介護老人福祉施設",
    "capacity": 0,
    "openDays": [],
    "openDaysNote": ""
  },
  {
    "id": "1570304111",
    "name": "特別養護老人ホームほほ笑よしかわの里",
    "kana": "トクベツヨウゴロウジンホームホホエミヨシカワノサト",
    "address": "新潟県上越市吉川区原之町1819番地1",
    "lat": 37.2232021,
    "lng": 138.4051612,
    "tel": "025-548-3600",
    "url": "https://www.jouetushisyakyo.jp/",
    "pref": "新潟県",
    "city": "上越市",
    "category": "tokuyou",
    "serviceType": "介護老人福祉施設",
    "capacity": null,
    "openDays": [],
    "openDaysNote": ""
  },
  {
    "id": "1570304046",
    "name": "特別養護老人ホームみねの園",
    "kana": "トクベツヨウゴロウジンホームミネノエン",
    "address": "新潟県上越市清里区岡野町1618番地",
    "lat": 37.0789488120549,
    "lng": 138.331683352779,
    "tel": "025-528-3000",
    "url": "https://www.jouetushisyakyo.jp/",
    "pref": "新潟県",
    "city": "上越市",
    "category": "tokuyou",
    "serviceType": "介護老人福祉施設",
    "capacity": 30,
    "openDays": [],
    "openDaysNote": ""
  },
  {
    "id": "1570301463",
    "name": "特別養護老人ホームよねやまの里",
    "kana": "トクベツヨウゴロウジンホームヨネヤマノサト",
    "address": "新潟県上越市柿崎区柿崎６４１４－１",
    "lat": 37.2778513,
    "lng": 138.3938847,
    "tel": "025-536-4400",
    "url": "http://matunami-fukushi.com/",
    "pref": "新潟県",
    "city": "上越市",
    "category": "tokuyou",
    "serviceType": "介護老人福祉施設",
    "capacity": 100,
    "openDays": [],
    "openDaysNote": ""
  },
  {
    "id": "1570301521",
    "name": "特別養護老人ホーム沖見の里",
    "kana": "トクベツヨウゴロウジンホームオキミノサト",
    "address": "新潟県上越市牧区大月252番地",
    "lat": 37.0987085,
    "lng": 138.3993591,
    "tel": "025-529-3160",
    "url": "http://www.okiminosato.com/",
    "pref": "新潟県",
    "city": "上越市",
    "category": "tokuyou",
    "serviceType": "介護老人福祉施設",
    "capacity": 0,
    "openDays": [],
    "openDaysNote": ""
  },
  {
    "id": "1570300341",
    "name": "特別養護老人ホーム新光園",
    "kana": "トクベツヨウゴロウジンホームシンコウエン",
    "address": "新潟県上越市新光町3-10-31",
    "lat": 37.1584882,
    "lng": 138.2412486,
    "tel": "025-545-1531",
    "url": "https://www.inaho-s-net.com/",
    "pref": "新潟県",
    "city": "上越市",
    "category": "tokuyou",
    "serviceType": "介護老人福祉施設",
    "capacity": 80,
    "openDays": [],
    "openDaysNote": ""
  },
  {
    "id": "1570302313",
    "name": "特別養護老人ホーム悠久の里",
    "kana": "トクベツヨウゴロウジンホームユウキュウノサト",
    "address": "新潟県上越市とよば186番地",
    "lat": 37.1028186,
    "lng": 138.2748009,
    "tel": "025-522-0033",
    "url": "http://takadafukushikai.com",
    "pref": "新潟県",
    "city": "上越市",
    "category": "tokuyou",
    "serviceType": "介護老人福祉施設",
    "capacity": 90,
    "openDays": [],
    "openDaysNote": ""
  },
  {
    "id": "1570101087",
    "name": "特別養護老人ホーム　にいがた恵風園",
    "kana": "トクベツヨウゴロウジンホームニイガタケイフウエン",
    "address": "新潟県新潟市江南区鍋潟新田３８２番地",
    "lat": 37.8725508,
    "lng": 139.0603238,
    "tel": "025-280-3370",
    "url": "",
    "pref": "新潟県",
    "city": "新潟市江南区",
    "category": "tokuyou",
    "serviceType": "介護老人福祉施設",
    "capacity": 0,
    "openDays": [],
    "openDaysNote": ""
  },
  {
    "id": "1570101145",
    "name": "特別養護老人ホーム　にいがた新生園",
    "kana": "トクベツヨウゴロウジンホーム　ニイガタシンセイエン",
    "address": "新潟県新潟市江南区曽川甲1333番地1",
    "lat": 37.8675704291088,
    "lng": 139.049152474574,
    "tel": "025-281-5775",
    "url": "http://jinsei-g.com/",
    "pref": "新潟県",
    "city": "新潟市江南区",
    "category": "tokuyou",
    "serviceType": "介護老人福祉施設",
    "capacity": 0,
    "openDays": [],
    "openDaysNote": ""
  },
  {
    "id": "1570104594",
    "name": "特別養護老人ホーム　横雲の里",
    "kana": "トクベツヨウゴロウジンホーム　オウウンノサト",
    "address": "新潟県新潟市江南区阿賀野１丁目２番１号",
    "lat": 37.8324524,
    "lng": 139.1681949,
    "tel": "0250-61-5555",
    "url": "http://nakakan.wix.com/nakakan",
    "pref": "新潟県",
    "city": "新潟市江南区",
    "category": "tokuyou",
    "serviceType": "介護老人福祉施設",
    "capacity": 0,
    "openDays": [],
    "openDaysNote": ""
  },
  {
    "id": "1570103364",
    "name": "特別養護老人ホームいなほの郷",
    "kana": "トクベツヨウゴロウジンホームイナホノサト",
    "address": "新潟県新潟市江南区大渕715番地１",
    "lat": 37.8913972644856,
    "lng": 139.142961952779,
    "tel": "025-278-5515",
    "url": "http://www.inahonosato.jp",
    "pref": "新潟県",
    "city": "新潟市江南区",
    "category": "tokuyou",
    "serviceType": "介護老人福祉施設",
    "capacity": 100,
    "openDays": [],
    "openDaysNote": ""
  },
  {
    "id": "1570103224",
    "name": "特別養護老人ホームソフィア輝",
    "kana": "トクベツヨウゴロウジンホームソフィアカガヤキ",
    "address": "新潟県新潟市江南区三百地2312番地3",
    "lat": 37.8982032,
    "lng": 139.1471902,
    "tel": "025-277-8820",
    "url": "http://www.jyouyoukai.or.jp/",
    "pref": "新潟県",
    "city": "新潟市江南区",
    "category": "tokuyou",
    "serviceType": "介護老人福祉施設",
    "capacity": 0,
    "openDays": [],
    "openDaysNote": ""
  },
  {
    "id": "1570113108",
    "name": "特別養護老人ホームなかかんの里",
    "kana": "トクベツヨウゴロウジンホームナカカンノサト",
    "address": "新潟県新潟市江南区曙町4丁目1番29号",
    "lat": 37.8598090736771,
    "lng": 139.127574934918,
    "tel": "025-384-0545",
    "url": "http://nakakan.or.jp",
    "pref": "新潟県",
    "city": "新潟市江南区",
    "category": "tokuyou",
    "serviceType": "介護老人福祉施設",
    "capacity": 0,
    "openDays": [],
    "openDaysNote": ""
  },
  {
    "id": "1570113116",
    "name": "特別養護老人ホームなかかんの里",
    "kana": "トクベツヨウゴロウジンホームナカカンノサト",
    "address": "新潟県新潟市江南区曙町4丁目1番29号",
    "lat": 37.8597921325257,
    "lng": 139.127564206082,
    "tel": "025-384-0545",
    "url": "http://nakakan.or.jp",
    "pref": "新潟県",
    "city": "新潟市江南区",
    "category": "tokuyou",
    "serviceType": "介護老人福祉施設",
    "capacity": 0,
    "openDays": [],
    "openDaysNote": ""
  },
  {
    "id": "1570104602",
    "name": "特別養護老人ホーム向陽の里",
    "kana": "トクベツヨウゴロウジンホームコウヨウノサト",
    "address": "新潟県新潟市江南区亀田向陽2-6-1",
    "lat": 37.8782849,
    "lng": 139.1119919,
    "tel": "025-382-8222",
    "url": "http://nakakan.wix.com/nakakan",
    "pref": "新潟県",
    "city": "新潟市江南区",
    "category": "tokuyou",
    "serviceType": "介護老人福祉施設",
    "capacity": 0,
    "openDays": [],
    "openDaysNote": ""
  },
  {
    "id": "1570104529",
    "name": "特別養護老人ホーム　かんばらの里",
    "kana": "トクベツヨウゴロウジンホーム　カンバラノサト",
    "address": "新潟県新潟市秋葉区古田６１３番地１",
    "lat": 37.7900399,
    "lng": 139.1012385,
    "tel": "0250-25-1102",
    "url": "http://care-net.biz/15/akihanet/",
    "pref": "新潟県",
    "city": "新潟市秋葉区",
    "category": "tokuyou",
    "serviceType": "介護老人福祉施設",
    "capacity": 0,
    "openDays": [],
    "openDaysNote": ""
  },
  {
    "id": "1570104537",
    "name": "特別養護老人ホーム　こぐち苑",
    "kana": "トクベツヨウゴロウジンホーム　コグチエン",
    "address": "新潟県新潟市秋葉区小口443番地",
    "lat": 37.7690067,
    "lng": 139.1492707,
    "tel": "0250-21-0007",
    "url": "http://niitsu-fukushi.or.jp",
    "pref": "新潟県",
    "city": "新潟市秋葉区",
    "category": "tokuyou",
    "serviceType": "介護老人福祉施設",
    "capacity": 120,
    "openDays": [],
    "openDaysNote": ""
  },
  {
    "id": "1570104586",
    "name": "特別養護老人ホーム　こすど蒼丘の里",
    "kana": "トクベツヨウゴロウジンホーム　コスドソウキュウノサト",
    "address": "新潟県新潟市秋葉区矢代田3092番地12",
    "lat": 37.7538765,
    "lng": 139.1015367,
    "tel": "0250-61-0333",
    "url": "http://nakakan.wix.com./nakakan",
    "pref": "新潟県",
    "city": "新潟市秋葉区",
    "category": "tokuyou",
    "serviceType": "介護老人福祉施設",
    "capacity": 0,
    "openDays": [],
    "openDaysNote": ""
  },
  {
    "id": "1570111847",
    "name": "特別養護老人ホームあがうら",
    "kana": "トクベツヨウゴロウジンホームアガウラ",
    "address": "新潟県新潟市秋葉区東金沢1459番地5特別養護老人ホームあがうら 特別養護老人ホームあがうら",
    "lat": 37.8034073558974,
    "lng": 139.144482037296,
    "tel": "0250-22-4882",
    "url": "http://niigata-min.or.jp/welfarekaetsu/index.html",
    "pref": "新潟県",
    "city": "新潟市秋葉区",
    "category": "tokuyou",
    "serviceType": "介護老人福祉施設",
    "capacity": 0,
    "openDays": [],
    "openDaysNote": ""
  },
  {
    "id": "1570111854",
    "name": "特別養護老人ホームあがうら",
    "kana": "トクベツヨウゴロウジンホームアガウラ",
    "address": "新潟県新潟市秋葉区東金沢1459番地5",
    "lat": 37.8033988788443,
    "lng": 139.144465944041,
    "tel": "0250-22-4882",
    "url": "http://niigata-min.or.jp/welfarekaetsu/index.html",
    "pref": "新潟県",
    "city": "新潟市秋葉区",
    "category": "tokuyou",
    "serviceType": "介護老人福祉施設",
    "capacity": 0,
    "openDays": [],
    "openDaysNote": ""
  },
  {
    "id": "1570104511",
    "name": "特別養護老人ホームはさぎの里",
    "kana": "トクベツヨウゴロウジンホームハサギノサト",
    "address": "新潟県新潟市秋葉区七日町2186-9",
    "lat": 37.8169204,
    "lng": 139.1448918,
    "tel": "0250-23-6511",
    "url": "https://akiha.or.jp",
    "pref": "新潟県",
    "city": "新潟市秋葉区",
    "category": "tokuyou",
    "serviceType": "介護老人福祉施設",
    "capacity": 78,
    "openDays": [],
    "openDaysNote": ""
  },
  {
    "id": "1570104628",
    "name": "特別養護老人ホーム　虹の里",
    "kana": "トクベツヨウゴロウジンホーム　ニジノサト",
    "address": "新潟県新潟市西蒲区称名825番地",
    "lat": 37.7529671,
    "lng": 138.9536186,
    "tel": "0256-86-3770",
    "url": "http://www.niigata-minamifukushi.or.jp/niji",
    "pref": "新潟県",
    "city": "新潟市西蒲区",
    "category": "tokuyou",
    "serviceType": "介護老人福祉施設",
    "capacity": 50,
    "openDays": [],
    "openDaysNote": ""
  },
  {
    "id": "1570115855",
    "name": "特別養護老人ホーム　白寿荘東",
    "kana": "トクベツヨウゴロウジンホーム　ハクジュソウヒガシ",
    "address": "新潟県新潟市西蒲区巻甲4448番地",
    "lat": 37.7535142345512,
    "lng": 138.894770516147,
    "tel": "0256-72-5531",
    "url": "http//www.hakujyusou.jp",
    "pref": "新潟県",
    "city": "新潟市西蒲区",
    "category": "tokuyou",
    "serviceType": "介護老人福祉施設",
    "capacity": null,
    "openDays": [],
    "openDaysNote": ""
  },
  {
    "id": "1570112381",
    "name": "特別養護老人ホームゆきわりの里",
    "kana": "トクベツヨウゴロウジンホームユキワリノサト",
    "address": "新潟県新潟市西蒲区橋本1003-1",
    "lat": 37.7408957,
    "lng": 138.8435777,
    "tel": "0256-82-1822",
    "url": "http://www.sukoyakabk.jp",
    "pref": "新潟県",
    "city": "新潟市西蒲区",
    "category": "tokuyou",
    "serviceType": "介護老人福祉施設",
    "capacity": 40,
    "openDays": [],
    "openDaysNote": ""
  },
  {
    "id": "1570112399",
    "name": "特別養護老人ホームゆきわりの里",
    "kana": "トクベツヨウゴロウジンホームユキワリノサト",
    "address": "新潟県新潟市西蒲区橋本1003-1",
    "lat": 37.7408957,
    "lng": 138.8435777,
    "tel": "0256-82-1822",
    "url": "http://www.sukoyakabk.jp",
    "pref": "新潟県",
    "city": "新潟市西蒲区",
    "category": "tokuyou",
    "serviceType": "介護老人福祉施設",
    "capacity": 60,
    "openDays": [],
    "openDaysNote": ""
  },
  {
    "id": "1570104610",
    "name": "特別養護老人ホーム花見の里",
    "kana": "トクベツヨウゴロウジンホームハナミノサト",
    "address": "新潟県新潟市西蒲区大潟198番地",
    "lat": 37.8119457,
    "lng": 138.9445174,
    "tel": "0256-88-5633",
    "url": "http://www.hanaminosato.jp/",
    "pref": "新潟県",
    "city": "新潟市西蒲区",
    "category": "tokuyou",
    "serviceType": "介護老人福祉施設",
    "capacity": 50,
    "openDays": [],
    "openDaysNote": ""
  },
  {
    "id": "1570112456",
    "name": "特別養護老人ホーム花見の里",
    "kana": "トクベツヨウゴロウジンホームハナミノサト",
    "address": "新潟県新潟市西蒲区大潟198",
    "lat": 37.8119457,
    "lng": 138.9445174,
    "tel": "0256-88-5633",
    "url": "http://www.hanaminosato.jp/",
    "pref": "新潟県",
    "city": "新潟市西蒲区",
    "category": "tokuyou",
    "serviceType": "介護老人福祉施設",
    "capacity": 40,
    "openDays": [],
    "openDaysNote": ""
  },
  {
    "id": "1570104636",
    "name": "特別養護老人ホーム中之口愛宕の園",
    "kana": "トクベツヨウゴロウジンホームナカノクチアタゴノソノ",
    "address": "新潟県新潟市西蒲区福島305番地１",
    "lat": 37.7247041,
    "lng": 138.9598892,
    "tel": "025-375-8811",
    "url": "http://www.atago.or.jp/",
    "pref": "新潟県",
    "city": "新潟市西蒲区",
    "category": "tokuyou",
    "serviceType": "介護老人福祉施設",
    "capacity": 0,
    "openDays": [],
    "openDaysNote": ""
  },
  {
    "id": "1570105690",
    "name": "特別養護老人ホーム白寿荘西",
    "kana": "トクベツヨウゴロウジンホームハクジュソウニシ",
    "address": "新潟県新潟市西蒲区巻甲4363",
    "lat": 37.7541317316105,
    "lng": 138.892212772244,
    "tel": "0256-72-1077",
    "url": "http://www.hakujyusou.jp/",
    "pref": "新潟県",
    "city": "新潟市西蒲区",
    "category": "tokuyou",
    "serviceType": "介護老人福祉施設",
    "capacity": 60,
    "openDays": [],
    "openDaysNote": ""
  },
  {
    "id": "1570106847",
    "name": "特別養護老人ホーム　ジェロントピア新潟",
    "kana": "トクベツヨウゴロウジンホーム　ジェロントピアニイガタ",
    "address": "新潟県新潟市西区山田3487番地",
    "lat": 37.8717668,
    "lng": 139.0109753,
    "tel": "025-379-1181",
    "url": "http://www.gerontopia-niigata.com",
    "pref": "新潟県",
    "city": "新潟市西区",
    "category": "tokuyou",
    "serviceType": "介護老人福祉施設",
    "capacity": 0,
    "openDays": [],
    "openDaysNote": ""
  },
  {
    "id": "1570111979",
    "name": "特別養護老人ホーム　葵の園・新潟内野",
    "kana": "トクベツヨウゴロウジンホーム　アオイノソノ・ニイガタウチノ",
    "address": "新潟県新潟市西区内野西３丁目９番１２号",
    "lat": 37.8503439,
    "lng": 138.9276662,
    "tel": "025-261-3333",
    "url": "http://www.aoikai.jp",
    "pref": "新潟県",
    "city": "新潟市西区",
    "category": "tokuyou",
    "serviceType": "介護老人福祉施設",
    "capacity": 40,
    "openDays": [],
    "openDaysNote": ""
  },
  {
    "id": "1570111987",
    "name": "特別養護老人ホーム　葵の園・新潟内野",
    "kana": "トクベツヨウゴロウジンホーム　アオイノソノ・ニイガタウチノ",
    "address": "新潟県新潟市西区内野西3丁目9番12号",
    "lat": 37.8503439,
    "lng": 138.9276662,
    "tel": "025-261-3333",
    "url": "http://ｗｗｗ.aoikai.jp",
    "pref": "新潟県",
    "city": "新潟市西区",
    "category": "tokuyou",
    "serviceType": "介護老人福祉施設",
    "capacity": 60,
    "openDays": [],
    "openDaysNote": ""
  },
  {
    "id": "1570101921",
    "name": "特別養護老人ホーム　黒埼の里",
    "kana": "トクベツヨウゴロウジンホーム　クロサキノサト",
    "address": "新潟県新潟市西区金巻728番地",
    "lat": 37.8419972,
    "lng": 139.0071142,
    "tel": "025-377-1116",
    "url": "http://kurosakinosato.com",
    "pref": "新潟県",
    "city": "新潟市西区",
    "category": "tokuyou",
    "serviceType": "介護老人福祉施設",
    "capacity": 50,
    "openDays": [],
    "openDaysNote": ""
  },
  {
    "id": "1570102382",
    "name": "特別養護老人ホーム　新潟あそか苑",
    "kana": "トクベツヨウゴロウジンホーム　ニイガタアソカエン",
    "address": "新潟県新潟市西区大友１４１番地１",
    "lat": 37.8307379,
    "lng": 138.9322396,
    "tel": "025-263-8411",
    "url": "https://niigata-keishinkai.jp",
    "pref": "新潟県",
    "city": "新潟市西区",
    "category": "tokuyou",
    "serviceType": "介護老人福祉施設",
    "capacity": 0,
    "openDays": [],
    "openDaysNote": ""
  },
  {
    "id": "1570101103",
    "name": "特別養護老人ホーム　白鳥の里",
    "kana": "トクベツヨウゴロウジンホーム　シラトリノサト",
    "address": "新潟県新潟市西区小新１１４０－１",
    "lat": 37.8784484,
    "lng": 138.9944125,
    "tel": "025-265-7111",
    "url": "http://www.shiratori-niigata.or.jp/",
    "pref": "新潟県",
    "city": "新潟市西区",
    "category": "tokuyou",
    "serviceType": "介護老人福祉施設",
    "capacity": 0,
    "openDays": [],
    "openDaysNote": ""
  },
  {
    "id": "1570101111",
    "name": "特別養護老人ホーム　穂波の里",
    "kana": "トクベツヨウゴロウジンホーム　ホナミノサト",
    "address": "新潟県新潟市西区新通４７３４番地",
    "lat": 37.8632211,
    "lng": 138.9730966,
    "tel": "025-269-1600",
    "url": "http://niigata-min.or.jp/honami/",
    "pref": "新潟県",
    "city": "新潟市西区",
    "category": "tokuyou",
    "serviceType": "介護老人福祉施設",
    "capacity": 80,
    "openDays": [],
    "openDaysNote": ""
  },
  {
    "id": "1570101046",
    "name": "特別養護老人ホーム　有明園",
    "kana": "トクベツヨウゴロウジンホーム　アリアケエン",
    "address": "新潟県新潟市西区西有明町１番２０号",
    "lat": 37.8960615051577,
    "lng": 138.990969090471,
    "tel": "025-231-2615",
    "url": "http://www.ariakeen.net/",
    "pref": "新潟県",
    "city": "新潟市西区",
    "category": "tokuyou",
    "serviceType": "介護老人福祉施設",
    "capacity": 0,
    "openDays": [],
    "openDaysNote": ""
  },
  {
    "id": "1570101855",
    "name": "特別養護老人ホームうちの桜園",
    "kana": "トクベツヨウゴロウジンホームウチノサクラエン",
    "address": "新潟県新潟市西区内野潟端2090番地",
    "lat": 37.8512243,
    "lng": 138.9340877,
    "tel": "025-264-6611",
    "url": "http://care-net.biz/15/kotobukikai/",
    "pref": "新潟県",
    "city": "新潟市西区",
    "category": "tokuyou",
    "serviceType": "介護老人福祉施設",
    "capacity": 100,
    "openDays": [],
    "openDaysNote": ""
  },
  {
    "id": "1570101129",
    "name": "特別養護老人ホームはまゆう",
    "kana": "トクベツヨウゴロウジンホームハマユウ",
    "address": "新潟県新潟市西区上新栄町1-2-12",
    "lat": 37.8892257812817,
    "lng": 138.971157115344,
    "tel": "025-260-9555",
    "url": "http://jijinkai.com",
    "pref": "新潟県",
    "city": "新潟市西区",
    "category": "tokuyou",
    "serviceType": "介護老人福祉施設",
    "capacity": 60,
    "openDays": [],
    "openDaysNote": ""
  },
  {
    "id": "1570101020",
    "name": "特別養護老人ホーム松風園",
    "kana": "トクベツヨウゴロウジンホームショウフウエン",
    "address": "新潟県新潟市西区赤塚4782番地",
    "lat": 37.8096495,
    "lng": 138.8736054,
    "tel": "025-239-3981",
    "url": "http://www.syoufuuen.com/",
    "pref": "新潟県",
    "city": "新潟市西区",
    "category": "tokuyou",
    "serviceType": "介護老人福祉施設",
    "capacity": 80,
    "openDays": [],
    "openDaysNote": ""
  },
  {
    "id": "1570112142",
    "name": "特別養護老人ホーム有明園",
    "kana": "トクベツヨウゴロウジンホームアリアケエン",
    "address": "新潟県新潟市西区西有明町１番２０号",
    "lat": 37.8960505320292,
    "lng": 138.990934863851,
    "tel": "025-231-2615",
    "url": "http://www.ariakeen.net/",
    "pref": "新潟県",
    "city": "新潟市西区",
    "category": "tokuyou",
    "serviceType": "介護老人福祉施設",
    "capacity": 0,
    "openDays": [],
    "openDaysNote": ""
  },
  {
    "id": "1570115756",
    "name": "特別養護老人ホーム　おもと園",
    "kana": "トクベツヨウゴロウジンホーム　オモトエン",
    "address": "新潟県新潟市中央区女池西二丁目6番25号",
    "lat": 37.891064,
    "lng": 139.0351196,
    "tel": "025-283-5060",
    "url": "http://jinsei-g.com/",
    "pref": "新潟県",
    "city": "新潟市中央区",
    "category": "tokuyou",
    "serviceType": "介護老人福祉施設",
    "capacity": 40,
    "openDays": [],
    "openDaysNote": ""
  },
  {
    "id": "1570101079",
    "name": "特別養護老人ホーム　おもと園",
    "kana": "トクベツヨウゴロウジンホーム　オモトエン",
    "address": "新潟県新潟市中央区女池西二丁目6番25号",
    "lat": 37.8910572646354,
    "lng": 139.035130811639,
    "tel": "025-283-5060",
    "url": "http://jinsei-g.com/",
    "pref": "新潟県",
    "city": "新潟市中央区",
    "category": "tokuyou",
    "serviceType": "介護老人福祉施設",
    "capacity": 100,
    "openDays": [],
    "openDaysNote": ""
  },
  {
    "id": "1570105864",
    "name": "特別養護老人ホーム　ばんだい桜園",
    "kana": "トクベツヨウゴロウジンホーム　バンダイサクラエン",
    "address": "新潟県新潟市中央区幸西4丁目5番15号",
    "lat": 37.9134679,
    "lng": 139.0494563,
    "tel": "025-290-2222",
    "url": "http://care-net.biz/15/bandaicare/",
    "pref": "新潟県",
    "city": "新潟市中央区",
    "category": "tokuyou",
    "serviceType": "介護老人福祉施設",
    "capacity": 0,
    "openDays": [],
    "openDaysNote": ""
  },
  {
    "id": "1570111136",
    "name": "特別養護老人ホーム　白山やすらぎ",
    "kana": "トクベツヨウゴロウジンホーム　ハクサンヤスラギ",
    "address": "新潟県新潟市中央区川岸町2丁目1-20",
    "lat": 37.9110568,
    "lng": 139.0345547,
    "tel": "025-230-0111",
    "url": "https://www.niigata-jikeikai.jp/hakusan/",
    "pref": "新潟県",
    "city": "新潟市中央区",
    "category": "tokuyou",
    "serviceType": "介護老人福祉施設",
    "capacity": 40,
    "openDays": [],
    "openDaysNote": ""
  },
  {
    "id": "1570111227",
    "name": "特別養護老人ホーム　美咲の里（従来型）",
    "kana": "トクベツヨウゴロウジンホーム　ミサキノサト（ジュウライガタ）",
    "address": "新潟県新潟市中央区美咲町1丁目23番43号特別養護老人ホーム　美咲の里 特別養護老人ホーム　美咲の里",
    "lat": 37.8891805,
    "lng": 139.0174791,
    "tel": "025-288-5221",
    "url": "https://misakinosato2412.wixsite.com/misakinosato",
    "pref": "新潟県",
    "city": "新潟市中央区",
    "category": "tokuyou",
    "serviceType": "介護老人福祉施設",
    "capacity": 40,
    "openDays": [],
    "openDaysNote": ""
  },
  {
    "id": "1570101038",
    "name": "特別養護老人ホーム康和園",
    "kana": "トクベツヨウゴロウジンホームコウワエン",
    "address": "新潟県新潟市中央区附船町１－４３７８",
    "lat": 37.9351849,
    "lng": 139.0557934,
    "tel": "025-228-2861",
    "url": "http://www.kouwaen.jp/",
    "pref": "新潟県",
    "city": "新潟市中央区",
    "category": "tokuyou",
    "serviceType": "介護老人福祉施設",
    "capacity": 0,
    "openDays": [],
    "openDaysNote": ""
  },
  {
    "id": "1570101137",
    "name": "特別養護老人ホーム江東園",
    "kana": "トクベツヨウゴロウジンホームコウトウエン",
    "address": "新潟県新潟市中央区姥ケ山359番地1",
    "lat": 37.8859912,
    "lng": 139.0817943,
    "tel": "025-287-5201",
    "url": "http://www.koutouen.jp",
    "pref": "新潟県",
    "city": "新潟市中央区",
    "category": "tokuyou",
    "serviceType": "介護老人福祉施設",
    "capacity": 0,
    "openDays": [],
    "openDaysNote": ""
  },
  {
    "id": "1570111110",
    "name": "特別養護老人ホーム白山やすらぎ",
    "kana": "トクベツヨウゴロウジンホーム　ハクサンヤスラギ",
    "address": "新潟県新潟市中央区川岸町2丁目1-20",
    "lat": 37.9110568,
    "lng": 139.0345547,
    "tel": "025-230-0111",
    "url": "https://www.niigata-jikeikai.jp/hakusan/",
    "pref": "新潟県",
    "city": "新潟市中央区",
    "category": "tokuyou",
    "serviceType": "介護老人福祉施設",
    "capacity": 60,
    "openDays": [],
    "openDaysNote": ""
  },
  {
    "id": "1570111243",
    "name": "特別養護老人ホーム美咲の里（ユニット型）",
    "kana": "トクベツヨウゴロウジンホーム　ミサキノサト（ユニットガタ）",
    "address": "新潟県新潟市中央区美咲町１丁目23番43号特別養護老人ホーム　美咲の里 特別養護老人ホーム　美咲の里",
    "lat": 37.8892258,
    "lng": 139.0174264,
    "tel": "025-288-5221",
    "url": "https://misakinosato2412.wixsite.com/misakinosato",
    "pref": "新潟県",
    "city": "新潟市中央区",
    "category": "tokuyou",
    "serviceType": "介護老人福祉施設",
    "capacity": 59,
    "openDays": [],
    "openDaysNote": ""
  },
  {
    "id": "1570115657",
    "name": "特別養護老人ホーム柳都の杜",
    "kana": "トクベツヨウゴロウジンホームリュウトノモリ",
    "address": "新潟県新潟市中央区四ツ屋町3丁目5116番地1",
    "lat": 37.9323423491494,
    "lng": 139.042709643446,
    "tel": "025-378-4856",
    "url": "https://yuukikai.com/",
    "pref": "新潟県",
    "city": "新潟市中央区",
    "category": "tokuyou",
    "serviceType": "介護老人福祉施設",
    "capacity": 100,
    "openDays": [],
    "openDaysNote": ""
  },
  {
    "id": "1570110625",
    "name": "特別養護老人ホーム　山王苑にいがた",
    "kana": "トクベツヨウゴロウジンホーム　サンノウエンニイガタ",
    "address": "新潟県新潟市東区海老ヶ瀬643番地",
    "lat": 37.9264193629144,
    "lng": 139.122734620902,
    "tel": "025-278-9055",
    "url": "http://www.ibaraduka.or.jp/",
    "pref": "新潟県",
    "city": "新潟市東区",
    "category": "tokuyou",
    "serviceType": "介護老人福祉施設",
    "capacity": 50,
    "openDays": [],
    "openDaysNote": ""
  },
  {
    "id": "1570111045",
    "name": "特別養護老人ホーム　新潟東愛宕の園",
    "kana": "トクベツヨウゴロウジンホーム　ニイガタヒガシアタゴノソノ",
    "address": "新潟県新潟市東区若葉町2丁目17番40号",
    "lat": 37.8996077,
    "lng": 139.1162208,
    "tel": "025-257-6010",
    "url": "https://www.atago.or.jp/",
    "pref": "新潟県",
    "city": "新潟市東区",
    "category": "tokuyou",
    "serviceType": "介護老人福祉施設",
    "capacity": 40,
    "openDays": [],
    "openDaysNote": ""
  },
  {
    "id": "1570111060",
    "name": "特別養護老人ホーム　新潟東愛宕の園",
    "kana": "トクベツヨウゴロウジンホーム　ニイガタヒガシアタゴノソノ",
    "address": "新潟県新潟市東区若葉町2丁目17番40号",
    "lat": 37.8996077,
    "lng": 139.1162208,
    "tel": "025-257-6010",
    "url": "https://www.atago.or.jp",
    "pref": "新潟県",
    "city": "新潟市東区",
    "category": "tokuyou",
    "serviceType": "介護老人福祉施設",
    "capacity": 40,
    "openDays": [],
    "openDaysNote": ""
  },
  {
    "id": "1570116358",
    "name": "特別養護老人ホームあしぬま荘",
    "kana": "トクベツヨウゴロウジンホームアシヌマソウ",
    "address": "新潟県新潟市東区岡山1183番地1",
    "lat": 37.9154623,
    "lng": 139.1236698,
    "tel": "252881616",
    "url": "https://ashinuma.com/facility/ashinuma.html",
    "pref": "新潟県",
    "city": "新潟市東区",
    "category": "tokuyou",
    "serviceType": "介護老人福祉施設",
    "capacity": 0,
    "openDays": [],
    "openDaysNote": ""
  },
  {
    "id": "1570101061",
    "name": "特別養護老人ホームあしぬま荘",
    "kana": "トクベツヨウゴロウジンホームアシヌマソウ",
    "address": "新潟県新潟市東区岡山1183番地1",
    "lat": 37.9179222,
    "lng": 139.104024,
    "tel": "025-288-1616",
    "url": "http://www.ashinuma.com",
    "pref": "新潟県",
    "city": "新潟市東区",
    "category": "tokuyou",
    "serviceType": "介護老人福祉施設",
    "capacity": 0,
    "openDays": [],
    "openDaysNote": ""
  },
  {
    "id": "1570102606",
    "name": "特別養護老人ホーム河渡の郷",
    "kana": "トクベツヨウゴロウジンホームコウドノサト",
    "address": "新潟県新潟市東区河渡2丁目4番65号",
    "lat": 37.9364232,
    "lng": 139.098662,
    "tel": "025-270-1414",
    "url": "http://www.koudonosato.or.jp",
    "pref": "新潟県",
    "city": "新潟市東区",
    "category": "tokuyou",
    "serviceType": "介護老人福祉施設",
    "capacity": 0,
    "openDays": [],
    "openDaysNote": ""
  },
  {
    "id": "1570116309",
    "name": "特別養護老人ホーム大山愛宕の園",
    "kana": "トクベツヨウゴロウジンホームオオヤマアタゴノソノ",
    "address": "新潟県新潟市東区大山2丁目13番34号あたごの杜大山台 あたごの杜大山台",
    "lat": 37.9368816221785,
    "lng": 139.078130437959,
    "tel": "025-271-6700",
    "url": "https://www.atago.or.jp/about/",
    "pref": "新潟県",
    "city": "新潟市東区",
    "category": "tokuyou",
    "serviceType": "介護老人福祉施設",
    "capacity": 100,
    "openDays": [],
    "openDaysNote": ""
  },
  {
    "id": "1570101152",
    "name": "特別養護老人ホーム桃山園",
    "kana": "トクベツヨウゴロウジンホームモモヤマエン",
    "address": "新潟県新潟市東区桃山町1丁目１１４－７",
    "lat": 37.9445493,
    "lng": 139.0758495,
    "tel": "025-271-4101",
    "url": "https://www.momoyamaen.com/",
    "pref": "新潟県",
    "city": "新潟市東区",
    "category": "tokuyou",
    "serviceType": "介護老人福祉施設",
    "capacity": 100,
    "openDays": [],
    "openDaysNote": ""
  },
  {
    "id": "1570111755",
    "name": "特別養護老人ホーム風の笛",
    "kana": "トクベツヨウゴロウジンホームカゼノフエ",
    "address": "新潟県新潟市東区下木戸2-28-13特別養護老人ホーム風の笛 特別養護老人ホーム風の笛",
    "lat": 37.9285988,
    "lng": 139.0947406,
    "tel": "025-271-7700",
    "url": "http://www.ashinuma.com",
    "pref": "新潟県",
    "city": "新潟市東区",
    "category": "tokuyou",
    "serviceType": "介護老人福祉施設",
    "capacity": 0,
    "openDays": [],
    "openDaysNote": ""
  },
  {
    "id": "1570111748",
    "name": "特別養護老人ホーム風の笛",
    "kana": "トクベツヨウゴロウジンホームカゼノフエ",
    "address": "新潟県新潟市東区下木戸2-28-13特別養護老人ホーム風の笛 特別養護老人ホーム風の笛",
    "lat": 37.9285988,
    "lng": 139.0947406,
    "tel": "025-271-7700",
    "url": "http://www.ashinuma.com",
    "pref": "新潟県",
    "city": "新潟市東区",
    "category": "tokuyou",
    "serviceType": "介護老人福祉施設",
    "capacity": 0,
    "openDays": [],
    "openDaysNote": ""
  },
  {
    "id": "1570104552",
    "name": "特別養護老人ホーム　白根やすらぎの里",
    "kana": "トクベツヨウゴロウジンホーム　シロネヤスラギノサト",
    "address": "新潟県新潟市南区鷲ノ木新田４０１８番地１",
    "lat": 37.8285466,
    "lng": 139.025532,
    "tel": "025-362-7660",
    "url": "http://www.niigata-jikeikai.jp",
    "pref": "新潟県",
    "city": "新潟市南区",
    "category": "tokuyou",
    "serviceType": "介護老人福祉施設",
    "capacity": 0,
    "openDays": [],
    "openDaysNote": ""
  },
  {
    "id": "1570104545",
    "name": "特別養護老人ホームしなの園",
    "kana": "トクベツヨウゴロウジンホームシナノエン",
    "address": "新潟県新潟市南区庄瀬８１２０番地",
    "lat": 37.7208957,
    "lng": 139.0378718,
    "tel": "025-373-3773",
    "url": "http://www.shinanoen.net",
    "pref": "新潟県",
    "city": "新潟市南区",
    "category": "tokuyou",
    "serviceType": "介護老人福祉施設",
    "capacity": 0,
    "openDays": [],
    "openDaysNote": ""
  },
  {
    "id": "1570105252",
    "name": "特別養護老人ホームにいだの里",
    "kana": "トクベツヨウゴロウジンホームニイダノサト",
    "address": "新潟県新潟市南区新飯田2545番地1",
    "lat": 37.6894645,
    "lng": 138.9855877,
    "tel": "025-374-1007",
    "url": "http://gosenfukushi.com/",
    "pref": "新潟県",
    "city": "新潟市南区",
    "category": "tokuyou",
    "serviceType": "介護老人福祉施設",
    "capacity": 100,
    "openDays": [],
    "openDaysNote": ""
  },
  {
    "id": "1570112340",
    "name": "特別養護老人ホーム白根そよ風の杜",
    "kana": "トクベツヨウゴロウジンホームシロネソヨカゼノモリ",
    "address": "新潟県新潟市南区能登５３５番地１",
    "lat": 37.7682437436753,
    "lng": 139.020343675841,
    "tel": "025-372-8000",
    "url": "http://yuukikai.com",
    "pref": "新潟県",
    "city": "新潟市南区",
    "category": "tokuyou",
    "serviceType": "介護老人福祉施設",
    "capacity": 40,
    "openDays": [],
    "openDaysNote": ""
  },
  {
    "id": "1570112332",
    "name": "特別養護老人ホーム白根そよ風の杜",
    "kana": "トクベツヨウゴロウジンホームシロネソヨカゼノモリ",
    "address": "新潟県新潟市南区能登535番地１",
    "lat": 37.7680910839536,
    "lng": 139.020204200972,
    "tel": "025-372-8000",
    "url": "http://yuukikai.com",
    "pref": "新潟県",
    "city": "新潟市南区",
    "category": "tokuyou",
    "serviceType": "介護老人福祉施設",
    "capacity": 60,
    "openDays": [],
    "openDaysNote": ""
  },
  {
    "id": "1570112498",
    "name": "特別養護老人ホーム　新潟北愛宕の園",
    "kana": "トクベツヨウゴロウジンホーム　ニイガタキタアタゴノソノ",
    "address": "新潟県新潟市北区前新田甲７４番地１",
    "lat": 37.9104361590207,
    "lng": 139.224888414958,
    "tel": "025-384-6601",
    "url": "https://www.atago.or.jp/",
    "pref": "新潟県",
    "city": "新潟市北区",
    "category": "tokuyou",
    "serviceType": "介護老人福祉施設",
    "capacity": 70,
    "openDays": [],
    "openDaysNote": ""
  },
  {
    "id": "1570112480",
    "name": "特別養護老人ホーム　新潟北愛宕の園",
    "kana": "トクベツヨウゴロウジンホーム　ニイガタキタアタゴノソノ",
    "address": "新潟県新潟市北区前新田甲７４番地１",
    "lat": 37.9104276942671,
    "lng": 139.224893779376,
    "tel": "025-384-6601",
    "url": "http://www.atago.or.jp/",
    "pref": "新潟県",
    "city": "新潟市北区",
    "category": "tokuyou",
    "serviceType": "介護老人福祉施設",
    "capacity": 0,
    "openDays": [],
    "openDaysNote": ""
  },
  {
    "id": "1570104578",
    "name": "特別養護老人ホームながうらの郷",
    "kana": "トクベツヨウゴロウジンホームナガウラノサト",
    "address": "新潟県新潟市北区上土地亀２４３３番地１",
    "lat": 37.8988811,
    "lng": 139.2121039,
    "tel": "025-386-1188",
    "url": "http://www.houseifukushikai.or.jp",
    "pref": "新潟県",
    "city": "新潟市北区",
    "category": "tokuyou",
    "serviceType": "介護老人福祉施設",
    "capacity": 0,
    "openDays": [],
    "openDaysNote": ""
  },
  {
    "id": "1570102820",
    "name": "特別養護老人ホームなぎさの里",
    "kana": "トクベツヨウゴロウジンホームナギサノサト",
    "address": "新潟県新潟市北区島見町4524-13",
    "lat": 37.9582275,
    "lng": 139.187059,
    "tel": "025-255-3710",
    "url": "http://www.nagisanosato.sakura.ne.jp/",
    "pref": "新潟県",
    "city": "新潟市北区",
    "category": "tokuyou",
    "serviceType": "介護老人福祉施設",
    "capacity": 90,
    "openDays": [],
    "openDaysNote": ""
  },
  {
    "id": "1570104560",
    "name": "特別養護老人ホームほうせい園",
    "kana": "トクベツヨウゴロウジンホームホウセイエン",
    "address": "新潟県新潟市北区葛塚618番地",
    "lat": 37.9320084,
    "lng": 139.2138213,
    "tel": "025-387-0900",
    "url": "https://www.houseifukushikai.or.jp",
    "pref": "新潟県",
    "city": "新潟市北区",
    "category": "tokuyou",
    "serviceType": "介護老人福祉施設",
    "capacity": 0,
    "openDays": [],
    "openDaysNote": ""
  },
  {
    "id": "1570101095",
    "name": "特別養護老人ホームまつはま園",
    "kana": "トクベツヨウゴロウジンホオムマツハマエン",
    "address": "新潟県新潟市北区太夫浜１７４７番地",
    "lat": 37.9538501,
    "lng": 139.1549177,
    "tel": "025-259-8533",
    "url": "http://matsuhamaen.com/",
    "pref": "新潟県",
    "city": "新潟市北区",
    "category": "tokuyou",
    "serviceType": "介護老人福祉施設",
    "capacity": 40,
    "openDays": [],
    "openDaysNote": ""
  },
  {
    "id": "1570101160",
    "name": "特別養護老人ホーム愛宕の園",
    "kana": "トクベツヨウゴロウジンホームアタゴノソノ",
    "address": "新潟県新潟市北区松潟1510番地",
    "lat": 37.9301552,
    "lng": 139.1737924,
    "tel": "025-255-7181",
    "url": "http://www.atago.or.jp/",
    "pref": "新潟県",
    "city": "新潟市北区",
    "category": "tokuyou",
    "serviceType": "介護老人福祉施設",
    "capacity": 0,
    "openDays": [],
    "openDaysNote": ""
  },
  {
    "id": "1570600393",
    "name": "特別養護老人ホーム　しばた",
    "kana": "トクベツヨウゴロウジンホーム　シバタ",
    "address": "新潟県新発田市下中山246番１",
    "lat": 37.9932648,
    "lng": 139.4427226,
    "tel": "0254-31-2100",
    "url": "http://www.miyukikai.net",
    "pref": "新潟県",
    "city": "新発田市",
    "category": "tokuyou",
    "serviceType": "介護老人福祉施設",
    "capacity": 0,
    "openDays": [],
    "openDaysNote": ""
  },
  {
    "id": "1570601367",
    "name": "特別養護老人ホーム　ヒルトップくしがた",
    "kana": "トクベツヨウゴロウジンホーム　ヒルトップクシガタ",
    "address": "新潟県新発田市菅谷3345-1",
    "lat": 37.9824987,
    "lng": 139.4144986,
    "tel": "0254-31-2121",
    "url": "http://www.miyukikai.net/tokurou-kusigata/",
    "pref": "新潟県",
    "city": "新発田市",
    "category": "tokuyou",
    "serviceType": "介護老人福祉施設",
    "capacity": 0,
    "openDays": [],
    "openDaysNote": ""
  },
  {
    "id": "1570601797",
    "name": "特別養護老人ホーム　二の丸",
    "kana": "トクベツヨウゴロウジンホーム　ニノマル",
    "address": "新潟県新発田市上館520番地1",
    "lat": 37.9688434,
    "lng": 139.3615706,
    "tel": "0254-23-3166",
    "url": "http://www.ninohjikai.jp",
    "pref": "新潟県",
    "city": "新発田市",
    "category": "tokuyou",
    "serviceType": "介護老人福祉施設",
    "capacity": null,
    "openDays": [],
    "openDaysNote": ""
  },
  {
    "id": "1570601193",
    "name": "特別養護老人ホームコンフィ陽だまり苑",
    "kana": "トクベツヨウゴロウジンホームコンフィヒダマリエン",
    "address": "新潟県新発田市諏訪町1丁目10番38号",
    "lat": 37.9434978,
    "lng": 139.3339809,
    "tel": "0254-24-1111",
    "url": "http://hidamarien.ne.jp/",
    "pref": "新潟県",
    "city": "新発田市",
    "category": "tokuyou",
    "serviceType": "介護老人福祉施設",
    "capacity": 0,
    "openDays": [],
    "openDaysNote": ""
  },
  {
    "id": "1570600823",
    "name": "特別養護老人ホームしうんじ",
    "kana": "トクベツヨウゴロウジンホームシウンジ",
    "address": "新潟県新発田市真野原外3331番地2",
    "lat": 38.0181429,
    "lng": 139.3180801,
    "tel": "0254-41-4700",
    "url": "http://shiunji.or.jp/wordpress/",
    "pref": "新潟県",
    "city": "新発田市",
    "category": "tokuyou",
    "serviceType": "介護老人福祉施設",
    "capacity": 0,
    "openDays": [],
    "openDaysNote": ""
  },
  {
    "id": "1570600575",
    "name": "特別養護老人ホームつきおかの里",
    "kana": "トクベツヨウゴロウジンホームツキオカノサト",
    "address": "新潟県新発田市本田壬393番地1",
    "lat": 37.8823800726315,
    "lng": 139.298006343517,
    "tel": "0254-32-3925",
    "url": "https://www.ninohjikai.jp/category/特養つきおかの里/",
    "pref": "新潟県",
    "city": "新発田市",
    "category": "tokuyou",
    "serviceType": "介護老人福祉施設",
    "capacity": 0,
    "openDays": [],
    "openDaysNote": ""
  },
  {
    "id": "1570601169",
    "name": "特別養護老人ホーム豊浦愛宕の園",
    "kana": "トクベツヨウゴロウジンホームトヨウラアタゴノソノ",
    "address": "新発田市荒町甲1611番地13",
    "lat": 37.9364372,
    "lng": 139.3218823,
    "tel": "0254-20-2211",
    "url": "http://www.atago.or.jp/",
    "pref": "新潟県",
    "city": "新発田市",
    "category": "tokuyou",
    "serviceType": "介護老人福祉施設",
    "capacity": 0,
    "openDays": [],
    "openDaysNote": ""
  },
  {
    "id": "1570600377",
    "name": "特別養護老人ホーム陽だまり苑",
    "kana": "トクベツヨウゴロウジンホームヒダマリエン",
    "address": "新発田市岡田１７４６番地１介護老人福祉施設　陽だまり苑 介護老人福祉施設　陽だまり苑",
    "lat": 37.9510506,
    "lng": 139.3598001,
    "tel": "0254-20-3800",
    "url": "http://hidamarien.ne.jp/",
    "pref": "新潟県",
    "city": "新発田市",
    "category": "tokuyou",
    "serviceType": "介護老人福祉施設",
    "capacity": 0,
    "openDays": [],
    "openDaysNote": ""
  },
  {
    "id": "1575001175",
    "name": "特別養護老人ホーム　はすがた園",
    "kana": "トクベツヨウゴロウジンホーム　ハスガタエン",
    "address": "新潟県北蒲原郡聖籠町大字蓮潟2249番地",
    "lat": 37.9791849,
    "lng": 139.265986,
    "tel": "0254-27-7060",
    "url": "https://seiro-hukushikai.or.jp",
    "pref": "新潟県",
    "city": "聖籠町",
    "category": "tokuyou",
    "serviceType": "介護老人福祉施設",
    "capacity": 70,
    "openDays": [],
    "openDaysNote": ""
  },
  {
    "id": "1575001100",
    "name": "特別養護老人ホーム　聖籠まごころの里",
    "kana": "トクベツヨウゴロウジンホーム　セイロウマゴコロノサト",
    "address": "新潟県北蒲原郡聖籠町大字次第浜5298番地",
    "lat": 38.0176226,
    "lng": 139.2731661,
    "tel": "0254-27-0808",
    "url": "http://www.m-wel.jp/",
    "pref": "新潟県",
    "city": "聖籠町",
    "category": "tokuyou",
    "serviceType": "介護老人福祉施設",
    "capacity": 80,
    "openDays": [],
    "openDaysNote": ""
  },
  {
    "id": "1571200136",
    "name": "特別養護老人ホームいわくすの里",
    "kana": "トクベツヨウゴロウジンホームイワクスノサト",
    "address": "村上市上の山2番17号特別養護老人ホームいわくすの里 特別養護老人ホームいわくすの里",
    "lat": 38.1847971,
    "lng": 139.4401639,
    "tel": "0254-50-2100",
    "url": "https://www.murakamiiwafune.or.jp/",
    "pref": "新潟県",
    "city": "村上市",
    "category": "tokuyou",
    "serviceType": "介護老人福祉施設",
    "capacity": 0,
    "openDays": [],
    "openDaysNote": ""
  },
  {
    "id": "1571200565",
    "name": "特別養護老人ホームさつき園",
    "kana": "トクベツヨウゴロウジンホームサツキエン",
    "address": "新潟県村上市北新保683番地9",
    "lat": 38.1715402,
    "lng": 139.4356989,
    "tel": "0254-66-8877",
    "url": "http://www.murakamiiwafune.or.jp",
    "pref": "新潟県",
    "city": "村上市",
    "category": "tokuyou",
    "serviceType": "介護老人福祉施設",
    "capacity": 0,
    "openDays": [],
    "openDaysNote": ""
  },
  {
    "id": "1571200557",
    "name": "特別養護老人ホームたかつぼ",
    "kana": "トクベツヨウゴロウジンホームタカツボ",
    "address": "新潟県村上市下鍜冶屋５７２番地７特別養護老人ホームたかつぼ 特別養護老人ホームたかつぼ",
    "lat": 38.1131984138452,
    "lng": 139.447711010207,
    "tel": "0254-62-1455",
    "url": "http://www.murakamiiwafune.or.jp/",
    "pref": "新潟県",
    "city": "村上市",
    "category": "tokuyou",
    "serviceType": "介護老人福祉施設",
    "capacity": 0,
    "openDays": [],
    "openDaysNote": ""
  },
  {
    "id": "1571200581",
    "name": "特別養護老人ホームゆり花園",
    "kana": "トクベツヨウゴロウジンホームユリハナエン",
    "address": "新潟県村上市勝木８６２番地１０",
    "lat": 38.4914330532798,
    "lng": 139.520902724606,
    "tel": "0254-77-2475",
    "url": "",
    "pref": "新潟県",
    "city": "村上市",
    "category": "tokuyou",
    "serviceType": "介護老人福祉施設",
    "capacity": 44,
    "openDays": [],
    "openDaysNote": ""
  },
  {
    "id": "1571200573",
    "name": "特別養護老人ホーム羽衣園",
    "kana": "トクベツヨウゴロウジンホームハゴロモエン",
    "address": "村上市岩沢1616番地",
    "lat": 38.2621243,
    "lng": 139.5346908,
    "tel": "0254-72-0055",
    "url": "http://www.murakamiiwafune.or.jp",
    "pref": "新潟県",
    "city": "村上市",
    "category": "tokuyou",
    "serviceType": "介護老人福祉施設",
    "capacity": 0,
    "openDays": [],
    "openDaysNote": ""
  },
  {
    "id": "1572500161",
    "name": "特別養護老人ホーム　第二胎内やすらぎの家",
    "kana": "トクベツヨウゴロウジンホーム　ダイニタイナイヤスラギノイエ",
    "address": "新潟県胎内市熱田坂８８１－８６",
    "lat": 38.0165412,
    "lng": 139.4969522,
    "tel": "0254-48-3134",
    "url": "http://tainai-yasuragi.com/",
    "pref": "新潟県",
    "city": "胎内市",
    "category": "tokuyou",
    "serviceType": "介護老人福祉施設",
    "capacity": 0,
    "openDays": [],
    "openDaysNote": ""
  },
  {
    "id": "1572500179",
    "name": "特別養護老人ホームとっさか",
    "kana": "トクベツヨウゴロウジンホームトッサカ",
    "address": "胎内市西本町11番27号",
    "lat": 38.0524552,
    "lng": 139.3944162,
    "tel": "0254-44-8588",
    "url": "https://www.ninohjikai.jp/",
    "pref": "新潟県",
    "city": "胎内市",
    "category": "tokuyou",
    "serviceType": "介護老人福祉施設",
    "capacity": 0,
    "openDays": [],
    "openDaysNote": ""
  },
  {
    "id": "1570203818",
    "name": "特別養護老人ホーム　あおいの里・長岡",
    "kana": "トクベツヨウゴロウジンホーム　アオイノサト・ナガオカ",
    "address": "新潟県長岡市稲葉町820番地6",
    "lat": 37.4775017,
    "lng": 138.8731304,
    "tel": "0258-25-1122",
    "url": "http://www.aoikai.jp/",
    "pref": "新潟県",
    "city": "長岡市",
    "category": "tokuyou",
    "serviceType": "介護老人福祉施設",
    "capacity": 80,
    "openDays": [],
    "openDaysNote": ""
  },
  {
    "id": "1570203537",
    "name": "特別養護老人ホーム　アカシアの丘黒条",
    "kana": "トクベツヨウゴロウジンホーム　アカシアノオカクロジョウ",
    "address": "新潟県長岡市黒津町字東田367番地",
    "lat": 37.4976537,
    "lng": 138.8589988,
    "tel": "0258-25-6110",
    "url": "http://houyuu-fukushi.jp",
    "pref": "新潟県",
    "city": "長岡市",
    "category": "tokuyou",
    "serviceType": "介護老人福祉施設",
    "capacity": 0,
    "openDays": [],
    "openDaysNote": ""
  },
  {
    "id": "1570201721",
    "name": "特別養護老人ホーム　おごしの里",
    "kana": "トクベツヨウゴロウジホーム　オゴシノサト",
    "address": "新潟県長岡市小国町楢沢90番地",
    "lat": 37.2878797,
    "lng": 138.7070425,
    "tel": "0258-95-3110",
    "url": "http://care-net.biz/15/ogoshi/",
    "pref": "新潟県",
    "city": "長岡市",
    "category": "tokuyou",
    "serviceType": "介護老人福祉施設",
    "capacity": 0,
    "openDays": [],
    "openDaysNote": ""
  },
  {
    "id": "1570202273",
    "name": "特別養護老人ホーム　サンホーム",
    "kana": "トクベツヨウゴロウジンホーム　サンホーム",
    "address": "長岡市楡原784番地13",
    "lat": 37.495554,
    "lng": 139.0009701,
    "tel": "0258-52-0151",
    "url": "http://care-net.biz/15/taiyo/",
    "pref": "新潟県",
    "city": "長岡市",
    "category": "tokuyou",
    "serviceType": "介護老人福祉施設",
    "capacity": 0,
    "openDays": [],
    "openDaysNote": ""
  },
  {
    "id": "1570201713",
    "name": "特別養護老人ホーム　みしま園",
    "kana": "トクベツヨウゴロウジンホーム　ミシマエン",
    "address": "新潟県長岡市宮沢580番地3",
    "lat": 37.5114692,
    "lng": 138.7826238,
    "tel": "0258-42-3131",
    "url": "http://www.nagaokasanko.or.jp/group/misimaen/",
    "pref": "新潟県",
    "city": "長岡市",
    "category": "tokuyou",
    "serviceType": "介護老人福祉施設",
    "capacity": 0,
    "openDays": [],
    "openDaysNote": ""
  },
  {
    "id": "1570201697",
    "name": "特別養護老人ホーム　わらび園",
    "kana": "トクベツヨウゴロウジンホーム　ワラビエン",
    "address": "長岡市浦３０６０番地",
    "lat": 37.3886346,
    "lng": 138.8041319,
    "tel": "0258-41-3150",
    "url": "https://warabien.jp",
    "pref": "新潟県",
    "city": "長岡市",
    "category": "tokuyou",
    "serviceType": "介護老人福祉施設",
    "capacity": 0,
    "openDays": [],
    "openDaysNote": ""
  },
  {
    "id": "1570202257",
    "name": "特別養護老人ホーム　桐原の郷",
    "kana": "トクベツヨウゴロウジンホーム　キリハラノサト",
    "address": "新潟県長岡市寺泊下桐３７００番地１",
    "lat": 37.6124536,
    "lng": 138.8072962,
    "tel": "0256-97-5000",
    "url": "https://www.nagaokasanko.or.jp/group/kirihara/",
    "pref": "新潟県",
    "city": "長岡市",
    "category": "tokuyou",
    "serviceType": "介護老人福祉施設",
    "capacity": 70,
    "openDays": [],
    "openDaysNote": ""
  },
  {
    "id": "1570201812",
    "name": "特別養護老人ホーム　縄文の杜関原",
    "kana": "トクベツヨウゴロウジンホーム　ジョウモンノモリセキハラ",
    "address": "新潟県長岡市関原町1丁目１０７２番地１",
    "lat": 37.4524929731331,
    "lng": 138.774669348352,
    "tel": "0258-21-5055",
    "url": "http://www.nagaokasanko.or.jp/group/joumon/",
    "pref": "新潟県",
    "city": "長岡市",
    "category": "tokuyou",
    "serviceType": "介護老人福祉施設",
    "capacity": 50,
    "openDays": [],
    "openDaysNote": ""
  },
  {
    "id": "1575700404",
    "name": "特別養護老人ホームあおりの里",
    "kana": "トクベツヨウゴロウジンホームアオリノサト",
    "address": "長岡市西川口1173番地3",
    "lat": 37.2643504,
    "lng": 138.8606782,
    "tel": "0258-89-4880",
    "url": "http://ok-fukushikai.com/",
    "pref": "新潟県",
    "city": "長岡市",
    "category": "tokuyou",
    "serviceType": "介護老人福祉施設",
    "capacity": null,
    "openDays": [],
    "openDaysNote": ""
  },
  {
    "id": "1570202265",
    "name": "特別養護老人ホームいずみ苑",
    "kana": "トクベツヨウゴロウジンホームイズミエン",
    "address": "長岡市栃尾泉419番地2",
    "lat": 37.4512952,
    "lng": 139.0116404,
    "tel": "0258-53-2211",
    "url": "http://izumien-kariyada.jp/",
    "pref": "新潟県",
    "city": "長岡市",
    "category": "tokuyou",
    "serviceType": "介護老人福祉施設",
    "capacity": 120,
    "openDays": [],
    "openDaysNote": ""
  },
  {
    "id": "1570200392",
    "name": "特別養護老人ホームかつぼ園",
    "kana": "トクベツヨウゴロウジンホームカツボエン",
    "address": "新潟県長岡市加津保町1695番地2",
    "lat": 37.4748018,
    "lng": 138.9171407,
    "tel": "0258-44-8338",
    "url": "http://www.katuboen.or.jp",
    "pref": "新潟県",
    "city": "長岡市",
    "category": "tokuyou",
    "serviceType": "介護老人福祉施設",
    "capacity": 100,
    "openDays": [],
    "openDaysNote": ""
  },
  {
    "id": "1570201705",
    "name": "特別養護老人ホームこしじの里",
    "kana": "トクベツヨウゴロウジンホームコシジノサト",
    "address": "新潟県長岡市不動沢２２１９番地５",
    "lat": 37.3710029,
    "lng": 138.7460658,
    "tel": "0258-41-0801",
    "url": "http://care-net.biz/15/ogoshi/",
    "pref": "新潟県",
    "city": "長岡市",
    "category": "tokuyou",
    "serviceType": "介護老人福祉施設",
    "capacity": 50,
    "openDays": [],
    "openDaysNote": ""
  },
  {
    "id": "1570203131",
    "name": "特別養護老人ホームこしじの里（ユニット）",
    "kana": "トクベツヨウゴロウジンホームコシジノサト（ユニット）",
    "address": "新潟県長岡市不動沢2219番地5",
    "lat": 37.3710029,
    "lng": 138.7460658,
    "tel": "0258－41－0801",
    "url": "http://care-net.biz/15/ogoshi/",
    "pref": "新潟県",
    "city": "長岡市",
    "category": "tokuyou",
    "serviceType": "介護老人福祉施設",
    "capacity": 40,
    "openDays": [],
    "openDaysNote": ""
  },
  {
    "id": "1570200384",
    "name": "特別養護老人ホームこぶし園",
    "kana": "トクベツヨウゴロウジンホームコブシエン",
    "address": "新潟県長岡市喜多町2900番地",
    "lat": 37.4530083,
    "lng": 138.805306,
    "tel": "0258-20-5170",
    "url": "http://www.kobushien.com",
    "pref": "新潟県",
    "city": "長岡市",
    "category": "tokuyou",
    "serviceType": "介護老人福祉施設",
    "capacity": 60,
    "openDays": [],
    "openDaysNote": ""
  },
  {
    "id": "1570203453",
    "name": "特別養護老人ホームサクラーレ福住",
    "kana": "トクベツヨウゴロウジンホームサクラーレフクズミ",
    "address": "長岡市福住２丁目１番７号",
    "lat": 37.4511703,
    "lng": 138.8578291,
    "tel": "0258-35-5590",
    "url": "http://www.nagaokasanko.com",
    "pref": "新潟県",
    "city": "長岡市",
    "category": "tokuyou",
    "serviceType": "介護老人福祉施設",
    "capacity": 0,
    "openDays": [],
    "openDaysNote": ""
  },
  {
    "id": "1570203651",
    "name": "特別養護老人ホームはるか",
    "kana": "トクベツヨウゴロウジンホームハルカ",
    "address": "新潟県長岡市花園南2丁目337番地",
    "lat": 37.4306309622025,
    "lng": 138.865364242081,
    "tel": "０２５８－３８－０８５０",
    "url": "http://www.nijinomachi.jp/index.html",
    "pref": "新潟県",
    "city": "長岡市",
    "category": "tokuyou",
    "serviceType": "介護老人福祉施設",
    "capacity": 0,
    "openDays": [],
    "openDaysNote": ""
  },
  {
    "id": "1570200400",
    "name": "特別養護老人ホームまちだ園",
    "kana": "トクベツヨウゴロウジンホームマチダエン",
    "address": "新潟県長岡市町田町５４０番地",
    "lat": 37.4183988,
    "lng": 138.8607659,
    "tel": "0258-39-3927",
    "url": "http://www.machidaen.jp",
    "pref": "新潟県",
    "city": "長岡市",
    "category": "tokuyou",
    "serviceType": "介護老人福祉施設",
    "capacity": 80,
    "openDays": [],
    "openDaysNote": ""
  },
  {
    "id": "1570200897",
    "name": "特別養護老人ホーム岡南の郷",
    "kana": "トクベツヨウゴロウジンホームコウナンノサト",
    "address": "新潟県長岡市渡沢町字早田53番地",
    "lat": 37.378384851225,
    "lng": 138.845652342703,
    "tel": "0258-23-7511",
    "url": "http://kounannosato.jp/",
    "pref": "新潟県",
    "city": "長岡市",
    "category": "tokuyou",
    "serviceType": "介護老人福祉施設",
    "capacity": 82,
    "openDays": [],
    "openDaysNote": ""
  },
  {
    "id": "1570201838",
    "name": "特別養護老人ホーム中之島",
    "kana": "トクベツヨウゴロウジンホームナカノシマ",
    "address": "長岡市中之島2105番地６",
    "lat": 37.535680215766,
    "lng": 138.873007212273,
    "tel": "0258-61-2828",
    "url": "http://www.nagaokasanko.or.jp/group/nakanosima/",
    "pref": "新潟県",
    "city": "長岡市",
    "category": "tokuyou",
    "serviceType": "介護老人福祉施設",
    "capacity": 80,
    "openDays": [],
    "openDaysNote": ""
  },
  {
    "id": "1570200418",
    "name": "特別養護老人ホーム槇山けやき苑",
    "kana": "トクベツヨウゴロウジンホームマキヤマケヤキエン",
    "address": "長岡市槇山町1593番地1",
    "lat": 37.4810551,
    "lng": 138.8374492,
    "tel": "0258-29-2500",
    "url": "http://www.nagaokasanko.com",
    "pref": "新潟県",
    "city": "長岡市",
    "category": "tokuyou",
    "serviceType": "介護老人福祉施設",
    "capacity": 80,
    "openDays": [],
    "openDaysNote": ""
  },
  {
    "id": "1575900137",
    "name": "特別養護老人ホーム　恵福園",
    "kana": "トクベツヨウゴロウジンホーム　ケイフクエン",
    "address": "新潟県中魚沼郡津南町大字下船渡丁2682-3",
    "lat": 37.0154851,
    "lng": 138.6491057,
    "tel": "025-765-3700",
    "url": "http://www.keifukuen.or.jp",
    "pref": "新潟県",
    "city": "津南町",
    "category": "tokuyou",
    "serviceType": "介護老人福祉施設",
    "capacity": 87,
    "openDays": [],
    "openDaysNote": ""
  },
  {
    "id": "1575900285",
    "name": "特別養護老人ホームみさと苑",
    "kana": "トクベツヨウゴロウジンホームミサトエン",
    "address": "新潟県中魚沼郡津南町大字芦ヶ崎乙317-1特別養護老人ホームみさと苑 特別養護老人ホームみさと苑",
    "lat": 37.0045096,
    "lng": 138.63445,
    "tel": "025-765-3400",
    "url": "http://naebafukushikai.com/facilities/facility/172",
    "pref": "新潟県",
    "city": "津南町",
    "category": "tokuyou",
    "serviceType": "介護老人福祉施設",
    "capacity": 0,
    "openDays": [],
    "openDaysNote": ""
  },
  {
    "id": "1575300130",
    "name": "特別養護老人ホーム　あじさいの里",
    "kana": "トクベツヨウゴロウジンホーム　アジサイノサト",
    "address": "新潟県南蒲原郡田上町大字田上丙2987-1",
    "lat": 37.7202909,
    "lng": 139.0774547,
    "tel": "0256-57-2000",
    "url": "http://www.gomadou-azisai.jp",
    "pref": "新潟県",
    "city": "田上町",
    "category": "tokuyou",
    "serviceType": "介護老人福祉施設",
    "capacity": 0,
    "openDays": [],
    "openDaysNote": ""
  },
  {
    "id": "1575800311",
    "name": "特別養護老人ホームゆのさと園",
    "kana": "トクベツヨウゴロウジンホームユノサトエン",
    "address": "新潟県南魚沼郡湯沢町大字神立1647番地275",
    "lat": 36.9294951,
    "lng": 138.8321695,
    "tel": "025-784-3785",
    "url": "http://minamiuonuma.or.jp",
    "pref": "新潟県",
    "city": "湯沢町",
    "category": "tokuyou",
    "serviceType": "介護老人福祉施設",
    "capacity": 0,
    "openDays": [],
    "openDaysNote": ""
  },
  {
    "id": "1575800691",
    "name": "特別養護老人ホームゆのさと園（ユニット）",
    "kana": "トクベツヨウゴロウジンホームユノサトエン（ユニット）",
    "address": "新潟県南魚沼郡湯沢町大字神立1647番地275",
    "lat": 36.9294951,
    "lng": 138.8321695,
    "tel": "025-784-3785",
    "url": "http://minamiuonuma.or.jp",
    "pref": "新潟県",
    "city": "湯沢町",
    "category": "tokuyou",
    "serviceType": "介護老人福祉施設",
    "capacity": 0,
    "openDays": [],
    "openDaysNote": ""
  },
  {
    "id": "1572400289",
    "name": "魚沼地域特別養護老人ホーム八色園",
    "kana": "ウオヌマチイキトクベツヨウゴロウジンホームヤイロエン",
    "address": "新潟県南魚沼市浦佐４０５９－１",
    "lat": 37.1701323,
    "lng": 138.9361853,
    "tel": "025-777-3811",
    "url": "http://www.yairoen.jp",
    "pref": "新潟県",
    "city": "南魚沼市",
    "category": "tokuyou",
    "serviceType": "介護老人福祉施設",
    "capacity": 0,
    "openDays": [],
    "openDaysNote": ""
  },
  {
    "id": "1572400750",
    "name": "特別養護老人ホーム　こころの杜",
    "kana": "トクベツヨウゴロウジンホーム　ココロノモリ",
    "address": "南魚沼市六日町1148番地1",
    "lat": 37.0579116,
    "lng": 138.8767567,
    "tel": "025-770-1123",
    "url": "http://naebafukushikai.com/",
    "pref": "新潟県",
    "city": "南魚沼市",
    "category": "tokuyou",
    "serviceType": "介護老人福祉施設",
    "capacity": 0,
    "openDays": [],
    "openDaysNote": ""
  },
  {
    "id": "1572400578",
    "name": "特別養護老人ホームまいこ園",
    "kana": "トクベツヨウゴロウジンホームマイコエン",
    "address": "新潟県南魚沼市仙石１番地１８特別養護老人ホームまいこ園 特別養護老人ホームまいこ園",
    "lat": 37.0063528,
    "lng": 138.841398,
    "tel": "025-782-1655",
    "url": "https://minamiuonuma.or.jp/",
    "pref": "新潟県",
    "city": "南魚沼市",
    "category": "tokuyou",
    "serviceType": "介護老人福祉施設",
    "capacity": 0,
    "openDays": [],
    "openDaysNote": ""
  },
  {
    "id": "1572400271",
    "name": "特別養護老人ホームみなみ園",
    "kana": "トクベツヨウゴロウジンホームミナミエン",
    "address": "南魚沼市六日町712-4",
    "lat": 37.0553699,
    "lng": 138.8651692,
    "tel": "025-773-3155",
    "url": "http://minamiuonuma.or.jp",
    "pref": "新潟県",
    "city": "南魚沼市",
    "category": "tokuyou",
    "serviceType": "介護老人福祉施設",
    "capacity": 0,
    "openDays": [],
    "openDaysNote": ""
  },
  {
    "id": "1572401204",
    "name": "特別養護老人ホーム坂戸楽生園",
    "kana": "トクベツヨウゴロウジンホームサカドラクセイエン",
    "address": "新潟県南魚沼市坂戸7番地3",
    "lat": 37.0606942,
    "lng": 138.8825726,
    "tel": "025-772-8188",
    "url": "https://www.akebono.or.jp/r_top.html",
    "pref": "新潟県",
    "city": "南魚沼市",
    "category": "tokuyou",
    "serviceType": "介護老人福祉施設",
    "capacity": null,
    "openDays": [],
    "openDaysNote": ""
  },
  {
    "id": "1572400909",
    "name": "特別養護老人ホーム雪椿の里",
    "kana": "トクベツヨウゴロウジンホームユキツバキノサト",
    "address": "新潟県南魚沼市穴地１４番地１",
    "lat": 37.1367999518963,
    "lng": 138.954128392065,
    "tel": "０２５－７８０－１１５５",
    "url": "https://yukitsubakinosato.com",
    "pref": "新潟県",
    "city": "南魚沼市",
    "category": "tokuyou",
    "serviceType": "介護老人福祉施設",
    "capacity": 80,
    "openDays": [],
    "openDaysNote": ""
  },
  {
    "id": "1570500775",
    "name": "特別養護老人ホーム　くじらなみ",
    "kana": "トクベツヨウゴロウジンホーム　クジラナミ",
    "address": "新潟県柏崎市鯨波二丁目4番3号",
    "lat": 37.3552174,
    "lng": 138.5172765,
    "tel": "0257-32-1120",
    "url": "http://www.fuku-seizankai.jp/",
    "pref": "新潟県",
    "city": "柏崎市",
    "category": "tokuyou",
    "serviceType": "介護老人福祉施設",
    "capacity": 0,
    "openDays": [],
    "openDaysNote": ""
  },
  {
    "id": "1570500460",
    "name": "特別養護老人ホーム　なごみ荘",
    "kana": "トクベツヨウゴロウジンホーム　ナゴミソウ",
    "address": "柏崎市原町４番２３号",
    "lat": 37.3891704,
    "lng": 138.5868603,
    "tel": "0257-24-4300",
    "url": "https://www.kashikari-fukushi.com",
    "pref": "新潟県",
    "city": "柏崎市",
    "category": "tokuyou",
    "serviceType": "介護老人福祉施設",
    "capacity": 0,
    "openDays": [],
    "openDaysNote": ""
  },
  {
    "id": "1570501237",
    "name": "特別養護老人ホーム　ペペ・メメール",
    "kana": "トクベツヨウゴロウジンホーム　ペペメメール",
    "address": "新潟県柏崎市鏡町2番14号",
    "lat": 37.3660923,
    "lng": 138.5592364,
    "tel": "0257-41-6601",
    "url": "http://www.fuku-seizankai.jp/",
    "pref": "新潟県",
    "city": "柏崎市",
    "category": "tokuyou",
    "serviceType": "介護老人福祉施設",
    "capacity": 100,
    "openDays": [],
    "openDaysNote": ""
  },
  {
    "id": "1570500130",
    "name": "特別養護老人ホームいこいの里",
    "kana": "トクベツヨウゴロウジンホーム　イコイノサト",
    "address": "新潟県柏崎市大字佐水3140番地",
    "lat": 37.2875521,
    "lng": 138.5721686,
    "tel": "0257-29-3800",
    "url": "http://www.fuku-seizankai.jp/",
    "pref": "新潟県",
    "city": "柏崎市",
    "category": "tokuyou",
    "serviceType": "介護老人福祉施設",
    "capacity": 0,
    "openDays": [],
    "openDaysNote": ""
  },
  {
    "id": "1570500148",
    "name": "特別養護老人ホームしおかぜ荘",
    "kana": "トクベツヨウゴロウジンホームシオカゼソウ",
    "address": "柏崎市北園町２１－１９",
    "lat": 37.3813238,
    "lng": 138.5615135,
    "tel": "0257-24-4170",
    "url": "https://www.kashikari-fukushi.com/facility/shiokaze/",
    "pref": "新潟県",
    "city": "柏崎市",
    "category": "tokuyou",
    "serviceType": "介護老人福祉施設",
    "capacity": null,
    "openDays": [],
    "openDaysNote": ""
  },
  {
    "id": "1570500676",
    "name": "特別養護老人ホームにしかりの里",
    "kana": "トクベツヨウゴロウジンホームニシカリノサト",
    "address": "柏崎市西山町長嶺1726番地1",
    "lat": 37.4509078,
    "lng": 138.6414588,
    "tel": "0257-48-3600",
    "url": "http://www.nishikari.jp/",
    "pref": "新潟県",
    "city": "柏崎市",
    "category": "tokuyou",
    "serviceType": "介護老人福祉施設",
    "capacity": 0,
    "openDays": [],
    "openDaysNote": ""
  },
  {
    "id": "1570500122",
    "name": "特別養護老人ホームむつみ荘",
    "kana": "トクベツヨウゴロウジンホームムツミソウ",
    "address": "新潟県柏崎市大字畔屋392番地1",
    "lat": 37.3687262,
    "lng": 138.6199412,
    "tel": "0257-21-1300",
    "url": "https://www.kashikari-fukushi.com/",
    "pref": "新潟県",
    "city": "柏崎市",
    "category": "tokuyou",
    "serviceType": "介護老人福祉施設",
    "capacity": 0,
    "openDays": [],
    "openDaysNote": ""
  },
  {
    "id": "1570500619",
    "name": "特別養護老人ホーム柏柳の里",
    "kana": "トクベツヨウゴロウジンホームハクリュウノサト",
    "address": "新潟県柏崎市高柳町岡野町2254番地1柏柳の里 柏柳の里",
    "lat": 37.2170127719567,
    "lng": 138.637755877246,
    "tel": "0257-41-2202",
    "url": "https://www.fuku-seizankai.jp/",
    "pref": "新潟県",
    "city": "柏崎市",
    "category": "tokuyou",
    "serviceType": "介護老人福祉施設",
    "capacity": 70,
    "openDays": [],
    "openDaysNote": ""
  },
  {
    "id": "1571600756",
    "name": "特別養護老人ホーム　わかつき妙高",
    "kana": "トクベツヨウゴロウジンホーム　ワカツキミョウコウ",
    "address": "新潟県妙高市大字志976番地",
    "lat": 37.0062166364982,
    "lng": 138.213772840167,
    "tel": "0255-78-7086",
    "url": "http://akariya.ltd/office/myoko/",
    "pref": "新潟県",
    "city": "妙高市",
    "category": "tokuyou",
    "serviceType": "介護老人福祉施設",
    "capacity": 0,
    "openDays": [],
    "openDaysNote": ""
  },
  {
    "id": "1571600731",
    "name": "特別養護老人ホームあいれふ妙高",
    "kana": "トクベツヨウゴロウジンホームアイレフミョウコウ",
    "address": "新潟県妙高市大字除戸243番地",
    "lat": 36.9759416821816,
    "lng": 138.271819139758,
    "tel": "0255-75-2511",
    "url": "https://airefu.or.jp",
    "pref": "新潟県",
    "city": "妙高市",
    "category": "tokuyou",
    "serviceType": "介護老人福祉施設",
    "capacity": 80,
    "openDays": [],
    "openDaysNote": ""
  },
  {
    "id": "1571600616",
    "name": "特別養護老人ホームブナの里",
    "kana": "トクベツヨウゴロウジンホームブナノサト",
    "address": "新潟県妙高市大字西田屋新田247",
    "lat": 36.9511662,
    "lng": 138.2525285,
    "tel": "0255-81-3232",
    "url": "http://care-net.biz/15/bunanosato/",
    "pref": "新潟県",
    "city": "妙高市",
    "category": "tokuyou",
    "serviceType": "介護老人福祉施設",
    "capacity": 80,
    "openDays": [],
    "openDaysNote": ""
  },
  {
    "id": "1571600087",
    "name": "特別養護老人ホームみなかみの里",
    "kana": "トクベツヨウゴロウジンホームミナカミノサト",
    "address": "新潟県妙高市大字上新保549番地",
    "lat": 37.0211444,
    "lng": 138.2655687,
    "tel": "0255-73-7733",
    "url": "http://www.araikeinanfukushikai.or.jp",
    "pref": "新潟県",
    "city": "妙高市",
    "category": "tokuyou",
    "serviceType": "介護老人福祉施設",
    "capacity": 0,
    "openDays": [],
    "openDaysNote": ""
  },
  {
    "id": "1571600442",
    "name": "特別養護老人ホーム名香山苑",
    "kana": "トクベツヨウゴロウジンホームナカヤマエン",
    "address": "新潟県妙高市大字関川733－20",
    "lat": 36.8697579,
    "lng": 138.2044708,
    "tel": "0255-86-5321",
    "url": "http://www.araikeinanfukushikai.or.jp",
    "pref": "新潟県",
    "city": "妙高市",
    "category": "tokuyou",
    "serviceType": "介護老人福祉施設",
    "capacity": 0,
    "openDays": [],
    "openDaysNote": ""
  },
  {
    "id": "1575200553",
    "name": "特別養護老人ホーム　桜井の里",
    "kana": "トクベツヨウゴロウジンホーム　サクライノサト",
    "address": "新潟県西蒲原郡弥彦村大字麓3036番地",
    "lat": 37.6800632,
    "lng": 138.8265211,
    "tel": "0256-94-3939",
    "url": "http://www.sakurai-fukushi.or.jp/",
    "pref": "新潟県",
    "city": "弥彦村",
    "category": "tokuyou",
    "serviceType": "介護老人福祉施設",
    "capacity": 50,
    "openDays": [],
    "openDaysNote": ""
  }
]