[
  {
    "id": "1374900155",
    "name": "こもれびの郷",
    "kana": "コモレビノサト",
    "address": "東京都あきる野市雨間385-2",
    "lat": 35.7261147,
    "lng": 139.2898339,
    "tel": "042-550-3030",
    "url": "http://www.komorebinosato.or.jp",
    "pref": "東京都",
    "city": "あきる野市",
    "category": "tokuyou",
    "serviceType": "介護老人福祉施設",
    "capacity": 80,
    "openDays": [],
    "openDaysNote": ""
  },
  {
    "id": "1374900098",
    "name": "介護老人福祉施設増戸ホーム",
    "kana": "カイゴロウジンフクシシセツマスコホーム",
    "address": "東京都あきる野市三内485－1",
    "lat": 35.7381575281717,
    "lng": 139.229365428836,
    "tel": "042-596-3456",
    "url": "http://www.shirayurikai.tokyo/masukohome/",
    "pref": "東京都",
    "city": "あきる野市",
    "category": "tokuyou",
    "serviceType": "介護老人福祉施設",
    "capacity": 100,
    "openDays": [],
    "openDaysNote": ""
  },
  {
    "id": "1374900064",
    "name": "五日市ホーム",
    "kana": "イツカイチホーム",
    "address": "東京都あきる野市三内436番地１",
    "lat": 35.7377221,
    "lng": 139.2293547,
    "tel": "042-596-0781",
    "url": "http://www.seimeikai.org/itukaiti/index.html",
    "pref": "東京都",
    "city": "あきる野市",
    "category": "tokuyou",
    "serviceType": "介護老人福祉施設",
    "capacity": 0,
    "openDays": [],
    "openDaysNote": ""
  },
  {
    "id": "1374900080",
    "name": "紫水園",
    "kana": "シスイエン",
    "address": "東京都あきる野市留原３９６番地",
    "lat": 35.7201748,
    "lng": 139.2282368,
    "tel": "042-595-0082",
    "url": "http://www.shisuien.or.jp",
    "pref": "東京都",
    "city": "あきる野市",
    "category": "tokuyou",
    "serviceType": "介護老人福祉施設",
    "capacity": 100,
    "openDays": [],
    "openDaysNote": ""
  },
  {
    "id": "1374900114",
    "name": "社会福祉法人　松楓会　特別養護老人ホーム　コスモホーム",
    "kana": "シャカイフクシホウジン　ショウフウカイ　トクベツヨウゴロウジンホーム　コスモホーム",
    "address": "東京都あきる野市菅生１１５９番地",
    "lat": 35.7505910958604,
    "lng": 139.285430324992,
    "tel": "042-558-7010",
    "url": "https://www.pinemaple.or.jp/",
    "pref": "東京都",
    "city": "あきる野市",
    "category": "tokuyou",
    "serviceType": "介護老人福祉施設",
    "capacity": 100,
    "openDays": [],
    "openDaysNote": ""
  },
  {
    "id": "1374900189",
    "name": "草花苑",
    "kana": "クサバナエン",
    "address": "東京都あきる野市草花１９８０番地",
    "lat": 35.7504957,
    "lng": 139.3093029,
    "tel": "042-559-8131",
    "url": "http://www.keiryu.or.jp/",
    "pref": "東京都",
    "city": "あきる野市",
    "category": "tokuyou",
    "serviceType": "介護老人福祉施設",
    "capacity": 0,
    "openDays": [],
    "openDaysNote": ""
  },
  {
    "id": "1374900122",
    "name": "第二紫水園",
    "kana": "ダイニシスイエン",
    "address": "東京都あきる野市小和田１５－４",
    "lat": 35.72206603346,
    "lng": 139.224958465621,
    "tel": "042-596-5280",
    "url": "http://dainishisuien.or.jp",
    "pref": "東京都",
    "city": "あきる野市",
    "category": "tokuyou",
    "serviceType": "介護老人福祉施設",
    "capacity": 100,
    "openDays": [],
    "openDaysNote": ""
  },
  {
    "id": "1374900106",
    "name": "特別養護老人ホーム　南聖園",
    "kana": "トクベツヨウゴロウジンホーム　ナンセイエン",
    "address": "東京都あきる野市瀬戸岡３０５番地１",
    "lat": 35.7347688913997,
    "lng": 139.286192481701,
    "tel": "042-559-2111",
    "url": "http://e-seiaikai.com",
    "pref": "東京都",
    "city": "あきる野市",
    "category": "tokuyou",
    "serviceType": "介護老人福祉施設",
    "capacity": 120,
    "openDays": [],
    "openDaysNote": ""
  },
  {
    "id": "1374900163",
    "name": "特別養護老人ホーム　麦久保園",
    "kana": "トクベツヨウゴロウジンホウム　ムギクボエン",
    "address": "東京都あきる野市草花2219番地特別養護老人ホーム　麦久保園 特別養護老人ホーム　麦久保園",
    "lat": 35.7492097,
    "lng": 139.3067727,
    "tel": "042-550-2201",
    "url": "https://www.mugikubo.jp",
    "pref": "東京都",
    "city": "あきる野市",
    "category": "tokuyou",
    "serviceType": "介護老人福祉施設",
    "capacity": 100,
    "openDays": [],
    "openDaysNote": ""
  },
  {
    "id": "1374900148",
    "name": "特別養護老人ホームあたご苑",
    "kana": "トクベツヨウゴロウジンホームアタゴエン",
    "address": "東京都あきる野市入野811番地",
    "lat": 35.7362506,
    "lng": 139.2209194,
    "tel": "042-596-5151",
    "url": "https://atagoen.com",
    "pref": "東京都",
    "city": "あきる野市",
    "category": "tokuyou",
    "serviceType": "介護老人福祉施設",
    "capacity": 100,
    "openDays": [],
    "openDaysNote": ""
  },
  {
    "id": "1375200043",
    "name": "特別養護老人ホームほたるの郷",
    "kana": "トクベツヨウゴロウジンホームホタルノサト",
    "address": "東京都あきる野市菅生1453",
    "lat": 35.7539196,
    "lng": 139.286219,
    "tel": "042-550-8570",
    "url": "http://www.hotaru-home.jp",
    "pref": "東京都",
    "city": "あきる野市",
    "category": "tokuyou",
    "serviceType": "介護老人福祉施設",
    "capacity": 100,
    "openDays": [],
    "openDaysNote": ""
  },
  {
    "id": "1374900197",
    "name": "特別養護老人ホーム福楽園",
    "kana": "トクベツヨウゴロウジンホームフクラクエン",
    "address": "東京都あきる野市網代326-1",
    "lat": 35.719815,
    "lng": 139.2545396,
    "tel": "042-596-4112",
    "url": "http://www.fukurakuen.jp",
    "pref": "東京都",
    "city": "あきる野市",
    "category": "tokuyou",
    "serviceType": "介護老人福祉施設",
    "capacity": 120,
    "openDays": [],
    "openDaysNote": ""
  },
  {
    "id": "1374900072",
    "name": "和敬園",
    "kana": "ワケイエン",
    "address": "東京都あきる野市菅生１１５９番地",
    "lat": 35.7507783,
    "lng": 139.2864442,
    "tel": "042-558-7012",
    "url": "https://www.pinemaple.or.jp/",
    "pref": "東京都",
    "city": "あきる野市",
    "category": "tokuyou",
    "serviceType": "介護老人福祉施設",
    "capacity": 100,
    "openDays": [],
    "openDaysNote": ""
  },
  {
    "id": "1375100060",
    "name": "いなぎ苑",
    "kana": "イナギエン",
    "address": "東京都稲城市百村255番地",
    "lat": 35.6354235,
    "lng": 139.4919928,
    "tel": "042-379-5500",
    "url": "http://www.inagien.or.jp.",
    "pref": "東京都",
    "city": "稲城市",
    "category": "tokuyou",
    "serviceType": "介護老人福祉施設",
    "capacity": 60,
    "openDays": [],
    "openDaysNote": ""
  },
  {
    "id": "1375100052",
    "name": "いなぎ正吉苑",
    "kana": "イナギショウキチエン",
    "address": "東京都稲城市平尾四丁目16番地の1",
    "lat": 35.6154098,
    "lng": 139.4839389,
    "tel": "042-331-2001",
    "url": "http://www.shoukichi.org/",
    "pref": "東京都",
    "city": "稲城市",
    "category": "tokuyou",
    "serviceType": "介護老人福祉施設",
    "capacity": 100,
    "openDays": [],
    "openDaysNote": ""
  },
  {
    "id": "1375100078",
    "name": "介護老人福祉施設　ひらお苑",
    "kana": "カイゴロウジンフクシシセツ　ヒラオエン",
    "address": "東京都稲城市平尾2-49-20",
    "lat": 35.6083257,
    "lng": 139.493511,
    "tel": "042-331-5666",
    "url": "http://www.hiraokai.or.jp",
    "pref": "東京都",
    "city": "稲城市",
    "category": "tokuyou",
    "serviceType": "介護老人福祉施設",
    "capacity": 174,
    "openDays": [],
    "openDaysNote": ""
  },
  {
    "id": "1375300348",
    "name": "羽村園",
    "kana": "ハムラエン",
    "address": "東京都羽村市羽６９０－１７",
    "lat": 35.7548260938706,
    "lng": 139.304218447671,
    "tel": "042-550-7888",
    "url": "https://www.hamuraen.jp/",
    "pref": "東京都",
    "city": "羽村市",
    "category": "tokuyou",
    "serviceType": "介護老人福祉施設",
    "capacity": 132,
    "openDays": [],
    "openDaysNote": ""
  },
  {
    "id": "1372400265",
    "name": "多摩の里むさしの園",
    "kana": "タマノサトムサシノエン",
    "address": "東京都羽村市五ノ神362番地",
    "lat": 35.7705540216304,
    "lng": 139.332568550263,
    "tel": "042-555-8151",
    "url": "http://www.enseikai.com/",
    "pref": "東京都",
    "city": "羽村市",
    "category": "tokuyou",
    "serviceType": "介護老人福祉施設",
    "capacity": 150,
    "openDays": [],
    "openDaysNote": ""
  },
  {
    "id": "1372400281",
    "name": "特別養護老人ホーム　神明園",
    "kana": "トクベツヨウゴロウジンホーム　シンメイエン",
    "address": "東京都羽村市神明台4-2-2",
    "lat": 35.7575899,
    "lng": 139.3277538,
    "tel": "042-579-2711",
    "url": "https://www.sinmeien.or.jp",
    "pref": "東京都",
    "city": "羽村市",
    "category": "tokuyou",
    "serviceType": "介護老人福祉施設",
    "capacity": 120,
    "openDays": [],
    "openDaysNote": ""
  },
  {
    "id": "1372400182",
    "name": "グリーンウッド奥多摩",
    "kana": "グリーンウッドオクタマ",
    "address": "東京都西多摩郡奥多摩町白丸263番地",
    "lat": 35.8117936,
    "lng": 139.1129895,
    "tel": "0428-83-3733",
    "url": "http://www.green-wood.jp/",
    "pref": "東京都",
    "city": "奥多摩町",
    "category": "tokuyou",
    "serviceType": "介護老人福祉施設",
    "capacity": 100,
    "openDays": [],
    "openDaysNote": ""
  },
  {
    "id": "1372400224",
    "name": "シルバーコート丹三郎",
    "kana": "シルバーコートタンザブロウ",
    "address": "東京都西多摩郡奥多摩町丹三郎56-1",
    "lat": 35.8069644,
    "lng": 139.1608212,
    "tel": "0428-85-1171",
    "url": "http://www.hakujyu.or.jp",
    "pref": "東京都",
    "city": "奥多摩町",
    "category": "tokuyou",
    "serviceType": "介護老人福祉施設",
    "capacity": 100,
    "openDays": [],
    "openDaysNote": ""
  },
  {
    "id": "1372400141",
    "name": "琴清苑",
    "kana": "キンセイエン",
    "address": "東京都西多摩郡奥多摩町氷川１１３９",
    "lat": 35.8014947864149,
    "lng": 139.08798298751,
    "tel": "0428-83-3932",
    "url": "http://www.futabakai.or.jp",
    "pref": "東京都",
    "city": "奥多摩町",
    "category": "tokuyou",
    "serviceType": "介護老人福祉施設",
    "capacity": 94,
    "openDays": [],
    "openDaysNote": ""
  },
  {
    "id": "1372400125",
    "name": "寿楽荘",
    "kana": "ジュラクソウ",
    "address": "東京都西多摩郡奥多摩町海澤497",
    "lat": 35.8000978898471,
    "lng": 139.117181746033,
    "tel": "0428-83-2338",
    "url": "https://www.futabakai.or.jp/",
    "pref": "東京都",
    "city": "奥多摩町",
    "category": "tokuyou",
    "serviceType": "介護老人福祉施設",
    "capacity": 0,
    "openDays": [],
    "openDaysNote": ""
  },
  {
    "id": "1372203891",
    "name": "ル・ソラリオン葛飾",
    "kana": "ル　ソラリオン　カツシカ",
    "address": "東京都葛飾区青戸４－１６－７",
    "lat": 35.7509461,
    "lng": 139.8500789,
    "tel": "03-3601-3711",
    "url": "https://www.med-wel.jp/katushika/",
    "pref": "東京都",
    "city": "葛飾区",
    "category": "tokuyou",
    "serviceType": "介護老人福祉施設",
    "capacity": 140,
    "openDays": [],
    "openDaysNote": ""
  },
  {
    "id": "1372208379",
    "name": "介護老人福祉施設ケアホーム葛飾",
    "kana": "カイゴロウジンフクシシセツケアホームカツシカ",
    "address": "東京都葛飾区小菅1-35-10なし なし",
    "lat": 35.7569755,
    "lng": 139.8152396,
    "tel": "03-3602-5900",
    "url": "https://katsushika.tokuyou.jp",
    "pref": "東京都",
    "city": "葛飾区",
    "category": "tokuyou",
    "serviceType": "介護老人福祉施設",
    "capacity": 120,
    "openDays": [],
    "openDaysNote": ""
  },
  {
    "id": "1372200517",
    "name": "水元園",
    "kana": "ミズモトエン",
    "address": "東京都葛飾区西水元４－６－１",
    "lat": 35.7943846,
    "lng": 139.8466611,
    "tel": "03-3607-4060",
    "url": "http://www.jinseisha.jp",
    "pref": "東京都",
    "city": "葛飾区",
    "category": "tokuyou",
    "serviceType": "介護老人福祉施設",
    "capacity": 100,
    "openDays": [],
    "openDaysNote": ""
  },
  {
    "id": "1372201242",
    "name": "西水元ナーシングホーム",
    "kana": "ニシミズモトナーシングホーム",
    "address": "東京都葛飾区西水元六丁目１２番２号",
    "lat": 35.7904075,
    "lng": 139.854405,
    "tel": "03-3607-0050",
    "url": "http://care-net.biz/13/tosyou/",
    "pref": "東京都",
    "city": "葛飾区",
    "category": "tokuyou",
    "serviceType": "介護老人福祉施設",
    "capacity": 57,
    "openDays": [],
    "openDaysNote": ""
  },
  {
    "id": "1372200541",
    "name": "東四つ木ほほえみの里",
    "kana": "ヒガシヨツギホホエミノサト",
    "address": "東京都葛飾区東四つ木２－２７－１",
    "lat": 35.7322778082215,
    "lng": 139.844061569312,
    "tel": "03-5698-2210",
    "url": "https://www.kyousei-kai.com/hohoemi/",
    "pref": "東京都",
    "city": "葛飾区",
    "category": "tokuyou",
    "serviceType": "介護老人福祉施設",
    "capacity": 123,
    "openDays": [],
    "openDaysNote": ""
  },
  {
    "id": "1372207025",
    "name": "特別養護老人ホーム　アンブル宝町",
    "kana": "トクベツヨウゴロウジンホーム　アンブルタカラマチ",
    "address": "東京都葛飾区宝町1-2-9",
    "lat": 35.7412408835973,
    "lng": 139.83533811468,
    "tel": "03-5654-8880",
    "url": "http://astory.jp",
    "pref": "東京都",
    "city": "葛飾区",
    "category": "tokuyou",
    "serviceType": "介護老人福祉施設",
    "capacity": 120,
    "openDays": [],
    "openDaysNote": ""
  },
  {
    "id": "1372206639",
    "name": "特別養護老人ホーム　かつしか苑亀有",
    "kana": "トクベツヨウゴロウジンホーム　カツシカエンカメアリ",
    "address": "東京都葛飾区亀有１丁目６番１１号特別養護老人ホーム　かつしか苑亀有 特別養護老人ホーム　かつしか苑亀有",
    "lat": 35.7560065,
    "lng": 139.8486009,
    "tel": "０３－６６６２－２２２３",
    "url": "",
    "pref": "東京都",
    "city": "葛飾区",
    "category": "tokuyou",
    "serviceType": "介護老人福祉施設",
    "capacity": 83,
    "openDays": [],
    "openDaysNote": ""
  },
  {
    "id": "1372200533",
    "name": "特別養護老人ホーム　すずうらホーム",
    "kana": "トクベツヨウゴロウジンホーム　スズウラホーム",
    "address": "東京都葛飾区西新小岩三丁目３７番２７号",
    "lat": 35.7227462,
    "lng": 139.846817,
    "tel": "03-5670-3010",
    "url": "http://www.seiyunoie.or.jp",
    "pref": "東京都",
    "city": "葛飾区",
    "category": "tokuyou",
    "serviceType": "介護老人福祉施設",
    "capacity": 80,
    "openDays": [],
    "openDaysNote": ""
  },
  {
    "id": "1372207827",
    "name": "特別養護老人ホーム　スマイルホーム西井堀",
    "kana": "トクベツヨウゴロウジンホーム　スマイルホームニシイボリ",
    "address": "東京都葛飾区奥戸3-24-15",
    "lat": 35.7314429,
    "lng": 139.8627593,
    "tel": "03-3692-8600",
    "url": "http://www.tokyokiseikai.or.jp/",
    "pref": "東京都",
    "city": "葛飾区",
    "category": "tokuyou",
    "serviceType": "介護老人福祉施設",
    "capacity": null,
    "openDays": [],
    "openDaysNote": ""
  },
  {
    "id": "1372206027",
    "name": "特別養護老人ホーム　バタフライヒル細田",
    "kana": "トクベツヨウゴロウジンホーム　バタフライヒルホソダ",
    "address": "東京都葛飾区細田4-20-14",
    "lat": 35.7425193,
    "lng": 139.8726608,
    "tel": "03-5612-1717",
    "url": "http://zenkoukai.jp/japanese/",
    "pref": "東京都",
    "city": "葛飾区",
    "category": "tokuyou",
    "serviceType": "介護老人福祉施設",
    "capacity": 0,
    "openDays": [],
    "openDaysNote": ""
  },
  {
    "id": "1372200525",
    "name": "特別養護老人ホーム　奥戸くつろぎの郷",
    "kana": "トクベツヨウゴロウジンホーム　オクドクツロギノサト",
    "address": "東京都葛飾区奥戸３－２５－１",
    "lat": 35.7321733,
    "lng": 139.862776,
    "tel": "03-5670-1261",
    "url": "http://www.jinseisha.jp",
    "pref": "東京都",
    "city": "葛飾区",
    "category": "tokuyou",
    "serviceType": "介護老人福祉施設",
    "capacity": 0,
    "openDays": [],
    "openDaysNote": ""
  },
  {
    "id": "1372201523",
    "name": "特別養護老人ホーム　葛飾やすらぎの郷",
    "kana": "トクベツヨウゴロウジンホーム　カツシカヤスラギノサト",
    "address": "東京都葛飾区新宿3-4-10",
    "lat": 35.7589923,
    "lng": 139.8620385,
    "tel": "03-5648-8250",
    "url": "http://www.sukoyaka-fu.or.jp/jigyosho/tokuyou/yasuragi.html",
    "pref": "東京都",
    "city": "葛飾区",
    "category": "tokuyou",
    "serviceType": "介護老人福祉施設",
    "capacity": 91,
    "openDays": [],
    "openDaysNote": ""
  },
  {
    "id": "1372200509",
    "name": "特別養護老人ホーム　水元ふれあいの家",
    "kana": "トクベツヨウゴロウジンホーム　ミズモトフレアイノイエ",
    "address": "東京都葛飾区水元1丁目26番20号",
    "lat": 35.7835445,
    "lng": 139.8597713,
    "tel": "03-3607-7881",
    "url": "http://www.jinseisha.jp",
    "pref": "東京都",
    "city": "葛飾区",
    "category": "tokuyou",
    "serviceType": "介護老人福祉施設",
    "capacity": 0,
    "openDays": [],
    "openDaysNote": ""
  },
  {
    "id": "1372208460",
    "name": "特別養護老人ホーム　癒しの里　西亀有",
    "kana": "トクベツヨウゴロウジンホーム　イヤシノサト　ニシカメアリ",
    "address": "東京都葛飾区西亀有３－１８－６",
    "lat": 35.7594754,
    "lng": 139.8388912,
    "tel": "０３－５６４７－７４５４",
    "url": "https://www.sanko-fukushi.jp/",
    "pref": "東京都",
    "city": "葛飾区",
    "category": "tokuyou",
    "serviceType": "介護老人福祉施設",
    "capacity": null,
    "openDays": [],
    "openDaysNote": ""
  },
  {
    "id": "1372204543",
    "name": "特別養護老人ホームエトワール",
    "kana": "トクベツヨウゴロウジンホームエトワール",
    "address": "東京都葛飾区新宿6-2-13",
    "lat": 35.7698631,
    "lng": 139.8628129,
    "tel": "03-5876-1212",
    "url": "http://www.toujukai.jp/",
    "pref": "東京都",
    "city": "葛飾区",
    "category": "tokuyou",
    "serviceType": "介護老人福祉施設",
    "capacity": 170,
    "openDays": [],
    "openDaysNote": ""
  },
  {
    "id": "1372202356",
    "name": "特別養護老人ホームかつしか苑",
    "kana": "トクベツヨウゴロウジンホームカツシカエン",
    "address": "東京都葛飾区白鳥2-9-18",
    "lat": 35.7492434,
    "lng": 139.8430936,
    "tel": "03-6662-2220",
    "url": "https://katsushikakai.or.jp",
    "pref": "東京都",
    "city": "葛飾区",
    "category": "tokuyou",
    "serviceType": "介護老人福祉施設",
    "capacity": 100,
    "openDays": [],
    "openDaysNote": ""
  },
  {
    "id": "1372200558",
    "name": "特別養護老人ホーム西水元あやめ園",
    "kana": "トクベツヨウゴロウジンホームニシミズモトアヤメエン",
    "address": "東京都葛飾区西水元２－２－８",
    "lat": 35.7849443,
    "lng": 139.849061,
    "tel": "03-3826-2951",
    "url": "http://care-net.biz/13/ayame/",
    "pref": "東京都",
    "city": "葛飾区",
    "category": "tokuyou",
    "serviceType": "介護老人福祉施設",
    "capacity": 0,
    "openDays": [],
    "openDaysNote": ""
  },
  {
    "id": "1372200491",
    "name": "特別養護老人ホーム中川園",
    "kana": "トクベツヨウゴロウジンホームナカガワエン",
    "address": "東京都葛飾区西水元４－５－１",
    "lat": 35.7937026168945,
    "lng": 139.84554608214,
    "tel": "03-3607-4060",
    "url": "http://www.jinseisha.jp",
    "pref": "東京都",
    "city": "葛飾区",
    "category": "tokuyou",
    "serviceType": "介護老人福祉施設",
    "capacity": 0,
    "openDays": [],
    "openDaysNote": ""
  },
  {
    "id": "1372205961",
    "name": "特別養護老人ホーム東かなまち桜園",
    "kana": "トクベツヨウゴロウジンホームヒガシカナマチサクラエン",
    "address": "東京都葛飾区東金町2-13-10",
    "lat": 35.7750086567654,
    "lng": 139.868594657147,
    "tel": "03-5876-5281",
    "url": "http://kanamachisakuraen.seifu-kai.jp/",
    "pref": "東京都",
    "city": "葛飾区",
    "category": "tokuyou",
    "serviceType": "介護老人福祉施設",
    "capacity": 0,
    "openDays": [],
    "openDaysNote": ""
  },
  {
    "id": "1372203362",
    "name": "癒しの里　亀有",
    "kana": "イヤシノサト　カメアリ",
    "address": "東京都葛飾区亀有2-60-5癒しの里　亀有 癒しの里　亀有",
    "lat": 35.7626974,
    "lng": 139.8486977,
    "tel": "03-5629-5866",
    "url": "http://sanko-fukushi.jp/",
    "pref": "東京都",
    "city": "葛飾区",
    "category": "tokuyou",
    "serviceType": "介護老人福祉施設",
    "capacity": 0,
    "openDays": [],
    "openDaysNote": ""
  },
  {
    "id": "1372201846",
    "name": "癒しの里　青戸",
    "kana": "イヤシノサト　アオト",
    "address": "東京都葛飾区青戸８－１８－１３社会福祉法人　三幸福祉会　特別養護老人ホーム　癒しの里・青戸 社会福祉法人　三幸福祉会　特別養護老人ホーム　癒しの里・青戸",
    "lat": 35.7584572684163,
    "lng": 139.853677628836,
    "tel": "03-5629-5843",
    "url": "http://www.sanko-fukusi.or.jp/",
    "pref": "東京都",
    "city": "葛飾区",
    "category": "tokuyou",
    "serviceType": "介護老人福祉施設",
    "capacity": 60,
    "openDays": [],
    "openDaysNote": ""
  },
  {
    "id": "1372307437",
    "name": "タムスさくらの杜江戸川",
    "kana": "タムスサクラノモリ　エドガワ",
    "address": "東京都江戸川区東小松川1-5-4",
    "lat": 35.7017069246935,
    "lng": 139.86541171564,
    "tel": "03-5607-3366",
    "url": "http://syunwakai.com/",
    "pref": "東京都",
    "city": "江戸川区",
    "category": "tokuyou",
    "serviceType": "介護老人福祉施設",
    "capacity": 120,
    "openDays": [],
    "openDaysNote": ""
  },
  {
    "id": "1372301638",
    "name": "なぎさ和楽苑",
    "kana": "ナギサワラクエン",
    "address": "東京都江戸川区西葛西8-1-1",
    "lat": 35.6550791,
    "lng": 139.8594207,
    "tel": "03-3675-1201",
    "url": "http://www.tokyoeiwakai.or.jp",
    "pref": "東京都",
    "city": "江戸川区",
    "category": "tokuyou",
    "serviceType": "介護老人福祉施設",
    "capacity": 120,
    "openDays": [],
    "openDaysNote": ""
  },
  {
    "id": "1372310605",
    "name": "やすらぎの里北小岩",
    "kana": "ヤスラギノサトキタコイワ",
    "address": "東京都江戸川区北小岩1-21-12",
    "lat": 35.7352621,
    "lng": 139.8948138,
    "tel": "03-5876-8310",
    "url": "https://peraichi.com/landing_pages/view/kitakoiwaproject/",
    "pref": "東京都",
    "city": "江戸川区",
    "category": "tokuyou",
    "serviceType": "介護老人福祉施設",
    "capacity": 80,
    "openDays": [],
    "openDaysNote": ""
  },
  {
    "id": "1372300358",
    "name": "リバーサイドグリーン",
    "kana": "リバーサイドグリーン",
    "address": "東京都江戸川区江戸川１丁目11番地３号江東園内 江東園内",
    "lat": 35.6885240955985,
    "lng": 139.902639480951,
    "tel": "03-3677-4611",
    "url": "http://www.kotoen.or.jp",
    "pref": "東京都",
    "city": "江戸川区",
    "category": "tokuyou",
    "serviceType": "介護老人福祉施設",
    "capacity": 50,
    "openDays": [],
    "openDaysNote": ""
  },
  {
    "id": "1372300390",
    "name": "江戸川光照苑",
    "kana": "エドガワコウショウエン",
    "address": "東京都江戸川区北小岩5-7-2",
    "lat": 35.7402473,
    "lng": 139.887865,
    "tel": "03-5668-0051",
    "url": "http://www.e-kousyoen.or.jp",
    "pref": "東京都",
    "city": "江戸川区",
    "category": "tokuyou",
    "serviceType": "介護老人福祉施設",
    "capacity": 63,
    "openDays": [],
    "openDaysNote": ""
  },
  {
    "id": "1372300382",
    "name": "小岩ホーム",
    "kana": "コイワホーム",
    "address": "東京都江戸川区南小岩５－１１－１０",
    "lat": 35.7248689,
    "lng": 139.8797691,
    "tel": "03-5694-0101",
    "url": "http://www.onyx.dti.ne.jp/~koiwa-h/index.html",
    "pref": "東京都",
    "city": "江戸川区",
    "category": "tokuyou",
    "serviceType": "介護老人福祉施設",
    "capacity": 50,
    "openDays": [],
    "openDaysNote": ""
  },
  {
    "id": "1372300374",
    "name": "瑞江特別養護老人ホーム",
    "kana": "ミズエトクベツヨウゴロウジンホーム",
    "address": "東京都江戸川区瑞江1-3-12",
    "lat": 35.6994674,
    "lng": 139.8939687,
    "tel": "03-3679-3759",
    "url": "http://zuikoukai.jp/",
    "pref": "東京都",
    "city": "江戸川区",
    "category": "tokuyou",
    "serviceType": "介護老人福祉施設",
    "capacity": 80,
    "openDays": [],
    "openDaysNote": ""
  },
  {
    "id": "1372300366",
    "name": "暖心苑",
    "kana": "ダンシンエン",
    "address": "東京都江戸川区北葛西4丁目３番１６号",
    "lat": 35.6715329,
    "lng": 139.8625335,
    "tel": "03-3877-0100",
    "url": "http://www.danshinen.org",
    "pref": "東京都",
    "city": "江戸川区",
    "category": "tokuyou",
    "serviceType": "介護老人福祉施設",
    "capacity": null,
    "openDays": [],
    "openDaysNote": ""
  },
  {
    "id": "1372309482",
    "name": "特別養護老人ホーム　タムスさくらの杜　春江",
    "kana": "トクベツヨウゴロウジンホーム　タムスサクラノモリ　ハルエ",
    "address": "東京都江戸川区春江町5丁目4番2号タムスさくらの杜　春江 タムスさくらの杜　春江",
    "lat": 35.6821851052125,
    "lng": 139.875567327786,
    "tel": "03-5879-3260",
    "url": "https://harue.sakuranomori.or.jp/",
    "pref": "東京都",
    "city": "江戸川区",
    "category": "tokuyou",
    "serviceType": "介護老人福祉施設",
    "capacity": 140,
    "openDays": [],
    "openDaysNote": ""
  },
  {
    "id": "1372310951",
    "name": "特別養護老人ホーム　タムスさくらの杜　南葛西",
    "kana": "トクベツヨウゴロウジンホーム　タムスサクラノモリ　ミナミカサイ",
    "address": "東京都江戸川区南葛西3-10-21",
    "lat": 35.6516422,
    "lng": 139.8686461,
    "tel": "03-6456-0691",
    "url": "https://minamikasai.sakuranomori.tums.jp/",
    "pref": "東京都",
    "city": "江戸川区",
    "category": "tokuyou",
    "serviceType": "介護老人福祉施設",
    "capacity": 84,
    "openDays": [],
    "openDaysNote": ""
  },
  {
    "id": "1372310969",
    "name": "特別養護老人ホーム　タムスさくらの杜　南葛西",
    "kana": "トクベツヨウゴロウジンホーム　タムスサクラノモリ　ミナミカサイ",
    "address": "東京都江戸川区南葛西3-10-21",
    "lat": 35.6516422,
    "lng": 139.8686461,
    "tel": "03-6456-0691",
    "url": "https://minamikasai.sakuranomori.tums.jp/",
    "pref": "東京都",
    "city": "江戸川区",
    "category": "tokuyou",
    "serviceType": "介護老人福祉施設",
    "capacity": 31,
    "openDays": [],
    "openDaysNote": ""
  },
  {
    "id": "1372311322",
    "name": "特別養護老人ホーム　タムスさくらの杜一之江",
    "kana": "トクベツヨウゴロウジンホーム　タムスサクラノモリイチノエ",
    "address": "東京都江戸川区一之江2-19-2",
    "lat": 35.6943888,
    "lng": 139.8843293,
    "tel": "03-5678-9952",
    "url": "https://towakai.com/",
    "pref": "東京都",
    "city": "江戸川区",
    "category": "tokuyou",
    "serviceType": "介護老人福祉施設",
    "capacity": 41,
    "openDays": [],
    "openDaysNote": ""
  },
  {
    "id": "1372311330",
    "name": "特別養護老人ホーム　タムスさくらの杜一之江",
    "kana": "トクベツヨウゴロウジンホーム　タムスサクラノモリイチノエ",
    "address": "東京都江戸川区一之江2-19-12タムスさくらの杜一之江 タムスさくらの杜一之江",
    "lat": 35.6943888,
    "lng": 139.8843293,
    "tel": "03-5678-9952",
    "url": "https://towakai.com/",
    "pref": "東京都",
    "city": "江戸川区",
    "category": "tokuyou",
    "serviceType": "介護老人福祉施設",
    "capacity": 80,
    "openDays": [],
    "openDaysNote": ""
  },
  {
    "id": "1372301745",
    "name": "特別養護老人ホーム　みどりの郷福楽園",
    "kana": "トクベツヨウゴロウジンホーム　ミドリノサトフクラクエン",
    "address": "東京都江戸川区臨海町1-4-4",
    "lat": 35.6532346,
    "lng": 139.8524907,
    "tel": "03-5659-4122",
    "url": "http://www.e-houseikai.or.jp",
    "pref": "東京都",
    "city": "江戸川区",
    "category": "tokuyou",
    "serviceType": "介護老人福祉施設",
    "capacity": 0,
    "openDays": [],
    "openDaysNote": ""
  },
  {
    "id": "1372308674",
    "name": "特別養護老人ホーム　わとなーる葛西",
    "kana": "トクベツヨウゴロウジンホーム　ワトナールカサイ",
    "address": "東京都江戸川区東葛西7-19-8特別養護老人ホーム 特別養護老人ホーム",
    "lat": 35.6584059895875,
    "lng": 139.87714602209,
    "tel": "03-6808-5700",
    "url": "http://www.watona-ru.com/",
    "pref": "東京都",
    "city": "江戸川区",
    "category": "tokuyou",
    "serviceType": "介護老人福祉施設",
    "capacity": 89,
    "openDays": [],
    "openDaysNote": ""
  },
  {
    "id": "1372300408",
    "name": "特別養護老人ホーム　清心苑",
    "kana": "トクベツヨウゴロウジンホーム　セイシンエン",
    "address": "東京都江戸川区西一之江4-9-24",
    "lat": 35.6956196,
    "lng": 139.8740347,
    "tel": "03-3655-5963",
    "url": "http://kenshukai.kir.jp",
    "pref": "東京都",
    "city": "江戸川区",
    "category": "tokuyou",
    "serviceType": "介護老人福祉施設",
    "capacity": 136,
    "openDays": [],
    "openDaysNote": ""
  },
  {
    "id": "1372301752",
    "name": "特別養護老人ホーム　泰山",
    "kana": "トクベツヨウゴロウジンホーム　タイザン",
    "address": "東京都江戸川区北小岩５－３４－１０",
    "lat": 35.739703,
    "lng": 139.8916343,
    "tel": "03-5622-1165",
    "url": "http://www.hakusyuu.jimusho.jp",
    "pref": "東京都",
    "city": "江戸川区",
    "category": "tokuyou",
    "serviceType": "介護老人福祉施設",
    "capacity": 72,
    "openDays": [],
    "openDaysNote": ""
  },
  {
    "id": "1372310530",
    "name": "特別養護老人ホーム　第三みどりの郷",
    "kana": "トクベツヨウゴロウジンホーム　ダイサンミドリノサト",
    "address": "東京都江戸川区東小松川１－１３－２第三みどりの郷 第三みどりの郷",
    "lat": 35.6988257,
    "lng": 139.8675458,
    "tel": "０３－３６５５－８１７７",
    "url": "e-houseikai.or.jp",
    "pref": "東京都",
    "city": "江戸川区",
    "category": "tokuyou",
    "serviceType": "介護老人福祉施設",
    "capacity": 49,
    "openDays": [],
    "openDaysNote": ""
  },
  {
    "id": "1372303550",
    "name": "特別養護老人ホーム　第二みどりの郷",
    "kana": "トクベツヨウゴロウジンホーム　ダイニミドリノサト",
    "address": "東京都江戸川区江戸川2-29-5",
    "lat": 35.6841112150205,
    "lng": 139.903708612303,
    "tel": "03-5664-2029",
    "url": "http://e-houseikai.or.jp",
    "pref": "東京都",
    "city": "江戸川区",
    "category": "tokuyou",
    "serviceType": "介護老人福祉施設",
    "capacity": 0,
    "openDays": [],
    "openDaysNote": ""
  },
  {
    "id": "1372309052",
    "name": "特別養護老人ホーム　癒しの里西小松川",
    "kana": "トクベツヨウゴロウジンホーム　イヤシノサトニシコマツガワ",
    "address": "東京都江戸川区西小松川町１－２１特別養護老人ホーム　癒しの里西小松川 特別養護老人ホーム　癒しの里西小松川",
    "lat": 35.6953939,
    "lng": 139.8626276,
    "tel": "０３－３６５４－７６５０",
    "url": "http://sanko-fukushi.jp/",
    "pref": "東京都",
    "city": "江戸川区",
    "category": "tokuyou",
    "serviceType": "介護老人福祉施設",
    "capacity": 70,
    "openDays": [],
    "openDaysNote": ""
  },
  {
    "id": "1372300416",
    "name": "特別養護老人ホームアゼリー江戸川",
    "kana": "トクベツヨウゴロウジンホームアゼリーエドガワ",
    "address": "東京都江戸川区本一色2-13-25アゼリー江戸川 アゼリー江戸川",
    "lat": 35.719761,
    "lng": 139.873095,
    "tel": "03-5607-0482",
    "url": "http://koujukai.azalee.or.jp/",
    "pref": "東京都",
    "city": "江戸川区",
    "category": "tokuyou",
    "serviceType": "介護老人福祉施設",
    "capacity": 85,
    "openDays": [],
    "openDaysNote": ""
  },
  {
    "id": "1372301398",
    "name": "特別養護老人ホームウエル江戸川",
    "kana": "トクベツヨウゴロウジンホームウエルエドガワ",
    "address": "東京都江戸川区平井7丁目13番32号",
    "lat": 35.714444,
    "lng": 139.8371629,
    "tel": "03-3617-1112",
    "url": "http://www.wel-edogawa.jp",
    "pref": "東京都",
    "city": "江戸川区",
    "category": "tokuyou",
    "serviceType": "介護老人福祉施設",
    "capacity": 50,
    "openDays": [],
    "openDaysNote": ""
  },
  {
    "id": "1372301968",
    "name": "特別養護老人ホームきく",
    "kana": "トクベツヨウゴロウジンホームキク",
    "address": "東京都江戸川区鹿骨三丁目16番6号",
    "lat": 35.715515,
    "lng": 139.8914794,
    "tel": "03-3677-3030",
    "url": "https://kyowakai-kiku.jp/",
    "pref": "東京都",
    "city": "江戸川区",
    "category": "tokuyou",
    "serviceType": "介護老人福祉施設",
    "capacity": 0,
    "openDays": [],
    "openDaysNote": ""
  },
  {
    "id": "1372307205",
    "name": "特別養護老人ホーム古川親水苑",
    "kana": "トクベツヨウゴロウジンホームフルカワシンスイエン",
    "address": "東京都江戸川区江戸川五丁目4番2",
    "lat": 35.6776988444516,
    "lng": 139.883764030533,
    "tel": "03-5667-1211",
    "url": "http://t-yuukikai.or.jp/",
    "pref": "東京都",
    "city": "江戸川区",
    "category": "tokuyou",
    "serviceType": "介護老人福祉施設",
    "capacity": 120,
    "openDays": [],
    "openDaysNote": ""
  },
  {
    "id": "1370800243",
    "name": "むつみ園",
    "kana": "ムツミエン",
    "address": "東京都江東区深川２丁目１番１２号",
    "lat": 35.6737555360564,
    "lng": 139.797838754228,
    "tel": "03-3642-4791",
    "url": "http://mutsumikai-g.or.jp/",
    "pref": "東京都",
    "city": "江東区",
    "category": "tokuyou",
    "serviceType": "介護老人福祉施設",
    "capacity": 0,
    "openDays": [],
    "openDaysNote": ""
  },
  {
    "id": "1370803080",
    "name": "介護老人福祉施設　あじさい",
    "kana": "カイゴロウジンフクシシセツ　アジサイ",
    "address": "東京都江東区東砂4丁目20番15号",
    "lat": 35.6781478,
    "lng": 139.8381577,
    "tel": "03-5857-8231",
    "url": "http://ajisai-kaigo.jp/",
    "pref": "東京都",
    "city": "江東区",
    "category": "tokuyou",
    "serviceType": "介護老人福祉施設",
    "capacity": 90,
    "openDays": [],
    "openDaysNote": ""
  },
  {
    "id": "1370800284",
    "name": "寿園",
    "kana": "コトブキエン",
    "address": "東京都江東区北砂2-1-16",
    "lat": 35.679022,
    "lng": 139.8268549,
    "tel": "03-3615-4850",
    "url": "http://www.kotokotobukikai.com",
    "pref": "東京都",
    "city": "江東区",
    "category": "tokuyou",
    "serviceType": "介護老人福祉施設",
    "capacity": 0,
    "openDays": [],
    "openDaysNote": ""
  },
  {
    "id": "1370800292",
    "name": "深川愛の園",
    "kana": "フカガワアイノソノ",
    "address": "東京都江東区冬木16-7",
    "lat": 35.674949415448,
    "lng": 139.801082845369,
    "tel": "03-3641-1905",
    "url": "https://seikyusyu.or.jp/",
    "pref": "東京都",
    "city": "江東区",
    "category": "tokuyou",
    "serviceType": "介護老人福祉施設",
    "capacity": 80,
    "openDays": [],
    "openDaysNote": ""
  },
  {
    "id": "1370800235",
    "name": "特別養護老人ホーム　あそか園",
    "kana": "トクベツヨウゴロウジンホーム　アソカエン",
    "address": "東京都江東区住吉1-9-5",
    "lat": 35.6875915248659,
    "lng": 139.812303250926,
    "tel": "03-3632-3615",
    "url": "https://www.asokakai.or.jp/",
    "pref": "東京都",
    "city": "江東区",
    "category": "tokuyou",
    "serviceType": "介護老人福祉施設",
    "capacity": 60,
    "openDays": [],
    "openDaysNote": ""
  },
  {
    "id": "1370806786",
    "name": "特別養護老人ホーム　あそか園",
    "kana": "トクベツヨウゴロウジンホーム　アソカエン",
    "address": "東京都江東区住吉1-9-5特別養護老人ホーム　あそか園 特別養護老人ホーム　あそか園",
    "lat": 35.687622,
    "lng": 139.8122684,
    "tel": "03-3632-3615",
    "url": "http://www.asokakai.or.jp/asoka/",
    "pref": "東京都",
    "city": "江東区",
    "category": "tokuyou",
    "serviceType": "介護老人福祉施設",
    "capacity": 144,
    "openDays": [],
    "openDaysNote": ""
  },
  {
    "id": "1370804096",
    "name": "特別養護老人ホーム　カメリア",
    "kana": "トクベツヨウゴロウジンホーム　カメリア",
    "address": "東京都江東区亀戸3-36-5",
    "lat": 35.7069787,
    "lng": 139.8198664,
    "tel": "03-5836-2311",
    "url": "http://kameido.camellia-kai.com/",
    "pref": "東京都",
    "city": "江東区",
    "category": "tokuyou",
    "serviceType": "介護老人福祉施設",
    "capacity": 110,
    "openDays": [],
    "openDaysNote": ""
  },
  {
    "id": "1370800789",
    "name": "特別養護老人ホーム　らん花園",
    "kana": "トクベツヨウゴロウジンホームランカエン",
    "address": "東京都江東区塩浜2-7-2",
    "lat": 35.661647877802,
    "lng": 139.8066029,
    "tel": "03-5617-6060",
    "url": "http://rankaen-kaigo.com/",
    "pref": "東京都",
    "city": "江東区",
    "category": "tokuyou",
    "serviceType": "介護老人福祉施設",
    "capacity": 100,
    "openDays": [],
    "openDaysNote": ""
  },
  {
    "id": "1370802694",
    "name": "特別養護老人ホーム　塩浜ホーム",
    "kana": "トクベツヨウゴロウジンホーム　シオハマホーム",
    "address": "東京都江東区塩浜2-7-17",
    "lat": 35.6627574,
    "lng": 139.8075556,
    "tel": "03-5683-5571",
    "url": "http://www.asokakai.or.jp/intro/intro04_01/",
    "pref": "東京都",
    "city": "江東区",
    "category": "tokuyou",
    "serviceType": "介護老人福祉施設",
    "capacity": 0,
    "openDays": [],
    "openDaysNote": ""
  },
  {
    "id": "1370805820",
    "name": "特別養護老人ホーム　故郷の家・東京",
    "kana": "トクベツヨウゴロウジンホーム　コキョウノイエ・トウキョウ",
    "address": "東京都江東区塩浜1-4-48",
    "lat": 35.6637851434418,
    "lng": 139.802140825245,
    "tel": "03-3644-0555",
    "url": "http://www.kokorono.or.jp/",
    "pref": "東京都",
    "city": "江東区",
    "category": "tokuyou",
    "serviceType": "介護老人福祉施設",
    "capacity": 0,
    "openDays": [],
    "openDaysNote": ""
  },
  {
    "id": "1370805200",
    "name": "特別養護老人ホームあかつき苑",
    "kana": "トクベツヨウゴロウジンホームアカツキエン",
    "address": "東京都江東区大島７丁目３８番１５号メディカルケアタウン東大島 メディカルケアタウン東大島",
    "lat": 35.6912723345588,
    "lng": 139.841997649074,
    "tel": "03-5875-5255",
    "url": "http://m-caretown.com",
    "pref": "東京都",
    "city": "江東区",
    "category": "tokuyou",
    "serviceType": "介護老人福祉施設",
    "capacity": 100,
    "openDays": [],
    "openDaysNote": ""
  },
  {
    "id": "1370801308",
    "name": "特別養護老人ホームコスモス",
    "kana": "トクベツヨウゴロウジンホームコスモス",
    "address": "東京都江東区大島9-6-16コスモス老人福祉施設 コスモス老人福祉施設",
    "lat": 35.693149,
    "lng": 139.8448294,
    "tel": "03-5836-5121",
    "url": "http://www.kotokotobukikai.com",
    "pref": "東京都",
    "city": "江東区",
    "category": "tokuyou",
    "serviceType": "介護老人福祉施設",
    "capacity": 100,
    "openDays": [],
    "openDaysNote": ""
  },
  {
    "id": "1370806729",
    "name": "特別養護老人ホームむつみ園",
    "kana": "トクベツヨウゴロウジンホームムツミエン",
    "address": "東京都江東区深川2-1-12",
    "lat": 35.6736987,
    "lng": 139.7978513,
    "tel": "03-3642-4791",
    "url": "https://www.mutsumikai-g.or.jp/",
    "pref": "東京都",
    "city": "江東区",
    "category": "tokuyou",
    "serviceType": "介護老人福祉施設",
    "capacity": null,
    "openDays": [],
    "openDaysNote": ""
  },
  {
    "id": "1370807040",
    "name": "特別養護老人ホーム江東ホーム",
    "kana": "トクベツヨウゴロウジンホームコウトウホーム",
    "address": "東京都江東区東陽2-1-2",
    "lat": 35.6658806,
    "lng": 139.8147064,
    "tel": "03-3647-5081",
    "url": "https://www.asokakai.or.jp/intro/intro02_01/",
    "pref": "東京都",
    "city": "江東区",
    "category": "tokuyou",
    "serviceType": "介護老人福祉施設",
    "capacity": null,
    "openDays": [],
    "openDaysNote": ""
  },
  {
    "id": "1370801399",
    "name": "特別養護老人ホーム三井陽光苑",
    "kana": "トクベツヨウゴロウジンホーム　ミツイヨウコウエン",
    "address": "東京都江東区新砂3-3-37",
    "lat": 35.6649381,
    "lng": 139.8324973,
    "tel": "03-5632-3211",
    "url": "http://www.mitsuihosp.or.jp/youkouen/",
    "pref": "東京都",
    "city": "江東区",
    "category": "tokuyou",
    "serviceType": "介護老人福祉施設",
    "capacity": 150,
    "openDays": [],
    "openDaysNote": ""
  },
  {
    "id": "1370803429",
    "name": "特別養護老人ホーム芳香苑",
    "kana": "トクベツヨウゴロウジンホームホウコウエン",
    "address": "東京都江東区東雲2-2-29",
    "lat": 35.6421459,
    "lng": 139.8012533,
    "tel": "03-3527-7189",
    "url": "http://www.oheikai.or.jp/",
    "pref": "東京都",
    "city": "江東区",
    "category": "tokuyou",
    "serviceType": "介護老人福祉施設",
    "capacity": 0,
    "openDays": [],
    "openDaysNote": ""
  },
  {
    "id": "1370300277",
    "name": "港区立特別養護老人ホーム　白金の森",
    "kana": "ミナトクリツトクベツヨウゴロウジンホーム　シロカネノモリ",
    "address": "東京都港区白金台５丁目２０番５号",
    "lat": 35.6371450566221,
    "lng": 139.72229180741,
    "tel": "03-3449-9611",
    "url": "https://www.foryou.or.jp/facility/shirokane/w008/",
    "pref": "東京都",
    "city": "港区",
    "category": "tokuyou",
    "serviceType": "介護老人福祉施設",
    "capacity": 0,
    "openDays": [],
    "openDaysNote": ""
  },
  {
    "id": "1370301473",
    "name": "港区立特別養護老人ホームサン・サン赤坂",
    "kana": "ミナトクリツトクベツヨウゴロウジンホームサン・サンアカサカ",
    "address": "東京都港区赤坂6-6-14港区立特別養護老人ホーム　サン・サン赤坂 港区立特別養護老人ホーム　サン・サン赤坂",
    "lat": 35.6697570159269,
    "lng": 139.737582420238,
    "tel": "03-5561-7833",
    "url": "http://www.seirouin.or.jp",
    "pref": "東京都",
    "city": "港区",
    "category": "tokuyou",
    "serviceType": "介護老人福祉施設",
    "capacity": 0,
    "openDays": [],
    "openDaysNote": ""
  },
  {
    "id": "1370300327",
    "name": "港区立特別養護老人ホーム港南の郷",
    "kana": "ミナトクリツトクベツヨウゴロウジンホームコウナンノサト",
    "address": "東京都港区港南三丁目３番２３号",
    "lat": 35.6332877,
    "lng": 139.7492114,
    "tel": "03-3450-5571",
    "url": "http://www.kounannosato.hello-net.info/",
    "pref": "東京都",
    "city": "港区",
    "category": "tokuyou",
    "serviceType": "介護老人福祉施設",
    "capacity": 0,
    "openDays": [],
    "openDaysNote": ""
  },
  {
    "id": "1370303198",
    "name": "特別養護老人ホーム　ありすの杜きのこ南麻布",
    "kana": "トクベツヨウゴロウジンホーム　アリスノモリキノコミナミアザブ",
    "address": "東京都港区南麻布4-6-1南棟 南棟",
    "lat": 35.6502183,
    "lng": 139.7268739,
    "tel": "03-5739-0585",
    "url": "http://www.kinoko-group.jp",
    "pref": "東京都",
    "city": "港区",
    "category": "tokuyou",
    "serviceType": "介護老人福祉施設",
    "capacity": 118,
    "openDays": [],
    "openDaysNote": ""
  },
  {
    "id": "1370302372",
    "name": "特別養護老人ホーム　新橋さくらの園",
    "kana": "トクベツヨウゴロウジンホーム　シンバシサクラノソノ",
    "address": "東京都港区新橋6-19-2福祉プラザさくら川 福祉プラザさくら川",
    "lat": 35.6612067,
    "lng": 139.7537795,
    "tel": "03-3433-0183",
    "url": "http://www.fukushiplazasakuragawa.com/sakura_short",
    "pref": "東京都",
    "city": "港区",
    "category": "tokuyou",
    "serviceType": "介護老人福祉施設",
    "capacity": 0,
    "openDays": [],
    "openDaysNote": ""
  },
  {
    "id": "1370303206",
    "name": "特別養護老人ホーム　洛和ヴィラ南麻布",
    "kana": "トクベツヨウゴロウジンホーム　ラクワウ゛ィラミナミアザブ",
    "address": "東京都港区南麻布４－６－１ありすの杜南麻布（北棟） ありすの杜南麻布（北棟）",
    "lat": 35.6502183,
    "lng": 139.7268739,
    "tel": "03-6408-8677",
    "url": "http://www.rakuwa.or.jp",
    "pref": "東京都",
    "city": "港区",
    "category": "tokuyou",
    "serviceType": "介護老人福祉施設",
    "capacity": 100,
    "openDays": [],
    "openDaysNote": ""
  },
  {
    "id": "1370300293",
    "name": "特別養護老人ホーム慶福育児会麻布慶福苑",
    "kana": "トクベツヨウゴロウジンホームケイフクイクジカイアザブケイフクエン",
    "address": "東京都港区南麻布五丁目１番２０号",
    "lat": 35.6537122,
    "lng": 139.7218381,
    "tel": "03-3446-5501",
    "url": "http://www.azabukeifukuen.com",
    "pref": "東京都",
    "city": "港区",
    "category": "tokuyou",
    "serviceType": "介護老人福祉施設",
    "capacity": 100,
    "openDays": [],
    "openDaysNote": ""
  },
  {
    "id": "1370305151",
    "name": "特別養護老人ホーム南麻布シニアガーデンアリス",
    "kana": "トクベツヨウゴロウジンホーム　ミナミアザブシニアガーデン　アリス",
    "address": "東京都港区南麻布4-6-13",
    "lat": 35.6505906,
    "lng": 139.7272033,
    "tel": "03-5843-0975",
    "url": "https://f-kenseikai.or.jp/",
    "pref": "東京都",
    "city": "港区",
    "category": "tokuyou",
    "serviceType": "介護老人福祉施設",
    "capacity": 80,
    "openDays": [],
    "openDaysNote": ""
  },
  {
    "id": "1371802545",
    "name": "荒川区立特別養護老人ホーム　グリーンハイム荒川",
    "kana": "アラカワクリツトクベツヨウゴロウジンホーム　グリーンハイムアラカワ",
    "address": "東京都荒川区南千住６－３６－５",
    "lat": 35.7385662,
    "lng": 139.7912155,
    "tel": "03-3802-7561",
    "url": "http://www.seifuukai.or.jp",
    "pref": "東京都",
    "city": "荒川区",
    "category": "tokuyou",
    "serviceType": "介護老人福祉施設",
    "capacity": 100,
    "openDays": [],
    "openDaysNote": ""
  },
  {
    "id": "1371802537",
    "name": "荒川区立特別養護老人ホーム　サンハイム荒川",
    "kana": "アラカワクリツトクベツヨウゴロウジンホーム　サンハイムアラカワ",
    "address": "東京都荒川区南千住3-14-7",
    "lat": 35.7303728,
    "lng": 139.8031207,
    "tel": "03-3805-7525",
    "url": "https://sunheim.camellia-kai.com/",
    "pref": "東京都",
    "city": "荒川区",
    "category": "tokuyou",
    "serviceType": "介護老人福祉施設",
    "capacity": 59,
    "openDays": [],
    "openDaysNote": ""
  },
  {
    "id": "1371802529",
    "name": "荒川区立特別養護老人ホーム花の木ハイム荒川",
    "kana": "アラカワクリツトクベツヨウゴロウジンホームハナノキハイムアラカワ",
    "address": "東京都荒川区荒川5-47-2",
    "lat": 35.7398291,
    "lng": 139.7761889,
    "tel": "03-5855-3321",
    "url": "https://www.foryou.or.jp/facility/hananoki/w144/",
    "pref": "東京都",
    "city": "荒川区",
    "category": "tokuyou",
    "serviceType": "介護老人福祉施設",
    "capacity": 50,
    "openDays": [],
    "openDaysNote": ""
  },
  {
    "id": "1371804921",
    "name": "特別養護老人ホーム　あそかのぞみの郷",
    "kana": "トクベツヨウゴロウジンホーム　アソカノゾミノサト",
    "address": "東京都荒川区西尾久1-1-12",
    "lat": 35.7444165,
    "lng": 139.7648666,
    "tel": "03-3893-3517",
    "url": "https://www.asokakai.or.jp",
    "pref": "東京都",
    "city": "荒川区",
    "category": "tokuyou",
    "serviceType": "介護老人福祉施設",
    "capacity": null,
    "openDays": [],
    "openDaysNote": ""
  },
  {
    "id": "1371803568",
    "name": "特別養護老人ホーム　おたけの郷",
    "kana": "トクベツヨウゴロウジンホーム　オタケノサト",
    "address": "東京都荒川区町屋7-18-11",
    "lat": 35.7497481,
    "lng": 139.7893371,
    "tel": "03-3894-0310",
    "url": "http://otakenosato.jp",
    "pref": "東京都",
    "city": "荒川区",
    "category": "tokuyou",
    "serviceType": "介護老人福祉施設",
    "capacity": 140,
    "openDays": [],
    "openDaysNote": ""
  },
  {
    "id": "1371801588",
    "name": "特別養護老人ホームさくら館",
    "kana": "トクベツヨウゴロウジンホームサクラカン",
    "address": "東京都荒川区町屋７－１０－６",
    "lat": 35.7493842,
    "lng": 139.7868318,
    "tel": "03-3894-3561",
    "url": "https://hokuyoukai.jp/sakura/",
    "pref": "東京都",
    "city": "荒川区",
    "category": "tokuyou",
    "serviceType": "介護老人福祉施設",
    "capacity": 86,
    "openDays": [],
    "openDaysNote": ""
  },
  {
    "id": "1371803329",
    "name": "癒しの里　南千住",
    "kana": "イヤシノサト　ミナミセンジュ",
    "address": "東京都荒川区南千住６－６７－８癒しの里　南千住 癒しの里　南千住",
    "lat": 35.7388246,
    "lng": 139.7947875,
    "tel": "03-3803-3700",
    "url": "http://www.sanko-fukusi.or.jp/",
    "pref": "東京都",
    "city": "荒川区",
    "category": "tokuyou",
    "serviceType": "介護老人福祉施設",
    "capacity": 80,
    "openDays": [],
    "openDaysNote": ""
  },
  {
    "id": "1373100765",
    "name": "西恋ヶ窪にんじんホーム",
    "kana": "ニシコイガクボニンジンホーム",
    "address": "東京都国分寺市西恋ヶ窪1－50－１",
    "lat": 35.7057743,
    "lng": 139.4678328,
    "tel": "042-300-6010",
    "url": "http://www.ninjin.or.jp",
    "pref": "東京都",
    "city": "国分寺市",
    "category": "tokuyou",
    "serviceType": "介護老人福祉施設",
    "capacity": 45,
    "openDays": [],
    "openDaysNote": ""
  },
  {
    "id": "1373100476",
    "name": "特別養護老人ホーム　うれしのの里",
    "kana": "トクベツヨウゴロウジンホーム　ウレシノノサト",
    "address": "東京都国分寺市日吉町4-32-6",
    "lat": 35.706735,
    "lng": 139.4588444,
    "tel": "042-300-1308",
    "url": "http://www.kokorokai.jp",
    "pref": "東京都",
    "city": "国分寺市",
    "category": "tokuyou",
    "serviceType": "介護老人福祉施設",
    "capacity": 100,
    "openDays": [],
    "openDaysNote": ""
  },
  {
    "id": "1373100047",
    "name": "特別養護老人ホーム　にしき苑",
    "kana": "トクベツヨウゴロウジンホーム　ニシキエン",
    "address": "東京都国分寺市東恋ヶ窪2-22-38",
    "lat": 35.709885,
    "lng": 139.4714546,
    "tel": "042-327-2225",
    "url": "http://www.nishiki-en.com",
    "pref": "東京都",
    "city": "国分寺市",
    "category": "tokuyou",
    "serviceType": "介護老人福祉施設",
    "capacity": 0,
    "openDays": [],
    "openDaysNote": ""
  },
  {
    "id": "1373101292",
    "name": "特別養護老人ホームかがやき",
    "kana": "トクベツヨウゴロウジンホームカガヤキ",
    "address": "東京都国分寺市東恋ヶ窪2-17-2",
    "lat": 35.707416,
    "lng": 139.4750323,
    "tel": "042-359-4035",
    "url": "https://kagayaki.yokukou.net/",
    "pref": "東京都",
    "city": "国分寺市",
    "category": "tokuyou",
    "serviceType": "介護老人福祉施設",
    "capacity": 88,
    "openDays": [],
    "openDaysNote": ""
  },
  {
    "id": "1373101615",
    "name": "特別養護老人ホームサンライト",
    "kana": "トクベツヨウゴロウジンホームサンライト",
    "address": "東京都国分寺市西町1-31-2",
    "lat": 35.7034797,
    "lng": 139.4319441,
    "tel": "042-595-7351",
    "url": "https://sunlight.yokukou.net/",
    "pref": "東京都",
    "city": "国分寺市",
    "category": "tokuyou",
    "serviceType": "介護老人福祉施設",
    "capacity": null,
    "openDays": [],
    "openDaysNote": ""
  },
  {
    "id": "1373400611",
    "name": "シルバーハイツ谷保",
    "kana": "シルバーハイツヤホ",
    "address": "東京都国立市谷保6丁目17番地の37",
    "lat": 35.6748246,
    "lng": 139.4438333,
    "tel": "042-574-5211",
    "url": "https://e-seiaikai.com/",
    "pref": "東京都",
    "city": "国立市",
    "category": "tokuyou",
    "serviceType": "介護老人福祉施設",
    "capacity": 0,
    "openDays": [],
    "openDaysNote": ""
  },
  {
    "id": "1373400041",
    "name": "特別養護老人ホーム　くにたち苑",
    "kana": "トクベツヨウゴロウジンホーム　クニタチエン",
    "address": "東京都国立市泉３－１－６",
    "lat": 35.6804097,
    "lng": 139.4259037,
    "tel": "042-577-3111",
    "url": "http://www.kuni-en.com",
    "pref": "東京都",
    "city": "国立市",
    "category": "tokuyou",
    "serviceType": "介護老人福祉施設",
    "capacity": 70,
    "openDays": [],
    "openDaysNote": ""
  },
  {
    "id": "1374500021",
    "name": "こまえ苑",
    "kana": "コマエエン",
    "address": "東京都狛江市岩戸南四丁目17番17号",
    "lat": 35.6258799,
    "lng": 139.592729,
    "tel": "03-3489-2404",
    "url": "http://www.komaeen.or.jp",
    "pref": "東京都",
    "city": "狛江市",
    "category": "tokuyou",
    "serviceType": "介護老人福祉施設",
    "capacity": 82,
    "openDays": [],
    "openDaysNote": ""
  },
  {
    "id": "1374500237",
    "name": "こまえ正吉苑",
    "kana": "コマエショウキチエン",
    "address": "東京都狛江市西野川2-27-23",
    "lat": 35.645471,
    "lng": 139.5740406,
    "tel": "03-5438-0555",
    "url": "http://www.shoukichi.org",
    "pref": "東京都",
    "city": "狛江市",
    "category": "tokuyou",
    "serviceType": "介護老人福祉施設",
    "capacity": 54,
    "openDays": [],
    "openDaysNote": ""
  },
  {
    "id": "1374501102",
    "name": "地域福祉サービスセンターこまえ正吉苑二番館",
    "kana": "チイキフクシサービスセンターコマエショウキチエンニバンカン",
    "address": "東京都狛江市西野川4丁目8番8号地域福祉サービスセンターこまえ正吉苑二番館 地域福祉サービスセンターこまえ正吉苑二番館",
    "lat": 35.6472929,
    "lng": 139.5698104,
    "tel": "03-5761-1040",
    "url": "https://shoukichi.org/komae2/",
    "pref": "東京都",
    "city": "狛江市",
    "category": "tokuyou",
    "serviceType": "介護老人福祉施設",
    "capacity": 100,
    "openDays": [],
    "openDaysNote": ""
  },
  {
    "id": "1373600053",
    "name": "弘済園",
    "kana": "コウサイエン",
    "address": "東京都三鷹市下連雀5－2－5",
    "lat": 35.6863154120368,
    "lng": 139.571346393254,
    "tel": "0422-47-8965",
    "url": "https://www.kosaien.or.jp/",
    "pref": "東京都",
    "city": "三鷹市",
    "category": "tokuyou",
    "serviceType": "介護老人福祉施設",
    "capacity": 0,
    "openDays": [],
    "openDaysNote": ""
  },
  {
    "id": "1373602984",
    "name": "特別養護老人ホーム　ピオーネ三鷹",
    "kana": "トクベツヨウゴロウジンホーム　ピオーネミタカ",
    "address": "東京都三鷹市井口1-17-22ピオーネ三鷹 ピオーネ三鷹",
    "lat": 35.6938494,
    "lng": 139.5472582,
    "tel": "0422-26-1070",
    "url": "https://www.isto.or.jp/",
    "pref": "東京都",
    "city": "三鷹市",
    "category": "tokuyou",
    "serviceType": "介護老人福祉施設",
    "capacity": 104,
    "openDays": [],
    "openDaysNote": ""
  },
  {
    "id": "1373601820",
    "name": "特別養護老人ホーム　みたか紫水園",
    "kana": "トクベツヨウゴロウジンホーム　ミタカシスイエン",
    "address": "東京都三鷹市新川５－６－３１",
    "lat": 35.6761833,
    "lng": 139.5692752,
    "tel": "0422-40-7201",
    "url": "http://www.shisuien.or.jp/",
    "pref": "東京都",
    "city": "三鷹市",
    "category": "tokuyou",
    "serviceType": "介護老人福祉施設",
    "capacity": 120,
    "openDays": [],
    "openDaysNote": ""
  },
  {
    "id": "1373600327",
    "name": "特別養護老人ホーム恵比寿苑",
    "kana": "トクベツヨウゴロウジンホームエビスエン",
    "address": "東京都三鷹市牟礼1-9-20",
    "lat": 35.6839244,
    "lng": 139.589737,
    "tel": "0422-48-5577",
    "url": "http://www.oheikai.or.jp",
    "pref": "東京都",
    "city": "三鷹市",
    "category": "tokuyou",
    "serviceType": "介護老人福祉施設",
    "capacity": 65,
    "openDays": [],
    "openDaysNote": ""
  },
  {
    "id": "1373602950",
    "name": "特別養護老人ホーム三鷹げんき",
    "kana": "トクベツヨウゴロウジンホームミタカゲンキ",
    "address": "東京都三鷹市大沢４－１０－５特別養護老人ホーム三鷹げんき 特別養護老人ホーム三鷹げんき",
    "lat": 35.6683237,
    "lng": 139.5391372,
    "tel": "0422-26-4798",
    "url": "https://okayama-kotobuki.sakura.ne.jp/new/02facility/mitaka.html",
    "pref": "東京都",
    "city": "三鷹市",
    "category": "tokuyou",
    "serviceType": "介護老人福祉施設",
    "capacity": 132,
    "openDays": [],
    "openDaysNote": ""
  },
  {
    "id": "1370300301",
    "name": "特別養護老人ホーム　あじさいの里",
    "kana": "トクベツヨウゴロウジンホーム　アジサイノサト",
    "address": "東京都三宅島三宅村阿古８０７－１",
    "lat": 34.0658887,
    "lng": 139.4846444,
    "tel": "04994-5-0248",
    "url": "http://www.ajisainokai.jp/",
    "pref": "東京都",
    "city": "三宅村",
    "category": "tokuyou",
    "serviceType": "介護老人福祉施設",
    "capacity": 0,
    "openDays": [],
    "openDaysNote": ""
  },
  {
    "id": "1371300243",
    "name": "つるとかめ",
    "kana": "ツルトカメ",
    "address": "東京都渋谷区笹塚2-31-8",
    "lat": 35.674469,
    "lng": 139.6637815,
    "tel": "03-3376-1341",
    "url": "http://www.nakato.or.jp/",
    "pref": "東京都",
    "city": "渋谷区",
    "category": "tokuyou",
    "serviceType": "介護老人福祉施設",
    "capacity": 50,
    "openDays": [],
    "openDaysNote": ""
  },
  {
    "id": "1371300250",
    "name": "パール代官山",
    "kana": "パールダイカンヤマ",
    "address": "東京都渋谷区鉢山町３－２７",
    "lat": 35.6527338749135,
    "lng": 139.69867083373,
    "tel": "03-5458-4811",
    "url": "http://www.shibuya-pearl.or.jp",
    "pref": "東京都",
    "city": "渋谷区",
    "category": "tokuyou",
    "serviceType": "介護老人福祉施設",
    "capacity": 50,
    "openDays": [],
    "openDaysNote": ""
  },
  {
    "id": "1371300235",
    "name": "渋谷区あやめの苑・代々木",
    "kana": "シブヤクアヤメノソノヨヨギ",
    "address": "東京都渋谷区代々木三丁目35番1号",
    "lat": 35.6825606,
    "lng": 139.6931287,
    "tel": "03-3372-1103",
    "url": "https://shibuyaswc/jp",
    "pref": "東京都",
    "city": "渋谷区",
    "category": "tokuyou",
    "serviceType": "介護老人福祉施設",
    "capacity": 0,
    "openDays": [],
    "openDaysNote": ""
  },
  {
    "id": "1371303817",
    "name": "渋谷区かんなみの杜・しぶや",
    "kana": "シブヤクカンナミノモリ　シブヤ",
    "address": "東京都渋谷区神南1-8-6",
    "lat": 35.6642388837047,
    "lng": 139.700863608598,
    "tel": "357843870",
    "url": "http://www.enzerufukushikai.or.jp/facility/shibuya/",
    "pref": "東京都",
    "city": "渋谷区",
    "category": "tokuyou",
    "serviceType": "介護老人福祉施設",
    "capacity": null,
    "openDays": [],
    "openDaysNote": ""
  },
  {
    "id": "1371300227",
    "name": "渋谷区けやきの苑・西原",
    "kana": "シブヤクケヤキノソノ・ニシハラ",
    "address": "東京都渋谷区西原２－１９－１",
    "lat": 35.6740751,
    "lng": 139.6795191,
    "tel": "03-5453-0515",
    "url": "http://www.m-keyaki.jp/",
    "pref": "東京都",
    "city": "渋谷区",
    "category": "tokuyou",
    "serviceType": "介護老人福祉施設",
    "capacity": 120,
    "openDays": [],
    "openDaysNote": ""
  },
  {
    "id": "1371303569",
    "name": "渋谷区つばめの里・本町東",
    "kana": "シブヤクツバメノサト・ホンマチヒガシ",
    "address": "東京都渋谷区本町3-46-1",
    "lat": 35.6879124,
    "lng": 139.6822628,
    "tel": "03-6383-3870",
    "url": "https://www.foryou.or.jp/corp1/tsubamenosato/",
    "pref": "東京都",
    "city": "渋谷区",
    "category": "tokuyou",
    "serviceType": "介護老人福祉施設",
    "capacity": 0,
    "openDays": [],
    "openDaysNote": ""
  },
  {
    "id": "1371302892",
    "name": "杜の風・上原　特別養護老人ホーム正吉苑",
    "kana": "モリノカゼ・ウエハラ　トクベツヨウゴロウジンホームショウキチエン",
    "address": "東京都　渋谷区　上原　２－２－１７",
    "lat": 35.6677871710574,
    "lng": 139.684165525131,
    "tel": "03-6407-4233",
    "url": "http://shoukichi.org",
    "pref": "東京都",
    "city": "渋谷区",
    "category": "tokuyou",
    "serviceType": "介護老人福祉施設",
    "capacity": 0,
    "openDays": [],
    "openDaysNote": ""
  },
  {
    "id": "1371302736",
    "name": "日本赤十字社総合福祉センター　特別養護老人ホーム　レクロス広尾",
    "kana": "ニッポンセキジュウジシャソウゴウフクシセンター　トクベツヨウゴロウジンホーム　レクロスヒロオ",
    "address": "東京都渋谷区広尾４丁目１番２３号日本赤十字社総合福祉センター 日本赤十字社総合福祉センター",
    "lat": 35.6545367,
    "lng": 139.7189828,
    "tel": "03-6861-4800",
    "url": "https://hiroo.jrc.or.jp/",
    "pref": "東京都",
    "city": "渋谷区",
    "category": "tokuyou",
    "serviceType": "介護老人福祉施設",
    "capacity": 0,
    "openDays": [],
    "openDaysNote": ""
  },
  {
    "id": "1374100079",
    "name": "桜町聖ヨハネホーム",
    "kana": "サクラマチセイヨハネホーム",
    "address": "東京都小金井市桜町１－２－２４",
    "lat": 35.7102779,
    "lng": 139.5120708,
    "tel": "042-381-1234",
    "url": "https://www.seiyohanekai.or.jp/st-johns-home.html",
    "pref": "東京都",
    "city": "小金井市",
    "category": "tokuyou",
    "serviceType": "介護老人福祉施設",
    "capacity": 106,
    "openDays": [],
    "openDaysNote": ""
  },
  {
    "id": "1374102059",
    "name": "特別養護老人ホーム　本町けやきの杜",
    "kana": "トクベツヨウゴロウジンホーム　ホンチョウケヤキノモリ",
    "address": "東京都小金井市本町4-7-1本町けやきの杜 本町けやきの杜",
    "lat": 35.7083976,
    "lng": 139.5010238,
    "tel": "042-401-1392",
    "url": "",
    "pref": "東京都",
    "city": "小金井市",
    "category": "tokuyou",
    "serviceType": "介護老人福祉施設",
    "capacity": null,
    "openDays": [],
    "openDaysNote": ""
  },
  {
    "id": "1374100277",
    "name": "特別養護老人ホームつきみの園",
    "kana": "トクベツヨウゴロウジンホーム　ツキミノソノ",
    "address": "東京都小金井市中町２－１５－２５",
    "lat": 35.6972185,
    "lng": 139.5169043,
    "tel": "042-386-6511",
    "url": "http://www.seirouin.or.jp/tsukimi",
    "pref": "東京都",
    "city": "小金井市",
    "category": "tokuyou",
    "serviceType": "介護老人福祉施設",
    "capacity": 93,
    "openDays": [],
    "openDaysNote": ""
  },
  {
    "id": "1374101754",
    "name": "特別養護老人ホームぬく井の杜",
    "kana": "トクベツヨウゴロウジンホームヌクイノモリ",
    "address": "東京都小金井市貫井北町3-4-8",
    "lat": 35.7074055,
    "lng": 139.4975028,
    "tel": "042-402-7011",
    "url": "http://nanokakai.jp",
    "pref": "東京都",
    "city": "小金井市",
    "category": "tokuyou",
    "serviceType": "介護老人福祉施設",
    "capacity": 152,
    "openDays": [],
    "openDaysNote": ""
  },
  {
    "id": "1374303376",
    "name": "Villaあい小平",
    "kana": "ヴィラアイコダイラ",
    "address": "東京都小平市小川町1-3014-7Villaあい小平 Villaあい小平",
    "lat": 35.7260659141225,
    "lng": 139.443507853967,
    "tel": "042-349-2198",
    "url": "http://www.ainoki.or.jp",
    "pref": "東京都",
    "city": "小平市",
    "category": "tokuyou",
    "serviceType": "介護老人福祉施設",
    "capacity": 65,
    "openDays": [],
    "openDaysNote": ""
  },
  {
    "id": "1374300174",
    "name": "やすらぎの園",
    "kana": "ヤスラギノソノ",
    "address": "東京都小平市小川町１丁目４８５番地",
    "lat": 35.7281569603314,
    "lng": 139.440228260713,
    "tel": "042-345-0617",
    "url": "http://www.reimeikai.or.jp/yasuragi/",
    "pref": "東京都",
    "city": "小平市",
    "category": "tokuyou",
    "serviceType": "介護老人福祉施設",
    "capacity": 116,
    "openDays": [],
    "openDaysNote": ""
  },
  {
    "id": "1374300190",
    "name": "小川ホーム",
    "kana": "オガワホーム",
    "address": "東京都小平市小川西町2丁目35番2号",
    "lat": 35.7368926,
    "lng": 139.4609266,
    "tel": "042-347-5500",
    "url": "http://www.ogawahome.or.jp",
    "pref": "東京都",
    "city": "小平市",
    "category": "tokuyou",
    "serviceType": "介護老人福祉施設",
    "capacity": 77,
    "openDays": [],
    "openDaysNote": ""
  },
  {
    "id": "1374300208",
    "name": "小平健成苑",
    "kana": "コダイラケンセイエン",
    "address": "東京都小平市鈴木町2町目230-3",
    "lat": 35.724662,
    "lng": 139.5046095,
    "tel": "042-451-2900",
    "url": "http://www.kenseien.org/",
    "pref": "東京都",
    "city": "小平市",
    "category": "tokuyou",
    "serviceType": "介護老人福祉施設",
    "capacity": 85,
    "openDays": [],
    "openDaysNote": ""
  },
  {
    "id": "1374300166",
    "name": "多摩済生園",
    "kana": "タマサイセイエン",
    "address": "東京都小平市美園町３－１２－１",
    "lat": 35.7401404,
    "lng": 139.4902127,
    "tel": "042-343-2291",
    "url": "http://www.tama-sai.jp",
    "pref": "東京都",
    "city": "小平市",
    "category": "tokuyou",
    "serviceType": "介護老人福祉施設",
    "capacity": 154,
    "openDays": [],
    "openDaysNote": ""
  },
  {
    "id": "1374301321",
    "name": "特別養護老人ホーム　さくら野杜",
    "kana": "トクベツヨウゴロウジンホーム　サクラノモリ",
    "address": "東京都小平市花小金井3-25-21",
    "lat": 35.7404938,
    "lng": 139.5147022,
    "tel": "042-479-1216",
    "url": "http://www.nanokakai.jp/sakurano-mori/",
    "pref": "東京都",
    "city": "小平市",
    "category": "tokuyou",
    "serviceType": "介護老人福祉施設",
    "capacity": 90,
    "openDays": [],
    "openDaysNote": ""
  },
  {
    "id": "1374300182",
    "name": "特別養護老人ホーム　まりも園",
    "kana": "トクベツヨウゴロウジンホーム　マリモエン",
    "address": "東京都小平市上水南町4-7-45",
    "lat": 35.7087996,
    "lng": 139.4910283,
    "tel": "042-321-9395",
    "url": "https://marimokai.jp/",
    "pref": "東京都",
    "city": "小平市",
    "category": "tokuyou",
    "serviceType": "介護老人福祉施設",
    "capacity": 50,
    "openDays": [],
    "openDaysNote": ""
  },
  {
    "id": "1374303392",
    "name": "特別養護老人ホーム　小平グリーンてらす",
    "kana": "トクベツヨウゴロウジンホーム　コダイラグリーンテラス",
    "address": "東京都小平市鈴木町１丁目９９－６特別養護老人ホーム小平グリーンてらす 特別養護老人ホーム小平グリーンてらす",
    "lat": 35.723202,
    "lng": 139.5000058,
    "tel": "042-312-3163",
    "url": "https://ryokuzankai.jp/",
    "pref": "東京都",
    "city": "小平市",
    "category": "tokuyou",
    "serviceType": "介護老人福祉施設",
    "capacity": null,
    "openDays": [],
    "openDaysNote": ""
  },
  {
    "id": "1374303822",
    "name": "特別養護老人ホームグランてらす小平団地",
    "kana": "トクベツヨウゴロウジンホームグランテラスコダイラダンチ",
    "address": "東京都小平市喜平町3-1-41",
    "lat": 35.7216565663281,
    "lng": 139.488566063091,
    "tel": "042-313-8961",
    "url": "https://ryokuzankai.jp/grp/kodairadanchi/",
    "pref": "東京都",
    "city": "小平市",
    "category": "tokuyou",
    "serviceType": "介護老人福祉施設",
    "capacity": null,
    "openDays": [],
    "openDaysNote": ""
  },
  {
    "id": "1374303285",
    "name": "特別養護老人ホーム晴風苑",
    "kana": "トクベツヨウゴロウジンホームセイフウエン",
    "address": "東京都小平市小川町一丁目497番地9特別養護老人ホーム晴風苑 特別養護老人ホーム晴風苑",
    "lat": 35.7274648,
    "lng": 139.4391141,
    "tel": "042-313-2029",
    "url": "http://www.seifuukai.jp",
    "pref": "東京都",
    "city": "小平市",
    "category": "tokuyou",
    "serviceType": "介護老人福祉施設",
    "capacity": 73,
    "openDays": [],
    "openDaysNote": ""
  },
  {
    "id": "1374000162",
    "name": "ニューフジホーム",
    "kana": "ニューフジホーム",
    "address": "東京都昭島市中神町１２６０番地",
    "lat": 35.7089529,
    "lng": 139.3818345,
    "tel": "042-544-5291",
    "url": "http://www.d-nfh.jp",
    "pref": "東京都",
    "city": "昭島市",
    "category": "tokuyou",
    "serviceType": "介護老人福祉施設",
    "capacity": 100,
    "openDays": [],
    "openDaysNote": ""
  },
  {
    "id": "1374000147",
    "name": "愛全園",
    "kana": "アイゼンエン",
    "address": "東京都昭島市田中町二丁目２５番３号愛全園 愛全園",
    "lat": 35.7045136,
    "lng": 139.3510346,
    "tel": "042-541-3100",
    "url": "https://aizenen.jp",
    "pref": "東京都",
    "city": "昭島市",
    "category": "tokuyou",
    "serviceType": "介護老人福祉施設",
    "capacity": 112,
    "openDays": [],
    "openDaysNote": ""
  },
  {
    "id": "1374001525",
    "name": "特別養護老人ホーム　ハピネス昭和の森",
    "kana": "トクベツヨウゴロウジンホーム　ハピネスショウワノモリ",
    "address": "東京都昭島市代官山一丁目２番１号",
    "lat": 35.7207389065146,
    "lng": 139.366027537509,
    "tel": "042-519-6378",
    "url": "http://family-wf.jp/",
    "pref": "東京都",
    "city": "昭島市",
    "category": "tokuyou",
    "serviceType": "介護老人福祉施設",
    "capacity": 120,
    "openDays": [],
    "openDaysNote": ""
  },
  {
    "id": "1374000154",
    "name": "特別養護老人ホーム　フジホーム",
    "kana": "トクベツヨウゴロウジンホームフジホーム",
    "address": "東京都昭島市中神町１２６０番地",
    "lat": 35.7085977885834,
    "lng": 139.38150689682,
    "tel": "042-541-5985",
    "url": "http://www.doen.jp/",
    "pref": "東京都",
    "city": "昭島市",
    "category": "tokuyou",
    "serviceType": "介護老人福祉施設",
    "capacity": 100,
    "openDays": [],
    "openDaysNote": ""
  },
  {
    "id": "1374000170",
    "name": "特別養護老人ホームもくせいの苑",
    "kana": "トクベツヨウゴロウジンホームモクセイノソノ",
    "address": "東京都昭島市松原町2-9-2",
    "lat": 35.7154817,
    "lng": 139.3511981,
    "tel": "042-545-5318",
    "url": "http://www.mokuseinosono.jp",
    "pref": "東京都",
    "city": "昭島市",
    "category": "tokuyou",
    "serviceType": "介護老人福祉施設",
    "capacity": 0,
    "openDays": [],
    "openDaysNote": ""
  },
  {
    "id": "1370406512",
    "name": "みさよはうす富久",
    "kana": "ミサヨハウストミヒサ",
    "address": "東京都新宿区富久町35番7号",
    "lat": 35.6947246587715,
    "lng": 139.712640603041,
    "tel": "03-6822-9282",
    "url": "http://www.silver-w.jp/",
    "pref": "東京都",
    "city": "新宿区",
    "category": "tokuyou",
    "serviceType": "介護老人福祉施設",
    "capacity": 48,
    "openDays": [],
    "openDaysNote": ""
  },
  {
    "id": "1370400341",
    "name": "原町ホーム",
    "kana": "ハラマチホーム",
    "address": "東京都新宿区原町3丁目8",
    "lat": 35.6994845,
    "lng": 139.7223747,
    "tel": "03-3359-5651",
    "url": "http://www.doen.jp/",
    "pref": "東京都",
    "city": "新宿区",
    "category": "tokuyou",
    "serviceType": "介護老人福祉施設",
    "capacity": 50,
    "openDays": [],
    "openDaysNote": ""
  },
  {
    "id": "1370405738",
    "name": "社会福祉法人園盛会　特別養護老人ホーム　もみの樹園",
    "kana": "シャカイフクシホウジンエンセイカイ　トクベツヨウゴロウジンホーム　モミノキエン",
    "address": "東京都新宿区上落合1-17-8",
    "lat": 35.7160752547827,
    "lng": 139.694306724606,
    "tel": "03-6915-3001",
    "url": "http://mominoki-en.com/",
    "pref": "東京都",
    "city": "新宿区",
    "category": "tokuyou",
    "serviceType": "介護老人福祉施設",
    "capacity": 130,
    "openDays": [],
    "openDaysNote": ""
  },
  {
    "id": "1370403774",
    "name": "特別養護老人ﾎｰﾑ　新宿けやき園",
    "kana": "トクベツヨウゴロウジンホーム　シンジュクケヤキエン",
    "address": "東京都新宿区百人町4-5-1",
    "lat": 35.7081577,
    "lng": 139.6981077,
    "tel": "03-3367-1601",
    "url": "http://hoyukai.iuhw.ac.jp/keyakien",
    "pref": "東京都",
    "city": "新宿区",
    "category": "tokuyou",
    "serviceType": "介護老人福祉施設",
    "capacity": 0,
    "openDays": [],
    "openDaysNote": ""
  },
  {
    "id": "1370402974",
    "name": "特別養護老人ホーム　あかね苑",
    "kana": "トクベツヨウゴロウジンホーム　アカネエン",
    "address": "東京都新宿区北山伏町２番１２号",
    "lat": 35.7001318,
    "lng": 139.7296826,
    "tel": "03-3266-1811",
    "url": "http://www.azeriya-akane.com",
    "pref": "東京都",
    "city": "新宿区",
    "category": "tokuyou",
    "serviceType": "介護老人福祉施設",
    "capacity": 0,
    "openDays": [],
    "openDaysNote": ""
  },
  {
    "id": "1370404368",
    "name": "特別養護老人ホーム　神楽坂",
    "kana": "トクベツヨウゴロウジンホーム　カグラザカ",
    "address": "東京都新宿区矢来町104",
    "lat": 35.703724905264,
    "lng": 139.734292627647,
    "tel": "03-3269-7555",
    "url": "http://www.misasakai.or.jp/",
    "pref": "東京都",
    "city": "新宿区",
    "category": "tokuyou",
    "serviceType": "介護老人福祉施設",
    "capacity": 0,
    "openDays": [],
    "openDaysNote": ""
  },
  {
    "id": "1370401430",
    "name": "特別養護老人ホーム　聖母ホーム",
    "kana": "トクベツヨウゴロウジンホーム　セイボホーム",
    "address": "東京都新宿区中落合2-5-21",
    "lat": 35.719023,
    "lng": 139.6946214,
    "tel": "03-3953-4028",
    "url": "http://www.seibohome.jp",
    "pref": "東京都",
    "city": "新宿区",
    "category": "tokuyou",
    "serviceType": "介護老人福祉施設",
    "capacity": 85,
    "openDays": [],
    "openDaysNote": ""
  },
  {
    "id": "1370407056",
    "name": "特別養護老人ホーム新宿和光園",
    "kana": "トクベツヨウゴロウジンホームシンジュクワコウエン",
    "address": "東京都新宿区市谷薬王寺町１９－３８",
    "lat": 35.6967575914805,
    "lng": 139.723409750926,
    "tel": "03-3355-8555",
    "url": "https://www.yamatokai-tokyo.or.jp/nursing_homes/shinjuku-wakoen/",
    "pref": "東京都",
    "city": "新宿区",
    "category": "tokuyou",
    "serviceType": "介護老人福祉施設",
    "capacity": 84,
    "openDays": [],
    "openDaysNote": ""
  },
  {
    "id": "1370402966",
    "name": "北新宿特別養護老人ホーム",
    "kana": "キタシンジュクトクベツヨウゴロウジンホーム",
    "address": "東京都新宿区北新宿三丁目２７番６号",
    "lat": 35.7047912,
    "lng": 139.6898616,
    "tel": "03-3363-3291",
    "url": "http://www.shinjuku-sj.jp/",
    "pref": "東京都",
    "city": "新宿区",
    "category": "tokuyou",
    "serviceType": "介護老人福祉施設",
    "capacity": 86,
    "openDays": [],
    "openDaysNote": ""
  },
  {
    "id": "1370300319",
    "name": "神津島やすらぎの里",
    "kana": "コウヅシマヤスラギノサト",
    "address": "東京都神津島村字沢尻１１番１神津島やすらぎの里 神津島やすらぎの里",
    "lat": 34.2179815536193,
    "lng": 139.135582740475,
    "tel": "04992-8-1171",
    "url": "http://www.kouzu-yasuragi.net/",
    "pref": "東京都",
    "city": "神津島村",
    "category": "tokuyou",
    "serviceType": "介護老人福祉施設",
    "capacity": 0,
    "openDays": [],
    "openDaysNote": ""
  },
  {
    "id": "1372400786",
    "name": "特別養護老人ホーム　フラワープラム",
    "kana": "トクベツヨウゴロウジンホーム　フラワープラム",
    "address": "東京都西多摩郡瑞穂町長岡長谷部83番1",
    "lat": 35.7865893,
    "lng": 139.3335024,
    "tel": "042-556-5755",
    "url": "http://www.flowerplum.jp",
    "pref": "東京都",
    "city": "瑞穂町",
    "category": "tokuyou",
    "serviceType": "介護老人福祉施設",
    "capacity": 0,
    "openDays": [],
    "openDaysNote": ""
  },
  {
    "id": "1372400216",
    "name": "特別養護老人ホーム　不老の郷",
    "kana": "トクベツヨウゴロウジンホーム　フロウノサト",
    "address": "東京都西多摩郡瑞穂町大字二本木1319",
    "lat": 35.7904820993436,
    "lng": 139.366034482803,
    "tel": "042-557-3030",
    "url": "http://www.furounosato.org",
    "pref": "東京都",
    "city": "瑞穂町",
    "category": "tokuyou",
    "serviceType": "介護老人福祉施設",
    "capacity": 80,
    "openDays": [],
    "openDaysNote": ""
  },
  {
    "id": "1372400299",
    "name": "特別養護老人ホーム　良友園",
    "kana": "トクベツヨウゴロウジンホーム　リョウユウエン",
    "address": "東京都西多摩郡瑞穂町箱根ヶ崎６７０－１",
    "lat": 35.7788711,
    "lng": 139.3435937,
    "tel": "042-568-0753",
    "url": "https://ryoyuen.com/",
    "pref": "東京都",
    "city": "瑞穂町",
    "category": "tokuyou",
    "serviceType": "介護老人福祉施設",
    "capacity": 100,
    "openDays": [],
    "openDaysNote": ""
  },
  {
    "id": "1372400158",
    "name": "特別養護老人ホームみずほ園",
    "kana": "トクベツヨウゴロウジンホーム　ミズホエン",
    "address": "東京都西多摩郡瑞穂町箱根ヶ崎922番地１",
    "lat": 35.7905112,
    "lng": 139.3363409,
    "tel": "042-556-1411",
    "url": "http://www.tokiwakai.tokyo",
    "pref": "東京都",
    "city": "瑞穂町",
    "category": "tokuyou",
    "serviceType": "介護老人福祉施設",
    "capacity": 184,
    "openDays": [],
    "openDaysNote": ""
  },
  {
    "id": "1371500248",
    "name": "さんじゅ阿佐谷",
    "kana": "サンジュアサガヤ",
    "address": "東京都杉並区阿佐谷北1-2-1",
    "lat": 35.7052318,
    "lng": 139.6400568,
    "tel": "03-5373-3911",
    "url": "http://sanjyukai.jp/",
    "pref": "東京都",
    "city": "杉並区",
    "category": "tokuyou",
    "serviceType": "介護老人福祉施設",
    "capacity": 45,
    "openDays": [],
    "openDaysNote": ""
  },
  {
    "id": "1371502335",
    "name": "さんじゅ久我山",
    "kana": "サンジュクガヤマ",
    "address": "東京都杉並区久我山3-47-16",
    "lat": 35.6899018,
    "lng": 139.5932337,
    "tel": "03-5346-5351",
    "url": "http://www.sanjyukai.jp",
    "pref": "東京都",
    "city": "杉並区",
    "category": "tokuyou",
    "serviceType": "介護老人福祉施設",
    "capacity": 50,
    "openDays": [],
    "openDaysNote": ""
  },
  {
    "id": "1371503028",
    "name": "すぎなみ正吉苑",
    "kana": "スギナミショウキチエン",
    "address": "東京都杉並区清水２－１５－２４",
    "lat": 35.7142778,
    "lng": 139.6177947,
    "tel": "03-5303-5822",
    "url": "http://www.shoukichi.org/",
    "pref": "東京都",
    "city": "杉並区",
    "category": "tokuyou",
    "serviceType": "介護老人福祉施設",
    "capacity": 60,
    "openDays": [],
    "openDaysNote": ""
  },
  {
    "id": "1371510262",
    "name": "リバービレッジ杉並",
    "kana": "リバービレッジスギナミ",
    "address": "東京都杉並区清水3-3-13",
    "lat": 35.7164421,
    "lng": 139.619388,
    "tel": "03-6913-8185",
    "url": "https://rvsuginami.jp/",
    "pref": "東京都",
    "city": "杉並区",
    "category": "tokuyou",
    "serviceType": "介護老人福祉施設",
    "capacity": 60,
    "openDays": [],
    "openDaysNote": ""
  },
  {
    "id": "1371509835",
    "name": "永福南社会福祉ガーデン",
    "kana": "エイフクミナミシャカイフクシガーデン",
    "address": "東京都杉並区永福1-7-6",
    "lat": 35.6697453,
    "lng": 139.6433919,
    "tel": "03-6379-3011",
    "url": "https://www.f-kenseikai.or.jp/senior-garden/facility.html",
    "pref": "東京都",
    "city": "杉並区",
    "category": "tokuyou",
    "serviceType": "介護老人福祉施設",
    "capacity": 70,
    "openDays": [],
    "openDaysNote": ""
  },
  {
    "id": "1371507813",
    "name": "救世軍恵みの家",
    "kana": "キュウセイグンメグミノイエ",
    "address": "東京都杉並区和田1-41-11",
    "lat": 35.6919482,
    "lng": 139.6592789,
    "tel": "03-3381-7243",
    "url": "https://meguminoie.salvationarmy.or.jp",
    "pref": "東京都",
    "city": "杉並区",
    "category": "tokuyou",
    "serviceType": "介護老人福祉施設",
    "capacity": 70,
    "openDays": [],
    "openDaysNote": ""
  },
  {
    "id": "1371508514",
    "name": "社会福祉法人奉優会沓掛ホーム",
    "kana": "シャカイフクシホウジンホウユウカイクツカケホーム",
    "address": "東京都杉並区本天沼3-34-28",
    "lat": 35.7162221,
    "lng": 139.6220859,
    "tel": "03-3395-0900",
    "url": "http://ｗｗｗ.foryou.or.jp",
    "pref": "東京都",
    "city": "杉並区",
    "category": "tokuyou",
    "serviceType": "介護老人福祉施設",
    "capacity": 60,
    "openDays": [],
    "openDaysNote": ""
  },
  {
    "id": "1371500230",
    "name": "第二南陽園",
    "kana": "ダイニナンヨウエン",
    "address": "東京都杉並区高井戸西1-12-1",
    "lat": 35.6816283569868,
    "lng": 139.608923011501,
    "tel": "03-3334-2197",
    "url": "https://www.yokufuukai.or.jp",
    "pref": "東京都",
    "city": "杉並区",
    "category": "tokuyou",
    "serviceType": "介護老人福祉施設",
    "capacity": 150,
    "openDays": [],
    "openDaysNote": ""
  },
  {
    "id": "1371510171",
    "name": "特別養護老人ホーム　かえで園",
    "kana": "トクベツヨウゴロウジンホーム　カエデエン",
    "address": "東京都杉並区宮前5－5－1",
    "lat": 35.6924472529041,
    "lng": 139.598552534393,
    "tel": "03-5344-7117",
    "url": "http://www.tojinkai.or.jp",
    "pref": "東京都",
    "city": "杉並区",
    "category": "tokuyou",
    "serviceType": "介護老人福祉施設",
    "capacity": 78,
    "openDays": [],
    "openDaysNote": ""
  },
  {
    "id": "1371510668",
    "name": "特別養護老人ホーム　プライムガーデンズ高円寺",
    "kana": "トクベツヨウゴロウジンホーム　プライムガーデンズ　コウエンジ",
    "address": "東京都杉並区高円寺南五丁目33番7号",
    "lat": 35.7051092,
    "lng": 139.6555718,
    "tel": "03－5377－3333",
    "url": "http://sanyoufukushikai.com",
    "pref": "東京都",
    "city": "杉並区",
    "category": "tokuyou",
    "serviceType": "介護老人福祉施設",
    "capacity": null,
    "openDays": [],
    "openDaysNote": ""
  },
  {
    "id": "1371505650",
    "name": "特別養護老人ホーム　マイルドハート高円寺",
    "kana": "トクベツヨウゴロウジンホーム　マイルドハートコウエンジ",
    "address": "東京都杉並区高円寺北１－２８－１",
    "lat": 35.7090426,
    "lng": 139.657783,
    "tel": "03-5345-5981",
    "url": "http://www.utazufukushikai.or.jp",
    "pref": "東京都",
    "city": "杉並区",
    "category": "tokuyou",
    "serviceType": "介護老人福祉施設",
    "capacity": 181,
    "openDays": [],
    "openDaysNote": ""
  },
  {
    "id": "1371508340",
    "name": "特別養護老人ホーム　愛敬苑",
    "kana": "トクベツヨウゴロウジンホーム　アイキョウエン",
    "address": "東京都杉並区和田一丁目３番７号",
    "lat": 35.6895325507706,
    "lng": 139.664132590213,
    "tel": "03-6304-8746",
    "url": "http://jiunkai.org/index.html",
    "pref": "東京都",
    "city": "杉並区",
    "category": "tokuyou",
    "serviceType": "介護老人福祉施設",
    "capacity": 50,
    "openDays": [],
    "openDaysNote": ""
  },
  {
    "id": "1371510411",
    "name": "特別養護老人ホーム　山河",
    "kana": "トクベツヨウゴロウジンホーム　サンガ",
    "address": "東京都杉並区高井戸東3-30-13",
    "lat": 35.6869352,
    "lng": 139.6182749,
    "tel": "03-5935-8806",
    "url": "https://www.sawarabikai.or.jp",
    "pref": "東京都",
    "city": "杉並区",
    "category": "tokuyou",
    "serviceType": "介護老人福祉施設",
    "capacity": 144,
    "openDays": [],
    "openDaysNote": ""
  },
  {
    "id": "1371508266",
    "name": "特別養護老人ホーム　和泉サナホーム",
    "kana": "トクベツヨウゴロウジンホーム　イズミサナホーム",
    "address": "東京都杉並区和泉四丁目16番10号",
    "lat": 35.6784159375225,
    "lng": 139.649676159525,
    "tel": "03-6379-3195",
    "url": "https://www.jinaikai.jp",
    "pref": "東京都",
    "city": "杉並区",
    "category": "tokuyou",
    "serviceType": "介護老人福祉施設",
    "capacity": 60,
    "openDays": [],
    "openDaysNote": ""
  },
  {
    "id": "1371500958",
    "name": "特別養護老人ホーム　和田堀ホーム",
    "kana": "トクベツヨウゴロウジンホーム　ワダボリホーム",
    "address": "東京都杉並区和田２－２７－８",
    "lat": 35.6902752,
    "lng": 139.6551452,
    "tel": "03-3316-2943",
    "url": "http://www.shinsyounokai.or.jp",
    "pref": "東京都",
    "city": "杉並区",
    "category": "tokuyou",
    "serviceType": "介護老人福祉施設",
    "capacity": 0,
    "openDays": [],
    "openDaysNote": ""
  },
  {
    "id": "1371509397",
    "name": "特別養護老人ホームおぎくぼ紫苑",
    "kana": "トクベツヨウゴロウジンホームオギクボシエン",
    "address": "東京都杉並区荻窪3-7-30特別養護老人ホームおぎくぼ紫苑 特別養護老人ホームおぎくぼ紫苑",
    "lat": 35.6984193356095,
    "lng": 139.625560426489,
    "tel": "03-6915-1593",
    "url": "http://outoukai.com",
    "pref": "東京都",
    "city": "杉並区",
    "category": "tokuyou",
    "serviceType": "介護老人福祉施設",
    "capacity": 90,
    "openDays": [],
    "openDaysNote": ""
  },
  {
    "id": "1371504976",
    "name": "特別養護老人ホームサンフレンズ善福寺",
    "kana": "トクベツヨウゴロウジンホームサンフレンズゼンプクジ",
    "address": "東京都杉並区善福寺３－２７－１１",
    "lat": 35.7154101,
    "lng": 139.5873974,
    "tel": "03-5303-0756",
    "url": "https://www.3friends.or.jp",
    "pref": "東京都",
    "city": "杉並区",
    "category": "tokuyou",
    "serviceType": "介護老人福祉施設",
    "capacity": 30,
    "openDays": [],
    "openDaysNote": ""
  },
  {
    "id": "1371510825",
    "name": "特別養護老人ホームフェニックス杉並",
    "kana": "トクベツヨウゴロウジンホームフェニックススギナミ",
    "address": "東京都杉並区天沼三丁目19番14号",
    "lat": 35.7099624,
    "lng": 139.6202268,
    "tel": "03-5335-5100",
    "url": "https://suginami.akatsukikai.com/",
    "pref": "東京都",
    "city": "杉並区",
    "category": "tokuyou",
    "serviceType": "介護老人福祉施設",
    "capacity": 0,
    "openDays": [],
    "openDaysNote": ""
  },
  {
    "id": "1371503036",
    "name": "特別養護老人ホーム上井草園",
    "kana": "トクベツヨウゴロウジンホームカミイグサエン",
    "address": "東京都杉並区上井草３－３３－１０",
    "lat": 35.7242234,
    "lng": 139.6029652,
    "tel": "03-3394-1094",
    "url": "http://www.3friends.or.jp",
    "pref": "東京都",
    "city": "杉並区",
    "category": "tokuyou",
    "serviceType": "介護老人福祉施設",
    "capacity": 75,
    "openDays": [],
    "openDaysNote": ""
  },
  {
    "id": "1371510098",
    "name": "特別養護老人ホーム新泉サナホーム",
    "kana": "トクベツヨウゴロウジンホームシンセンサナホーム",
    "address": "東京都杉並区和泉1丁目44番19号",
    "lat": 35.6761662561708,
    "lng": 139.656110139951,
    "tel": "03-6379-0182",
    "url": "https://www.jinaikai.jp",
    "pref": "東京都",
    "city": "杉並区",
    "category": "tokuyou",
    "serviceType": "介護老人福祉施設",
    "capacity": 72,
    "openDays": [],
    "openDaysNote": ""
  },
  {
    "id": "1371501766",
    "name": "特別養護老人ホーム第三南陽園",
    "kana": "トクベツヨウゴロウジンホームダイサンナンヨウエン",
    "address": "東京都杉並区高井戸西1-12-1",
    "lat": 35.6803865,
    "lng": 139.6099047,
    "tel": "03-3334-2193",
    "url": "http://www.yokufuukai.or.jp",
    "pref": "東京都",
    "city": "杉並区",
    "category": "tokuyou",
    "serviceType": "介護老人福祉施設",
    "capacity": 207,
    "openDays": [],
    "openDaysNote": ""
  },
  {
    "id": "1371500222",
    "name": "南陽園",
    "kana": "ナンヨウエン",
    "address": "東京都杉並区高井戸西1-12-1",
    "lat": 35.6797241683715,
    "lng": 139.609641843517,
    "tel": "03-3334-2159",
    "url": "https://www.yokufuukai.or.jp/facility/nanyo_en.html",
    "pref": "東京都",
    "city": "杉並区",
    "category": "tokuyou",
    "serviceType": "介護老人福祉施設",
    "capacity": 242,
    "openDays": [],
    "openDaysNote": ""
  },
  {
    "id": "1371215870",
    "name": "さくらほうむ",
    "kana": "サクラホウム",
    "address": "東京都世田谷区弦巻三丁目3番17号",
    "lat": 35.6355346,
    "lng": 139.6482996,
    "tel": "368097603",
    "url": "http://www.yayoi-home.com",
    "pref": "東京都",
    "city": "世田谷区",
    "category": "tokuyou",
    "serviceType": "介護老人福祉施設",
    "capacity": 58,
    "openDays": [],
    "openDaysNote": ""
  },
  {
    "id": "1371215755",
    "name": "介護老人福祉施設　ラぺ二子玉川",
    "kana": "カイゴロウジンフクシシセツ　ラペフタコタマガワ",
    "address": "東京都世田谷区瀬田４丁目5-5介護老人福祉施設　ラぺ二子玉川 介護老人福祉施設　ラぺ二子玉川",
    "lat": 35.6193686,
    "lng": 139.6243834,
    "tel": "03-6805-6678",
    "url": "https://ryokujyukai.com",
    "pref": "東京都",
    "city": "世田谷区",
    "category": "tokuyou",
    "serviceType": "介護老人福祉施設",
    "capacity": 0,
    "openDays": [],
    "openDaysNote": ""
  },
  {
    "id": "1371216365",
    "name": "介護老人福祉施設きたざわ苑",
    "kana": "カイゴロウジンフクシシセツキタザワエン",
    "address": "東京都世田谷区北沢5-24-18",
    "lat": 35.6700265325958,
    "lng": 139.671306892065,
    "tel": "03-5453-5620",
    "url": "http://www.shoukichi.org/kitazawa/",
    "pref": "東京都",
    "city": "世田谷区",
    "category": "tokuyou",
    "serviceType": "介護老人福祉施設",
    "capacity": null,
    "openDays": [],
    "openDaysNote": ""
  },
  {
    "id": "1371200641",
    "name": "砧ホーム",
    "kana": "キヌタホーム",
    "address": "東京都世田谷区砧3-9-11",
    "lat": 35.6360009,
    "lng": 139.6134984,
    "tel": "03-5429-6239",
    "url": "https://www.yuai.or.jp/",
    "pref": "東京都",
    "city": "世田谷区",
    "category": "tokuyou",
    "serviceType": "介護老人福祉施設",
    "capacity": 60,
    "openDays": [],
    "openDaysNote": ""
  },
  {
    "id": "1371200609",
    "name": "社会福祉法人康和会　久我山園",
    "kana": "シャカイフクシホウジンコウワカイ　クガヤマエン",
    "address": "東京都世田谷区北烏山2-14-14",
    "lat": 35.6813138,
    "lng": 139.5984169,
    "tel": "03-3309-3211",
    "url": "http://www.kugayama-en.org/",
    "pref": "東京都",
    "city": "世田谷区",
    "category": "tokuyou",
    "serviceType": "介護老人福祉施設",
    "capacity": 72,
    "openDays": [],
    "openDaysNote": ""
  },
  {
    "id": "1371215086",
    "name": "世田谷希望丘ホーム",
    "kana": "セタガヤキボウガオカホーム",
    "address": "東京都世田谷区船橋６丁目２５番２５号",
    "lat": 35.6593332331457,
    "lng": 139.621600620902,
    "tel": "03-5316-5388",
    "url": "http://www.rakuseikai.or.jp",
    "pref": "東京都",
    "city": "世田谷区",
    "category": "tokuyou",
    "serviceType": "介護老人福祉施設",
    "capacity": 110,
    "openDays": [],
    "openDaysNote": ""
  },
  {
    "id": "1371200617",
    "name": "成城アルテンハイム",
    "kana": "セイジョウアルテンハイム",
    "address": "東京都世田谷区成城６－１３－１７",
    "lat": 35.6417552,
    "lng": 139.6000187,
    "tel": "03-3483-8001",
    "url": "http://www.h2.dion.ne.jp/~furuiki/",
    "pref": "東京都",
    "city": "世田谷区",
    "category": "tokuyou",
    "serviceType": "介護老人福祉施設",
    "capacity": null,
    "openDays": [],
    "openDaysNote": ""
  },
  {
    "id": "1371200666",
    "name": "千歳敬心苑",
    "kana": "チトセケイシンエン",
    "address": "東京都世田谷区給田５丁目９番５号",
    "lat": 35.672106,
    "lng": 139.5858349,
    "tel": "03-3307-1165",
    "url": "http://www.keisinen.or.jp/",
    "pref": "東京都",
    "city": "世田谷区",
    "category": "tokuyou",
    "serviceType": "介護老人福祉施設",
    "capacity": 80,
    "openDays": [],
    "openDaysNote": ""
  },
  {
    "id": "1371200625",
    "name": "第２有隣ホーム",
    "kana": "ダイニユウリンホーム",
    "address": "東京都世田谷区船橋2－15－38",
    "lat": 35.6510239,
    "lng": 139.6191915,
    "tel": "03-3482-3911",
    "url": "https://www.tokyoyurinkai.or.jp/",
    "pref": "東京都",
    "city": "世田谷区",
    "category": "tokuyou",
    "serviceType": "介護老人福祉施設",
    "capacity": 36,
    "openDays": [],
    "openDaysNote": ""
  },
  {
    "id": "1371217454",
    "name": "第2有隣ホーム（ユニット型）",
    "kana": "ダイニユウリンホーム（ユニットガタ）",
    "address": "東京都世田谷区船橋2-15-38",
    "lat": 35.6510523,
    "lng": 139.6191114,
    "tel": "03-3482-3911",
    "url": "https://dai2yurinhome.com/",
    "pref": "東京都",
    "city": "世田谷区",
    "category": "tokuyou",
    "serviceType": "介護老人福祉施設",
    "capacity": 44,
    "openDays": [],
    "openDaysNote": ""
  },
  {
    "id": "1371204882",
    "name": "等々力共愛ホームズ",
    "kana": "トドロキキョウアイホームズ",
    "address": "東京都世田谷区等々力一丁目２４番１１号",
    "lat": 35.6039135,
    "lng": 139.648402,
    "tel": "03-5706-6588",
    "url": "http://rougo-happy.or.jp/",
    "pref": "東京都",
    "city": "世田谷区",
    "category": "tokuyou",
    "serviceType": "介護老人福祉施設",
    "capacity": 52,
    "openDays": [],
    "openDaysNote": ""
  },
  {
    "id": "1371212612",
    "name": "特別養護老人ホーム　エリザベート成城",
    "kana": "トクベツヨウゴロウジンホーム　エリザベートセイジョウ",
    "address": "東京都世田谷区成城八丁目２７番２４号",
    "lat": 35.6478514,
    "lng": 139.5943244,
    "tel": "03-3789-8100",
    "url": "http://www.ryokufu1984.or.jp",
    "pref": "東京都",
    "city": "世田谷区",
    "category": "tokuyou",
    "serviceType": "介護老人福祉施設",
    "capacity": 100,
    "openDays": [],
    "openDaysNote": ""
  },
  {
    "id": "1371208610",
    "name": "特別養護老人ホーム　せたがや給田乃杜",
    "kana": "トクベツヨウゴロウジンホーム　セタガヤキュウデンノモリ",
    "address": "東京都世田谷区給田5-3-5",
    "lat": 35.6731476,
    "lng": 139.5882625,
    "tel": "03-5384-7277",
    "url": "http://www.nanokakai.jp",
    "pref": "東京都",
    "city": "世田谷区",
    "category": "tokuyou",
    "serviceType": "介護老人福祉施設",
    "capacity": 0,
    "openDays": [],
    "openDaysNote": ""
  },
  {
    "id": "1371215730",
    "name": "特別養護老人ホーム　ときわぎ世田谷",
    "kana": "トクベツヨウゴロウジンホーム　トキワギセタガヤ",
    "address": "東京都世田谷区下馬２－３－１０特別養護老人ホーム　ときわぎ世田谷 特別養護老人ホーム　ときわぎ世田谷",
    "lat": 35.6382131,
    "lng": 139.6773762,
    "tel": "03-6413-8571",
    "url": "http://www.tokiwakai.tokyo",
    "pref": "東京都",
    "city": "世田谷区",
    "category": "tokuyou",
    "serviceType": "介護老人福祉施設",
    "capacity": 90,
    "openDays": [],
    "openDaysNote": ""
  },
  {
    "id": "1371200633",
    "name": "特別養護老人ホーム　フレンズホーム",
    "kana": "トクベツヨウゴロウジンホーム　フレンズホーム",
    "address": "東京都世田谷区下馬2-21-11フレンズ世田谷センタービル フレンズ世田谷センタービル",
    "lat": 35.6401763,
    "lng": 139.6758899,
    "tel": "03-3422-7211",
    "url": "https://www.n-friends.or.jp",
    "pref": "東京都",
    "city": "世田谷区",
    "category": "tokuyou",
    "serviceType": "介護老人福祉施設",
    "capacity": 65,
    "openDays": [],
    "openDaysNote": ""
  },
  {
    "id": "1371202969",
    "name": "特別養護老人ホーム　喜多見ホーム",
    "kana": "トクベツヨウゴロウジンホーム　キタミホーム",
    "address": "東京都世田谷区喜多見七丁目20番26号",
    "lat": 35.6323844,
    "lng": 139.5959725,
    "tel": "03-5727-1161",
    "url": "https://nanzankai.tokyo/",
    "pref": "東京都",
    "city": "世田谷区",
    "category": "tokuyou",
    "serviceType": "介護老人福祉施設",
    "capacity": 60,
    "openDays": [],
    "openDaysNote": ""
  },
  {
    "id": "1371216340",
    "name": "特別養護老人ホーム　上北沢ホーム",
    "kana": "トクベツヨウゴロウジンホーム　カミキタザワホーム",
    "address": "東京都世田谷区上北沢1-28-17",
    "lat": 35.6635204,
    "lng": 139.6261598,
    "tel": "03-3306-5155",
    "url": "https://www.setagayaj.or.jp/",
    "pref": "東京都",
    "city": "世田谷区",
    "category": "tokuyou",
    "serviceType": "介護老人福祉施設",
    "capacity": 0,
    "openDays": [],
    "openDaysNote": ""
  },
  {
    "id": "1371203587",
    "name": "特別養護老人ホーム　東京敬寿園",
    "kana": "トクベツヨウゴロウジンホーム　トウキョウケイジュエン",
    "address": "東京都世田谷区上祖師谷7－1－1",
    "lat": 35.6581637,
    "lng": 139.5947793,
    "tel": "03-5313-0008",
    "url": "http://www.keijuen.or.jp/tokyo/index.html",
    "pref": "東京都",
    "city": "世田谷区",
    "category": "tokuyou",
    "serviceType": "介護老人福祉施設",
    "capacity": 76,
    "openDays": [],
    "openDaysNote": ""
  },
  {
    "id": "1371202217",
    "name": "特別養護老人ホーム　等々力の家",
    "kana": "トクベツヨウゴロウジンホウム　トドロキノイエ",
    "address": "東京都世田谷区等々力８－２６－１６",
    "lat": 35.617334,
    "lng": 139.6520317,
    "tel": "03-5752-0030",
    "url": "http://www.foryou.or.jp",
    "pref": "東京都",
    "city": "世田谷区",
    "category": "tokuyou",
    "serviceType": "介護老人福祉施設",
    "capacity": 60,
    "openDays": [],
    "openDaysNote": ""
  },
  {
    "id": "1371202878",
    "name": "特別養護老人ホーム　博水の郷",
    "kana": "トクベツヨウゴロウジンホーム　ハクスイノサト",
    "address": "東京都世田谷区鎌田3－16―6",
    "lat": 35.6197202,
    "lng": 139.6159354,
    "tel": "03-5491-0340",
    "url": "http://www.oomishima.jp/",
    "pref": "東京都",
    "city": "世田谷区",
    "category": "tokuyou",
    "serviceType": "介護老人福祉施設",
    "capacity": 90,
    "openDays": [],
    "openDaysNote": ""
  },
  {
    "id": "1371205749",
    "name": "特別養護老人ホームフォーライフ桃郷",
    "kana": "トクベツヨウゴロウジンホームフォーライフトウキョウ",
    "address": "東京都世田谷区北烏山7-8-11",
    "lat": 35.6772529,
    "lng": 139.5923342,
    "tel": "03-3300-1600",
    "url": "http://www.jyusinkai.or.jp",
    "pref": "東京都",
    "city": "世田谷区",
    "category": "tokuyou",
    "serviceType": "介護老人福祉施設",
    "capacity": 60,
    "openDays": [],
    "openDaysNote": ""
  },
  {
    "id": "1371216332",
    "name": "特別養護老人ホーム芦花ホーム",
    "kana": "トクベツヨウゴロウジンホームロカホーム",
    "address": "東京都世田谷区粕谷2-23-1",
    "lat": 35.6658587,
    "lng": 139.609965,
    "tel": "03-5317-1094",
    "url": "https://www.setagayaj.or.jp/service/nursinghome/roka",
    "pref": "東京都",
    "city": "世田谷区",
    "category": "tokuyou",
    "serviceType": "介護老人福祉施設",
    "capacity": 107,
    "openDays": [],
    "openDaysNote": ""
  },
  {
    "id": "1371217041",
    "name": "特別養護老人ホーム弦巻の家",
    "kana": "トクベツヨウゴロウジンホームツルマキノイエ",
    "address": "東京都世田谷区弦巻５－３４－５特別養護老人ホーム弦巻の家 特別養護老人ホーム弦巻の家",
    "lat": 35.6362205118669,
    "lng": 139.636870625131,
    "tel": "364137880",
    "url": "https://www.foryou.or.jp",
    "pref": "東京都",
    "city": "世田谷区",
    "category": "tokuyou",
    "serviceType": "介護老人福祉施設",
    "capacity": 108,
    "openDays": [],
    "openDaysNote": ""
  },
  {
    "id": "1371214642",
    "name": "特別養護老人ホーム深沢共愛ホームズ",
    "kana": "トクベツヨウゴロウジンホームフカサワキョウアイホームズ",
    "address": "東京都世田谷区深沢1丁目32番21号",
    "lat": 35.6194562,
    "lng": 139.6652248,
    "tel": "03-5760-6331",
    "url": "http://rougo-happy.or.jp/",
    "pref": "東京都",
    "city": "世田谷区",
    "category": "tokuyou",
    "serviceType": "介護老人福祉施設",
    "capacity": 96,
    "openDays": [],
    "openDaysNote": ""
  },
  {
    "id": "1371200583",
    "name": "有隣ホーム",
    "kana": "ユウリンホーム",
    "address": "東京都世田谷区船橋2-15-38",
    "lat": 35.6514510837719,
    "lng": 139.618537041,
    "tel": "03-3484-0600",
    "url": "https://yurin-home.com",
    "pref": "東京都",
    "city": "世田谷区",
    "category": "tokuyou",
    "serviceType": "介護老人福祉施設",
    "capacity": 99,
    "openDays": [],
    "openDaysNote": ""
  },
  {
    "id": "1374700118",
    "name": "救世軍恵泉ホーム",
    "kana": "キュウセイグンケイセンホーム",
    "address": "東京都清瀬市竹丘1-17-61",
    "lat": 35.7696349,
    "lng": 139.5081074,
    "tel": "042-493-5161",
    "url": "",
    "pref": "東京都",
    "city": "清瀬市",
    "category": "tokuyou",
    "serviceType": "介護老人福祉施設",
    "capacity": 50,
    "openDays": [],
    "openDaysNote": ""
  },
  {
    "id": "1374700084",
    "name": "信愛の園",
    "kana": "シンアイノソノ",
    "address": "東京都清瀬市梅園2-3-15",
    "lat": 35.7727511,
    "lng": 139.5035217,
    "tel": "042-492-1551",
    "url": "http://shin-ai.or.jp/sono/",
    "pref": "東京都",
    "city": "清瀬市",
    "category": "tokuyou",
    "serviceType": "介護老人福祉施設",
    "capacity": 199,
    "openDays": [],
    "openDaysNote": ""
  },
  {
    "id": "1374700092",
    "name": "聖ヨゼフ老人ホーム",
    "kana": "セイヨゼフロウジンホーム",
    "address": "東京都清瀬市梅園３－１４－７２",
    "lat": 35.7720124,
    "lng": 139.501658,
    "tel": "042-493-7014",
    "url": "http://jiseikai-kiyose.com",
    "pref": "東京都",
    "city": "清瀬市",
    "category": "tokuyou",
    "serviceType": "介護老人福祉施設",
    "capacity": 100,
    "openDays": [],
    "openDaysNote": ""
  },
  {
    "id": "1374700100",
    "name": "特別養護老人ホーム　上宮園",
    "kana": "トクベツヨウゴロウジンホーム　ジョウグウエン",
    "address": "東京都清瀬市竹丘3丁目3番31号",
    "lat": 35.7675435,
    "lng": 139.5024552,
    "tel": "042-493-6118",
    "url": "http://www.jyogu.com/jyoguen/",
    "pref": "東京都",
    "city": "清瀬市",
    "category": "tokuyou",
    "serviceType": "介護老人福祉施設",
    "capacity": 100,
    "openDays": [],
    "openDaysNote": ""
  },
  {
    "id": "1374700126",
    "name": "特別養護老人ホーム清雅苑",
    "kana": "トクベツヨウゴロウジンホーム　セイガエン",
    "address": "東京都清瀬市中里5-91-2",
    "lat": 35.7893634,
    "lng": 139.531891,
    "tel": "042-493-0120",
    "url": "http://www.seirouin.or.jp/seiga/",
    "pref": "東京都",
    "city": "清瀬市",
    "category": "tokuyou",
    "serviceType": "介護老人福祉施設",
    "capacity": 82,
    "openDays": [],
    "openDaysNote": ""
  },
  {
    "id": "1373700085",
    "name": "緑寿園",
    "kana": "リョクジュエン",
    "address": "東京都清瀬市梅園1-3-32",
    "lat": 35.7171835,
    "lng": 139.5442952,
    "tel": "042-495-3020",
    "url": "http://www.ryokuju.gr.jp",
    "pref": "東京都",
    "city": "清瀬市",
    "category": "tokuyou",
    "serviceType": "介護老人福祉施設",
    "capacity": 120,
    "openDays": [],
    "openDaysNote": ""
  },
  {
    "id": "1373900347",
    "name": "グリーンロード",
    "kana": "グリーンロード",
    "address": "東京都西東京市西原町２－２－１１",
    "lat": 35.7339534,
    "lng": 139.5316592,
    "tel": "042-467-7736",
    "url": "https://greenroad.or.jp",
    "pref": "東京都",
    "city": "西東京市",
    "category": "tokuyou",
    "serviceType": "介護老人福祉施設",
    "capacity": 60,
    "openDays": [],
    "openDaysNote": ""
  },
  {
    "id": "1373900081",
    "name": "クレイン",
    "kana": "クレイン",
    "address": "東京都西東京市西原町４丁目３番５号",
    "lat": 35.735142,
    "lng": 139.52869,
    "tel": "0424-68-3300",
    "url": "http://www.kurein.org",
    "pref": "東京都",
    "city": "西東京市",
    "category": "tokuyou",
    "serviceType": "介護老人福祉施設",
    "capacity": 55,
    "openDays": [],
    "openDaysNote": ""
  },
  {
    "id": "1373700101",
    "name": "めぐみ園",
    "kana": "メグミエン",
    "address": "東京都西東京市柳沢4丁目1番3号",
    "lat": 35.7212888,
    "lng": 139.5507472,
    "tel": "042-461-2230",
    "url": "http://www.tokyo-rojin-home.or.jp",
    "pref": "東京都",
    "city": "西東京市",
    "category": "tokuyou",
    "serviceType": "介護老人福祉施設",
    "capacity": 80,
    "openDays": [],
    "openDaysNote": ""
  },
  {
    "id": "1373900073",
    "name": "社会福祉法人　千曲会　健光園",
    "kana": "シャカイフクシホウジン　チクマカイ　ケンコウエン",
    "address": "東京都西東京市田無町5-5-19",
    "lat": 35.7317705,
    "lng": 139.5366811,
    "tel": "042-469-8941",
    "url": "http://www.kenkouen.or.jp/",
    "pref": "東京都",
    "city": "西東京市",
    "category": "tokuyou",
    "serviceType": "介護老人福祉施設",
    "capacity": 70,
    "openDays": [],
    "openDaysNote": ""
  },
  {
    "id": "1373900099",
    "name": "特別養護老人ホーム　フローラ田無",
    "kana": "トクベツヨウゴロウジンホーム　フローラタナシ",
    "address": "東京都西東京市向台町2丁目16番22号",
    "lat": 35.7203941,
    "lng": 139.5394427,
    "tel": "042-468-5133",
    "url": "http://www.tokyo-seishinkai.or.jp/",
    "pref": "東京都",
    "city": "西東京市",
    "category": "tokuyou",
    "serviceType": "介護老人福祉施設",
    "capacity": 33,
    "openDays": [],
    "openDaysNote": ""
  },
  {
    "id": "1375424148",
    "name": "特別養護老人ホーム　福寿園ひばりが丘",
    "kana": "トクベツヨウゴロウジンホーム　フクジュエンヒバリガオカ",
    "address": "東京都西東京市ひばりが丘三丁目１番1８号",
    "lat": 35.7459688,
    "lng": 139.5371444,
    "tel": "042-452-1818",
    "url": "http://www.kyoujo.or.jp",
    "pref": "東京都",
    "city": "西東京市",
    "category": "tokuyou",
    "serviceType": "介護老人福祉施設",
    "capacity": 88,
    "openDays": [],
    "openDaysNote": ""
  },
  {
    "id": "1373700119",
    "name": "特別養護老人ホーム保谷苑",
    "kana": "トクベツヨウゴロウジンホームホウヤエン",
    "address": "東京都西東京市栄町3丁目6番2号",
    "lat": 35.7553181,
    "lng": 139.5533788,
    "tel": "042-423-5002",
    "url": "https://www.toshinkai.or.jp",
    "pref": "東京都",
    "city": "西東京市",
    "category": "tokuyou",
    "serviceType": "介護老人福祉施設",
    "capacity": 0,
    "openDays": [],
    "openDaysNote": ""
  },
  {
    "id": "1372800209",
    "name": "カントリービラ青梅",
    "kana": "カントリービラオウメ",
    "address": "東京都青梅市長淵１丁目９３０番地３",
    "lat": 35.7755918,
    "lng": 139.2789464,
    "tel": "0428-23-6233",
    "url": "http://www.country-villa.com/",
    "pref": "東京都",
    "city": "青梅市",
    "category": "tokuyou",
    "serviceType": "介護老人福祉施設",
    "capacity": 100,
    "openDays": [],
    "openDaysNote": ""
  },
  {
    "id": "1372800183",
    "name": "介護老人福祉施設　リバーパレス青梅",
    "kana": "カイゴロウジンフクシシセツ　リバーパレスオウメ",
    "address": "東京都青梅市長渕4丁目377",
    "lat": 35.7820186,
    "lng": 139.2718386,
    "tel": "0428-23-4038",
    "url": "http://www.riverpalace.ne.jp",
    "pref": "東京都",
    "city": "青梅市",
    "category": "tokuyou",
    "serviceType": "介護老人福祉施設",
    "capacity": 100,
    "openDays": [],
    "openDaysNote": ""
  },
  {
    "id": "1372800217",
    "name": "介護老人福祉施設　今井苑",
    "kana": "カイゴロウジンフクシシセツ　イマイエン",
    "address": "東京都青梅市今井2-1111-1",
    "lat": 35.8045171,
    "lng": 139.3117953,
    "tel": "0428-31-3800",
    "url": "http://www.imaien.jp/",
    "pref": "東京都",
    "city": "青梅市",
    "category": "tokuyou",
    "serviceType": "介護老人福祉施設",
    "capacity": 80,
    "openDays": [],
    "openDaysNote": ""
  },
  {
    "id": "1372801439",
    "name": "九十九園",
    "kana": "ツクモエン",
    "address": "東京都青梅市成木１丁目６３４番地７",
    "lat": 35.8382901,
    "lng": 139.2772728,
    "tel": "0428-74-5105",
    "url": "http://www.tokyo-busonkai.or.jp/tsukumoen/",
    "pref": "東京都",
    "city": "青梅市",
    "category": "tokuyou",
    "serviceType": "介護老人福祉施設",
    "capacity": 100,
    "openDays": [],
    "openDaysNote": ""
  },
  {
    "id": "1372801454",
    "name": "御岳園",
    "kana": "ミタケエン",
    "address": "東京都青梅市御岳本町163番地1",
    "lat": 35.8003851,
    "lng": 139.1775757,
    "tel": "0428-79-0802",
    "url": "http://www.tokyo-busonkai.or.jp",
    "pref": "東京都",
    "city": "青梅市",
    "category": "tokuyou",
    "serviceType": "介護老人福祉施設",
    "capacity": 60,
    "openDays": [],
    "openDaysNote": ""
  },
  {
    "id": "1372800282",
    "name": "成蹊園",
    "kana": "セイケイエン",
    "address": "東京都青梅市今井一丁目521番地の1",
    "lat": 35.8122079,
    "lng": 139.3152531,
    "tel": "0428-32-7220",
    "url": "http://www.seikeien.or.jp",
    "pref": "東京都",
    "city": "青梅市",
    "category": "tokuyou",
    "serviceType": "介護老人福祉施設",
    "capacity": 151,
    "openDays": [],
    "openDaysNote": ""
  },
  {
    "id": "1372800167",
    "name": "聖明園寿荘",
    "kana": "セイメイエンコトブキソウ",
    "address": "東京都青梅市根ヶ布２－７２４",
    "lat": 35.8070349,
    "lng": 139.2655084,
    "tel": "0428-24-5702",
    "url": "http://www.seimeien.jp/",
    "pref": "東京都",
    "city": "青梅市",
    "category": "tokuyou",
    "serviceType": "介護老人福祉施設",
    "capacity": 100,
    "openDays": [],
    "openDaysNote": ""
  },
  {
    "id": "1372800118",
    "name": "聖明園富士見荘",
    "kana": "セイメイエンフジミソウ",
    "address": "東京都青梅市根ケ布２丁目７２２番地２",
    "lat": 35.8062171256725,
    "lng": 139.266454204617,
    "tel": "0428-24-5703",
    "url": "https://seimeifukushi.or.jp/",
    "pref": "東京都",
    "city": "青梅市",
    "category": "tokuyou",
    "serviceType": "介護老人福祉施設",
    "capacity": 93,
    "openDays": [],
    "openDaysNote": ""
  },
  {
    "id": "1372800084",
    "name": "青梅愛弘園",
    "kana": "オウメアイコウエン",
    "address": "東京都青梅市小曽木４丁目２５９０番地",
    "lat": 35.8194951,
    "lng": 139.2825088,
    "tel": "0428-74-4355",
    "url": "http://www.aikoukai.com/",
    "pref": "東京都",
    "city": "青梅市",
    "category": "tokuyou",
    "serviceType": "介護老人福祉施設",
    "capacity": 110,
    "openDays": [],
    "openDaysNote": ""
  },
  {
    "id": "1372800159",
    "name": "青梅園",
    "kana": "オウメエン",
    "address": "東京都青梅市長淵六丁目464番地１",
    "lat": 35.7799937,
    "lng": 139.2689084,
    "tel": "0428-24-0500",
    "url": "http://www.oumeen.or.jp",
    "pref": "東京都",
    "city": "青梅市",
    "category": "tokuyou",
    "serviceType": "介護老人福祉施設",
    "capacity": 0,
    "openDays": [],
    "openDaysNote": ""
  },
  {
    "id": "1372801959",
    "name": "青梅園",
    "kana": "オウメエン",
    "address": "東京都青梅市長淵6丁目464番地１",
    "lat": 35.7799937,
    "lng": 139.2689084,
    "tel": "0428-24-0500",
    "url": "http://www.oumeen.or.jp",
    "pref": "東京都",
    "city": "青梅市",
    "category": "tokuyou",
    "serviceType": "介護老人福祉施設",
    "capacity": 0,
    "openDays": [],
    "openDaysNote": ""
  },
  {
    "id": "1372800241",
    "name": "青梅天使園",
    "kana": "オウメテンシエン",
    "address": "東京都青梅市今井1丁目2609-1",
    "lat": 35.815627,
    "lng": 139.3152113,
    "tel": "0428-32-2250",
    "url": "http://www.oume-tensien.or.jp",
    "pref": "東京都",
    "city": "青梅市",
    "category": "tokuyou",
    "serviceType": "介護老人福祉施設",
    "capacity": 70,
    "openDays": [],
    "openDaysNote": ""
  },
  {
    "id": "1372800142",
    "name": "青梅療育院",
    "kana": "オウメリョウイクイン",
    "address": "東京都青梅市今井3-12-6",
    "lat": 35.7985955,
    "lng": 139.3088318,
    "tel": "0428-31-8055",
    "url": "https://jiniku.or.jp/",
    "pref": "東京都",
    "city": "青梅市",
    "category": "tokuyou",
    "serviceType": "介護老人福祉施設",
    "capacity": 100,
    "openDays": [],
    "openDaysNote": ""
  },
  {
    "id": "1372800258",
    "name": "第二喜久松苑",
    "kana": "ダイニキクマツエン",
    "address": "東京都青梅市柚木町2丁目460-1",
    "lat": 35.8034905,
    "lng": 139.2118556,
    "tel": "0428-76-2211",
    "url": "http://www.2nd-kikumatsuen.or.jp",
    "pref": "東京都",
    "city": "青梅市",
    "category": "tokuyou",
    "serviceType": "介護老人福祉施設",
    "capacity": 98,
    "openDays": [],
    "openDaysNote": ""
  },
  {
    "id": "1372800712",
    "name": "第二青梅園",
    "kana": "ダイニオウメエン",
    "address": "東京都青梅市黒沢３丁目１９６６－１",
    "lat": 35.7948971,
    "lng": 139.2502602,
    "tel": "0428-74-7331",
    "url": "http://www.dai2-omeen.com",
    "pref": "東京都",
    "city": "青梅市",
    "category": "tokuyou",
    "serviceType": "介護老人福祉施設",
    "capacity": 100,
    "openDays": [],
    "openDaysNote": ""
  },
  {
    "id": "1372800191",
    "name": "長渕園",
    "kana": "ナガブチエン",
    "address": "東京都青梅市長淵5-1421-14",
    "lat": 35.7684587,
    "lng": 139.2584817,
    "tel": "0428-23-6776",
    "url": "http://www.nagabuchien.or.jp",
    "pref": "東京都",
    "city": "青梅市",
    "category": "tokuyou",
    "serviceType": "介護老人福祉施設",
    "capacity": 100,
    "openDays": [],
    "openDaysNote": ""
  },
  {
    "id": "1372800225",
    "name": "特別養護老人ホーム　あゆみえん",
    "kana": "トクベツヨウゴロウジンホーム　アユミエン",
    "address": "東京都青梅市新町９-2153-３",
    "lat": 35.7801204776404,
    "lng": 139.321267285192,
    "tel": "0428-30-5550",
    "url": "https://tokushinkai.jp/",
    "pref": "東京都",
    "city": "青梅市",
    "category": "tokuyou",
    "serviceType": "介護老人福祉施設",
    "capacity": 168,
    "openDays": [],
    "openDaysNote": ""
  },
  {
    "id": "1372800290",
    "name": "特別養護老人ホーム　やすらぎの家",
    "kana": "トクベツヨウゴロウジンホーム　ヤスラギノイエ",
    "address": "東京都青梅市吹上88番地",
    "lat": 35.800275,
    "lng": 139.2800652,
    "tel": "0428-23-7020",
    "url": "http://www.oume-yasuragi.com",
    "pref": "東京都",
    "city": "青梅市",
    "category": "tokuyou",
    "serviceType": "介護老人福祉施設",
    "capacity": 100,
    "openDays": [],
    "openDaysNote": ""
  },
  {
    "id": "1372800134",
    "name": "特別養護老人ホーム　喜久松苑",
    "kana": "トクベツヨウゴロウジンホーム　キクマツエン",
    "address": "東京都青梅市柚木町２丁目４６２番地の１",
    "lat": 35.803621,
    "lng": 139.212425,
    "tel": "0428-76-2041",
    "url": "http://www.kikumatsuen.org",
    "pref": "東京都",
    "city": "青梅市",
    "category": "tokuyou",
    "serviceType": "介護老人福祉施設",
    "capacity": 98,
    "openDays": [],
    "openDaysNote": ""
  },
  {
    "id": "1372800126",
    "name": "特別養護老人ホーム　青梅白寿苑",
    "kana": "トクベツヨウゴロウジンホーム　オウメハクジュエン",
    "address": "東京都青梅市黒沢１丁目６９３番地１１",
    "lat": 35.8098518700073,
    "lng": 139.268111193485,
    "tel": "0428-74-6381",
    "url": "https://hakujyu.or.jp/hakujyuen/",
    "pref": "東京都",
    "city": "青梅市",
    "category": "tokuyou",
    "serviceType": "介護老人福祉施設",
    "capacity": 100,
    "openDays": [],
    "openDaysNote": ""
  },
  {
    "id": "1372800175",
    "name": "特別養護老人ホーム　大洋園",
    "kana": "トクベツヨウゴロウジンホーム　タイヨウエン",
    "address": "東京都青梅市今井５－２４４０－１４１",
    "lat": 35.7936465,
    "lng": 139.3217447,
    "tel": "0428-31-3666",
    "url": "https://www.issekikai.jp",
    "pref": "東京都",
    "city": "青梅市",
    "category": "tokuyou",
    "serviceType": "介護老人福祉施設",
    "capacity": 120,
    "openDays": [],
    "openDaysNote": ""
  },
  {
    "id": "1372801934",
    "name": "特別養護老人ホーム　大洋園",
    "kana": "トクベツヨウゴロウジンホーム　タイヨウエン",
    "address": "東京都青梅市今井5-2440-141",
    "lat": 35.7936465,
    "lng": 139.3217447,
    "tel": "0428-31-3666",
    "url": "http://www.issekikai.jp",
    "pref": "東京都",
    "city": "青梅市",
    "category": "tokuyou",
    "serviceType": "介護老人福祉施設",
    "capacity": 40,
    "openDays": [],
    "openDaysNote": ""
  },
  {
    "id": "1372801447",
    "name": "特別養護老人ホーム塩船園",
    "kana": "トクベツヨウゴロウジンホームシオフネエン",
    "address": "東京都青梅市塩船２５７番地１",
    "lat": 35.8023997,
    "lng": 139.2793513,
    "tel": "0428-21-1011",
    "url": "https://www.tokyo-busonkai.or.jp/top-page",
    "pref": "東京都",
    "city": "青梅市",
    "category": "tokuyou",
    "serviceType": "介護老人福祉施設",
    "capacity": 150,
    "openDays": [],
    "openDaysNote": ""
  },
  {
    "id": "1372800274",
    "name": "特別養護老人ホーム第２カントリービラ青梅",
    "kana": "トクベツヨウゴロウジンホームダイニカントリービラオウメ",
    "address": "東京都青梅市長淵1-939-1",
    "lat": 35.7750252,
    "lng": 139.2794463,
    "tel": "0428-21-5531",
    "url": "http://www.2nd-country-villa.com/",
    "pref": "東京都",
    "city": "青梅市",
    "category": "tokuyou",
    "serviceType": "介護老人福祉施設",
    "capacity": 100,
    "openDays": [],
    "openDaysNote": ""
  },
  {
    "id": "1372800266",
    "name": "特別養護老人ホーム杜の園",
    "kana": "トクベツヨウゴロウジンホームモリノソノ",
    "address": "東京都青梅市今井2丁目1079番地",
    "lat": 35.8041309,
    "lng": 139.3086761,
    "tel": "0428-32-7699",
    "url": "http://www.nanokakai.jp",
    "pref": "東京都",
    "city": "青梅市",
    "category": "tokuyou",
    "serviceType": "介護老人福祉施設",
    "capacity": 100,
    "openDays": [],
    "openDaysNote": ""
  },
  {
    "id": "1372800100",
    "name": "和楽ホーム",
    "kana": "ワラクホーム",
    "address": "東京都青梅市富岡1-318",
    "lat": 35.8329471169373,
    "lng": 139.29287817302,
    "tel": "0428-74-4411",
    "url": "http://www.hakujin-kai.or.jp",
    "pref": "東京都",
    "city": "青梅市",
    "category": "tokuyou",
    "serviceType": "介護老人福祉施設",
    "capacity": 120,
    "openDays": [],
    "openDaysNote": ""
  },