[
  {
    "id": "971400395",
    "name": "つきみの杜",
    "kana": "ツキミノモリ",
    "address": "栃木県さくら市氏家3260-1",
    "lat": 36.7054843148439,
    "lng": 139.967215337959,
    "tel": "028-688-7195",
    "url": "http://aibikai.or.jp/",
    "pref": "栃木県",
    "city": "さくら市",
    "category": "tokuyou",
    "serviceType": "介護老人福祉施設",
    "capacity": 0,
    "openDays": [],
    "openDaysNote": ""
  },
  {
    "id": "972600126",
    "name": "特別養護老人ホーム　にこんきつれ荘",
    "kana": "トクベツヨウゴロウジンホーム　ニコンキツレソウ",
    "address": "栃木県さくら市下河戸1942-2",
    "lat": 36.7722645,
    "lng": 140.0184457,
    "tel": "028-685-3195",
    "url": "",
    "pref": "栃木県",
    "city": "さくら市",
    "category": "tokuyou",
    "serviceType": "介護老人福祉施設",
    "capacity": 62,
    "openDays": [],
    "openDaysNote": ""
  },
  {
    "id": "972600134",
    "name": "特別養護老人ホームエリム",
    "kana": "トクベツヨウゴロウジンホームエリム",
    "address": "栃木県さくら市鍛冶ケ澤57番地1",
    "lat": 36.6847529,
    "lng": 140.0263939,
    "tel": "028-681-1211",
    "url": "http://erimu.jp",
    "pref": "栃木県",
    "city": "さくら市",
    "category": "tokuyou",
    "serviceType": "介護老人福祉施設",
    "capacity": 0,
    "openDays": [],
    "openDaysNote": ""
  },
  {
    "id": "970103321",
    "name": "介護老人福祉施設　いずみ苑",
    "kana": "カイゴロウジンフクシシセツ　イズミエン",
    "address": "栃木県宇都宮市今泉三丁目１３番１号",
    "lat": 36.5667115,
    "lng": 139.894414,
    "tel": "028-650-5011",
    "url": "kenshukai.kir.jp/izumien/index.tml",
    "pref": "栃木県",
    "city": "宇都宮市",
    "category": "tokuyou",
    "serviceType": "介護老人福祉施設",
    "capacity": 110,
    "openDays": [],
    "openDaysNote": ""
  },
  {
    "id": "970104154",
    "name": "特別養護老人ホーム　いこいの森西原",
    "kana": "トクベツヨウゴロウジンホーム　イコイノモリニシハラ",
    "address": "栃木県宇都宮市西原町１３番地１",
    "lat": 36.5367646,
    "lng": 139.8834022,
    "tel": "028-658-6226",
    "url": "http://masatomi-f.com/",
    "pref": "栃木県",
    "city": "宇都宮市",
    "category": "tokuyou",
    "serviceType": "介護老人福祉施設",
    "capacity": 50,
    "openDays": [],
    "openDaysNote": ""
  },
  {
    "id": "970108197",
    "name": "特別養護老人ホーム　カルペ而今",
    "kana": "トクベツヨウゴロウジンホーム　カルペニコン",
    "address": "栃木県宇都宮市砥上町54-2",
    "lat": 36.5441804,
    "lng": 139.8453096,
    "tel": "028-612-7320",
    "url": "https://www.hoaikai.or.jp/home/calpe",
    "pref": "栃木県",
    "city": "宇都宮市",
    "category": "tokuyou",
    "serviceType": "介護老人福祉施設",
    "capacity": 0,
    "openDays": [],
    "openDaysNote": ""
  },
  {
    "id": "970108940",
    "name": "特別養護老人ホーム　ケアパレス宇都宮壱番館",
    "kana": "トクベツヨウゴロウジンホーム　ケアパレスウツノミヤイチバンカン",
    "address": "栃木県宇都宮市岩曽町77番地１",
    "lat": 36.5867665951639,
    "lng": 139.894519778452,
    "tel": "028-622-0003",
    "url": "http://nikko-fukueikai.or.jp/",
    "pref": "栃木県",
    "city": "宇都宮市",
    "category": "tokuyou",
    "serviceType": "介護老人福祉施設",
    "capacity": null,
    "openDays": [],
    "openDaysNote": ""
  },
  {
    "id": "970109047",
    "name": "特別養護老人ホーム　ケアパレス宇都宮弐番館",
    "kana": "トクベツヨウゴロウジンホーム　ケアパレスウツノミヤニバンカン",
    "address": "栃木県宇都宮市岩曽町131番地1",
    "lat": 36.584306,
    "lng": 139.9033788,
    "tel": "028-650-0005",
    "url": "http://nikko-fukueikai.or.jp/",
    "pref": "栃木県",
    "city": "宇都宮市",
    "category": "tokuyou",
    "serviceType": "介護老人福祉施設",
    "capacity": null,
    "openDays": [],
    "openDaysNote": ""
  },
  {
    "id": "970100780",
    "name": "特別養護老人ホーム　ケアプラザ而今",
    "kana": "トクベツヨウゴロウジンホーム　ケアプラザニコン",
    "address": "栃木県宇都宮市砥上町５４－１",
    "lat": 36.544146,
    "lng": 139.8452966,
    "tel": "028-649-2940",
    "url": "http://ｗｗｗ.ｈｏａｉｋａｉ．ｏｒ．ｊｐ",
    "pref": "栃木県",
    "city": "宇都宮市",
    "category": "tokuyou",
    "serviceType": "介護老人福祉施設",
    "capacity": 0,
    "openDays": [],
    "openDaysNote": ""
  },
  {
    "id": "970105813",
    "name": "特別養護老人ホーム　ころぼっくる",
    "kana": "トクベツヨウゴロウジンホーム　コロボックル",
    "address": "栃木県宇都宮市岩曽町１３１０番地１",
    "lat": 36.5832162,
    "lng": 139.9100001,
    "tel": "０２８－６８３－０２２２",
    "url": "http://www.kouseikai-flora.or.jp/",
    "pref": "栃木県",
    "city": "宇都宮市",
    "category": "tokuyou",
    "serviceType": "介護老人福祉施設",
    "capacity": 0,
    "openDays": [],
    "openDaysNote": ""
  },
  {
    "id": "970100772",
    "name": "特別養護老人ホーム　はりがや",
    "kana": "トクベツヨウゴロウジンホーム　ハリガヤ",
    "address": "栃木県宇都宮市針ヶ谷町６５５番地",
    "lat": 36.4896621161113,
    "lng": 139.851586323279,
    "tel": "028-688-1555",
    "url": "http://www.fukushi-asahikai.or.jp",
    "pref": "栃木県",
    "city": "宇都宮市",
    "category": "tokuyou",
    "serviceType": "介護老人福祉施設",
    "capacity": 0,
    "openDays": [],
    "openDaysNote": ""
  },
  {
    "id": "970105417",
    "name": "特別養護老人ホーム　はりがや実梨の丘",
    "kana": "トクベツヨウゴロウジンホーム　ハリガヤミノリノオカ",
    "address": "栃木県宇都宮市針ヶ谷町655",
    "lat": 36.4897248,
    "lng": 139.8496094,
    "tel": "028-653-5251",
    "url": "http://www.fukushi-asahikai.or.jp",
    "pref": "栃木県",
    "city": "宇都宮市",
    "category": "tokuyou",
    "serviceType": "介護老人福祉施設",
    "capacity": 50,
    "openDays": [],
    "openDaysNote": ""
  },
  {
    "id": "970107462",
    "name": "特別養護老人ホーム　はりがや夢希の杜",
    "kana": "トクベツヨウゴロウジンホーム　ハリガヤイブキノモリ",
    "address": "栃木県宇都宮市針ヶ谷町654番地",
    "lat": 36.4900665,
    "lng": 139.8516759,
    "tel": "028-615-7146",
    "url": "http://www.fukushi-asahi.or.jp",
    "pref": "栃木県",
    "city": "宇都宮市",
    "category": "tokuyou",
    "serviceType": "介護老人福祉施設",
    "capacity": 0,
    "openDays": [],
    "openDaysNote": ""
  },
  {
    "id": "970103552",
    "name": "特別養護老人ホーム　ひょうたん村",
    "kana": "トクベツヨウゴロウジンホーム　ヒョウタンムラ",
    "address": "栃木県宇都宮市屋板町１２６番地１１",
    "lat": 36.5161448,
    "lng": 139.9036291,
    "tel": "028-656-5911",
    "url": "https://www.hyoutanmura.jp",
    "pref": "栃木県",
    "city": "宇都宮市",
    "category": "tokuyou",
    "serviceType": "介護老人福祉施設",
    "capacity": 100,
    "openDays": [],
    "openDaysNote": ""
  },
  {
    "id": "970103081",
    "name": "特別養護老人ホーム　ホームタウンほそや",
    "kana": "トクベツヨウゴロウジンホーム　ホームタウンホソヤ",
    "address": "栃木県宇都宮市細谷町４９５－１",
    "lat": 36.5936236,
    "lng": 139.8563992,
    "tel": "028-627-1177",
    "url": "http://seikeikai.jp/h_hosoya/",
    "pref": "栃木県",
    "city": "宇都宮市",
    "category": "tokuyou",
    "serviceType": "介護老人福祉施設",
    "capacity": 0,
    "openDays": [],
    "openDaysNote": ""
  },
  {
    "id": "970100731",
    "name": "特別養護老人ホーム　マイホームきよはら",
    "kana": "トクベツヨウゴロウジンホーム　マイホームキヨハラ",
    "address": "栃木県宇都宮市鐺山町1983番地",
    "lat": 36.5387811,
    "lng": 139.9758882,
    "tel": "028-667-9258",
    "url": "http://www.kiyohara.jp/",
    "pref": "栃木県",
    "city": "宇都宮市",
    "category": "tokuyou",
    "serviceType": "介護老人福祉施設",
    "capacity": 54,
    "openDays": [],
    "openDaysNote": ""
  },
  {
    "id": "970100764",
    "name": "特別養護老人ホーム　宮の里",
    "kana": "トクベツヨウゴロウジンホーム　ミヤノサト",
    "address": "栃木県宇都宮市田野町666-2",
    "lat": 36.5953813,
    "lng": 139.8070193,
    "tel": "028-652-8122",
    "url": "http://www.miyanosato.or.jp",
    "pref": "栃木県",
    "city": "宇都宮市",
    "category": "tokuyou",
    "serviceType": "介護老人福祉施設",
    "capacity": 0,
    "openDays": [],
    "openDaysNote": ""
  },
  {
    "id": "970105391",
    "name": "特別養護老人ホーム　宮の里かわだ",
    "kana": "トクベツヨウゴロウジンホーム　ミヤノサトカワダ",
    "address": "栃木県宇都宮市川田町1077-2",
    "lat": 36.5382173,
    "lng": 139.8872407,
    "tel": "028-637-3100",
    "url": "http://www.miyanosato.net",
    "pref": "栃木県",
    "city": "宇都宮市",
    "category": "tokuyou",
    "serviceType": "介護老人福祉施設",
    "capacity": 70,
    "openDays": [],
    "openDaysNote": ""
  },
  {
    "id": "970105342",
    "name": "特別養護老人ホーム　元氣の家",
    "kana": "トクベツヨウゴロウジンホーム　ゲンキノイエ",
    "address": "栃木県宇都宮市幕田町1458－1",
    "lat": 36.4961852,
    "lng": 139.8513924,
    "tel": "028－655－4865",
    "url": "http://www.nantokai.jp/",
    "pref": "栃木県",
    "city": "宇都宮市",
    "category": "tokuyou",
    "serviceType": "介護老人福祉施設",
    "capacity": 0,
    "openDays": [],
    "openDaysNote": ""
  },
  {
    "id": "972100069",
    "name": "特別養護老人ホーム　祥豊苑",
    "kana": "トクベツヨウゴロウジンホーム　ショウホウエン",
    "address": "栃木県宇都宮市宮山田町９１５番地",
    "lat": 36.7124204,
    "lng": 139.8478505,
    "tel": "028-674-4560",
    "url": "http://shouhouen.jp",
    "pref": "栃木県",
    "city": "宇都宮市",
    "category": "tokuyou",
    "serviceType": "介護老人福祉施設",
    "capacity": 0,
    "openDays": [],
    "openDaysNote": ""
  },
  {
    "id": "970100400",
    "name": "特別養護老人ホーム　滝の原苑",
    "kana": "トクベツヨウゴロウジンホーム　タキノハラエン",
    "address": "栃木県宇都宮市鶴田町３３８１番地",
    "lat": 36.5445935,
    "lng": 139.8617676,
    "tel": "028-632-7555",
    "url": "http://care-net.biz/09/saijinkai/",
    "pref": "栃木県",
    "city": "宇都宮市",
    "category": "tokuyou",
    "serviceType": "介護老人福祉施設",
    "capacity": 0,
    "openDays": [],
    "openDaysNote": ""
  },
  {
    "id": "970101150",
    "name": "特別養護老人ホーム　梅の里",
    "kana": "トクベツヨウゴロウジンホーム　ウメノサト",
    "address": "栃木県宇都宮市南一の沢町2番23号",
    "lat": 36.5634802,
    "lng": 139.8636054,
    "tel": "028-610-7071",
    "url": "http://www.umenosato.jp/",
    "pref": "栃木県",
    "city": "宇都宮市",
    "category": "tokuyou",
    "serviceType": "介護老人福祉施設",
    "capacity": 58,
    "openDays": [],
    "openDaysNote": ""
  },
  {
    "id": "970100756",
    "name": "特別養護老人ホーム　豊幸の郷石井",
    "kana": "トクベツヨウゴロウジンホーム　ホウコウノサトイシイ",
    "address": "栃木県宇都宮市石井町2580-1",
    "lat": 36.5443184,
    "lng": 139.9391467,
    "tel": "028-683-3311",
    "url": "http://www.houkounosatoishii.com/",
    "pref": "栃木県",
    "city": "宇都宮市",
    "category": "tokuyou",
    "serviceType": "介護老人福祉施設",
    "capacity": 0,
    "openDays": [],
    "openDaysNote": ""
  },
  {
    "id": "970108908",
    "name": "特別養護老人ホームうつのみや",
    "kana": "トクベツヨウゴロウジンホームウツノミヤ",
    "address": "栃木県宇都宮市江曽島町1188番地",
    "lat": 36.5285675850695,
    "lng": 139.874119636246,
    "tel": "028-666-5588",
    "url": "http://www.taikei.jp/",
    "pref": "栃木県",
    "city": "宇都宮市",
    "category": "tokuyou",
    "serviceType": "介護老人福祉施設",
    "capacity": null,
    "openDays": [],
    "openDaysNote": ""
  },
  {
    "id": "970105771",
    "name": "特別養護老人ホームおおるりの森",
    "kana": "トクベツヨウゴロウジンホームオオルリノモリ",
    "address": "栃木県宇都宮市竹下町435番地344",
    "lat": 36.551138,
    "lng": 139.9650191,
    "tel": "028-612-1652",
    "url": "http://www.koukyukai.or.jp",
    "pref": "栃木県",
    "city": "宇都宮市",
    "category": "tokuyou",
    "serviceType": "介護老人福祉施設",
    "capacity": 0,
    "openDays": [],
    "openDaysNote": ""
  },
  {
    "id": "972100093",
    "name": "特別養護老人ホームさくらの杜",
    "kana": "トクベツヨウゴロウジンホームサクラノモリ",
    "address": "栃木県宇都宮市逆面町２６１－１",
    "lat": 36.6581702361567,
    "lng": 139.899196409262,
    "tel": "028-672-0013",
    "url": "https://sakura-mori.jp/",
    "pref": "栃木県",
    "city": "宇都宮市",
    "category": "tokuyou",
    "serviceType": "介護老人福祉施設",
    "capacity": 60,
    "openDays": [],
    "openDaysNote": ""
  },
  {
    "id": "970108809",
    "name": "特別養護老人ホームつるの川",
    "kana": "トクベツヨウゴロウジンホームツルノカワ",
    "address": "栃木県宇都宮市下砥上町１４８８番地１",
    "lat": 36.5366907,
    "lng": 139.8481225,
    "tel": "０２８－６１１－８００８",
    "url": "http://tsurunokawa.jp/",
    "pref": "栃木県",
    "city": "宇都宮市",
    "category": "tokuyou",
    "serviceType": "介護老人福祉施設",
    "capacity": 60,
    "openDays": [],
    "openDaysNote": ""
  },
  {
    "id": "970100699",
    "name": "特別養護老人ホームとちの木荘",
    "kana": "トクベツヨウゴロウジンホームトチノキソウ",
    "address": "宇都宮市徳次郎町2479-1",
    "lat": 36.6582579,
    "lng": 139.840545,
    "tel": "028-665-3276",
    "url": "http://tochisaikou.com/",
    "pref": "栃木県",
    "city": "宇都宮市",
    "category": "tokuyou",
    "serviceType": "介護老人福祉施設",
    "capacity": 0,
    "openDays": [],
    "openDaysNote": ""
  },
  {
    "id": "970102265",
    "name": "特別養護老人ホームとよさと",
    "kana": "トクベツヨウゴロウジンホームトヨサト",
    "address": "栃木県宇都宮市川俣町897-8",
    "lat": 36.5988254,
    "lng": 139.9039277,
    "tel": "028-616-1231",
    "url": "https://www.toyosato-g.or.jp/",
    "pref": "栃木県",
    "city": "宇都宮市",
    "category": "tokuyou",
    "serviceType": "介護老人福祉施設",
    "capacity": 55,
    "openDays": [],
    "openDaysNote": ""
  },
  {
    "id": "970106605",
    "name": "特別養護老人ホームはりがや花の風",
    "kana": "トクベツヨウゴロウジンホームハリガヤハナノカゼ",
    "address": "栃木県宇都宮市針ヶ谷町646番地",
    "lat": 36.4903747,
    "lng": 139.8501788,
    "tel": "028-688-1680",
    "url": "ｈｔｔｐ：//ｗｗｗ．ｈｕｋｕｓｈｉ－ａｓａｈｉｋａｉ．ｏｒ．ｊｐ",
    "pref": "栃木県",
    "city": "宇都宮市",
    "category": "tokuyou",
    "serviceType": "介護老人福祉施設",
    "capacity": 90,
    "openDays": [],
    "openDaysNote": ""
  },
  {
    "id": "970107744",
    "name": "特別養護老人ホームびーね",
    "kana": "トクベツヨウゴロウジンホームビーネ",
    "address": "栃木県宇都宮市東簗瀬1丁目29‐1",
    "lat": 36.5431108,
    "lng": 139.8998988,
    "tel": "028-612-8088",
    "url": "http://www.biene-flora.or.jp",
    "pref": "栃木県",
    "city": "宇都宮市",
    "category": "tokuyou",
    "serviceType": "介護老人福祉施設",
    "capacity": 0,
    "openDays": [],
    "openDaysNote": ""
  },
  {
    "id": "970104378",
    "name": "特別養護老人ホームみどり",
    "kana": "トクベツヨウゴロウジンホームミドリ",
    "address": "栃木県宇都宮市緑5丁目１３番地６号",
    "lat": 36.5139166939558,
    "lng": 139.85952062527,
    "tel": "028-666-6866",
    "url": "http://www.fureai-coop.com/",
    "pref": "栃木県",
    "city": "宇都宮市",
    "category": "tokuyou",
    "serviceType": "介護老人福祉施設",
    "capacity": 0,
    "openDays": [],
    "openDaysNote": ""
  },
  {
    "id": "970100723",
    "name": "特別養護老人ホーム敬祥苑",
    "kana": "トクベツヨウゴロウジンホームケイショウエン",
    "address": "栃木県宇都宮市宝木本町２１４１番地",
    "lat": 36.6296692,
    "lng": 139.8431986,
    "tel": "028-665-5633",
    "url": "http://numaog.or.jp/",
    "pref": "栃木県",
    "city": "宇都宮市",
    "category": "tokuyou",
    "serviceType": "介護老人福祉施設",
    "capacity": 50,
    "openDays": [],
    "openDaysNote": ""
  },
  {
    "id": "970102703",
    "name": "特別養護老人ホーム元気の里",
    "kana": "トクベツヨウゴロウジンホームゲンキノサト",
    "address": "栃木県宇都宮市幕田町1456-1",
    "lat": 36.4965601,
    "lng": 139.8518951,
    "tel": "028-655-2611",
    "url": "http://www.nantokai.jp/",
    "pref": "栃木県",
    "city": "宇都宮市",
    "category": "tokuyou",
    "serviceType": "介護老人福祉施設",
    "capacity": 0,
    "openDays": [],
    "openDaysNote": ""
  },
  {
    "id": "970100707",
    "name": "特別養護老人ホーム高砂荘",
    "kana": "トクベツヨウゴロウジンホームタカサゴソウ",
    "address": "栃木県宇都宮市平出町1510-1",
    "lat": 36.5783208,
    "lng": 139.945086,
    "tel": "028-663-4330",
    "url": "http://iida-f.jp/",
    "pref": "栃木県",
    "city": "宇都宮市",
    "category": "tokuyou",
    "serviceType": "介護老人福祉施設",
    "capacity": 0,
    "openDays": [],
    "openDaysNote": ""
  },
  {
    "id": "970106530",
    "name": "特別養護老人ホーム高砂荘新館",
    "kana": "トクベツヨウゴロウジンホームタカサゴソウシンカン",
    "address": "平出町1510-1",
    "lat": 36.5783208,
    "lng": 139.945086,
    "tel": "028-663-5506",
    "url": "http://www.iida-f.jp/",
    "pref": "栃木県",
    "city": "宇都宮市",
    "category": "tokuyou",
    "serviceType": "介護老人福祉施設",
    "capacity": 0,
    "openDays": [],
    "openDaysNote": ""
  },
  {
    "id": "970100715",
    "name": "特別養護老人ホーム瑞寿苑",
    "kana": "トクベツヨウゴロウジンホームズイジュエン",
    "address": "栃木県宇都宮市上桑島町1476番地2",
    "lat": 36.5188712423441,
    "lng": 139.928118811114,
    "tel": "028-656-5948",
    "url": "http://www.tohseikai.com/",
    "pref": "栃木県",
    "city": "宇都宮市",
    "category": "tokuyou",
    "serviceType": "介護老人福祉施設",
    "capacity": null,
    "openDays": [],
    "openDaysNote": ""
  },
  {
    "id": "970100749",
    "name": "特別養護老人ホーム宝寿苑",
    "kana": "トクベツヨウゴロウジンホームホウジュエン",
    "address": "宇都宮市宝木本町１７６８番地",
    "lat": 36.6082274,
    "lng": 139.8352027,
    "tel": "028-665-0520",
    "url": "http://www.seikeikai.jp",
    "pref": "栃木県",
    "city": "宇都宮市",
    "category": "tokuyou",
    "serviceType": "介護老人福祉施設",
    "capacity": 60,
    "openDays": [],
    "openDaysNote": ""
  },
  {
    "id": "972700116",
    "name": "社会福祉法人明照協会　　特別養護老人ホーム　和順荘",
    "kana": "メイショウキョウカイ　トクベツヨウゴロウジンホウム　ワジュンソウ",
    "address": "芳賀郡益子町大沢１７７０",
    "lat": 36.4851559,
    "lng": 140.1017157,
    "tel": "0285-72-2449",
    "url": "",
    "pref": "栃木県",
    "city": "益子町",
    "category": "tokuyou",
    "serviceType": "介護老人福祉施設",
    "capacity": 50,
    "openDays": [],
    "openDaysNote": ""
  },
  {
    "id": "972600274",
    "name": "特別養護老人ホーム　せせらぎ",
    "kana": "トクベツヨウゴロウジンホーム　セセラギ",
    "address": "栃木県塩谷郡塩谷町大字上沢968番地",
    "lat": 36.7567678,
    "lng": 139.8173124,
    "tel": "0287-47-2000",
    "url": "http://www.asunaro-swc.jp/",
    "pref": "栃木県",
    "city": "塩谷町",
    "category": "tokuyou",
    "serviceType": "介護老人福祉施設",
    "capacity": 54,
    "openDays": [],
    "openDaysNote": ""
  },
  {
    "id": "971600226",
    "name": "特別養護老人ホーム　にらがわの郷",
    "kana": "トクベツヨウゴロウジンホーム　ニラガワノサト",
    "address": "栃木県下野市仁良川１６５１－１",
    "lat": 36.3721423,
    "lng": 139.8748293,
    "tel": "0285-47-1171",
    "url": "http://ebiharamed.byoinnavi.jp",
    "pref": "栃木県",
    "city": "下野市",
    "category": "tokuyou",
    "serviceType": "介護老人福祉施設",
    "capacity": 50,
    "openDays": [],
    "openDaysNote": ""
  },
  {
    "id": "972100168",
    "name": "特別養護老人ホーム　天寿荘",
    "kana": "トクベツヨウゴロウジンホーム　テンジュソウ",
    "address": "栃木県下野市薬師寺1131番地10",
    "lat": 36.3833515,
    "lng": 139.8645241,
    "tel": "0285-48-5588",
    "url": "",
    "pref": "栃木県",
    "city": "下野市",
    "category": "tokuyou",
    "serviceType": "介護老人福祉施設",
    "capacity": 0,
    "openDays": [],
    "openDaysNote": ""
  },
  {
    "id": "972300305",
    "name": "特別養護老人ホームいしばし",
    "kana": "トクベツヨウゴロウジンホームイシバシ",
    "address": "栃木県下野市下古山１１７４",
    "lat": 36.4450737,
    "lng": 139.8448256,
    "tel": "0285-52-1484",
    "url": "http://www.tochinokikai.or.jp",
    "pref": "栃木県",
    "city": "下野市",
    "category": "tokuyou",
    "serviceType": "介護老人福祉施設",
    "capacity": 0,
    "openDays": [],
    "openDaysNote": ""
  },
  {
    "id": "972300321",
    "name": "特別養護老人ホームまほろばの里",
    "kana": "トクベツヨウゴロウジンホームマホロバノサト",
    "address": "栃木県下野市箕輪441-1",
    "lat": 36.3966123,
    "lng": 139.8288867,
    "tel": "0285-44-5155",
    "url": "http://www.keiwa22.or.jp",
    "pref": "栃木県",
    "city": "下野市",
    "category": "tokuyou",
    "serviceType": "介護老人福祉施設",
    "capacity": 0,
    "openDays": [],
    "openDaysNote": ""
  },
  {
    "id": "971600804",
    "name": "特別養護老人ホーム煌",
    "kana": "トクベツヨウゴロウジンホームキラメキ",
    "address": "栃木県下野市上古山1849‐1特別養護老人ホーム煌 特別養護老人ホーム煌",
    "lat": 36.4675297295447,
    "lng": 139.859022561642,
    "tel": "0285‐39‐8341",
    "url": "http://tochinokikai.or.jp",
    "pref": "栃木県",
    "city": "下野市",
    "category": "tokuyou",
    "serviceType": "介護老人福祉施設",
    "capacity": 0,
    "openDays": [],
    "openDaysNote": ""
  },
  {
    "id": "972600522",
    "name": "特別養護老人ホーム　フローラりんくる",
    "kana": "トクベツヨウゴロウジンホームフローラリンクル",
    "address": "栃木県塩谷郡高根沢町宝積寺2240番地１",
    "lat": 36.6254766,
    "lng": 139.9900362,
    "tel": "028-680-3555",
    "url": "http://www.kouseikai-flora.or.jp/",
    "pref": "栃木県",
    "city": "高根沢町",
    "category": "tokuyou",
    "serviceType": "介護老人福祉施設",
    "capacity": 0,
    "openDays": [],
    "openDaysNote": ""
  },
  {
    "id": "972600142",
    "name": "特別養護老人ホーム　高根沢のぞみ苑",
    "kana": "トクベツヨウゴロウジンホーム　タカネザワノゾミエン",
    "address": "栃木県塩谷郡高根沢町大字花岡２１５８－１０",
    "lat": 36.6408681436728,
    "lng": 140.005691961377,
    "tel": "028-676-3366",
    "url": "http://kuntoukai.sakura.ne.jp/",
    "pref": "栃木県",
    "city": "高根沢町",
    "category": "tokuyou",
    "serviceType": "介護老人福祉施設",
    "capacity": 50,
    "openDays": [],
    "openDaysNote": ""
  },
  {
    "id": "970400446",
    "name": "特別養護老人ホーム　大栗の里",
    "kana": "トクベツヨウゴロウジンホーム　オオグリノサト",
    "address": "栃木県佐野市犬伏中町2441-1",
    "lat": 36.329833681315,
    "lng": 139.597682934689,
    "tel": "0283-27-0370",
    "url": "oogurinosato@world.ocn.ne.jp",
    "pref": "栃木県",
    "city": "佐野市",
    "category": "tokuyou",
    "serviceType": "介護老人福祉施設",
    "capacity": 80,
    "openDays": [],
    "openDaysNote": ""
  },
  {
    "id": "970400792",
    "name": "特別養護老人ホーム　丹頂",
    "kana": "トクベツヨウゴロウジンホーム　タンチョウ",
    "address": "栃木県佐野市栃本町３２５５",
    "lat": 36.3465739,
    "lng": 139.5842309,
    "tel": "0283-61-0666",
    "url": "",
    "pref": "栃木県",
    "city": "佐野市",
    "category": "tokuyou",
    "serviceType": "介護老人福祉施設",
    "capacity": 0,
    "openDays": [],
    "openDaysNote": ""
  },
  {
    "id": "972400097",
    "name": "特別養護老人ホーム　蓬莱荘",
    "kana": "トクベツヨウゴロウジンホーム　ホウライソウ",
    "address": "栃木県佐野市長谷場町1798-1",
    "lat": 36.4298658,
    "lng": 139.5502245,
    "tel": "0283-67-1001",
    "url": "http://www.hourai.or.jp",
    "pref": "栃木県",
    "city": "佐野市",
    "category": "tokuyou",
    "serviceType": "介護老人福祉施設",
    "capacity": 54,
    "openDays": [],
    "openDaysNote": ""
  },
  {
    "id": "970402319",
    "name": "特別養護老人ホーム　万葉堀米の里",
    "kana": "トクベツヨウゴロウジンホーム　マンヨウホリゴメノサト",
    "address": "栃木県佐野市堀米町１２７０番地８",
    "lat": 36.3279308343433,
    "lng": 139.580580313492,
    "tel": "0283-21-1121",
    "url": "http://manyou.or.jp/",
    "pref": "栃木県",
    "city": "佐野市",
    "category": "tokuyou",
    "serviceType": "介護老人福祉施設",
    "capacity": 0,
    "openDays": [],
    "openDaysNote": ""
  },
  {
    "id": "970401972",
    "name": "特別養護老人ホームきんもくせい",
    "kana": "トクベツヨウゴロウジンホームキンモクセイ",
    "address": "栃木県佐野市堀米町3956-10特別養護老人ホームきんもくせい 特別養護老人ホームきんもくせい",
    "lat": 36.325752914539,
    "lng": 139.577133489163,
    "tel": "0283-85-8823",
    "url": "http://jasanoko.or.jp",
    "pref": "栃木県",
    "city": "佐野市",
    "category": "tokuyou",
    "serviceType": "介護老人福祉施設",
    "capacity": 50,
    "openDays": [],
    "openDaysNote": ""
  },
  {
    "id": "972400089",
    "name": "特別養護老人ホーム葛生ホーム",
    "kana": "トクベツヨウゴロウジンホームクズウホーム",
    "address": "栃木県佐野市仙波町８４７番地",
    "lat": 36.4419674,
    "lng": 139.5977331,
    "tel": "0283-86-3088",
    "url": "https://kuzuuhome.jimdofree.com",
    "pref": "栃木県",
    "city": "佐野市",
    "category": "tokuyou",
    "serviceType": "介護老人福祉施設",
    "capacity": 0,
    "openDays": [],
    "openDaysNote": ""
  },
  {
    "id": "970402509",
    "name": "特別養護老人ホーム結和の里",
    "kana": "トクベツヨウゴロウジンホームユワノサト",
    "address": "栃木県佐野市小見町７３３",
    "lat": 36.3495319995309,
    "lng": 139.57147531206,
    "tel": "0283-62-8788",
    "url": "",
    "pref": "栃木県",
    "city": "佐野市",
    "category": "tokuyou",
    "serviceType": "介護老人福祉施設",
    "capacity": 0,
    "openDays": [],
    "openDaysNote": ""
  },
  {
    "id": "970400222",
    "name": "特別養護老人ホーム佐野サンリバー",
    "kana": "トクベツヨウゴロウジンホームサノサンリバー",
    "address": "栃木県佐野市小中町１８２０－４",
    "lat": 36.337285,
    "lng": 139.5483282,
    "tel": "0283-25-3911",
    "url": "http//park12.wakwak.com/~sunriver",
    "pref": "栃木県",
    "city": "佐野市",
    "category": "tokuyou",
    "serviceType": "介護老人福祉施設",
    "capacity": 0,
    "openDays": [],
    "openDaysNote": ""
  },
  {
    "id": "970400826",
    "name": "特別養護老人ホーム万葉",
    "kana": "トクベツヨウゴロウジンホームマンヨウ",
    "address": "栃木県佐野市堀米町1336-1",
    "lat": 36.3305449,
    "lng": 139.5795736,
    "tel": "0283-20-6339",
    "url": "http://www.manyou.or.jp/",
    "pref": "栃木県",
    "city": "佐野市",
    "category": "tokuyou",
    "serviceType": "介護老人福祉施設",
    "capacity": 0,
    "openDays": [],
    "openDaysNote": ""
  },
  {
    "id": "972700132",
    "name": "特別養護老人ホーム杉の樹園",
    "kana": "トクベツヨウゴロウジンホームスギノキエン",
    "address": "栃木県芳賀郡市貝町続谷736番地",
    "lat": 36.5956009,
    "lng": 140.1259221,
    "tel": "0285-68-4111",
    "url": "http://suginokien.com",
    "pref": "栃木県",
    "city": "市貝町",
    "category": "tokuyou",
    "serviceType": "介護老人福祉施設",
    "capacity": 0,
    "openDays": [],
    "openDaysNote": ""
  },
  {
    "id": "970500229",
    "name": "特別養護老人ホ－ム　オレンジホ－ム",
    "kana": "トクベツヨウゴロウジンホ-ム　オレンジホ-ム",
    "address": "栃木県鹿沼市富岡492-2",
    "lat": 36.6155575,
    "lng": 139.7350696,
    "tel": "0289-63-3807",
    "url": "http://www.ryokufukai.jp/",
    "pref": "栃木県",
    "city": "鹿沼市",
    "category": "tokuyou",
    "serviceType": "介護老人福祉施設",
    "capacity": 0,
    "openDays": [],
    "openDaysNote": ""
  },
  {
    "id": "970501169",
    "name": "特別養護老人ホーム　かぬま花の風",
    "kana": "トクベツヨウゴロウジンホーム　カヌマハナノカゼ",
    "address": "栃木県鹿沼市緑町2-3-17",
    "lat": 36.5580001698662,
    "lng": 139.776979405696,
    "tel": "0289-60-5501",
    "url": "http://ｗｗｗ.fukushi-asahikai.or.jp",
    "pref": "栃木県",
    "city": "鹿沼市",
    "category": "tokuyou",
    "serviceType": "介護老人福祉施設",
    "capacity": 0,
    "openDays": [],
    "openDaysNote": ""
  },
  {
    "id": "970500880",
    "name": "特別養護老人ホーム　かぬま四季の里",
    "kana": "トクベツヨウゴロウジンホーム　カヌマシキノサト",
    "address": "栃木県鹿沼市西沢町209",
    "lat": 36.5169034,
    "lng": 139.7084864,
    "tel": "0289-73-0013",
    "url": "https://souwakai.or.jp/",
    "pref": "栃木県",
    "city": "鹿沼市",
    "category": "tokuyou",
    "serviceType": "介護老人福祉施設",
    "capacity": 0,
    "openDays": [],
    "openDaysNote": ""
  },
  {
    "id": "970500211",
    "name": "特別養護老人ホーム　グリーンホーム",
    "kana": "トクベウヨウゴロウジンホーム　グリーンホーム",
    "address": "栃木県鹿沼市下日向438-1",
    "lat": 36.5504111,
    "lng": 139.7173597,
    "tel": "0289-63-3800",
    "url": "http://www.ryokufukai.jp/",
    "pref": "栃木県",
    "city": "鹿沼市",
    "category": "tokuyou",
    "serviceType": "介護老人福祉施設",
    "capacity": 52,
    "openDays": [],
    "openDaysNote": ""
  },
  {
    "id": "970500161",
    "name": "特別養護老人ホーム　さつき荘",
    "kana": "トクベツヨウゴロウジンホーム　サツキソウ",
    "address": "栃木県鹿沼市白桑田２５４－７",
    "lat": 36.5501948,
    "lng": 139.8130596,
    "tel": "0289-76-2959",
    "url": "http://www.tudafukushi.com",
    "pref": "栃木県",
    "city": "鹿沼市",
    "category": "tokuyou",
    "serviceType": "介護老人福祉施設",
    "capacity": 84,
    "openDays": [],
    "openDaysNote": ""
  },
  {
    "id": "972200067",
    "name": "特別養護老人ホーム　粟野荘",
    "kana": "トクベツヨウゴロウジンホーム　アワノソウ",
    "address": "栃木県鹿沼市深程１５２０",
    "lat": 36.4961776,
    "lng": 139.6976911,
    "tel": "0289‐85‐2809",
    "url": "http://awanosou.jp/",
    "pref": "栃木県",
    "city": "鹿沼市",
    "category": "tokuyou",
    "serviceType": "介護老人福祉施設",
    "capacity": 50,
    "openDays": [],
    "openDaysNote": ""
  },
  {
    "id": "970500617",
    "name": "特別養護老人ホームおりづる",
    "kana": "トクベツヨウゴロウジンホーム　オリヅル",
    "address": "栃木県鹿沼市茂呂１０９０番地２５",
    "lat": 36.5490943,
    "lng": 139.7796379,
    "tel": "0289-60-2265",
    "url": "http://moro-skf.jp/",
    "pref": "栃木県",
    "city": "鹿沼市",
    "category": "tokuyou",
    "serviceType": "介護老人福祉施設",
    "capacity": 50,
    "openDays": [],
    "openDaysNote": ""
  },
  {
    "id": "970500203",
    "name": "特別養護老人ホームハーモニー",
    "kana": "トクベツヨウゴロウジンホームハーモニー",
    "address": "栃木県鹿沼市村井町１４６－６",
    "lat": 36.5483071,
    "lng": 139.7460047,
    "tel": "0289-63-5555",
    "url": "http://kyuujyu.com/",
    "pref": "栃木県",
    "city": "鹿沼市",
    "category": "tokuyou",
    "serviceType": "介護老人福祉施設",
    "capacity": 0,
    "openDays": [],
    "openDaysNote": ""
  },
  {
    "id": "970800223",
    "name": "特別養護老人ホーム　きぬの里",
    "kana": "トクベツヨウゴロウジンホーム　キヌノサト",
    "address": "栃木県小山市大字高椅132-1",
    "lat": 36.3390051,
    "lng": 139.8881236,
    "tel": "0285-49-3636",
    "url": "http://kusu-noki.or.jp",
    "pref": "栃木県",
    "city": "小山市",
    "category": "tokuyou",
    "serviceType": "介護老人福祉施設",
    "capacity": 0,
    "openDays": [],
    "openDaysNote": ""
  },
  {
    "id": "970802062",
    "name": "特別養護老人ホーム　きぬの里みやび",
    "kana": "トクベツヨウゴロウジンホーム　キヌノサトミヤビ",
    "address": "栃木県小山市大字高椅132-1",
    "lat": 36.3390051,
    "lng": 139.8881236,
    "tel": "0285-49-3636",
    "url": "http://kusu-noki.or.jp",
    "pref": "栃木県",
    "city": "小山市",
    "category": "tokuyou",
    "serviceType": "介護老人福祉施設",
    "capacity": 0,
    "openDays": [],
    "openDaysNote": ""
  },
  {
    "id": "970802195",
    "name": "特別養護老人ホーム　しょうし苑星座の森",
    "kana": "トクベツヨウゴロウジンホーム　ショウシエンセイザノモリ",
    "address": "栃木県小山市大字中久喜1273-1",
    "lat": 36.3236804,
    "lng": 139.8344057,
    "tel": "0285-38-8681",
    "url": "http://oyamaseifukai.or.jp/",
    "pref": "栃木県",
    "city": "小山市",
    "category": "tokuyou",
    "serviceType": "介護老人福祉施設",
    "capacity": 0,
    "openDays": [],
    "openDaysNote": ""
  },
  {
    "id": "970800181",
    "name": "特別養護老人ホーム　栗林荘",
    "kana": "トクベツヨウゴロウジンホーム　リツリンソウ",
    "address": "栃木県小山市大字塚崎４６３番地１",
    "lat": 36.2634334,
    "lng": 139.8151558,
    "tel": "0285-27-1582",
    "url": "",
    "pref": "栃木県",
    "city": "小山市",
    "category": "tokuyou",
    "serviceType": "介護老人福祉施設",
    "capacity": null,
    "openDays": [],
    "openDaysNote": ""
  },
  {
    "id": "970800199",
    "name": "特別養護老人ホーム　富士見荘",
    "kana": "トクベツヨウゴロウジンホーム　フジミソウ",
    "address": "栃木県小山市大字上石塚１５番地",
    "lat": 36.3326043,
    "lng": 139.776344,
    "tel": "0285-38-3232",
    "url": "http://www.fujimisou.or.jp",
    "pref": "栃木県",
    "city": "小山市",
    "category": "tokuyou",
    "serviceType": "介護老人福祉施設",
    "capacity": 0,
    "openDays": [],
    "openDaysNote": ""
  },
  {
    "id": "970800207",
    "name": "特別養護老人ホームしょうし苑",
    "kana": "トクベツヨウゴロウジンホームショウシエン",
    "address": "栃木県小山市中久喜1273-1",
    "lat": 36.3236804,
    "lng": 139.8344057,
    "tel": "0285-23-1008",
    "url": "http://oyamaseifukai.or.jp/",
    "pref": "栃木県",
    "city": "小山市",
    "category": "tokuyou",
    "serviceType": "介護老人福祉施設",
    "capacity": 0,
    "openDays": [],
    "openDaysNote": ""
  },
  {
    "id": "970801569",
    "name": "特別養護老人ホーム春わらう舎",
    "kana": "トクベツヨウゴロウジンホームハルワラウイエ",
    "address": "栃木県小山市大字小山1509番地1",
    "lat": 36.3015129,
    "lng": 139.8181736,
    "tel": "0285-28-0200",
    "url": "http://www.nogihosp.or.jp/",
    "pref": "栃木県",
    "city": "小山市",
    "category": "tokuyou",
    "serviceType": "介護老人福祉施設",
    "capacity": 0,
    "openDays": [],
    "openDaysNote": ""
  },
  {
    "id": "970801957",
    "name": "特別養護老人ホーム穂の香苑",
    "kana": "トクベツヨウゴロウジンホームホノカエン",
    "address": "栃木県小山市間々田１４４２",
    "lat": 36.2680394073935,
    "lng": 139.762821218974,
    "tel": "0285-45-1156",
    "url": "https://www.honokaen.jp/",
    "pref": "栃木県",
    "city": "小山市",
    "category": "tokuyou",
    "serviceType": "介護老人福祉施設",
    "capacity": 0,
    "openDays": [],
    "openDaysNote": ""
  },
  {
    "id": "970800215",
    "name": "特別養護老人ホーム穂の香苑",
    "kana": "トクベツヨウゴロウジンホームホノカエン",
    "address": "栃木県小山市間々田１４４２",
    "lat": 36.2680080273375,
    "lng": 139.762862686508,
    "tel": "0285-45-1156",
    "url": "http://www.honokaen.jp/",
    "pref": "栃木県",
    "city": "小山市",
    "category": "tokuyou",
    "serviceType": "介護老人福祉施設",
    "capacity": null,
    "openDays": [],
    "openDaysNote": ""
  },
  {
    "id": "972100176",
    "name": "特別養護老人ホーム　トータスホーム",
    "kana": "トクベツヨウゴロウジンホームトータスホーム",
    "address": "栃木県河内郡上三川町下神主２２９－６",
    "lat": 36.4524571,
    "lng": 139.881703,
    "tel": "0285-52-1000",
    "url": "http://www.tortoise-h.jp",
    "pref": "栃木県",
    "city": "上三川町",
    "category": "tokuyou",
    "serviceType": "介護老人福祉施設",
    "capacity": 0,
    "openDays": [],
    "openDaysNote": ""
  },
  {
    "id": "972100614",
    "name": "特別養護老人ホーム　ふじやまの里",
    "kana": "トクベツヨウゴロウジンホウム　フジヤマノサト",
    "address": "栃木県河内郡上三川町大字上三川３９５０番地１",
    "lat": 36.4240473,
    "lng": 139.9091766,
    "tel": "0285-55-0960",
    "url": "http://www.fujiyamanosato.or.jp",
    "pref": "栃木県",
    "city": "上三川町",
    "category": "tokuyou",
    "serviceType": "介護老人福祉施設",
    "capacity": 70,
    "openDays": [],
    "openDaysNote": ""
  },
  {
    "id": "972100150",
    "name": "特別養護老人ホーム友愛苑",
    "kana": "トクベツヨウゴロウジンホームユウアイエン",
    "address": "栃木県河内郡上三川町大字上三川１６３６－２",
    "lat": 36.438056,
    "lng": 139.91,
    "tel": "0285-56-5228",
    "url": "",
    "pref": "栃木県",
    "city": "上三川町",
    "category": "tokuyou",
    "serviceType": "介護老人福祉施設",
    "capacity": 0,
    "openDays": [],
    "openDaysNote": ""
  },
  {
    "id": "970900189",
    "name": "特別養護老人ホーム　きたはら",
    "kana": "トクベツヨウゴロウジンホーム　キタハラ",
    "address": "栃木県真岡市若旅656番地",
    "lat": 36.4023594,
    "lng": 139.9484327,
    "tel": "0285-83-6662",
    "url": "http://www.keikoukai.or.jp/",
    "pref": "栃木県",
    "city": "真岡市",
    "category": "tokuyou",
    "serviceType": "介護老人福祉施設",
    "capacity": 0,
    "openDays": [],
    "openDaysNote": ""
  },
  {
    "id": "970900379",
    "name": "特別養護老人ホーム　やまさわの里",
    "kana": "トクベツヨウゴロウジンホームヤマサワノサト",
    "address": "真岡市熊倉町3435-1",
    "lat": 36.4329276,
    "lng": 139.9964684,
    "tel": "0285-81-1188",
    "url": "http://www.yamasawanosato.or.jp",
    "pref": "栃木県",
    "city": "真岡市",
    "category": "tokuyou",
    "serviceType": "介護老人福祉施設",
    "capacity": 0,
    "openDays": [],
    "openDaysNote": ""
  },
  {
    "id": "972700678",
    "name": "特別養護老人ホーム　桜の華",
    "kana": "トクベツヨウゴロウジンホーム　サクラノハナ",
    "address": "栃木県真岡市久下田712-8",
    "lat": 36.3743964,
    "lng": 139.9678206,
    "tel": "0285-74-5520",
    "url": "https://sakuranohana.net",
    "pref": "栃木県",
    "city": "真岡市",
    "category": "tokuyou",
    "serviceType": "介護老人福祉施設",
    "capacity": 50,
    "openDays": [],
    "openDaysNote": ""
  },
  {
    "id": "970900163",
    "name": "特別養護老人ホーム　椿寿園",
    "kana": "トクベツヨウゴロウジンホーム　チンジュエン",
    "address": "栃木県真岡市亀山350-20",
    "lat": 36.459577,
    "lng": 139.9889155,
    "tel": "0285-84-1566",
    "url": "http://care-net.biz/09/shinkikai/",
    "pref": "栃木県",
    "city": "真岡市",
    "category": "tokuyou",
    "serviceType": "介護老人福祉施設",
    "capacity": 0,
    "openDays": [],
    "openDaysNote": ""
  },
  {
    "id": "972700140",
    "name": "特別養護老人ホーム喜望荘",
    "kana": "トクベツヨウゴロウジンホームキボウソウ",
    "address": "栃木県真岡市石島463",
    "lat": 36.3935833,
    "lng": 139.9743501,
    "tel": "0285-74-3714",
    "url": "http://www.kibousou.jp/",
    "pref": "栃木県",
    "city": "真岡市",
    "category": "tokuyou",
    "serviceType": "介護老人福祉施設",
    "capacity": 0,
    "openDays": [],
    "openDaysNote": ""
  },
  {
    "id": "972301543",
    "name": "特別養護老人ホーム　あいケアステーション六美",
    "kana": "トクベツヨウゴロウジンホーム　アイケアステーションムツミ",
    "address": "栃木県下都賀郡壬生町壬生丁92－22",
    "lat": 36.4505583,
    "lng": 139.8272287,
    "tel": "0282－82－9222",
    "url": "http://kenbikai.net/",
    "pref": "栃木県",
    "city": "壬生町",
    "category": "tokuyou",
    "serviceType": "介護老人福祉施設",
    "capacity": 50,
    "openDays": [],
    "openDaysNote": ""
  },
  {
    "id": "972300198",
    "name": "特別養護老人ホーム　しもつけ荘",
    "kana": "トクベツヨウゴロウジンホーム　シモツケソウ",
    "address": "栃木県下都賀郡壬生町大字北小林812",
    "lat": 36.4751034,
    "lng": 139.8206875,
    "tel": "0282-86-0177",
    "url": "http://tochinokikai.or.jp/",
    "pref": "栃木県",
    "city": "壬生町",
    "category": "tokuyou",
    "serviceType": "介護老人福祉施設",
    "capacity": 100,
    "openDays": [],
    "openDaysNote": ""
  },
  {
    "id": "970200218",
    "name": "特別養護老人ホーム　義明苑",
    "kana": "トクベツヨウゴロウジンホーム　ギメイエン",
    "address": "栃木県足利市久保田町１２２３番地",
    "lat": 36.2956188,
    "lng": 139.494951,
    "tel": "0284-73-2020",
    "url": "https://www.mimeikai.com/",
    "pref": "栃木県",
    "city": "足利市",
    "category": "tokuyou",
    "serviceType": "介護老人福祉施設",
    "capacity": 60,
    "openDays": [],
    "openDaysNote": ""
  },
  {
    "id": "970203550",
    "name": "特別養護老人ホーム　義明苑いなほ",
    "kana": "トクベツヨウゴロウジンホーム　ギメイエンイナホ",
    "address": "栃木県足利市久保田町1214-1",
    "lat": 36.295007023287,
    "lng": 139.494668932413,
    "tel": "0284-64-8560",
    "url": "https://www.mimeikai.com/",
    "pref": "栃木県",
    "city": "足利市",
    "category": "tokuyou",
    "serviceType": "介護老人福祉施設",
    "capacity": 0,
    "openDays": [],
    "openDaysNote": ""
  },
  {
    "id": "970200077",
    "name": "特別養護老人ホーム　清明苑",
    "kana": "トクベツヨウゴロウジンホーム　セイメイエン",
    "address": "栃木県足利市大月町１０４２－２",
    "lat": 36.349804,
    "lng": 139.4755574,
    "tel": "0284-41-1165",
    "url": "http://seimeien.or.jp/",
    "pref": "栃木県",
    "city": "足利市",
    "category": "tokuyou",
    "serviceType": "介護老人福祉施設",
    "capacity": 0,
    "openDays": [],
    "openDaysNote": ""
  },
  {
    "id": "970201703",
    "name": "特別養護老人ホーム　青空",
    "kana": "トクベツヨウゴロウジンホーム　アオゾラ",
    "address": "栃木県足利市島田町８０１",
    "lat": 36.304313,
    "lng": 139.4497409,
    "tel": "0284-73-0029",
    "url": "http://www.mutumikai.ecnet.jp",
    "pref": "栃木県",
    "city": "足利市",
    "category": "tokuyou",
    "serviceType": "介護老人福祉施設",
    "capacity": 0,
    "openDays": [],
    "openDaysNote": ""
  },
  {
    "id": "970200838",
    "name": "特別養護老人ホーム　湯の里長寿苑",
    "kana": "トクベツヨウゴロウジンホーム　ユノサトチョウジュエン",
    "address": "栃木県足利市大沼田町2163番地1",
    "lat": 36.3352003,
    "lng": 139.4926675,
    "tel": "0284-91-3930",
    "url": "https://yunosato2003.com/",
    "pref": "栃木県",
    "city": "足利市",
    "category": "tokuyou",
    "serviceType": "介護老人福祉施設",
    "capacity": 0,
    "openDays": [],
    "openDaysNote": ""
  },
  {
    "id": "970200184",
    "name": "特別養護老人ホーム　麗日荘",
    "kana": "トクベツヨウゴロウジンホーム　レイジツソウ",
    "address": "栃木県足利市田中町100",
    "lat": 36.3243695,
    "lng": 139.4511708,
    "tel": "0284-71-8182",
    "url": "https://reijitsusou.com/",
    "pref": "栃木県",
    "city": "足利市",
    "category": "tokuyou",
    "serviceType": "介護老人福祉施設",
    "capacity": 0,
    "openDays": [],
    "openDaysNote": ""
  },
  {
    "id": "970201554",
    "name": "特別養護老人ホームこはく苑",
    "kana": "トクベツヨウゴロウジンホームコハクエン",
    "address": "栃木県足利市堀込町２００６番地1",
    "lat": 36.3078265,
    "lng": 139.4372253,
    "tel": "0284-73-5890",
    "url": "http://www.5890.jp",
    "pref": "栃木県",
    "city": "足利市",
    "category": "tokuyou",
    "serviceType": "介護老人福祉施設",
    "capacity": 50,
    "openDays": [],
    "openDaysNote": ""
  },
  {
    "id": "970200697",
    "name": "特別養護老人ホームたんぽぽ",
    "kana": "トクベツヨウゴロウジンホームタンポポ",
    "address": "栃木県足利市通5丁目3435番地3",
    "lat": 36.3360125,
    "lng": 139.4420882,
    "tel": "0284-22-1155",
    "url": "http://www.tanpopo-net.or.jp",
    "pref": "栃木県",
    "city": "足利市",
    "category": "tokuyou",
    "serviceType": "介護老人福祉施設",
    "capacity": 0,
    "openDays": [],
    "openDaysNote": ""
  },
  {
    "id": "970200168",
    "name": "特別養護老人ホームプロムナードひこや",
    "kana": "トクベツヨウゴロウジンホームプロムナードヒコヤ",
    "address": "栃木県足利市葉鹿町２０１９－１",
    "lat": 36.3742186,
    "lng": 139.3851797,
    "tel": "0284-64-0661",
    "url": "",
    "pref": "栃木県",
    "city": "足利市",
    "category": "tokuyou",
    "serviceType": "介護老人福祉施設",
    "capacity": 60,
    "openDays": [],
    "openDaysNote": ""
  },
  {
    "id": "970201752",
    "name": "特別養護老人ホームまごころ",
    "kana": "トクベツヨウゴロウジンホームマゴコロ",
    "address": "栃木県足利市本城１丁目１４８０番地６",
    "lat": 36.3476147,
    "lng": 139.4560533,
    "tel": "0284-40-2201",
    "url": "https://magokoro-kaigo.com/",
    "pref": "栃木県",
    "city": "足利市",
    "category": "tokuyou",
    "serviceType": "介護老人福祉施設",
    "capacity": 62,
    "openDays": [],
    "openDaysNote": ""
  },
  {
    "id": "970200192",
    "name": "特別養護老人ホーム盛雄苑",
    "kana": "セイユウエン",
    "address": "栃木県足利市山下町2753番地の1",
    "lat": 36.3596873,
    "lng": 139.4098779,
    "tel": "0284-64-0765",
    "url": "http://www.koubaikai.jp/",
    "pref": "栃木県",
    "city": "足利市",
    "category": "tokuyou",
    "serviceType": "介護老人福祉施設",
    "capacity": 60,
    "openDays": [],
    "openDaysNote": ""
  },
  {
    "id": "970200200",
    "name": "特別養護老人ホーム和見山苑",
    "kana": "トクベツヨウゴロウジンホームワミヤマエン",
    "address": "栃木県足利市稲岡町１０８３－１",
    "lat": 36.3342877,
    "lng": 139.5326436,
    "tel": "0284-91-3717",
    "url": "https://seimeien.or.jp/wamiyamaen/index.html",
    "pref": "栃木県",
    "city": "足利市",
    "category": "tokuyou",
    "serviceType": "介護老人福祉施設",
    "capacity": 60,
    "openDays": [],
    "openDaysNote": ""
  },
  {
    "id": "971000583",
    "name": "特別養護老人ホーム　おおたわら風花苑",
    "kana": "トクベツヨウゴロウジンホーム　オオタワラカザハナエン",
    "address": "栃木県大田原市北金丸２６００番地１０",
    "lat": 36.8724578,
    "lng": 140.0699957,
    "tel": "0287-20-2230",
    "url": "http://hoyukai.iuhw.ac.jp",
    "pref": "栃木県",
    "city": "大田原市",
    "category": "tokuyou",
    "serviceType": "介護老人福祉施設",
    "capacity": 60,
    "openDays": [],
    "openDaysNote": ""
  },
  {
    "id": "971000179",
    "name": "特別養護老人ホーム　やすらぎの里・大田原",
    "kana": "トクベツヨウゴロウジンホーム　ヤスラギノサト・オオタワラ",
    "address": "栃木県大田原市北大和久1番地３",
    "lat": 36.8451681,
    "lng": 140.0514707,
    "tel": "0287-24-0600",
    "url": "https://www.yasuragi1977.jp/ohtawara/",
    "pref": "栃木県",
    "city": "大田原市",
    "category": "tokuyou",
    "serviceType": "介護老人福祉施設",
    "capacity": 60,
    "openDays": [],
    "openDaysNote": ""
  },
  {
    "id": "971001128",
    "name": "特別養護老人ホーム　やすらぎの里シエスタ",
    "kana": "トクベツヨウゴロウジンホーム　ヤスラギノサトシエスタ",
    "address": "栃木県大田原市北大和久１番地３",
    "lat": 36.8450521909851,
    "lng": 140.051234665607,
    "tel": "0287-47-7030",
    "url": "https://www.yasuragi1977.jp/ohtawara/",
    "pref": "栃木県",
    "city": "大田原市",
    "category": "tokuyou",
    "serviceType": "介護老人福祉施設",
    "capacity": 30,
    "openDays": [],
    "openDaysNote": ""
  },
  {
    "id": "972500235",
    "name": "特別養護老人ホームほのぼの園",
    "kana": "トクベツヨウゴロウジンホームホノボノエン",
    "address": "栃木県大田原市湯津上5-989",
    "lat": 36.8252085,
    "lng": 140.1054834,
    "tel": "0287-98-3161",
    "url": "http://www.keifukukai.com/",
    "pref": "栃木県",
    "city": "大田原市",
    "category": "tokuyou",
    "serviceType": "介護老人福祉施設",
    "capacity": 0,
    "openDays": [],
    "openDaysNote": ""
  },
  {
    "id": "972500367",
    "name": "特別養護老人ホーム山百合荘",
    "kana": "トクベツヨウゴロウジンホームヤマユリソウ",
    "address": "栃木県大田原市久野又８０４番地",
    "lat": 36.8901711,
    "lng": 140.138423,
    "tel": "0287-59-0139",
    "url": "http://yamayuriso.com/",
    "pref": "栃木県",
    "city": "大田原市",
    "category": "tokuyou",
    "serviceType": "介護老人福祉施設",
    "capacity": 53,
    "openDays": [],
    "openDaysNote": ""
  },
  {
    "id": "971000161",
    "name": "特別養護老人ホーム晴風園",
    "kana": "トクベツヨウゴロウジンホームセイフウエン",
    "address": "栃木県大田原市下石上１２５８",
    "lat": 36.8518786,
    "lng": 139.9459609,
    "tel": "0287-29-1790",
    "url": "http://shiseikai-seifuen.com",
    "pref": "栃木県",
    "city": "大田原市",
    "category": "tokuyou",
    "serviceType": "介護老人福祉施設",
    "capacity": null,
    "openDays": [],
    "openDaysNote": ""
  },
  {
    "id": "972300628",
    "name": "社会福祉法人スイートホームひまわり",
    "kana": "シャカイフクシホウジンスイートホームヒマワリ",
    "address": "栃木県栃木市都賀町原宿１４２４－１",
    "lat": 36.4381208,
    "lng": 139.7291903,
    "tel": "0282-29-3232",
    "url": "http://www.tochigi-himawari.jp",
    "pref": "栃木県",
    "city": "栃木市",
    "category": "tokuyou",
    "serviceType": "介護老人福祉施設",
    "capacity": 0,
    "openDays": [],
    "openDaysNote": ""
  },
  {
    "id": "972300974",
    "name": "特別養護老人ホーム　かがやき",
    "kana": "トクベツヨウゴロウジンホーム　カガヤキ",
    "address": "栃木県栃木市岩舟町静戸９７０番地１",
    "lat": 36.3158771,
    "lng": 139.6990013,
    "tel": "0282-54-3366",
    "url": "kagayaki.s-y.gr.com",
    "pref": "栃木県",
    "city": "栃木市",
    "category": "tokuyou",
    "serviceType": "介護老人福祉施設",
    "capacity": 0,
    "openDays": [],
    "openDaysNote": ""
  },
  {
    "id": "970300612",
    "name": "特別養護老人ホーム　まろにえ四季の里",
    "kana": "トクベツヨウゴロウジンホーム　マロニエシキノサト",
    "address": "栃木県栃木市大宮町2023-3",
    "lat": 36.3926993,
    "lng": 139.7563479,
    "tel": "0282-27-8501",
    "url": "http://souwakai.or.jp",
    "pref": "栃木県",
    "city": "栃木市",
    "category": "tokuyou",
    "serviceType": "介護老人福祉施設",
    "capacity": 70,
    "openDays": [],
    "openDaysNote": ""
  },
  {
    "id": "970300042",
    "name": "特別養護老人ホーム　レユーナ",
    "kana": "トクベツヨウゴロウジンホーム　レユーナ",
    "address": "栃木県栃木市箱森町１－１４",
    "lat": 36.3849888393342,
    "lng": 139.727494523943,
    "tel": "0282-22-6033",
    "url": "http://www.reyuna.com",
    "pref": "栃木県",
    "city": "栃木市",
    "category": "tokuyou",
    "serviceType": "介護老人福祉施設",
    "capacity": 0,
    "openDays": [],
    "openDaysNote": ""
  },
  {
    "id": "972300339",
    "name": "特別養護老人ホーム　幸寿苑",
    "kana": "トクベツヨウゴロウジンホームコウジュエン",
    "address": "栃木県栃木市大平町上高島774",
    "lat": 36.347429,
    "lng": 139.7324161,
    "tel": "0282-43-1400",
    "url": "http://www.tochigi-toufuukai.com",
    "pref": "栃木県",
    "city": "栃木市",
    "category": "tokuyou",
    "serviceType": "介護老人福祉施設",
    "capacity": 40,
    "openDays": [],
    "openDaysNote": ""
  },
  {
    "id": "970301735",
    "name": "特別養護老人ホーム　咲くら館",
    "kana": "トクベツヨウゴロウジンホーム　サクラカン",
    "address": "栃木県栃木市大平町下皆川916番地",
    "lat": 36.3587775315464,
    "lng": 139.715074718555,
    "tel": "０２８２－４３－７４００",
    "url": "sakurakan@sakura-kids.jp",
    "pref": "栃木県",
    "city": "栃木市",
    "category": "tokuyou",
    "serviceType": "介護老人福祉施設",
    "capacity": 80,
    "openDays": [],
    "openDaysNote": ""
  },
  {
    "id": "970300125",
    "name": "特別養護老人ホーム　代官荘",
    "kana": "トクベツヨウゴロウジンホーム　ダイカンソウ",
    "address": "栃木県栃木市田村町928",
    "lat": 36.3931864,
    "lng": 139.7833737,
    "tel": "0282-27-3978",
    "url": "http://www.sfk.or.jp/",
    "pref": "栃木県",
    "city": "栃木市",
    "category": "tokuyou",
    "serviceType": "介護老人福祉施設",
    "capacity": 0,
    "openDays": [],
    "openDaysNote": ""
  },
  {
    "id": "972300313",
    "name": "特別養護老人ホーム　緑風苑",
    "kana": "トクベツヨウゴロウジンホーム　リョクフウエン",
    "address": "栃木県栃木市藤岡町中根355-2",
    "lat": 36.2845783286306,
    "lng": 139.689064384061,
    "tel": "0282-67-3921",
    "url": "http://www.ryokufuen.or.jp/",
    "pref": "栃木県",
    "city": "栃木市",
    "category": "tokuyou",
    "serviceType": "介護老人福祉施設",
    "capacity": 54,
    "openDays": [],
    "openDaysNote": ""
  },
  {
    "id": "970300174",
    "name": "特別養護老人ホームうづま荘",
    "kana": "トクベツヨウゴロウジンホームウヅマソウ",
    "address": "栃木県栃木市川原田町1612",
    "lat": 36.4069054,
    "lng": 139.7383709,
    "tel": "0282-24-9760",
    "url": "http://www.cc9.ne.jp/~koseikai/",
    "pref": "栃木県",
    "city": "栃木市",
    "category": "tokuyou",
    "serviceType": "介護老人福祉施設",
    "capacity": 0,
    "openDays": [],
    "openDaysNote": ""
  },
  {
    "id": "970302089",
    "name": "特別養護老人ホームかたやなぎ",
    "kana": "トクベツヨウゴロウジンホームカタヤナギ",
    "address": "栃木県栃木市片柳町4-14-43-18",
    "lat": 36.3689920951016,
    "lng": 139.714313194582,
    "tel": "0282-25-7766",
    "url": "http://www.fureai-coop.com/",
    "pref": "栃木県",
    "city": "栃木市",
    "category": "tokuyou",
    "serviceType": "介護老人福祉施設",
    "capacity": 0,
    "openDays": [],
    "openDaysNote": ""
  },
  {
    "id": "970301123",
    "name": "特別養護老人ホームみながわ桜園",
    "kana": "トクベツヨウゴロウジンホームミナガワサクラエン",
    "address": "栃木県栃木市皆川城内町520番地",
    "lat": 36.3977245,
    "lng": 139.6895442,
    "tel": "0282-20-8770",
    "url": "http://minagawa-sakura.com/",
    "pref": "栃木県",
    "city": "栃木市",
    "category": "tokuyou",
    "serviceType": "介護老人福祉施設",
    "capacity": 50,
    "openDays": [],
    "openDaysNote": ""
  },
  {
    "id": "972200125",
    "name": "特別養護老人ホーム雅の風",
    "kana": "トクベツヨウゴロウジンホームミヤビノカゼ",
    "address": "栃木県栃木市西方町金崎４０３－１",
    "lat": 36.4691706,
    "lng": 139.7451823,
    "tel": "0282-92-0533",
    "url": "http://miyabinokaze.com",
    "pref": "栃木県",
    "city": "栃木市",
    "category": "tokuyou",
    "serviceType": "介護老人福祉施設",
    "capacity": 0,
    "openDays": [],
    "openDaysNote": ""
  },
  {
    "id": "972300172",
    "name": "特別養護老人ホーム清松園",
    "kana": "トクベツヨウゴロウジンホームセイショウエン",
    "address": "栃木県栃木市岩舟町和泉８１６",
    "lat": 36.3239173,
    "lng": 139.6717759,
    "tel": "0282-55-6677",
    "url": "http://seisho.s-y.gr.com/",
    "pref": "栃木県",
    "city": "栃木市",
    "category": "tokuyou",
    "serviceType": "介護老人福祉施設",
    "capacity": 50,
    "openDays": [],
    "openDaysNote": ""
  },
  {
    "id": "972501118",
    "name": "特別養護老人ホーム　かたくりの郷",
    "kana": "トクベツヨウゴロウジンホームカタクリノサト",
    "address": "栃木県那須郡那珂川町小川２９５８－２",
    "lat": 36.7607799,
    "lng": 140.1197619,
    "tel": "0287-96-6070",
    "url": "http://www.katakurinosato.jp",
    "pref": "栃木県",
    "city": "那珂川町",
    "category": "tokuyou",
    "serviceType": "介護老人福祉施設",
    "capacity": 0,
    "openDays": [],
    "openDaysNote": ""
  },
  {
    "id": "972500284",
    "name": "特別養護老人ホーム八溝の里",
    "kana": "トクベツヨウゴロウジンホームヤミゾノサト",
    "address": "栃木県那須郡那珂川町久那瀬５４４－１",
    "lat": 36.7262544,
    "lng": 140.1514029,
    "tel": "0287-92-0010",
    "url": "",
    "pref": "栃木県",
    "city": "那珂川町",
    "category": "tokuyou",
    "serviceType": "介護老人福祉施設",
    "capacity": null,
    "openDays": [],
    "openDaysNote": ""
  },
  {
    "id": "971500160",
    "name": "ユニット型特別養護老人ホーム愛和苑",
    "kana": "ユニットガタトクベツヨウゴロウジンホームアイワエン",
    "address": "栃木県那須烏山市三箇183-1",
    "lat": 36.6912674,
    "lng": 140.0742361,
    "tel": "0287-83-8022",
    "url": "https://seisyu-kai.or.jp",
    "pref": "栃木県",
    "city": "那須烏山市",
    "category": "tokuyou",
    "serviceType": "介護老人福祉施設",
    "capacity": 30,
    "openDays": [],
    "openDaysNote": ""
  },
  {
    "id": "971500186",
    "name": "特別養護老人ホームこぶしの丘",
    "kana": "トクベツヨウゴロウジンホーム　コブシノオカ",
    "address": "向田2187",
    "lat": null,
    "lng": null,
    "tel": "287840077",
    "url": "https://kobushinooka.com/",
    "pref": "栃木県",
    "city": "那須烏山市",
    "category": "tokuyou",
    "serviceType": "介護老人福祉施設",
    "capacity": 0,
    "openDays": [],
    "openDaysNote": ""
  },
  {
    "id": "972500045",
    "name": "特別養護老人ホーム愛和苑",
    "kana": "トクベツヨウゴロウジンホーム　アイワエン",
    "address": "栃木県那須烏山市三箇183-1",
    "lat": 36.6912674,
    "lng": 140.0742361,
    "tel": "0287-88-0311",
    "url": "http://www.seisyu-kai.net/",
    "pref": "栃木県",
    "city": "那須烏山市",
    "category": "tokuyou",
    "serviceType": "介護老人福祉施設",
    "capacity": 50,
    "openDays": [],
    "openDaysNote": ""
  },
  {
    "id": "972500342",
    "name": "特別養護老人ホーム敬愛荘",
    "kana": "トクベツヨウゴロウジンホームケイアイソウ",
    "address": "栃木県那須烏山市滝田1867-3",
    "lat": 36.677182882492,
    "lng": 140.14541630638,
    "tel": "0287-84-1176",
    "url": "http://keiaikai-nasukarasuyama.com",
    "pref": "栃木県",
    "city": "那須烏山市",
    "category": "tokuyou",
    "serviceType": "介護老人福祉施設",
    "capacity": 80,
    "openDays": [],
    "openDaysNote": ""
  },
  {
    "id": "971300181",
    "name": "特別養護老人ホ－ムさちの森",
    "kana": "トクベツヨウゴロウジンホ－ムサチノモリ",
    "address": "栃木県那須塩原市野間４５３番地２３",
    "lat": 36.9318491,
    "lng": 140.0809674,
    "tel": "0287-60-1331",
    "url": "http://www.sachinomori.jp",
    "pref": "栃木県",
    "city": "那須塩原市",
    "category": "tokuyou",
    "serviceType": "介護老人福祉施設",
    "capacity": 0,
    "openDays": [],
    "openDaysNote": ""
  },
  {
    "id": "971200092",
    "name": "特別養護老人ホーム　あじさい苑",
    "kana": "トクベツヨウゴロウジンホーム　アジサイエン",
    "address": "栃木県那須塩原市東原字天蚕場１６６番地",
    "lat": 36.961698,
    "lng": 140.046066,
    "tel": "0287-62-3500",
    "url": "http://www.nasu-kaigo.or.jp",
    "pref": "栃木県",
    "city": "那須塩原市",
    "category": "tokuyou",
    "serviceType": "介護老人福祉施設",
    "capacity": null,
    "openDays": [],
    "openDaysNote": ""
  },
  {
    "id": "971200084",
    "name": "特別養護老人ホーム　寿山荘",
    "kana": "トクベツヨウゴロウジンホーム　ジュザンソウ",
    "address": "栃木県那須塩原市住吉町5番10号",
    "lat": 36.9653006,
    "lng": 140.0493962,
    "tel": "0287-64-2511",
    "url": "http://www.keihukukai.com/",
    "pref": "栃木県",
    "city": "那須塩原市",
    "category": "tokuyou",
    "serviceType": "介護老人福祉施設",
    "capacity": 40,
    "openDays": [],
    "openDaysNote": ""
  },
  {
    "id": "972500185",
    "name": "特別養護老人ホーム　生きいきの里",
    "kana": "トクベツヨウゴロウジンホーム　イキイキノサト",
    "address": "栃木県那須塩原市下田野２８２番地６",
    "lat": 36.9417286,
    "lng": 139.895481,
    "tel": "0287-35-3734",
    "url": "https://www.ikiikinosato.com.",
    "pref": "栃木県",
    "city": "那須塩原市",
    "category": "tokuyou",
    "serviceType": "介護老人福祉施設",
    "capacity": 0,
    "openDays": [],
    "openDaysNote": ""
  },
  {
    "id": "972500375",
    "name": "特別養護老人ホーム　栃の実荘",
    "kana": "トクベツヨウゴロウジンホーム　トチノミソウ",
    "address": "栃木県那須塩原市井口533-20",
    "lat": 36.9106068663439,
    "lng": 139.974056324081,
    "tel": "0287-37-1160",
    "url": "http://hoyukai.iuhw.ac.jp/tochinomisou/",
    "pref": "栃木県",
    "city": "那須塩原市",
    "category": "tokuyou",
    "serviceType": "介護老人福祉施設",
    "capacity": 0,
    "openDays": [],
    "openDaysNote": ""
  },
  {
    "id": "972500359",
    "name": "特別養護老人ホーム　那須順天荘",
    "kana": "トクベツヨウゴロウジンホーム　ナスジュンテンソウ",
    "address": "栃木県那須塩原市上赤田２３８番地６５８",
    "lat": 36.9076555,
    "lng": 139.9475026,
    "tel": "0287-36-8010",
    "url": "",
    "pref": "栃木県",
    "city": "那須塩原市",
    "category": "tokuyou",
    "serviceType": "介護老人福祉施設",
    "capacity": 0,
    "openDays": [],
    "openDaysNote": ""
  },
  {
    "id": "972501043",
    "name": "特別養護老人ホーム　なすの苑",
    "kana": "トクベツヨウゴロウジンホーム　ナスノエン",
    "address": "栃木県那須郡那須町大字寺子乙３９１２－５",
    "lat": 37.009805,
    "lng": 140.1254697,
    "tel": "0287-72-7301",
    "url": "http://www.nasu-kaigo.or.jp",
    "pref": "栃木県",
    "city": "那須町",
    "category": "tokuyou",
    "serviceType": "介護老人福祉施設",
    "capacity": null,
    "openDays": [],
    "openDaysNote": ""
  },
  {
    "id": "972500292",
    "name": "特別養護老人ホーム　ゆたか苑",
    "kana": "トクベツヨウゴロウジンホーム　ユタカエン",
    "address": "栃木県那須郡那須町大字豊原乙６２７－９５",
    "lat": 37.1013191,
    "lng": 140.1310805,
    "tel": "0287-77-2511",
    "url": "http://www.nasu-kaigo.or.jp",
    "pref": "栃木県",
    "city": "那須町",
    "category": "tokuyou",
    "serviceType": "介護老人福祉施設",
    "capacity": 44,
    "openDays": [],
    "openDaysNote": ""
  },
  {
    "id": "972501282",
    "name": "特別養護老人ホーム　寿山荘那須",
    "kana": "トクベツヨウゴロウジンホーム　ジュザンソウナス",
    "address": "栃木県那須郡那須町大字寺子乙1241-12",
    "lat": 37.0021688,
    "lng": 140.0931171,
    "tel": "0287-71-1707",
    "url": "https://www.keifukukai.com",
    "pref": "栃木県",
    "city": "那須町",
    "category": "tokuyou",
    "serviceType": "介護老人福祉施設",
    "capacity": 0,
    "openDays": [],
    "openDaysNote": ""
  },
  {
    "id": "970600797",
    "name": "すかいの郷",
    "kana": "スカイノサト",
    "address": "栃木県日光市倉ケ崎新田143-1",
    "lat": 36.7371043093024,
    "lng": 139.701593257611,
    "tel": "0288-25-7100",
    "url": "http://www.sukai.jp/",
    "pref": "栃木県",
    "city": "日光市",
    "category": "tokuyou",
    "serviceType": "介護老人福祉施設",
    "capacity": 70,
    "openDays": [],
    "openDaysNote": ""
  },
  {
    "id": "972600316",
    "name": "特別養護老人ホーム　きぬ川苑",
    "kana": "トクベツヨウゴロウジンホーム　キヌガワエン",
    "address": "栃木県日光市高徳６１９番地３",
    "lat": 36.7826076174365,
    "lng": 139.706736490477,
    "tel": "0288-70-3110",
    "url": "http://kinugawaen.com/",
    "pref": "栃木県",
    "city": "日光市",
    "category": "tokuyou",
    "serviceType": "介護老人福祉施設",
    "capacity": 50,
    "openDays": [],
    "openDaysNote": ""
  },
  {
    "id": "970600037",
    "name": "特別養護老人ホーム　きびたき荘",
    "kana": "トクベツヨウゴロウジンホーム　キビタキソウ",
    "address": "栃木県日光市細尾町95番地",
    "lat": 36.7303137,
    "lng": 139.5490106,
    "tel": "0288-53-6433",
    "url": "http://kibitakisou.com/",
    "pref": "栃木県",
    "city": "日光市",
    "category": "tokuyou",
    "serviceType": "介護老人福祉施設",
    "capacity": 0,
    "openDays": [],
    "openDaysNote": ""
  },
  {
    "id": "970600185",
    "name": "特別養護老人ホーム　ひかりの里",
    "kana": "トクベツヨウゴロウジンホーム　ヒカリノサト",
    "address": "日光市今市1086-2",
    "lat": 36.7248243,
    "lng": 139.6977575,
    "tel": "0288-30-3911",
    "url": "http://www.taikei.jp/",
    "pref": "栃木県",
    "city": "日光市",
    "category": "tokuyou",
    "serviceType": "介護老人福祉施設",
    "capacity": 70,
    "openDays": [],
    "openDaysNote": ""
  },
  {
    "id": "970600441",
    "name": "特別養護老人ホーム　ひらがさ喜の里",
    "kana": "トクベツヨウゴロウジンホーム　ヒラガサキノサト",
    "address": "栃木県日光市平ヶ崎608-5",
    "lat": 36.7157384,
    "lng": 139.6806876,
    "tel": "0288-30-5511",
    "url": "http://nikko-fukueikai.or.jp",
    "pref": "栃木県",
    "city": "日光市",
    "category": "tokuyou",
    "serviceType": "介護老人福祉施設",
    "capacity": 0,
    "openDays": [],
    "openDaysNote": ""
  },
  {
    "id": "970600581",
    "name": "特別養護老人ホーム　喜わだ亭",
    "kana": "トクベツヨウゴロウジンホームキワダテイ",
    "address": "栃木県日光市木和田島3008番地13特別養護老人ホーム　喜わだ亭 特別養護老人ホーム　喜わだ亭",
    "lat": 36.6823192,
    "lng": 139.7530507,
    "tel": "0288-32-0003",
    "url": "",
    "pref": "栃木県",
    "city": "日光市",
    "category": "tokuyou",
    "serviceType": "介護老人福祉施設",
    "capacity": 50,
    "openDays": [],
    "openDaysNote": ""
  },
  {
    "id": "970700134",
    "name": "特別養護老人ホーム　今市ホーム",
    "kana": "トクベツヨウゴロウジンホーム　イマイチホーム",
    "address": "栃木県日光市板橋2190-2",
    "lat": 36.6492286,
    "lng": 139.7351187,
    "tel": "0288-27-0361",
    "url": "www.taikei.jp",
    "pref": "栃木県",
    "city": "日光市",
    "category": "tokuyou",
    "serviceType": "介護老人福祉施設",
    "capacity": 0,
    "openDays": [],
    "openDaysNote": ""
  },
  {
    "id": "970700142",
    "name": "特別養護老人ホーム　誠心園",
    "kana": "トクベツヨウゴロウジンホーム　セイシンエン",
    "address": "栃木県日光市倉ケ崎６０５番地７",
    "lat": 36.7550186,
    "lng": 139.7127239,
    "tel": "0288-21-7020",
    "url": "http://www.sankokai.com",
    "pref": "栃木県",
    "city": "日光市",
    "category": "tokuyou",
    "serviceType": "介護老人福祉施設",
    "capacity": 0,
    "openDays": [],
    "openDaysNote": ""
  },
  {
    "id": "970700415",
    "name": "特別養護老人ホーム　大室さくら苑",
    "kana": "トクベツヨウゴロウジンホーム　オオムロサクラエン",
    "address": "栃木県日光市大室863-7",
    "lat": 36.7229311,
    "lng": 139.7501241,
    "tel": "0288-26-4141",
    "url": "http://oomurosakuraen.jp",
    "pref": "栃木県",
    "city": "日光市",
    "category": "tokuyou",
    "serviceType": "介護老人福祉施設",
    "capacity": 50,
    "openDays": [],
    "openDaysNote": ""
  },
  {
    "id": "972700124",
    "name": "特別養護老人ホーム　而今荘",
    "kana": "トクベツヨウゴロウジンホーム　ニコンソウ",
    "address": "栃木県芳賀郡芳賀町大字稲毛田１８８７－４",
    "lat": 36.5506206,
    "lng": 140.0718313,
    "tel": "028-677-2811",
    "url": "https://www.hoaikai.or.jp/",
    "pref": "栃木県",
    "city": "芳賀町",
    "category": "tokuyou",
    "serviceType": "介護老人福祉施設",
    "capacity": 50,
    "openDays": [],
    "openDaysNote": ""
  },
  {
    "id": "972701122",
    "name": "特別養護老人ホームうぐいすの杜",
    "kana": "トクベツヨウゴロウジンホームウグイスノモリ",
    "address": "栃木県芳賀郡茂木町大字茂木1824-28",
    "lat": 36.533694,
    "lng": 140.1797057,
    "tel": "0285-81-6988",
    "url": "https://www.motegi-uguisunomori.com",
    "pref": "栃木県",
    "city": "茂木町",
    "category": "tokuyou",
    "serviceType": "介護老人福祉施設",
    "capacity": 50,
    "openDays": [],
    "openDaysNote": ""
  },
  {
    "id": "972700157",
    "name": "特別養護老人ホームききょうの里",
    "kana": "トクベツヨウゴロウジンホームキキョウノサト",
    "address": "栃木県芳賀郡茂木町大字飯1694",
    "lat": 36.474662,
    "lng": 140.170607,
    "tel": "0285-65-0811",
    "url": "https://kikyonosato.jp/",
    "pref": "栃木県",
    "city": "茂木町",
    "category": "tokuyou",
    "serviceType": "介護老人福祉施設",
    "capacity": 0,
    "openDays": [],
    "openDaysNote": ""
  },
  {
    "id": "972300131",
    "name": "特別養護老人ホーム　虹の舎",
    "kana": "トクベツヨウゴロウジンホーム　ニジノイエ",
    "address": "栃木県下都賀郡野木町佐川野1785-1",
    "lat": 36.2350963,
    "lng": 139.767812,
    "tel": "0280-56-1000",
    "url": "http://www.nogihosp.or.jp/",
    "pref": "栃木県",
    "city": "野木町",
    "category": "tokuyou",
    "serviceType": "介護老人福祉施設",
    "capacity": 0,
    "openDays": [],
    "openDaysNote": ""
  },
  {
    "id": "971100045",
    "name": "特別養護老人ホーム　八汐苑",
    "kana": "トクベツヨウゴロウジンホームヤシオエン",
    "address": "栃木県矢板市平野1362-12",
    "lat": 36.8663585,
    "lng": 139.8862946,
    "tel": "0287-43-1872",
    "url": "http://yashioen.jp/",
    "pref": "栃木県",
    "city": "矢板市",
    "category": "tokuyou",
    "serviceType": "介護老人福祉施設",
    "capacity": 100,
    "openDays": [],
    "openDaysNote": ""
  },
  {
    "id": "971100433",
    "name": "特別養護老人ホームひだまりの里",
    "kana": "トクベツヨウゴロウジンホームヒダマリノサト",
    "address": "栃木県矢板市川崎反町303番地",
    "lat": 36.7933127,
    "lng": 139.9196135,
    "tel": "0287-43-7710",
    "url": "http://www.tomoikikai.info/",
    "pref": "栃木県",
    "city": "矢板市",
    "category": "tokuyou",
    "serviceType": "介護老人福祉施設",
    "capacity": 50,
    "openDays": [],
    "openDaysNote": ""
  }
]