[
  {
    "id": "4770200014",
    "name": "指定介護老人福祉施設　楽寿園",
    "kana": "シテイカイゴロウジンフクシシセツ　ラクジュエン",
    "address": "沖縄県うるま市石川嘉手苅961番地17",
    "lat": 26.4254036,
    "lng": 127.7975895,
    "tel": "098-965-4152",
    "url": "http://www.ikusan-k.com",
    "pref": "沖縄県",
    "city": "うるま市",
    "category": "tokuyou",
    "serviceType": "介護老人福祉施設",
    "capacity": 10,
    "openDays": [],
    "openDaysNote": ""
  },
  {
    "id": "4770300319",
    "name": "指定介護老人福祉施設　具志川厚生園",
    "kana": "シテイカイゴロウジンフクシシセツ　グシカワコウセイエン",
    "address": "沖縄県うるま市字天願１９８３番地具志川厚生園 具志川厚生園",
    "lat": 26.3833171,
    "lng": 127.8508502,
    "tel": "098-972-6677",
    "url": "http://www.okinawa-j.jp",
    "pref": "沖縄県",
    "city": "うるま市",
    "category": "tokuyou",
    "serviceType": "介護老人福祉施設",
    "capacity": 100,
    "openDays": [],
    "openDaysNote": ""
  },
  {
    "id": "4770300012",
    "name": "特別養護老人ホーム　平和の村",
    "kana": "トクベツヨウゴロウジンホーム　ヘイワノムラ",
    "address": "沖縄県うるま市字昆布1832番地637",
    "lat": 26.3970988,
    "lng": 127.8378538,
    "tel": "098-972-5000",
    "url": "http://www.",
    "pref": "沖縄県",
    "city": "うるま市",
    "category": "tokuyou",
    "serviceType": "介護老人福祉施設",
    "capacity": 0,
    "openDays": [],
    "openDaysNote": ""
  },
  {
    "id": "4772000016",
    "name": "特別養護老人ホームあやはし苑",
    "kana": "トクベツヨウゴロウジンホームアヤハシエン",
    "address": "沖縄県うるま市与那城屋慶名１４１０番地なし なし",
    "lat": 26.3270275,
    "lng": 127.9089652,
    "tel": "098-978-5566",
    "url": "http://ayahashien.com/",
    "pref": "沖縄県",
    "city": "うるま市",
    "category": "tokuyou",
    "serviceType": "介護老人福祉施設",
    "capacity": 70,
    "openDays": [],
    "openDaysNote": ""
  },
  {
    "id": "4772100022",
    "name": "特別養護老人ホーム与勝の里",
    "kana": "トクベツヨウゴロウジンホームヨカツノサト",
    "address": "沖縄県うるま市勝連南風原4902番地",
    "lat": 26.3421501,
    "lng": 127.8770789,
    "tel": "098-978-2629",
    "url": "http://www.yokatsu.jp/",
    "pref": "沖縄県",
    "city": "うるま市",
    "category": "tokuyou",
    "serviceType": "介護老人福祉施設",
    "capacity": 70,
    "openDays": [],
    "openDaysNote": ""
  },
  {
    "id": "4774100012",
    "name": "特別養護老人ホームあぐに",
    "kana": "トクベツヨウゴロウジンホームアグニ",
    "address": "沖縄県島尻郡粟国村字東1796番地",
    "lat": 26.5842166,
    "lng": 127.231145,
    "tel": "098-988-2082",
    "url": "http://www.",
    "pref": "沖縄県",
    "city": "粟国村",
    "category": "tokuyou",
    "serviceType": "介護老人福祉施設",
    "capacity": 25,
    "openDays": [],
    "openDaysNote": ""
  },
  {
    "id": "4771900018",
    "name": "特別養護老人ホーム　いえしま",
    "kana": "トクベツヨウゴロウジンホームイエシマ",
    "address": "沖縄県国頭郡伊江村字東江前２３０３－１",
    "lat": 26.7109275,
    "lng": 127.8251795,
    "tel": "0980-49-5502",
    "url": "http://care-net.biz/47/reihou/index.php",
    "pref": "沖縄県",
    "city": "伊江村",
    "category": "tokuyou",
    "serviceType": "介護老人福祉施設",
    "capacity": 30,
    "openDays": [],
    "openDaysNote": ""
  },
  {
    "id": "4774600011",
    "name": "特別養護老人ホームチヂン園",
    "kana": "トクベツヨウゴロウジンホウムチヂンエン",
    "address": "沖縄県島尻郡伊是名村字仲田1687番地51",
    "lat": 26.9223664,
    "lng": 127.943634,
    "tel": "0980-45-2273",
    "url": "http://www.chijinen.com/",
    "pref": "沖縄県",
    "city": "伊是名村",
    "category": "tokuyou",
    "serviceType": "介護老人福祉施設",
    "capacity": 0,
    "openDays": [],
    "openDaysNote": ""
  },
  {
    "id": "4770800029",
    "name": "特別養護老人ホーム　ありあけの里",
    "kana": "トクベツヨウゴロウジンホーム　アリアケノサト",
    "address": "沖縄県浦添市字前田９９７番地",
    "lat": 26.2460473,
    "lng": 127.7386556,
    "tel": "098-877-5047",
    "url": "http://okicolo.or.jp",
    "pref": "沖縄県",
    "city": "浦添市",
    "category": "tokuyou",
    "serviceType": "介護老人福祉施設",
    "capacity": 0,
    "openDays": [],
    "openDaysNote": ""
  },
  {
    "id": "4770801233",
    "name": "特別養護老人ホーム　第二ありあけの里",
    "kana": "トクベツヨウゴロウジンホーム　ダイニアリアケノサト",
    "address": "沖縄県浦添市仲西二丁目4番21号",
    "lat": 26.2452624989984,
    "lng": 127.700367109787,
    "tel": "098-875-2800",
    "url": "http://www.okicolo.or.jp",
    "pref": "沖縄県",
    "city": "浦添市",
    "category": "tokuyou",
    "serviceType": "介護老人福祉施設",
    "capacity": 0,
    "openDays": [],
    "openDaysNote": ""
  },
  {
    "id": "4770402537",
    "name": "介護老人福祉施設沖縄一条園",
    "kana": "カイゴロウジンフクシシセツオキナワイチジョウエン",
    "address": "沖縄県沖縄市与儀3-5-10",
    "lat": 26.3100966,
    "lng": 127.8162766,
    "tel": "098-932-9376",
    "url": "https://www.reihoukai.or.jp/",
    "pref": "沖縄県",
    "city": "沖縄市",
    "category": "tokuyou",
    "serviceType": "介護老人福祉施設",
    "capacity": 0,
    "openDays": [],
    "openDaysNote": ""
  },
  {
    "id": "4770400028",
    "name": "介護老人福祉施設緑樹苑",
    "kana": "カイゴロウジンフクシシセツ　リョクジュエン",
    "address": "沖縄県沖縄市胡屋７丁目２番１０号",
    "lat": 26.325813867775,
    "lng": 127.811224649668,
    "tel": "098-933-3582",
    "url": "http//www.ryokujukai.or.jp",
    "pref": "沖縄県",
    "city": "沖縄市",
    "category": "tokuyou",
    "serviceType": "介護老人福祉施設",
    "capacity": 0,
    "openDays": [],
    "openDaysNote": ""
  },
  {
    "id": "4770400085",
    "name": "特別養護老人ホーム　おきなわ長寿苑",
    "kana": "トクベツヨウゴロウジンホーム　オキナワチョウジュエン",
    "address": "沖縄県沖縄市字登川1403番地",
    "lat": 26.3751761,
    "lng": 127.8233248,
    "tel": "098-939-4165",
    "url": "http://www.chojyuen.com",
    "pref": "沖縄県",
    "city": "沖縄市",
    "category": "tokuyou",
    "serviceType": "介護老人福祉施設",
    "capacity": 0,
    "openDays": [],
    "openDaysNote": ""
  },
  {
    "id": "4770401810",
    "name": "特別養護老人ホーム知花の里",
    "kana": "トクベツヨウゴロウジンホームチバナノサト",
    "address": "沖縄県沖縄市知花５－２３－１６",
    "lat": 26.364063,
    "lng": 127.8119012,
    "tel": "098-923-5020",
    "url": "http://okiniji.or.jp/",
    "pref": "沖縄県",
    "city": "沖縄市",
    "category": "tokuyou",
    "serviceType": "介護老人福祉施設",
    "capacity": 0,
    "openDays": [],
    "openDaysNote": ""
  },
  {
    "id": "4771600014",
    "name": "介護老人福祉施設谷茶の丘.雅みやび",
    "kana": "カイゴロウジンフクシシセツタンチャノオカミヤビ",
    "address": "沖縄県国頭郡恩納村字谷茶1919番地7",
    "lat": 26.4563964,
    "lng": 127.8255494,
    "tel": "098-966-2323",
    "url": "http://www.yuunanokai.or.jp",
    "pref": "沖縄県",
    "city": "恩納村",
    "category": "tokuyou",
    "serviceType": "介護老人福祉施設",
    "capacity": 100,
    "openDays": [],
    "openDaysNote": ""
  },
  {
    "id": "4772300010",
    "name": "特別養護老人ホーム　比謝川の里",
    "kana": "トクベツヨウゴロウジンホームヒジャガワノサト",
    "address": "沖縄県中頭郡嘉手納町字久得242-2",
    "lat": 26.3720555,
    "lng": 127.771243,
    "tel": "098-957-3000",
    "url": "http://比謝川の里.com",
    "pref": "沖縄県",
    "city": "嘉手納町",
    "category": "tokuyou",
    "serviceType": "介護老人福祉施設",
    "capacity": 0,
    "openDays": [],
    "openDaysNote": ""
  },
  {
    "id": "4771700020",
    "name": "介護老人福祉施設でいご園",
    "kana": "カイゴロウジンフクシシセツデイゴエン",
    "address": "沖縄県国頭郡宜野座村字惣慶１２９５番地",
    "lat": 26.4754219951023,
    "lng": 127.970982818524,
    "tel": "098-968-8363",
    "url": "https://www.deigoen.com/",
    "pref": "沖縄県",
    "city": "宜野座村",
    "category": "tokuyou",
    "serviceType": "介護老人福祉施設",
    "capacity": 105,
    "openDays": [],
    "openDaysNote": ""
  },
  {
    "id": "4770500041",
    "name": "指定介護老人福祉施設愛誠園",
    "kana": "シテイカイゴロウジンフクシシセツアイセイエン",
    "address": "沖縄県宜野湾市伊佐3丁目26番8号介護老人福祉施設　愛誠園 介護老人福祉施設　愛誠園",
    "lat": 26.2932223830395,
    "lng": 127.75827423335,
    "tel": "098-897-8231",
    "url": "http://aiseien-okinawa.com/",
    "pref": "沖縄県",
    "city": "宜野湾市",
    "category": "tokuyou",
    "serviceType": "介護老人福祉施設",
    "capacity": 110,
    "openDays": [],
    "openDaysNote": ""
  },
  {
    "id": "4770500520",
    "name": "特別養護老人ホーム　白浜の里愛誠園",
    "kana": "トクベツヨウゴロウジンホーム　シラハマノサトアイセイエン",
    "address": "沖縄県宜野湾市宇地泊１丁目20番7号",
    "lat": 26.2720947,
    "lng": 127.7322659,
    "tel": "098-943-1199",
    "url": "http://aiseien-okinawa.com/",
    "pref": "沖縄県",
    "city": "宜野湾市",
    "category": "tokuyou",
    "serviceType": "介護老人福祉施設",
    "capacity": 60,
    "openDays": [],
    "openDaysNote": ""
  },
  {
    "id": "4770500736",
    "name": "特別養護老人ホーム　福寿園",
    "kana": "トクベツヨウゴロウジンホーム　フクジュエン",
    "address": "沖縄県宜野湾市赤道２丁目７番２号",
    "lat": 26.2710869,
    "lng": 127.7723381,
    "tel": "０９８－８９２－１３３３",
    "url": "",
    "pref": "沖縄県",
    "city": "宜野湾市",
    "category": "tokuyou",
    "serviceType": "介護老人福祉施設",
    "capacity": 70,
    "openDays": [],
    "openDaysNote": ""
  },
  {
    "id": "4773800026",
    "name": "特別養護老人ホーム　くめしま",
    "kana": "トクベツヨウゴロウジンホーム　クメシマ",
    "address": "沖縄県島尻郡久米島町字兼城１４６４－５",
    "lat": 26.3545801,
    "lng": 126.7641714,
    "tel": "098-985-4569",
    "url": "kyusenkai@woody.ocn.ne.jp",
    "pref": "沖縄県",
    "city": "久米島町",
    "category": "tokuyou",
    "serviceType": "介護老人福祉施設",
    "capacity": 0,
    "openDays": [],
    "openDaysNote": ""
  },
  {
    "id": "4775500491",
    "name": "ユニット型特別養護老人ホーム　宮古の里",
    "kana": "ユニットガタトクベツヨウゴロウジンホーム　ミヤコノサト",
    "address": "沖縄県宮古島市平良字東仲宗根添1800番地",
    "lat": 24.8004221,
    "lng": 125.3147144,
    "tel": "0980-74-3853",
    "url": "http://yuuakai-miyakonosato.jp/",
    "pref": "沖縄県",
    "city": "宮古島市",
    "category": "tokuyou",
    "serviceType": "介護老人福祉施設",
    "capacity": 0,
    "openDays": [],
    "openDaysNote": ""
  },
  {
    "id": "4774800017",
    "name": "介護老人福祉施設　しもじ長生園",
    "kana": "カイゴロウジンフクシシセツ　シモジチョウセイエン",
    "address": "沖縄県宮古島市下地字嘉手苅６６０－２",
    "lat": 24.7379494,
    "lng": 125.3109932,
    "tel": "0980-76-3330",
    "url": "http://tyouseien.com/",
    "pref": "沖縄県",
    "city": "宮古島市",
    "category": "tokuyou",
    "serviceType": "介護老人福祉施設",
    "capacity": 0,
    "openDays": [],
    "openDaysNote": ""
  },
  {
    "id": "4775500020",
    "name": "指定介護老人福祉施設宮古厚生園",
    "kana": "シテイカイゴロウジンフクシシセツミヤココウセイエン",
    "address": "沖縄県宮古島市平良字西仲宗根７４５番地の７",
    "lat": 24.8157225,
    "lng": 125.2938804,
    "tel": "0980-72-2422",
    "url": "https://www.okinawa-j.jp",
    "pref": "沖縄県",
    "city": "宮古島市",
    "category": "tokuyou",
    "serviceType": "介護老人福祉施設",
    "capacity": 0,
    "openDays": [],
    "openDaysNote": ""
  },
  {
    "id": "4774700019",
    "name": "特別養護老人ホーム　宮古の里",
    "kana": "トクベツヨウゴロウジンホーム　ミヤコノサト",
    "address": "沖縄県宮古島市平良字東仲宗根添1800番地",
    "lat": 24.8007141,
    "lng": 125.3277215,
    "tel": "0980-74-3853",
    "url": "http://yuuikai-miyakonosato.jp/",
    "pref": "沖縄県",
    "city": "宮古島市",
    "category": "tokuyou",
    "serviceType": "介護老人福祉施設",
    "capacity": null,
    "openDays": [],
    "openDaysNote": ""
  },
  {
    "id": "4775000021",
    "name": "特別養護老人ホーム松風園",
    "kana": "トクベツヨウゴロウジンホームショウフウエン",
    "address": "沖縄県宮古島市伊良部字長浜１０２５番地の３",
    "lat": 24.8316013,
    "lng": 125.1832344,
    "tel": "0980-78-5111",
    "url": "http://tokuyousyoufuen.com/",
    "pref": "沖縄県",
    "city": "宮古島市",
    "category": "tokuyou",
    "serviceType": "介護老人福祉施設",
    "capacity": 0,
    "openDays": [],
    "openDaysNote": ""
  },
  {
    "id": "4771800010",
    "name": "特別養護老人ホーム　光が丘",
    "kana": "トクベツヨウゴロウジンホーム　ヒカリガオカ",
    "address": "沖縄県国頭郡金武町字伊芸１２９２-１",
    "lat": 26.4577805,
    "lng": 127.8677797,
    "tel": "098-968-4486",
    "url": "https://hikari-iryouhukushi-group.jp/recruit/elderly-welfare/",
    "pref": "沖縄県",
    "city": "金武町",
    "category": "tokuyou",
    "serviceType": "介護老人福祉施設",
    "capacity": 0,
    "openDays": [],
    "openDaysNote": ""
  },
  {
    "id": "4771100015",
    "name": "特別養護老人ホーム　北斗園",
    "kana": "トクベツヨウゴロウジンホーム　ホクトエン",
    "address": "沖縄県国頭郡国頭村字辺土名１６９２番地",
    "lat": 26.7407936,
    "lng": 128.1749745,
    "tel": "0980-41-2270",
    "url": "http://www.hokutoen.org/",
    "pref": "沖縄県",
    "city": "国頭村",
    "category": "tokuyou",
    "serviceType": "介護老人福祉施設",
    "capacity": 0,
    "openDays": [],
    "openDaysNote": ""
  },
  {
    "id": "4771400019",
    "name": "特別養護老人ホーム乙羽園",
    "kana": "トクベツヨウゴロウジンホームオトワエン",
    "address": "沖縄県国頭郡今帰仁村字天底222番地",
    "lat": 26.6755028,
    "lng": 127.9785191,
    "tel": "0980-56-3881",
    "url": "otowakai@otowaen.or.jp",
    "pref": "沖縄県",
    "city": "今帰仁村",
    "category": "tokuyou",
    "serviceType": "介護老人福祉施設",
    "capacity": 70,
    "openDays": [],
    "openDaysNote": ""
  },
  {
    "id": "4771000033",
    "name": "特別養護老人ホームいとまんシャトー",
    "kana": "トクベツヨウゴロウジンホームイトマンシャトー",
    "address": "沖縄県糸満市字大里927番地の2",
    "lat": 26.1353393,
    "lng": 127.6917292,
    "tel": "098-995-2500",
    "url": "http://www.ai-itoman.or.jp",
    "pref": "沖縄県",
    "city": "糸満市",
    "category": "tokuyou",
    "serviceType": "介護老人福祉施設",
    "capacity": null,
    "openDays": [],
    "openDaysNote": ""
  },
  {
    "id": "4771000017",
    "name": "特別養護老人ホーム沖縄偕生園",
    "kana": "トクベツヨウゴロウジンホームオキナワカイセイエン",
    "address": "沖縄県糸満市字小波蔵321番地",
    "lat": 26.1073495,
    "lng": 127.6687648,
    "tel": "098-852-4100",
    "url": "http://www.kaiseikai.org/index.jsp",
    "pref": "沖縄県",
    "city": "糸満市",
    "category": "tokuyou",
    "serviceType": "介護老人福祉施設",
    "capacity": 0,
    "openDays": [],
    "openDaysNote": ""
  },
  {
    "id": "4772700011",
    "name": "介護老人福祉施設　守礼の里",
    "kana": "カイゴロウジンフクシシセツ　シュレイノサト",
    "address": "沖縄県中頭郡西原町字掛保久346番地",
    "lat": 26.2334658,
    "lng": 127.7732064,
    "tel": "098-945-0028",
    "url": "http://shureinosato.com/",
    "pref": "沖縄県",
    "city": "西原町",
    "category": "tokuyou",
    "serviceType": "介護老人福祉施設",
    "capacity": 0,
    "openDays": [],
    "openDaysNote": ""
  },
  {
    "id": "4770700237",
    "name": "社会福祉法人沖縄県社会福祉事業団八重山厚生園",
    "kana": "シャカイフクシホウジンオキナワケンシャカイフクシジギョウダンヤエヤマコウセイエン",
    "address": "沖縄県石垣市字新川１７４０番地の２",
    "lat": 24.359491,
    "lng": 124.1230189,
    "tel": "0980-82-2334",
    "url": "http://www.okinawa-j.jp",
    "pref": "沖縄県",
    "city": "石垣市",
    "category": "tokuyou",
    "serviceType": "介護老人福祉施設",
    "capacity": 0,
    "openDays": [],
    "openDaysNote": ""
  },
  {
    "id": "4770700013",
    "name": "特別養護老人ホーム　なごみの里",
    "kana": "トクベツヨウゴロウジンホーム　　ナゴミノサト",
    "address": "沖縄県石垣市字宮良1131-2",
    "lat": 24.363766,
    "lng": 124.2155125,
    "tel": "0980-86-8316",
    "url": "http://www.nagomi-ishigaki.com/",
    "pref": "沖縄県",
    "city": "石垣市",
    "category": "tokuyou",
    "serviceType": "介護老人福祉施設",
    "capacity": 0,
    "openDays": [],
    "openDaysNote": ""
  },
  {
    "id": "4770700559",
    "name": "特別養護老人ホーム　まえさと茶寿苑",
    "kana": "トクベツヨウゴロウジンホーム　マエサトチャジュエン",
    "address": "沖縄県石垣市字真栄里２０４番地の３８２",
    "lat": 24.3325422,
    "lng": 124.1754366,
    "tel": "0980-82-0080",
    "url": "http;//ayapani.net/",
    "pref": "沖縄県",
    "city": "石垣市",
    "category": "tokuyou",
    "serviceType": "介護老人福祉施設",
    "capacity": 0,
    "openDays": [],
    "openDaysNote": ""
  },
  {
    "id": "4771200013",
    "name": "特別養護老人ホームやんばるの家",
    "kana": "トクベツヨウゴロウジンホームヤンバルノイエ",
    "address": "沖縄県国頭郡大宜味村字津波1971番地762",
    "lat": 26.6561085,
    "lng": 128.1071078,
    "tel": "0980-44-2288",
    "url": "http://www.issinfukushikai.or.jp",
    "pref": "沖縄県",
    "city": "大宜味村",
    "category": "tokuyou",
    "serviceType": "介護老人福祉施設",
    "capacity": 50,
    "openDays": [],
    "openDaysNote": ""
  },
  {
    "id": "4775200035",
    "name": "特別養護老人ホーム　南風見苑",
    "kana": "トクベツヨウゴロウジンホーム　ハエミエン",
    "address": "沖縄県八重山郡竹富町字上原870番地　２３７",
    "lat": 24.411927,
    "lng": 123.804045,
    "tel": "０９８０－８５－６９１１",
    "url": "",
    "pref": "沖縄県",
    "city": "竹富町",
    "category": "tokuyou",
    "serviceType": "介護老人福祉施設",
    "capacity": null,
    "openDays": [],
    "openDaysNote": ""
  },
  {
    "id": "4772600039",
    "name": "特別養護老人ホーム春華園",
    "kana": "トクベツヨウゴロウジンホームシュンカエン",
    "address": "沖縄県中頭郡中城村字添石363番地",
    "lat": 26.2770482,
    "lng": 127.796658,
    "tel": "098-895-4407",
    "url": "inahokai.jp",
    "pref": "沖縄県",
    "city": "中城村",
    "category": "tokuyou",
    "serviceType": "介護老人福祉施設",
    "capacity": 0,
    "openDays": [],
    "openDaysNote": ""
  },
  {
    "id": "4772200020",
    "name": "介護老人福祉施設　読谷の里",
    "kana": "カイゴロウジンフクシシセツ　ヨミタンノサト",
    "address": "沖縄県中頭郡読谷村字座喜味1875番地1読谷の里 読谷の里",
    "lat": 26.3953273,
    "lng": 127.7264922,
    "tel": "098-956-2000",
    "url": "http://www.yomisato.or.jp/",
    "pref": "沖縄県",
    "city": "読谷村",
    "category": "tokuyou",
    "serviceType": "介護老人福祉施設",
    "capacity": 100,
    "openDays": [],
    "openDaysNote": ""
  },
  {
    "id": "4770100057",
    "name": "安謝特別養護老人ホーム",
    "kana": "アジャトクベツヨウゴロウジンホーム",
    "address": "沖縄県那覇市安謝2－15－2",
    "lat": 26.2374819,
    "lng": 127.6880151,
    "tel": "098-862-4321",
    "url": "http://www.ajafukushi.join-us.jp",
    "pref": "沖縄県",
    "city": "那覇市",
    "category": "tokuyou",
    "serviceType": "介護老人福祉施設",
    "capacity": 100,
    "openDays": [],
    "openDaysNote": ""
  },
  {
    "id": "4770101766",
    "name": "特別養護老人ホーム　首里偕生園",
    "kana": "トクベツヨウゴロウジンホーム　シュリカイセイエン",
    "address": "沖縄県那覇市首里石嶺町4丁目389番地",
    "lat": 26.2316965343761,
    "lng": 127.733850808529,
    "tel": "098-886-3400",
    "url": "https://kaiseikai.org",
    "pref": "沖縄県",
    "city": "那覇市",
    "category": "tokuyou",
    "serviceType": "介護老人福祉施設",
    "capacity": 100,
    "openDays": [],
    "openDaysNote": ""
  },
  {
    "id": "4770101816",
    "name": "特別養護老人ホームおもと園",
    "kana": "トクベツヨウゴロウジンホームオモトエン",
    "address": "沖縄県那覇市1000番地あめくの杜　特別養護老人ホームおもと園 あめくの杜　特別養護老人ホームおもと園",
    "lat": 26.2400095,
    "lng": 127.6866069,
    "tel": "098-867-7010",
    "url": "https：//omotokai.or.jp",
    "pref": "沖縄県",
    "city": "那覇市",
    "category": "tokuyou",
    "serviceType": "介護老人福祉施設",
    "capacity": 80,
    "openDays": [],
    "openDaysNote": ""
  },
  {
    "id": "4770103390",
    "name": "特別養護老人ホームつじまち",
    "kana": "トクベツヨウゴロウジンホームツジマチ",
    "address": "沖縄県那覇市辻2-27-1",
    "lat": 26.2179522527718,
    "lng": 127.668974035658,
    "tel": "098-866-7200",
    "url": "https://www.reihoukai.or.jp/",
    "pref": "沖縄県",
    "city": "那覇市",
    "category": "tokuyou",
    "serviceType": "介護老人福祉施設",
    "capacity": 70,
    "openDays": [],
    "openDaysNote": ""
  },
  {
    "id": "4770103382",
    "name": "特別養護老人ホームゆがふ苑",
    "kana": "トクベツヨウゴロウジンホームユガフエン",
    "address": "沖縄県那覇市山下町5番30号",
    "lat": 26.2054239,
    "lng": 127.6654888,
    "tel": "098-996-2200",
    "url": "http://okiniji.or.jp",
    "pref": "沖縄県",
    "city": "那覇市",
    "category": "tokuyou",
    "serviceType": "介護老人福祉施設",
    "capacity": 0,
    "openDays": [],
    "openDaysNote": ""
  },
  {
    "id": "4770100024",
    "name": "特別養護老人ホーム大名",
    "kana": "トクベツヨウゴロウジンホーム　オオナ",
    "address": "沖縄県那覇市首里大名町１丁目４３番地２",
    "lat": 26.2325284515807,
    "lng": 127.711186503705,
    "tel": "098-886-5070",
    "url": "http://www.yuunanokai.or.jp",
    "pref": "沖縄県",
    "city": "那覇市",
    "category": "tokuyou",
    "serviceType": "介護老人福祉施設",
    "capacity": 100,
    "openDays": [],
    "openDaysNote": ""
  },
  {
    "id": "4770102160",
    "name": "特別養護老人ホーム那覇偕生園",
    "kana": "トクベツヨウゴロウジンホームナハカイセイエン",
    "address": "那覇市首里石嶺町4丁目390番地特別養護老人ホーム那覇偕生園 特別養護老人ホーム那覇偕生園",
    "lat": 26.2316625,
    "lng": 127.7349289,
    "tel": "０９８－８８６－２８４５",
    "url": "http://www.kaiseikai.org/",
    "pref": "沖縄県",
    "city": "那覇市",
    "category": "tokuyou",
    "serviceType": "介護老人福祉施設",
    "capacity": 0,
    "openDays": [],
    "openDaysNote": ""
  },
  {
    "id": "4773200029",
    "name": "指定介護老人福祉施設　しらゆりの園",
    "kana": "シテイカイゴロウジンフクシシセツ　シラユリノソノ",
    "address": "沖縄県南城市知念字久手堅275番地1",
    "lat": 26.1712514,
    "lng": 127.8261578,
    "tel": "098-948-7060",
    "url": "http://www.sirayuri.or.jp",
    "pref": "沖縄県",
    "city": "南城市",
    "category": "tokuyou",
    "serviceType": "介護老人福祉施設",
    "capacity": 0,
    "openDays": [],
    "openDaysNote": ""
  },
  {
    "id": "4773500014",
    "name": "指定介護老人福祉施設　東雲の丘",
    "kana": "シテイカイゴロウジンフクシシセツ　シノノメノオカ",
    "address": "沖縄県南城市大里字大城１３９２番地",
    "lat": 26.1674137,
    "lng": 127.7651133,
    "tel": "098-946-2051",
    "url": "http://www.kenshoukai.or.jp/",
    "pref": "沖縄県",
    "city": "南城市",
    "category": "tokuyou",
    "serviceType": "介護老人福祉施設",
    "capacity": 98,
    "openDays": [],
    "openDaysNote": ""
  },
  {
    "id": "4773300019",
    "name": "特別養護老人ホーム小谷園",
    "kana": "トクベツヨウゴロウジンホームオコクエン",
    "address": "沖縄県南城市佐敷字小谷２３８－１",
    "lat": 26.1734297,
    "lng": 127.763391,
    "tel": "098-947-0990",
    "url": "http://kijukai.com/",
    "pref": "沖縄県",
    "city": "南城市",
    "category": "tokuyou",
    "serviceType": "介護老人福祉施設",
    "capacity": 70,
    "openDays": [],
    "openDaysNote": ""
  },
  {
    "id": "4773100039",
    "name": "特別養護老人ホーム朝日の家",
    "kana": "トクベツヨウゴロウジンホームアサヒノイエ",
    "address": "沖縄県南城市玉城字喜良原５２６番地",
    "lat": 26.1599135445842,
    "lng": 127.772097777107,
    "tel": "098-948-7631",
    "url": "http://www.iwakikai.net/",
    "pref": "沖縄県",
    "city": "南城市",
    "category": "tokuyou",
    "serviceType": "介護老人福祉施設",
    "capacity": 0,
    "openDays": [],
    "openDaysNote": ""
  },
  {
    "id": "4773600012",
    "name": "介護老人福祉施設　嬉の里",
    "kana": "カイゴロウジンフクシシセツウレシノノサト",
    "address": "沖縄県島尻郡南風原町字新川538番地",
    "lat": 26.2104143,
    "lng": 127.7293057,
    "tel": "098-888-0591",
    "url": "https://www.chihirokai.or.jp/",
    "pref": "沖縄県",
    "city": "南風原町",
    "category": "tokuyou",
    "serviceType": "介護老人福祉施設",
    "capacity": 0,
    "openDays": [],
    "openDaysNote": ""
  },
  {
    "id": "4773000015",
    "name": "特別養護老人ホーム　転生園",
    "kana": "トクベツヨウゴロウジンホームテンショウエン",
    "address": "沖縄県島尻郡八重瀬町字安里670番地",
    "lat": 26.1226276,
    "lng": 127.7280176,
    "tel": "098-998-7652",
    "url": "http://www.tenshoen.or.jp",
    "pref": "沖縄県",
    "city": "八重瀬町",
    "category": "tokuyou",
    "serviceType": "介護老人福祉施設",
    "capacity": 84,
    "openDays": [],
    "openDaysNote": ""
  },
  {
    "id": "4772900017",
    "name": "特別養護老人ホームときわ苑",
    "kana": "トクベツヨウゴロウジンホームトキワエン",
    "address": "沖縄県島尻郡八重瀬町字当銘378番地の1",
    "lat": 26.151750035807,
    "lng": 127.698760450926,
    "tel": "098-998-8899",
    "url": "http://tokiwaen.or.jp/",
    "pref": "沖縄県",
    "city": "八重瀬町",
    "category": "tokuyou",
    "serviceType": "介護老人福祉施設",
    "capacity": 0,
    "openDays": [],
    "openDaysNote": ""
  },
  {
    "id": "4772800019",
    "name": "指定介護老人福祉施設良長園",
    "kana": "シテイカイゴロウジンフクシシセツ　ヨシナガエン",
    "address": "沖縄県豊見城市字金良８８番地",
    "lat": 26.179467,
    "lng": 127.7035187,
    "tel": "098-850-1200",
    "url": "http://yoshinagaen.jp",
    "pref": "沖縄県",
    "city": "豊見城市",
    "category": "tokuyou",
    "serviceType": "介護老人福祉施設",
    "capacity": 0,
    "openDays": [],
    "openDaysNote": ""
  },
  {
    "id": "4772800035",
    "name": "特別養護老人ホームすみれ",
    "kana": "トクベツヨウゴロウジンホームスミレ",
    "address": "沖縄県豊見城市字渡嘉敷１５０番地おもととよみの杜 おもととよみの杜",
    "lat": 26.1727698,
    "lng": 127.683421,
    "tel": "098-851-0101",
    "url": "http://www.omotokai.or.jp",
    "pref": "沖縄県",
    "city": "豊見城市",
    "category": "tokuyou",
    "serviceType": "介護老人福祉施設",
    "capacity": 80,
    "openDays": [],
    "openDaysNote": ""
  },
  {
    "id": "4772400018",
    "name": "指定介護老人福祉施設　陽明園",
    "kana": "シテイカイゴロウジンフクシシセツ　ヨウメイエン",
    "address": "沖縄県中頭郡北谷町字吉原265番地",
    "lat": 26.3160222,
    "lng": 127.7775026,
    "tel": "098-936-3565",
    "url": "http://kouyoukai-oki.jp/",
    "pref": "沖縄県",
    "city": "北谷町",
    "category": "tokuyou",
    "serviceType": "介護老人福祉施設",
    "capacity": 70,
    "openDays": [],
    "openDaysNote": ""
  },
  {
    "id": "4772500015",
    "name": "特別養護老人ホーム愛の村",
    "kana": "トクベツヨウゴロウジンホームアイノムラ",
    "address": "沖縄県中頭郡北中城村字島袋1320番地",
    "lat": 26.3235125731626,
    "lng": 127.807669952254,
    "tel": "098-933-1166",
    "url": "http://www.ainomura.okinawa",
    "pref": "沖縄県",
    "city": "北中城村",
    "category": "tokuyou",
    "serviceType": "介護老人福祉施設",
    "capacity": 70,
    "openDays": [],
    "openDaysNote": ""
  },
  {
    "id": "4771500024",
    "name": "指定介護老人福祉施設本部園",
    "kana": "シテイカイゴロウジンフクシシセツモトブエン",
    "address": "沖縄県国頭郡本部町字谷茶３１０番地",
    "lat": 26.6563337356606,
    "lng": 127.891049107271,
    "tel": "0980-47-3644",
    "url": "http://www.motobuen.com",
    "pref": "沖縄県",
    "city": "本部町",
    "category": "tokuyou",
    "serviceType": "介護老人福祉施設",
    "capacity": 0,
    "openDays": [],
    "openDaysNote": ""
  },
  {
    "id": "4770900027",
    "name": "指定介護老人福祉施設　かりゆしぬ村",
    "kana": "シテイカイゴロウジンフクシシセツ　カリユシヌムラ",
    "address": "沖縄県名護市字宇茂佐１８７３番地１",
    "lat": 26.6125221,
    "lng": 127.9662052,
    "tel": "0980-53-1934",
    "url": "http://www.shoraikai.com/",
    "pref": "沖縄県",
    "city": "名護市",
    "category": "tokuyou",
    "serviceType": "介護老人福祉施設",
    "capacity": 0,
    "openDays": [],
    "openDaysNote": ""
  },
  {
    "id": "4770900381",
    "name": "名護厚生園指定介護老人福祉施設",
    "kana": "ナゴコウセイエンシテイカイゴロウジンフクシシセツ",
    "address": "沖縄県名護市宮里５丁目４番地２９",
    "lat": 26.5999567,
    "lng": 127.9713636,
    "tel": "0980-52-3283",
    "url": "http://www.okinawa-j.jp/index.html",
    "pref": "沖縄県",
    "city": "名護市",
    "category": "tokuyou",
    "serviceType": "介護老人福祉施設",
    "capacity": 0,
    "openDays": [],
    "openDaysNote": ""
  },
  {
    "id": "4773400017",
    "name": "介護老人福祉施設　与那原日の出園",
    "kana": "カイゴロウジンフクシシセツ　ヨナバルヒノデエン",
    "address": "沖縄県島尻郡与那原町字与那原3782-1",
    "lat": 26.1977359,
    "lng": 127.763573,
    "tel": "098-946-5138",
    "url": "http://nantoukai.com/",
    "pref": "沖縄県",
    "city": "与那原町",
    "category": "tokuyou",
    "serviceType": "介護老人福祉施設",
    "capacity": 74,
    "openDays": [],
    "openDaysNote": ""
  },
  {
    "id": "4775300017",
    "name": "特別養護老人ホーム月桃の里",
    "kana": "トクベツヨウゴロウジンホームゲットウノサト",
    "address": "沖縄県八重山郡与那国町与那国4161-1",
    "lat": 24.4649184,
    "lng": 122.9565852,
    "tel": "0980-87-3151",
    "url": "http://www.gettounosato.com/",
    "pref": "沖縄県",
    "city": "与那国町",
    "category": "tokuyou",
    "serviceType": "介護老人福祉施設",
    "capacity": 0,
    "openDays": [],
    "openDaysNote": ""
  }
]