[
  {
    "id": "2571700083",
    "name": "社会福祉法人青祥会　指定介護老人福祉施設やまびこ",
    "kana": "シャカイフクシホウジンセイショウカイシテイカイゴロウジンフクシシセツヤマビコ",
    "address": "滋賀県愛知郡愛荘町安孫子1235番地",
    "lat": 35.1722192,
    "lng": 136.2502865,
    "tel": "0749-37-8532",
    "url": "http://www.seishokai.jp/",
    "pref": "滋賀県",
    "city": "愛荘町",
    "category": "tokuyou",
    "serviceType": "介護老人福祉施設",
    "capacity": 0,
    "openDays": [],
    "openDaysNote": ""
  },
  {
    "id": "2571700240",
    "name": "特別養護老人ホーム　ハッピーライフゆりの郷",
    "kana": "トクベツヨウゴロウジンホーム　ハッピーライフユリノサト",
    "address": "滋賀県愛知郡愛荘町市１５０９番地",
    "lat": 35.1724369,
    "lng": 136.22133,
    "tel": "0749-49-5125",
    "url": "http://www.yurinosato.or.jp/",
    "pref": "滋賀県",
    "city": "愛荘町",
    "category": "tokuyou",
    "serviceType": "介護老人福祉施設",
    "capacity": 50,
    "openDays": [],
    "openDaysNote": ""
  },
  {
    "id": "2570400479",
    "name": "特別養護老人ホーム　安土やすらぎの郷",
    "kana": "トクベツヨウゴロウジンホーム　アヅチヤスラギノサト",
    "address": "滋賀県近江八幡市安土町下豊浦4141",
    "lat": 35.1569635,
    "lng": 136.1297287,
    "tel": "0748-57-3333",
    "url": "http://www.zd.ztv.ne.jp/ichizenkai/",
    "pref": "滋賀県",
    "city": "近江八幡市",
    "category": "tokuyou",
    "serviceType": "介護老人福祉施設",
    "capacity": null,
    "openDays": [],
    "openDaysNote": ""
  },
  {
    "id": "2570400016",
    "name": "特別養護老人ホーム　赤煉瓦の郷",
    "kana": "トクベツヨウゴロウジンホーム　アカレンガノサト",
    "address": "滋賀県近江八幡市船木町５９番地３",
    "lat": 35.137826,
    "lng": 136.0804502,
    "tel": "0748-34-7123",
    "url": "http://www.zd.ztv.ne.jp/ichizenkaiay/",
    "pref": "滋賀県",
    "city": "近江八幡市",
    "category": "tokuyou",
    "serviceType": "介護老人福祉施設",
    "capacity": 0,
    "openDays": [],
    "openDaysNote": ""
  },
  {
    "id": "2570400263",
    "name": "特別養護老人ホームふれあい",
    "kana": "トクベツヨウゴロウジンホームフレアイ",
    "address": "滋賀県近江八幡市上田町1315-1",
    "lat": 35.1168849,
    "lng": 136.1116439,
    "tel": "0748-37-8716",
    "url": "https://www.honobonokai.com",
    "pref": "滋賀県",
    "city": "近江八幡市",
    "category": "tokuyou",
    "serviceType": "介護老人福祉施設",
    "capacity": 0,
    "openDays": [],
    "openDaysNote": ""
  },
  {
    "id": "2570401030",
    "name": "特別養護老人ホーム四季の郷",
    "kana": "トクベツヨウゴロウジンホーム　シキノサト",
    "address": "滋賀県近江八幡市十王町1061",
    "lat": 35.1107273,
    "lng": 136.0527449,
    "tel": "0748-36-3770",
    "url": "http://www.houjyu-kai.or.jp/",
    "pref": "滋賀県",
    "city": "近江八幡市",
    "category": "tokuyou",
    "serviceType": "介護老人福祉施設",
    "capacity": 0,
    "openDays": [],
    "openDaysNote": ""
  },
  {
    "id": "2570400073",
    "name": "特別養護老人ホーム水茎の里",
    "kana": "トクベツヨウゴロウジンホーム　スイケイノサト",
    "address": "滋賀県近江八幡市牧町１８８５",
    "lat": 35.1400755,
    "lng": 136.0485921,
    "tel": "0748-33-5321",
    "url": "http://www.ii-kaigo.or.jp",
    "pref": "滋賀県",
    "city": "近江八幡市",
    "category": "tokuyou",
    "serviceType": "介護老人福祉施設",
    "capacity": 50,
    "openDays": [],
    "openDaysNote": ""
  },
  {
    "id": "2570400735",
    "name": "特別養護老人ホーム水茎の里個室ユニット棟",
    "kana": "トクベツヨウゴロウジンホームスイケノサトコシツユニットトウ",
    "address": "滋賀県近江八幡市牧町１８８５",
    "lat": 35.1400755,
    "lng": 136.0485921,
    "tel": "0748-33-5321",
    "url": "http://www.ii-kaigo.or.jp/",
    "pref": "滋賀県",
    "city": "近江八幡市",
    "category": "tokuyou",
    "serviceType": "介護老人福祉施設",
    "capacity": 39,
    "openDays": [],
    "openDaysNote": ""
  },
  {
    "id": "2571200175",
    "name": "特別養護老人ホーム　栗東すみれ園",
    "kana": "トクベツヨウゴロウジンホーム　リットウスミレエン",
    "address": "滋賀県栗東市小野３６３番地",
    "lat": 35.0201665430468,
    "lng": 136.01094257791,
    "tel": "077-551-5525",
    "url": "http://www.ritto-sumire-en.jp/",
    "pref": "滋賀県",
    "city": "栗東市",
    "category": "tokuyou",
    "serviceType": "介護老人福祉施設",
    "capacity": 88,
    "openDays": [],
    "openDaysNote": ""
  },
  {
    "id": "2571200894",
    "name": "特別養護老人ホームはなえみ",
    "kana": "トクベツヨウゴロウジンホームハナエミ",
    "address": "滋賀県栗東市上鈎265-1",
    "lat": 35.0247164,
    "lng": 135.9907983,
    "tel": "077-596-5282",
    "url": "https://428kai.or.jp/",
    "pref": "滋賀県",
    "city": "栗東市",
    "category": "tokuyou",
    "serviceType": "介護老人福祉施設",
    "capacity": null,
    "openDays": [],
    "openDaysNote": ""
  },
  {
    "id": "2571200027",
    "name": "特別養護老人ホーム淡海荘",
    "kana": "トクベツヨウゴロウジンホームタンカイソウ",
    "address": "滋賀県栗東市出庭697-1",
    "lat": 35.0362732,
    "lng": 136.0034726,
    "tel": "077-552-1224",
    "url": "https://tankaisou.jp/",
    "pref": "滋賀県",
    "city": "栗東市",
    "category": "tokuyou",
    "serviceType": "介護老人福祉施設",
    "capacity": 0,
    "openDays": [],
    "openDaysNote": ""
  },
  {
    "id": "2572300149",
    "name": "特別養護老人ホームあぼし",
    "kana": "トクベツヨウゴロウジンホームアボシ",
    "address": "滋賀県湖南市丸山四丁目５番１号",
    "lat": 34.9987899,
    "lng": 136.0461164,
    "tel": "0748-77-0037",
    "url": "http://www.hachikikai.com",
    "pref": "滋賀県",
    "city": "湖南市",
    "category": "tokuyou",
    "serviceType": "介護老人福祉施設",
    "capacity": 0,
    "openDays": [],
    "openDaysNote": ""
  },
  {
    "id": "2572300180",
    "name": "特別養護老人ホームヴィラ十二坊",
    "kana": "トクベツヨウゴロウジンホームヴィラジュウニボウ",
    "address": "湖南市岩根690-4",
    "lat": 35.0100615,
    "lng": 136.1162283,
    "tel": "0748-75-8883",
    "url": "",
    "pref": "滋賀県",
    "city": "湖南市",
    "category": "tokuyou",
    "serviceType": "介護老人福祉施設",
    "capacity": 0,
    "openDays": [],
    "openDaysNote": ""
  },
  {
    "id": "2572300016",
    "name": "特別養護老人ホーム美松苑",
    "kana": "トクベツヨウゴロウジンホームビショウエン",
    "address": "滋賀県湖南市針１３２５番地",
    "lat": 34.9883772,
    "lng": 136.077591,
    "tel": "0748-72-4705",
    "url": "http://www.ohmiwajunkai.or.jp/",
    "pref": "滋賀県",
    "city": "湖南市",
    "category": "tokuyou",
    "serviceType": "介護老人福祉施設",
    "capacity": 0,
    "openDays": [],
    "openDaysNote": ""
  },
  {
    "id": "2571401013",
    "name": "社会福祉法人近江和順会　特別養護老人ホームレーベンはとがひら",
    "kana": "シャカイフクシホウジンオウミワジュンカイ　トクベツヨウゴロウジンホームレーベンハトガヒラ",
    "address": "滋賀県甲賀市水口町水口6837-5",
    "lat": 34.9617554706229,
    "lng": 136.180660405002,
    "tel": "0748-65-0066",
    "url": "http://www.ohmiwajunkai.or.jp/",
    "pref": "滋賀県",
    "city": "甲賀市",
    "category": "tokuyou",
    "serviceType": "介護老人福祉施設",
    "capacity": 72,
    "openDays": [],
    "openDaysNote": ""
  },
  {
    "id": "2571401237",
    "name": "社会福祉法人近江和順会　特別養護老人ホームレーベンはとがひら（従来型）",
    "kana": "シャカイフクシホウジンオウミワジュンカイ　トクベツヨウゴロウジンホームレーベンハトガヒラ（ジュウライガタ）",
    "address": "滋賀県甲賀市水口町水口6837-5",
    "lat": 34.9617855,
    "lng": 136.1839598,
    "tel": "0748-65-0066",
    "url": "http://www.ohmiwajunkai.or.jp/",
    "pref": "滋賀県",
    "city": "甲賀市",
    "category": "tokuyou",
    "serviceType": "介護老人福祉施設",
    "capacity": null,
    "openDays": [],
    "openDaysNote": ""
  },
  {
    "id": "2571400148",
    "name": "特別養護老人ホーム　エーデル土山",
    "kana": "トクベツヨウゴロウジンホーム　エーデルツチヤマ",
    "address": "甲賀市土山町北土山2062",
    "lat": 34.9388304,
    "lng": 136.2811603,
    "tel": "0748-66-1911",
    "url": "http://www.edeltutiyama.com",
    "pref": "滋賀県",
    "city": "甲賀市",
    "category": "tokuyou",
    "serviceType": "介護老人福祉施設",
    "capacity": 0,
    "openDays": [],
    "openDaysNote": ""
  },
  {
    "id": "2571400908",
    "name": "特別養護老人ホーム　ユニット型　エーデル土山",
    "kana": "トクベツヨウゴロウジンホーム　ユニットガタ　エーデルツチヤマ",
    "address": "滋賀県甲賀市土山町北土山2062",
    "lat": 34.9388304,
    "lng": 136.2811603,
    "tel": "0748-66-1911",
    "url": "http://www.edeltutiyama.jp/",
    "pref": "滋賀県",
    "city": "甲賀市",
    "category": "tokuyou",
    "serviceType": "介護老人福祉施設",
    "capacity": 0,
    "openDays": [],
    "openDaysNote": ""
  },
  {
    "id": "2571400833",
    "name": "特別養護老人ホーム　樹の郷",
    "kana": "トクベツヨウゴロウジンホームイツキノサト",
    "address": "甲賀市水口町山3309",
    "lat": 35.0041208,
    "lng": 136.1752371,
    "tel": "0748-63-2900",
    "url": "http://www.shigaraki-itsuki.com/",
    "pref": "滋賀県",
    "city": "甲賀市",
    "category": "tokuyou",
    "serviceType": "介護老人福祉施設",
    "capacity": 0,
    "openDays": [],
    "openDaysNote": ""
  },
  {
    "id": "2571400031",
    "name": "特別養護老人ホーム　信楽荘",
    "kana": "トクベツヨウゴロウジンホーム　シガラキソウ",
    "address": "滋賀県甲賀市信楽町牧１１５９",
    "lat": 34.9151572,
    "lng": 136.0753955,
    "tel": "0748-83-1313",
    "url": "http://www.shigaraki-itsuki.com",
    "pref": "滋賀県",
    "city": "甲賀市",
    "category": "tokuyou",
    "serviceType": "介護老人福祉施設",
    "capacity": 30,
    "openDays": [],
    "openDaysNote": ""
  },
  {
    "id": "2571400015",
    "name": "特別養護老人ホームせせらぎ苑",
    "kana": "トクベツヨウゴロウジンホームセセラギエン",
    "address": "滋賀県甲賀市甲南町葛木855番地",
    "lat": 34.9321544,
    "lng": 136.1791334,
    "tel": "0748-86-1020",
    "url": "http://kohnankai.jp",
    "pref": "滋賀県",
    "city": "甲賀市",
    "category": "tokuyou",
    "serviceType": "介護老人福祉施設",
    "capacity": 0,
    "openDays": [],
    "openDaysNote": ""
  },
  {
    "id": "2571401070",
    "name": "特別養護老人ホーム甲賀シルバーケア豊壽園",
    "kana": "トクベツヨウゴロウジンホームコウカシルバーケアホウジュエン",
    "address": "滋賀県甲賀市土山町北土山479番地",
    "lat": 34.9363587,
    "lng": 136.2896232,
    "tel": "0748-66-8065",
    "url": "http://www.sensin.or.jp",
    "pref": "滋賀県",
    "city": "甲賀市",
    "category": "tokuyou",
    "serviceType": "介護老人福祉施設",
    "capacity": 40,
    "openDays": [],
    "openDaysNote": ""
  },
  {
    "id": "2571400155",
    "name": "特別養護老人ホーム甲賀荘",
    "kana": "トクベツヨウゴロウジンホームコウガソウ",
    "address": "滋賀県甲賀市甲賀町大原中９０４",
    "lat": 34.9009445,
    "lng": 136.2273939,
    "tel": "0748-88-5723",
    "url": "https://kougakai.org/",
    "pref": "滋賀県",
    "city": "甲賀市",
    "category": "tokuyou",
    "serviceType": "介護老人福祉施設",
    "capacity": 0,
    "openDays": [],
    "openDaysNote": ""
  },
  {
    "id": "2571400890",
    "name": "特別養護老人ホーム信楽荘",
    "kana": "トクベツヨウゴロウジンホームシガラキソウ",
    "address": "滋賀県甲賀市信楽町牧１１５９番地",
    "lat": 34.9151572,
    "lng": 136.0753955,
    "tel": "0748-83-1313",
    "url": "http://www.shigaraki-itsuki.com",
    "pref": "滋賀県",
    "city": "甲賀市",
    "category": "tokuyou",
    "serviceType": "介護老人福祉施設",
    "capacity": null,
    "openDays": [],
    "openDaysNote": ""
  },
  {
    "id": "2571400049",
    "name": "特別養護老人ホーム兆生園",
    "kana": "トクベツヨウゴロウジンホームチョウセイエン",
    "address": "滋賀県甲賀市水口町今郷1032番地の25",
    "lat": 34.9623372,
    "lng": 136.2024391,
    "tel": "0748-63-1784",
    "url": "https://choseien.com",
    "pref": "滋賀県",
    "city": "甲賀市",
    "category": "tokuyou",
    "serviceType": "介護老人福祉施設",
    "capacity": 50,
    "openDays": [],
    "openDaysNote": ""
  },
  {
    "id": "2572200794",
    "name": "朽木小規模特別養護老人ホームやまゆりの里",
    "kana": "クツキショウキボトクベツヨウゴロウジンホームヤマユリノサト",
    "address": "滋賀県高島市朽木市場656",
    "lat": 35.3540509,
    "lng": 135.9187018,
    "tel": "0740-38-8030",
    "url": "http://hatsuho-yamayuri.com",
    "pref": "滋賀県",
    "city": "高島市",
    "category": "tokuyou",
    "serviceType": "介護老人福祉施設",
    "capacity": null,
    "openDays": [],
    "openDaysNote": ""
  },
  {
    "id": "2572200059",
    "name": "社会福祉法人　ゆたか会　特別養護老人ホーム　清風荘",
    "kana": "シャカイフクシホウジンユタカカイトクベツヨウゴロウジンホームセイフウソウ",
    "address": "滋賀県高島市今津町南新保87番地15",
    "lat": 35.4070013,
    "lng": 136.0433523,
    "tel": "0740-22-1601",
    "url": "http://yutakakai.jp/",
    "pref": "滋賀県",
    "city": "高島市",
    "category": "tokuyou",
    "serviceType": "介護老人福祉施設",
    "capacity": 0,
    "openDays": [],
    "openDaysNote": ""
  },
  {
    "id": "2572200166",
    "name": "特別養護老人ホームニューサンライズ",
    "kana": "トクベツヨウゴロウジンホームニューサンライズ",
    "address": "滋賀県高島市新旭町藁園2603番地",
    "lat": 35.3497412,
    "lng": 136.0462428,
    "tel": "0740-25-8288",
    "url": "http://shinasahi-minorikai.or.jp/",
    "pref": "滋賀県",
    "city": "高島市",
    "category": "tokuyou",
    "serviceType": "介護老人福祉施設",
    "capacity": 0,
    "openDays": [],
    "openDaysNote": ""
  },
  {
    "id": "2572200042",
    "name": "特別養護老人ホームふじの里",
    "kana": "トクベツヨウゴロウジンホームフジノサト",
    "address": "滋賀県高島市安曇川町下小川3220番地1",
    "lat": 35.3200494,
    "lng": 136.0331223,
    "tel": "0740-32-4165",
    "url": "www.kouyoukai-fujinosato.jp",
    "pref": "滋賀県",
    "city": "高島市",
    "category": "tokuyou",
    "serviceType": "介護老人福祉施設",
    "capacity": 0,
    "openDays": [],
    "openDaysNote": ""
  },
  {
    "id": "2572200596",
    "name": "特別養護老人ホームふじの里　なごみの家",
    "kana": "トクベツヨウゴロウジンホームフジノサト　ナゴミノイエ",
    "address": "滋賀県高島市安曇川町下小川3220番地1",
    "lat": 35.3200494,
    "lng": 136.0331223,
    "tel": "0740-32-4165",
    "url": ":www.kouyoukai-fujinosato.jp",
    "pref": "滋賀県",
    "city": "高島市",
    "category": "tokuyou",
    "serviceType": "介護老人福祉施設",
    "capacity": 40,
    "openDays": [],
    "openDaysNote": ""
  },
  {
    "id": "2572200828",
    "name": "特別養護老人ホーム藤のれん",
    "kana": "トクベツヨウゴロウジンホームフジノレン",
    "address": "滋賀県高島市安曇川町下小川127番地1",
    "lat": 35.3110355,
    "lng": 136.0365229,
    "tel": "0740-32-1515",
    "url": "www.kouyoukai-fujinosato.jp",
    "pref": "滋賀県",
    "city": "高島市",
    "category": "tokuyou",
    "serviceType": "介護老人福祉施設",
    "capacity": null,
    "openDays": [],
    "openDaysNote": ""
  },
  {
    "id": "2570700282",
    "name": "特別養護老人ホーム　しがそせい苑",
    "kana": "トクベツヨウゴロウジンホーム　シガソセイエン",
    "address": "守山市水保町２６５０－１",
    "lat": 35.0979095,
    "lng": 135.9619092,
    "tel": "077-585-7878",
    "url": "http://www.soseien.jp/shiga/",
    "pref": "滋賀県",
    "city": "守山市",
    "category": "tokuyou",
    "serviceType": "介護老人福祉施設",
    "capacity": 80,
    "openDays": [],
    "openDaysNote": ""
  },
  {
    "id": "2570700043",
    "name": "特別養護老人ホーム　ゆいの里",
    "kana": "トクベツヨウゴロウジンホーム　ユイノサト",
    "address": "笠原町1313-3",
    "lat": 35.0951578,
    "lng": 135.9867237,
    "tel": "077-585-4566",
    "url": "http://www.yuinosato.or.jp/",
    "pref": "滋賀県",
    "city": "守山市",
    "category": "tokuyou",
    "serviceType": "介護老人福祉施設",
    "capacity": null,
    "openDays": [],
    "openDaysNote": ""
  },
  {
    "id": "2570701207",
    "name": "特別養護老人ホームサクラベル守山",
    "kana": "トクベツヨウゴロウジンホームサクラベルモリヤマ",
    "address": "滋賀県守山市石田町424-1",
    "lat": 35.0716647,
    "lng": 135.9765142,
    "tel": "077-585-8200",
    "url": "http://www.edeitutiyama.net",
    "pref": "滋賀県",
    "city": "守山市",
    "category": "tokuyou",
    "serviceType": "介護老人福祉施設",
    "capacity": null,
    "openDays": [],
    "openDaysNote": ""
  },
  {
    "id": "2570700829",
    "name": "特別養護老人ホームゆいの里　別館",
    "kana": "トクベツヨウゴロウジンホームユイノサト　ベッカン",
    "address": "滋賀県守山市笠原町1313-3",
    "lat": 35.094644,
    "lng": 135.9883569,
    "tel": "077-585-4566",
    "url": "http://www.yuinosato.or.jp",
    "pref": "滋賀県",
    "city": "守山市",
    "category": "tokuyou",
    "serviceType": "介護老人福祉施設",
    "capacity": 0,
    "openDays": [],
    "openDaysNote": ""
  },
  {
    "id": "2570600995",
    "name": "社会福祉法人　よつば会　特別養護老人ホーム　風和里",
    "kana": "シャカイフクシホウジン　ヨツバカイ　トクベツヨウゴロウジンホーム　フワリ",
    "address": "岡本町２１７",
    "lat": 35.0016913,
    "lng": 135.9826342,
    "tel": "077-561-7500",
    "url": "http://www.yotsuba-lcn.or.jp/",
    "pref": "滋賀県",
    "city": "草津市",
    "category": "tokuyou",
    "serviceType": "介護老人福祉施設",
    "capacity": 70,
    "openDays": [],
    "openDaysNote": ""
  },
  {
    "id": "2570601464",
    "name": "特別養護老人ホーム　えんゆうの郷",
    "kana": "トクベツヨウゴロウジンホーム　エンユウノサト",
    "address": "滋賀県草津市南山田町761",
    "lat": 35.0176357,
    "lng": 135.92635,
    "tel": "077-598-1866",
    "url": "http://kaigo-nagisa.com/",
    "pref": "滋賀県",
    "city": "草津市",
    "category": "tokuyou",
    "serviceType": "介護老人福祉施設",
    "capacity": 0,
    "openDays": [],
    "openDaysNote": ""
  },
  {
    "id": "2570600086",
    "name": "特別養護老人ホーム　やわらぎ苑",
    "kana": "トクベツヨウゴロウジンホ－ム　ヤワラギエン",
    "address": "滋賀県草津市南笠町891番地",
    "lat": 35.0018090685731,
    "lng": 135.934481543428,
    "tel": "077-564-6500",
    "url": "https://428kai.or.jp/facility/yawaragi/",
    "pref": "滋賀県",
    "city": "草津市",
    "category": "tokuyou",
    "serviceType": "介護老人福祉施設",
    "capacity": 0,
    "openDays": [],
    "openDaysNote": ""
  },
  {
    "id": "2570601415",
    "name": "特別養護老人ホーム　萩の里",
    "kana": "トクベツヨウゴロウジンホーム　ハギノサト",
    "address": "滋賀県草津市野路東２丁目４番１０号",
    "lat": 34.9936339,
    "lng": 135.9544034,
    "tel": "077-567-8560",
    "url": "http://yotsuba-lcn.or.jp",
    "pref": "滋賀県",
    "city": "草津市",
    "category": "tokuyou",
    "serviceType": "介護老人福祉施設",
    "capacity": 0,
    "openDays": [],
    "openDaysNote": ""
  },
  {
    "id": "2570600474",
    "name": "特別養護老人ホームぽぷら",
    "kana": "トクベツヨウゴロウジンホームポプラ",
    "address": "滋賀県草津市上笠1丁目1-22",
    "lat": 35.0333505,
    "lng": 135.9511389,
    "tel": "077-563-0030",
    "url": "http://www.popura.or.jp",
    "pref": "滋賀県",
    "city": "草津市",
    "category": "tokuyou",
    "serviceType": "介護老人福祉施設",
    "capacity": 0,
    "openDays": [],
    "openDaysNote": ""
  },
  {
    "id": "2570601779",
    "name": "特別養護老人ホーム茜の郷",
    "kana": "トクベツヨウゴロウジンホームアカネノサト",
    "address": "滋賀県草津市下笠町733-1",
    "lat": 35.0391902,
    "lng": 135.9289329,
    "tel": "077-599-1977",
    "url": "http://shoubunosato.jp",
    "pref": "滋賀県",
    "city": "草津市",
    "category": "tokuyou",
    "serviceType": "介護老人福祉施設",
    "capacity": null,
    "openDays": [],
    "openDaysNote": ""
  },
  {
    "id": "2570600029",
    "name": "特別養護老人ホーム菖蒲の郷",
    "kana": "トクベツヨウゴロウジンホームショウブノサト",
    "address": "滋賀県草津市山寺町837番地",
    "lat": 34.9919287,
    "lng": 135.9922391,
    "tel": "077-566-3888",
    "url": "http://shoubunosato.jp",
    "pref": "滋賀県",
    "city": "草津市",
    "category": "tokuyou",
    "serviceType": "介護老人福祉施設",
    "capacity": 0,
    "openDays": [],
    "openDaysNote": ""
  },
  {
    "id": "2570600748",
    "name": "特別養護老人ホーム第二菖蒲の郷",
    "kana": "トクベツヨウゴロウジンホームダイニショウブノサト",
    "address": "滋賀県草津市追分南5丁目18番8号",
    "lat": 34.9925091,
    "lng": 135.9676496,
    "tel": "077-566-5366",
    "url": "http://shoubunosato.jp",
    "pref": "滋賀県",
    "city": "草津市",
    "category": "tokuyou",
    "serviceType": "介護老人福祉施設",
    "capacity": 0,
    "openDays": [],
    "openDaysNote": ""
  },
  {
    "id": "2571800123",
    "name": "特別養護老人ホーム　多賀清流の里",
    "kana": "トクベツヨウゴロウジンホーム　タガセイリュウノサト",
    "address": "滋賀県犬上郡多賀町大字佐目６７５",
    "lat": 35.20792,
    "lng": 136.3357552,
    "tel": "0749-49-8030",
    "url": "https://tashinkai.jp/",
    "pref": "滋賀県",
    "city": "多賀町",
    "category": "tokuyou",
    "serviceType": "介護老人福祉施設",
    "capacity": 50,
    "openDays": [],
    "openDaysNote": ""
  },
  {
    "id": "2571800024",
    "name": "特別養護老人ホームいぬかみ",
    "kana": "トクベツヨウゴロウジンホームイヌカミ",
    "address": "滋賀県犬上郡多賀町中川原605-2",
    "lat": 35.2356775,
    "lng": 136.2791834,
    "tel": "0749-48-2600",
    "url": "http://kotoukai.or.jp/",
    "pref": "滋賀県",
    "city": "多賀町",
    "category": "tokuyou",
    "serviceType": "介護老人福祉施設",
    "capacity": 90,
    "openDays": [],
    "openDaysNote": ""
  },
  {
    "id": "2570100970",
    "name": "ケアタウンからさき　介護老人福祉施設",
    "kana": "ケアタウンカラサキ　カイゴロウジンフクシシセツ",
    "address": "滋賀県大津市見世一丁目17番1号",
    "lat": 35.0406486,
    "lng": 135.8596313,
    "tel": "077-511-6222",
    "url": "http://www.kosei-f.jp/",
    "pref": "滋賀県",
    "city": "大津市",
    "category": "tokuyou",
    "serviceType": "介護老人福祉施設",
    "capacity": 0,
    "openDays": [],
    "openDaysNote": ""
  },
  {
    "id": "2570104477",
    "name": "介護老人福祉施設桐生園",
    "kana": "カイゴロウジンフクシシセツキリュウエン",
    "address": "滋賀県大津市桐生一丁目２６番７号",
    "lat": 34.9709673,
    "lng": 135.991462,
    "tel": "077-549-1129",
    "url": "http://www.kiryuen.jp/",
    "pref": "滋賀県",
    "city": "大津市",
    "category": "tokuyou",
    "serviceType": "介護老人福祉施設",
    "capacity": 44,
    "openDays": [],
    "openDaysNote": ""
  },
  {
    "id": "2570101721",
    "name": "近江舞子しょうぶ苑",
    "kana": "オウミマイコショウブエン",
    "address": "滋賀県大津市南小松90番地",
    "lat": 35.2386972,
    "lng": 135.9588465,
    "tel": "077-596-2233",
    "url": "shiga-f.com",
    "pref": "滋賀県",
    "city": "大津市",
    "category": "tokuyou",
    "serviceType": "介護老人福祉施設",
    "capacity": 0,
    "openDays": [],
    "openDaysNote": ""
  },
  {
    "id": "2570103008",
    "name": "特別養護老人ホーム　カーサ月の輪",
    "kana": "トクベツヨウゴロウジンホーム　カーサツキノワ",
    "address": "滋賀県大津市月輪１丁目１２番８号",
    "lat": 34.9922918,
    "lng": 135.9350079,
    "tel": "077-547-0950",
    "url": "http://koujyukai-otsu.com/casa/",
    "pref": "滋賀県",
    "city": "大津市",
    "category": "tokuyou",
    "serviceType": "介護老人福祉施設",
    "capacity": 0,
    "openDays": [],
    "openDaysNote": ""
  },
  {
    "id": "2570106209",
    "name": "特別養護老人ホーム　ひかりの里",
    "kana": "トクベツヨウゴロウジンホーム　ヒカリノサト",
    "address": "滋賀県大津市錦織3丁目10番27号",
    "lat": 35.0303038,
    "lng": 135.8585723,
    "tel": "077－525－1115",
    "url": "https://hikarinosato.org/",
    "pref": "滋賀県",
    "city": "大津市",
    "category": "tokuyou",
    "serviceType": "介護老人福祉施設",
    "capacity": null,
    "openDays": [],
    "openDaysNote": ""
  },
  {
    "id": "2570101127",
    "name": "特別養護老人ホーム　桐生園",
    "kana": "トクベツヨウゴロウジンホーム　キリュウエン",
    "address": "大津市桐生一丁目26番7号",
    "lat": 34.9708678,
    "lng": 135.9917284,
    "tel": "077-549-1129",
    "url": "http://www.kiryuen.jp/",
    "pref": "滋賀県",
    "city": "大津市",
    "category": "tokuyou",
    "serviceType": "介護老人福祉施設",
    "capacity": 0,
    "openDays": [],
    "openDaysNote": ""
  },
  {
    "id": "2570103917",
    "name": "特別養護老人ホーム　近江舞子しょうぶ苑（ユニット型）",
    "kana": "トクベツヨウゴロウジンホーム　オウミマイコショウブエン（ユニットガタ）",
    "address": "滋賀県大津市南小松90番地",
    "lat": 35.2386972,
    "lng": 135.9588465,
    "tel": "077-596-2233",
    "url": "shiga-f.com",
    "pref": "滋賀県",
    "city": "大津市",
    "category": "tokuyou",
    "serviceType": "介護老人福祉施設",
    "capacity": 0,
    "openDays": [],
    "openDaysNote": ""
  },
  {
    "id": "2570102182",
    "name": "特別養護老人ホーム　湖の花",
    "kana": "トクベツヨウゴロウジンホーム　コノハナ",
    "address": "滋賀県大津市衣川二丁目２７番１号",
    "lat": 35.1143485,
    "lng": 135.9050248,
    "tel": "077-572-3006",
    "url": "http://rakujyu-konohana.com",
    "pref": "滋賀県",
    "city": "大津市",
    "category": "tokuyou",
    "serviceType": "介護老人福祉施設",
    "capacity": 70,
    "openDays": [],
    "openDaysNote": ""
  },
  {
    "id": "2570104972",
    "name": "特別養護老人ホーム　真野しょうぶ苑",
    "kana": "トクベツヨウゴロウジンホーム　マノショウブエン",
    "address": "滋賀県大津市真野4-2-1",
    "lat": 35.1291383492876,
    "lng": 135.915722772542,
    "tel": "077-573-1155",
    "url": "shiga-f.com",
    "pref": "滋賀県",
    "city": "大津市",
    "category": "tokuyou",
    "serviceType": "介護老人福祉施設",
    "capacity": 0,
    "openDays": [],
    "openDaysNote": ""
  },
  {
    "id": "2570100640",
    "name": "特別養護老人ホーム　千寿の郷",
    "kana": "トクベツヨウゴロウジンホーム　センジュノサト",
    "address": "滋賀県大津市石山千町276-1",
    "lat": 34.9494088,
    "lng": 135.8853661,
    "tel": "077-531-1105",
    "url": "http://senjyunosato.or.jp/",
    "pref": "滋賀県",
    "city": "大津市",
    "category": "tokuyou",
    "serviceType": "介護老人福祉施設",
    "capacity": 0,
    "openDays": [],
    "openDaysNote": ""
  },
  {
    "id": "2570100327",
    "name": "特別養護老人ホーム　長等の里",
    "kana": "トクベツヨウゴロウジンホーム　ナガラノサト",
    "address": "大津市神出開町字徴妙寺２６０番９号",
    "lat": 35.0054388,
    "lng": 135.8536106,
    "tel": "077-510-0017",
    "url": "http://koujyukai-otsu.com",
    "pref": "滋賀県",
    "city": "大津市",
    "category": "tokuyou",
    "serviceType": "介護老人福祉施設",
    "capacity": 0,
    "openDays": [],
    "openDaysNote": ""
  },
  {
    "id": "2570105847",
    "name": "特別養護老人ホームあすは",
    "kana": "トクベツヨウゴロウジンホームアスハ",
    "address": "滋賀県大津市瀬田5丁目1-55",
    "lat": 34.9643405841182,
    "lng": 135.913033749352,
    "tel": "077-548-7651",
    "url": "https://428kai.or.jp/",
    "pref": "滋賀県",
    "city": "大津市",
    "category": "tokuyou",
    "serviceType": "介護老人福祉施設",
    "capacity": 0,
    "openDays": [],
    "openDaysNote": ""
  },
  {
    "id": "2570101630",
    "name": "特別養護老人ホームリバプール",
    "kana": "トクベツヨウゴロウジンホームリバプール",
    "address": "大津市大石中1丁目5番14号",
    "lat": 34.9099853,
    "lng": 135.9117165,
    "tel": "077-536-3111",
    "url": "http://www.liverpool.or.jp",
    "pref": "滋賀県",
    "city": "大津市",
    "category": "tokuyou",
    "serviceType": "介護老人福祉施設",
    "capacity": 80,
    "openDays": [],
    "openDaysNote": ""
  },
  {
    "id": "2570104014",
    "name": "特別養護老人ホーム松の浦湯治の郷",
    "kana": "トクベツヨウゴロウジンホームマツノウラトウジノサト",
    "address": "滋賀県大津市大物668番地",
    "lat": 35.2094670016002,
    "lng": 135.933807783467,
    "tel": "077-592-2641",
    "url": "https://biwakoaiwakai.com",
    "pref": "滋賀県",
    "city": "大津市",
    "category": "tokuyou",
    "serviceType": "介護老人福祉施設",
    "capacity": 80,
    "openDays": [],
    "openDaysNote": ""
  },
  {
    "id": "2570100061",
    "name": "特別養護老人ホーム榛原の里",
    "kana": "トクベツヨウゴロウジンホームハリハラノサト",
    "address": "滋賀県大津市真野普門三丁目1120番地",
    "lat": 35.1472502,
    "lng": 135.9006003,
    "tel": "077-573-9901",
    "url": "http://www.fukusi-otsu.or.jp/",
    "pref": "滋賀県",
    "city": "大津市",
    "category": "tokuyou",
    "serviceType": "介護老人福祉施設",
    "capacity": 0,
    "openDays": [],
    "openDaysNote": ""
  },
  {
    "id": "2570100046",
    "name": "特別養護老人ホーム真盛園",
    "kana": "トクベツヨウゴロウジンホームシンセイエン",
    "address": "滋賀県大津市坂本５丁目１３番１号",
    "lat": 35.0808103,
    "lng": 135.8676046,
    "tel": "077-578-0044",
    "url": "https://www.sinseien.jp/",
    "pref": "滋賀県",
    "city": "大津市",
    "category": "tokuyou",
    "serviceType": "介護老人福祉施設",
    "capacity": 115,
    "openDays": [],
    "openDaysNote": ""
  },
  {
    "id": "2570104162",
    "name": "特別養護老人ホーム風流里",
    "kana": "（トクベツヨウゴロウジンホームフルサト）",
    "address": "滋賀県大津市相模町10番1号",
    "lat": 34.9954678,
    "lng": 135.8851801,
    "tel": "077-510-7320",
    "url": "https://428kai.or.jp/",
    "pref": "滋賀県",
    "city": "大津市",
    "category": "tokuyou",
    "serviceType": "介護老人福祉施設",
    "capacity": 0,
    "openDays": [],
    "openDaysNote": ""
  },
  {
    "id": "2570100087",
    "name": "特別養護老人ホーム福寿荘",
    "kana": "トクベツヨウゴロウジンホームフクジュソウ",
    "address": "大津市大萱七丁目7番1号特別養護老人ホーム 特別養護老人ホーム",
    "lat": 34.9948826,
    "lng": 135.9156765,
    "tel": "077-545-2160",
    "url": "https://fukuju-sou.com/fukuju/",
    "pref": "滋賀県",
    "city": "大津市",
    "category": "tokuyou",
    "serviceType": "介護老人福祉施設",
    "capacity": 0,
    "openDays": [],
    "openDaysNote": ""
  },
  {
    "id": "2570104964",
    "name": "特別養護老人ホーム夕照たまのうら",
    "kana": "トクベツヨウゴロウジンホーム　セキショウタマノウラ",
    "address": "滋賀県大津市玉野浦15-1",
    "lat": 34.9817116,
    "lng": 135.9107282,
    "tel": "077-548-1022",
    "url": "http://www.kiryuen.jp/tamanoura",
    "pref": "滋賀県",
    "city": "大津市",
    "category": "tokuyou",
    "serviceType": "介護老人福祉施設",
    "capacity": 0,
    "openDays": [],
    "openDaysNote": ""
  },
  {
    "id": "2570301164",
    "name": "とくべつようごろうじんほーむ　こほくあさひのさと",
    "kana": "特別養護老人ホーム　湖北朝日ノ里",
    "address": "滋賀県長浜市湖北町延勝寺２９７－１",
    "lat": 35.4309229,
    "lng": 136.198989,
    "tel": "0749-79-8111",
    "url": "http://kohokushinkoukai.net/",
    "pref": "滋賀県",
    "city": "長浜市",
    "category": "tokuyou",
    "serviceType": "介護老人福祉施設",
    "capacity": 80,
    "openDays": [],
    "openDaysNote": ""
  },
  {
    "id": "2570300539",
    "name": "滋賀県立特別養護老人ホーム福良荘",
    "kana": "シガケンリツトクベツヨウゴロウジンホームフクラソウ",
    "address": "長浜市内保町４８０番地",
    "lat": 35.4319508,
    "lng": 136.3014518,
    "tel": "0749-74-0044",
    "url": "",
    "pref": "滋賀県",
    "city": "長浜市",
    "category": "tokuyou",
    "serviceType": "介護老人福祉施設",
    "capacity": null,
    "openDays": [],
    "openDaysNote": ""
  },
  {
    "id": "2570301248",
    "name": "社会福祉法人さざなみ会　特別養護老人ホーム姉川の里",
    "kana": "シャカイフクシホウジンサザナミカイ　トクベツヨウゴロウジンホームアネガワノサト",
    "address": "滋賀県長浜市大井町９７３－１",
    "lat": 35.4169653,
    "lng": 136.2614149,
    "tel": "0749-73-8010",
    "url": "http://www.sazanamien.com/",
    "pref": "滋賀県",
    "city": "長浜市",
    "category": "tokuyou",
    "serviceType": "介護老人福祉施設",
    "capacity": 0,
    "openDays": [],
    "openDaysNote": ""
  },
  {
    "id": "2570300661",
    "name": "特別養護老人ホーム　アンタレス",
    "kana": "トクベツヨウゴロウジンホーム　アンタレス",
    "address": "滋賀県長浜市加田町3360",
    "lat": 35.3610679,
    "lng": 136.3049773,
    "tel": "0749-68-4111",
    "url": "https://www.seishokai.jp/antares",
    "pref": "滋賀県",
    "city": "長浜市",
    "category": "tokuyou",
    "serviceType": "介護老人福祉施設",
    "capacity": 0,
    "openDays": [],
    "openDaysNote": ""
  },
  {
    "id": "2570300901",
    "name": "特別養護老人ホーム　けやきの杜",
    "kana": "トクベツヨウゴロウジンホーム　ケヤキノモリ",
    "address": "滋賀県長浜市高月町柏原1055番地",
    "lat": 35.4787947,
    "lng": 136.2445318,
    "tel": "0749-85-8383",
    "url": "http://tashinkai.jp/",
    "pref": "滋賀県",
    "city": "長浜市",
    "category": "tokuyou",
    "serviceType": "介護老人福祉施設",
    "capacity": null,
    "openDays": [],
    "openDaysNote": ""
  },
  {
    "id": "2570300877",
    "name": "特別養護老人ホーム　奥びわこ",
    "kana": "オクビワコ",
    "address": "滋賀県長浜市西浅井町大浦１７８８－３",
    "lat": 35.4801667,
    "lng": 136.1126019,
    "tel": "0749-89-1689",
    "url": "http://sontokukai.com/",
    "pref": "滋賀県",
    "city": "長浜市",
    "category": "tokuyou",
    "serviceType": "介護老人福祉施設",
    "capacity": 60,
    "openDays": [],
    "openDaysNote": ""
  },
  {
    "id": "2570300786",
    "name": "特別養護老人ホーム　湖北水鳥の里",
    "kana": "トクベツヨウゴロウジンホーム　コホクミズドリノサト",
    "address": "滋賀県長浜市湖北町延勝寺1844番地",
    "lat": 35.4316088,
    "lng": 136.1977391,
    "tel": "0749-79-8100",
    "url": "http://www18.ocn.ne.jp/~mizudori/",
    "pref": "滋賀県",
    "city": "長浜市",
    "category": "tokuyou",
    "serviceType": "介護老人福祉施設",
    "capacity": 0,
    "openDays": [],
    "openDaysNote": ""
  },
  {
    "id": "2570301297",
    "name": "特別養護老人ホーム　今浜の郷",
    "kana": "トクベツヨウゴロウジンホーム　イマハマノサト",
    "address": "滋賀県長浜市下坂中町200番地1",
    "lat": 35.3647057,
    "lng": 136.2839102,
    "tel": "0749-68-4024",
    "url": "http://o-kourakukai.or.jp",
    "pref": "滋賀県",
    "city": "長浜市",
    "category": "tokuyou",
    "serviceType": "介護老人福祉施設",
    "capacity": 0,
    "openDays": [],
    "openDaysNote": ""
  },
  {
    "id": "2570301065",
    "name": "特別養護老人ホームふくら",
    "kana": "トクベツヨウゴロウジンホームフクラ",
    "address": "長浜市内保町４８０",
    "lat": 35.4319508,
    "lng": 136.3014518,
    "tel": "0749-74-0044",
    "url": "http//www.glow.or.jp/",
    "pref": "滋賀県",
    "city": "長浜市",
    "category": "tokuyou",
    "serviceType": "介護老人福祉施設",
    "capacity": 0,
    "openDays": [],
    "openDaysNote": ""
  },
  {
    "id": "2570301339",
    "name": "特別養護老人ホーム伊香の里",
    "kana": "シャカイフクシホウジンナガハマシシャカイフクシキョウギカイ　トクベツヨウゴロウジンホームイカノサト",
    "address": "滋賀県長浜市木之本町黒田1221",
    "lat": 35.5046661,
    "lng": 136.2124065,
    "tel": "0749-82-5611",
    "url": "http://www.nagahama-shakyo.or.jp/",
    "pref": "滋賀県",
    "city": "長浜市",
    "category": "tokuyou",
    "serviceType": "介護老人福祉施設",
    "capacity": 0,
    "openDays": [],
    "openDaysNote": ""
  },
  {
    "id": "2570300067",
    "name": "特別養護老人ホーム青浄苑",
    "kana": "トクベツヨウゴロウジンホームセイジョウエン",
    "address": "滋賀県長浜市加田町２９９５",
    "lat": 35.3602319,
    "lng": 136.3057577,
    "tel": "0749-63-7111",
    "url": "http://www.seishokai.jp/seijoen",
    "pref": "滋賀県",
    "city": "長浜市",
    "category": "tokuyou",
    "serviceType": "介護老人福祉施設",
    "capacity": 0,
    "openDays": [],
    "openDaysNote": ""
  },
  {
    "id": "2570300372",
    "name": "特別養護老人ホーム青芳",
    "kana": "トクベツヨウゴロウジンホームセイホウ",
    "address": "滋賀県長浜市川道町2572",
    "lat": 35.4030773,
    "lng": 136.2353402,
    "tel": "0749-72-8311",
    "url": "http://www.seishokai.jp/seiho",
    "pref": "滋賀県",
    "city": "長浜市",
    "category": "tokuyou",
    "serviceType": "介護老人福祉施設",
    "capacity": 50,
    "openDays": [],
    "openDaysNote": ""
  },
  {
    "id": "2570500237",
    "name": "介護老人福祉施設　もみじ",
    "kana": "カイゴロウジンフクシシセツ　モミジ",
    "address": "滋賀県東近江市永源寺高野町431-2",
    "lat": 35.0777865,
    "lng": 136.3098985,
    "tel": "0748-27-2031",
    "url": "http//www.hachikikai.com",
    "pref": "滋賀県",
    "city": "東近江市",
    "category": "tokuyou",
    "serviceType": "介護老人福祉施設",
    "capacity": 50,
    "openDays": [],
    "openDaysNote": ""
  },
  {
    "id": "2570500179",
    "name": "介護老人福祉施設こぼしの家",
    "kana": "カイゴロウジンフクシシセツコボシノイエ",
    "address": "滋賀県東近江市市辺町3477",
    "lat": 35.0991871,
    "lng": 136.1727817,
    "tel": "0748-20-0511",
    "url": "https://koboshi.p-kit.com/",
    "pref": "滋賀県",
    "city": "東近江市",
    "category": "tokuyou",
    "serviceType": "介護老人福祉施設",
    "capacity": 0,
    "openDays": [],
    "openDaysNote": ""
  },
  {
    "id": "2570500013",
    "name": "特別養護老人ホーム　玉園ハイム",
    "kana": "トクベツヨウゴロウジンホーム　タマゾノハイム",
    "address": "滋賀県東近江市尻無町字山ノ間１１７０番地の３",
    "lat": 35.081784,
    "lng": 136.2211449,
    "tel": "0748-23-6886",
    "url": "http://tama-zono.com/",
    "pref": "滋賀県",
    "city": "東近江市",
    "category": "tokuyou",
    "serviceType": "介護老人福祉施設",
    "capacity": 50,
    "openDays": [],
    "openDaysNote": ""
  },
  {
    "id": "2570500211",
    "name": "特別養護老人ホーム　清水苑",
    "kana": "トクベツヨウゴロウジンホーム　セイスイエン",
    "address": "滋賀県東近江市五個荘川並町268番地",
    "lat": 35.14718280458,
    "lng": 136.175973027647,
    "tel": "0748-48-5000",
    "url": "https://rokushinkai.com",
    "pref": "滋賀県",
    "city": "東近江市",
    "category": "tokuyou",
    "serviceType": "介護老人福祉施設",
    "capacity": 0,
    "openDays": [],
    "openDaysNote": ""
  },
  {
    "id": "2570500401",
    "name": "特別養護老人ホーム　能登川園",
    "kana": "トクベツヨウゴロウジンホーム　ノトガワエン",
    "address": "東近江市新宮町５４７",
    "lat": 35.2017026,
    "lng": 136.15023,
    "tel": "0748-42-7025",
    "url": "http://shiga-shinjyukai.or.jp",
    "pref": "滋賀県",
    "city": "東近江市",
    "category": "tokuyou",
    "serviceType": "介護老人福祉施設",
    "capacity": 50,
    "openDays": [],
    "openDaysNote": ""
  },
  {
    "id": "2570500054",
    "name": "特別養護老人ホームカルナハウス",
    "kana": "トクベツヨウゴロウジンホームカルナハウス",
    "address": "東近江市建部下野町７９７番地",
    "lat": 35.1391892,
    "lng": 136.1971766,
    "tel": "0748-23-3250",
    "url": "htttp://www.jishoukai.or.jp",
    "pref": "滋賀県",
    "city": "東近江市",
    "category": "tokuyou",
    "serviceType": "介護老人福祉施設",
    "capacity": 0,
    "openDays": [],
    "openDaysNote": ""
  },
  {
    "id": "2570500500",
    "name": "特別養護老人ホーム沖野原",
    "kana": "トクベツヨウゴロウジンホーム　オキノハラ",
    "address": "滋賀県東近江市沖野三丁目１０番１８号",
    "lat": 35.0948708,
    "lng": 136.2093415,
    "tel": "0748-22-7555",
    "url": "http://www.ex.biwa.ne.jp/~okinohara/",
    "pref": "滋賀県",
    "city": "東近江市",
    "category": "tokuyou",
    "serviceType": "介護老人福祉施設",
    "capacity": 0,
    "openDays": [],
    "openDaysNote": ""
  },
  {
    "id": "2570500260",
    "name": "特別養護老人ホーム菊水園",
    "kana": "トクベツヨウゴロウジンホームキクスイエン",
    "address": "東近江市下里町789",
    "lat": 35.1347192,
    "lng": 136.2556668,
    "tel": "0749-45-1518",
    "url": "http://www.keisenkaikikusuien.com",
    "pref": "滋賀県",
    "city": "東近江市",
    "category": "tokuyou",
    "serviceType": "介護老人福祉施設",
    "capacity": 50,
    "openDays": [],
    "openDaysNote": ""
  },
  {
    "id": "2571500038",
    "name": "特別養護老人ホーム白寿荘",
    "kana": "トクベツヨウゴロウジンホームハクジュソウ",
    "address": "滋賀県蒲生郡日野町松尾359番地",
    "lat": 35.0282341755875,
    "lng": 136.248729741664,
    "tel": "0748-52-5616",
    "url": "hakujuso@kotoukai.or.jp",
    "pref": "滋賀県",
    "city": "日野町",
    "category": "tokuyou",
    "serviceType": "介護老人福祉施設",
    "capacity": 0,
    "openDays": [],
    "openDaysNote": ""
  },
  {
    "id": "2571500012",
    "name": "特別養護老人ホーム誉の松",
    "kana": "トクベツヨウゴロウジンホームホマレノマツ",
    "address": "滋賀県蒲生郡日野町大字深山口524番地",
    "lat": 34.9891759,
    "lng": 136.2294793,
    "tel": "0748-53-0261",
    "url": "http://www.homare.or.jp",
    "pref": "滋賀県",
    "city": "日野町",
    "category": "tokuyou",
    "serviceType": "介護老人福祉施設",
    "capacity": 58,
    "openDays": [],
    "openDaysNote": ""
  },
  {
    "id": "2570200341",
    "name": "特別養護老人ホーム　さざなみ苑",
    "kana": "トクベツヨウゴロウジンホームサザナミエン",
    "address": "滋賀県彦根市城町２丁目１３番３号",
    "lat": 35.2771931,
    "lng": 136.2418131,
    "tel": "0749-27-1411",
    "url": "http://www.sazanamien.com",
    "pref": "滋賀県",
    "city": "彦根市",
    "category": "tokuyou",
    "serviceType": "介護老人福祉施設",
    "capacity": 50,
    "openDays": [],
    "openDaysNote": ""
  },
  {
    "id": "2570200036",
    "name": "特別養護老人ホーム　近江第二ふるさと園",
    "kana": "トクベツヨウゴロウジンホーム　オウミダイニフルサトエン",
    "address": "開出今町1343-3",
    "lat": 35.2583503,
    "lng": 136.2300647,
    "tel": "0749-22-4321",
    "url": "http://www.omi-furusato.jp",
    "pref": "滋賀県",
    "city": "彦根市",
    "category": "tokuyou",
    "serviceType": "介護老人福祉施設",
    "capacity": 145,
    "openDays": [],
    "openDaysNote": ""
  },
  {
    "id": "2570200887",
    "name": "特別養護老人ホーム　千松の郷",
    "kana": "トクベツヨウゴロウジンホーム　センショウノサト",
    "address": "滋賀県彦根市松原町520-1",
    "lat": 35.2874559,
    "lng": 136.251023,
    "tel": "0749-22-2255",
    "url": "http:/www.homare.or.jp",
    "pref": "滋賀県",
    "city": "彦根市",
    "category": "tokuyou",
    "serviceType": "介護老人福祉施設",
    "capacity": 80,
    "openDays": [],
    "openDaysNote": ""
  },
  {
    "id": "2570201091",
    "name": "特別養護老人ホームさざなみ苑",
    "kana": "トクベツヨウゴロウジンホームサザナミエン",
    "address": "滋賀県彦根市城町２丁目13番3号",
    "lat": 35.2771931,
    "lng": 136.2418131,
    "tel": "0749-27-1411",
    "url": "http://www.sazanamien.com",
    "pref": "滋賀県",
    "city": "彦根市",
    "category": "tokuyou",
    "serviceType": "介護老人福祉施設",
    "capacity": 40,
    "openDays": [],
    "openDaysNote": ""
  },
  {
    "id": "2570201380",
    "name": "特別養護老人ホームサニープレイス彦根",
    "kana": "トクベツヨウゴロウジンホームサニープレイスヒコネ",
    "address": "滋賀県彦根市三津町４４６番地１特別養護老人ホームサニープレイス彦根 特別養護老人ホームサニープレイス彦根",
    "lat": 35.2029371268117,
    "lng": 136.210794615067,
    "tel": "0749-47-3577",
    "url": "https://sunnyplace.or.jp/",
    "pref": "滋賀県",
    "city": "彦根市",
    "category": "tokuyou",
    "serviceType": "介護老人福祉施設",
    "capacity": null,
    "openDays": [],
    "openDaysNote": ""
  },
  {
    "id": "2570200119",
    "name": "特別養護老人ホーム近江ふるさと園",
    "kana": "トクベツヨウゴロウジンホームオウミフルサトエン",
    "address": "滋賀県彦根市石寺町713番地",
    "lat": 35.244033,
    "lng": 136.1854701,
    "tel": "0749-43-5800",
    "url": "http://www.omi-furusato.jp",
    "pref": "滋賀県",
    "city": "彦根市",
    "category": "tokuyou",
    "serviceType": "介護老人福祉施設",
    "capacity": 0,
    "openDays": [],
    "openDaysNote": ""
  },
  {
    "id": "2570200952",
    "name": "特別養護老人ホーム近江ふるさと園",
    "kana": "トクベツヨウゴロウジンホームオウミフルサトエン",
    "address": "滋賀県彦根市石寺町713番地",
    "lat": 35.244033,
    "lng": 136.1854701,
    "tel": "0749-43-5800",
    "url": "http://www.omi-furusato.jp",
    "pref": "滋賀県",
    "city": "彦根市",
    "category": "tokuyou",
    "serviceType": "介護老人福祉施設",
    "capacity": 0,
    "openDays": [],
    "openDaysNote": ""
  },
  {
    "id": "2572400014",
    "name": "社会福祉法人青祥会特別養護老人ホーム坂田青成苑",
    "kana": "シャカイフクシホウジンセイショウカイトクベツヨウゴロウジンホームサカタセイジョウエン",
    "address": "滋賀県米原市野一色１１３６",
    "lat": 35.3860764,
    "lng": 136.3539265,
    "tel": "0749-55-3511",
    "url": "http://www.seishokai.jp/sakata",
    "pref": "滋賀県",
    "city": "米原市",
    "category": "tokuyou",
    "serviceType": "介護老人福祉施設",
    "capacity": 0,
    "openDays": [],
    "openDaysNote": ""
  },
  {
    "id": "2572400535",
    "name": "特別養護老人ホーム　スマイル",
    "kana": "トクベツヨウゴロウジンホーム　スマイル",
    "address": "滋賀県米原市寺倉603－1",
    "lat": 35.3251115,
    "lng": 136.3112269,
    "tel": "0749－54－8201",
    "url": "https://www.oumikunpuukai.com",
    "pref": "滋賀県",
    "city": "米原市",
    "category": "tokuyou",
    "serviceType": "介護老人福祉施設",
    "capacity": 0,
    "openDays": [],
    "openDaysNote": ""
  },
  {
    "id": "2571800149",
    "name": "特別養護老人ホームいやしのさと",
    "kana": "トクベツヨウゴロウジンホームイヤシノサト",
    "address": "犬上郡豊郷町沢517-4",
    "lat": 35.1920182,
    "lng": 136.2169999,
    "tel": "0749-35-0216",
    "url": "https://www.asunarofukushikai.com/",
    "pref": "滋賀県",
    "city": "豊郷町",
    "category": "tokuyou",
    "serviceType": "介護老人福祉施設",
    "capacity": 50,
    "openDays": [],
    "openDaysNote": ""
  },
  {
    "id": "2571300090",
    "name": "特別養護老人ホームあやめの里",
    "kana": "トクベツヨウゴロウジンホームアヤメノサト",
    "address": "滋賀県野洲市吉川3854番地1",
    "lat": 35.1282789,
    "lng": 135.9929452,
    "tel": "077-589-8533",
    "url": "http://yasujikeikai/.jp/",
    "pref": "滋賀県",
    "city": "野洲市",
    "category": "tokuyou",
    "serviceType": "介護老人福祉施設",
    "capacity": 0,
    "openDays": [],
    "openDaysNote": ""
  },
  {
    "id": "2571300751",
    "name": "特別養護老人ホーム野洲篠原すみれ園",
    "kana": "トクベツヨウゴロウジンホームヤスシノハラスミレエン",
    "address": "滋賀県野洲市大篠原951番地1",
    "lat": 35.0901438048584,
    "lng": 136.058919139287,
    "tel": "077-596-5991",
    "url": "https://www.shinohara-sumire.jp/",
    "pref": "滋賀県",
    "city": "野洲市",
    "category": "tokuyou",
    "serviceType": "介護老人福祉施設",
    "capacity": 100,
    "openDays": [],
    "openDaysNote": ""
  },
  {
    "id": "2571300033",
    "name": "特別養護老人ホーム悠紀の里",
    "kana": "トクベツヨウゴロウジンホームユキノサト",
    "address": "野洲市南桜2131番地1",
    "lat": 35.0336355,
    "lng": 136.0417477,
    "tel": "077-587-4111",
    "url": "https://yasujikeikai.jp/",
    "pref": "滋賀県",
    "city": "野洲市",
    "category": "tokuyou",
    "serviceType": "介護老人福祉施設",
    "capacity": 0,
    "openDays": [],
    "openDaysNote": ""
  },
  {
    "id": "2571500020",
    "name": "特別養護老人ホーム万葉の里",
    "kana": "トクベツヨウゴロウジンホームマンヨウノサト",
    "address": "滋賀県蒲生郡竜王町大字山之上６３２",
    "lat": 35.0546342,
    "lng": 136.1461078,
    "tel": "0748-57-2100",
    "url": "http://care-net.biz/25/yukinokai/",
    "pref": "滋賀県",
    "city": "竜王町",
    "category": "tokuyou",
    "serviceType": "介護老人福祉施設",
    "capacity": 0,
    "openDays": [],
    "openDaysNote": ""
  }
]