[
  {
    "id": "4373100389",
    "name": "特別養護老人ホーム　鐘ヶ丘ホーム",
    "kana": "トクベツヨウゴロウジンホーム　カネガオカホーム",
    "address": "熊本県球磨郡あさぎり町上西字清水８３５番地",
    "lat": 32.2188071,
    "lng": 130.8891276,
    "tel": "0966-45-6777",
    "url": "http://kanegaoka.com/",
    "pref": "熊本県",
    "city": "あさぎり町",
    "category": "tokuyou",
    "serviceType": "介護老人福祉施設",
    "capacity": 0,
    "openDays": [],
    "openDaysNote": ""
  },
  {
    "id": "4373100397",
    "name": "特別養護老人ホームあさぎりホーム",
    "kana": "トクベツヨウゴロウジンホームアサギリホーム",
    "address": "熊本県球磨郡あさぎり町岡原南77番地1",
    "lat": 32.2344414,
    "lng": 130.9205275,
    "tel": "0966-45-5683",
    "url": "http://nisikien.com/",
    "pref": "熊本県",
    "city": "あさぎり町",
    "category": "tokuyou",
    "serviceType": "介護老人福祉施設",
    "capacity": 30,
    "openDays": [],
    "openDaysNote": ""
  },
  {
    "id": "4373100413",
    "name": "特別養護老人ホーム翠光園",
    "kana": "トクベツヨウゴロウジンホームスイコエン",
    "address": "熊本県球磨郡あさぎり町深田東４１０番地",
    "lat": 32.2456232,
    "lng": 130.8734255,
    "tel": "0966-45-0274",
    "url": "suikou-en.com",
    "pref": "熊本県",
    "city": "あさぎり町",
    "category": "tokuyou",
    "serviceType": "介護老人福祉施設",
    "capacity": 0,
    "openDays": [],
    "openDaysNote": ""
  },
  {
    "id": "4372700387",
    "name": "特別養護老人ホームあそん里",
    "kana": "トクベツヨウゴロウジンホームアソンサト",
    "address": "熊本県阿蘇市一の宮町坂梨字八千場２３６５番１",
    "lat": 32.9344955612999,
    "lng": 131.138136700447,
    "tel": "0967-22-1511",
    "url": "http://www.yamanami.ne.jp/asonsato/",
    "pref": "熊本県",
    "city": "阿蘇市",
    "category": "tokuyou",
    "serviceType": "介護老人福祉施設",
    "capacity": 50,
    "openDays": [],
    "openDaysNote": ""
  },
  {
    "id": "4372700395",
    "name": "特別養護老人ホーム阿蘇みやま荘",
    "kana": "トクベツヨウゴロウジンホームアソミヤマソウ",
    "address": "熊本県阿蘇市黒川１３６５",
    "lat": 32.9324458,
    "lng": 131.0713206,
    "tel": "0967-34-0848",
    "url": "",
    "pref": "熊本県",
    "city": "阿蘇市",
    "category": "tokuyou",
    "serviceType": "介護老人福祉施設",
    "capacity": 80,
    "openDays": [],
    "openDaysNote": ""
  },
  {
    "id": "4373000340",
    "name": "特別養護老人ホーム　田の浦荘",
    "kana": "トクベツヨウゴロウジンホーム　タノウラソウ",
    "address": "熊本県葦北郡芦北町大字田浦町８７０－１",
    "lat": 32.3643631,
    "lng": 130.505413,
    "tel": "0966-87-0810",
    "url": "https://eiwafukusikai.com/",
    "pref": "熊本県",
    "city": "芦北町",
    "category": "tokuyou",
    "serviceType": "介護老人福祉施設",
    "capacity": 50,
    "openDays": [],
    "openDaysNote": ""
  },
  {
    "id": "4373000357",
    "name": "特別養護老人ホーム五松園",
    "kana": "トクベツヨウゴロウジンホームゴショウエン",
    "address": "熊本県葦北郡芦北町大字花岡1118番地",
    "lat": 32.2953284,
    "lng": 130.5103153,
    "tel": "0966-82-4274",
    "url": "https://jiyukai.com",
    "pref": "熊本県",
    "city": "芦北町",
    "category": "tokuyou",
    "serviceType": "介護老人福祉施設",
    "capacity": 0,
    "openDays": [],
    "openDaysNote": ""
  },
  {
    "id": "4372200305",
    "name": "介護老人福祉施設　豊洋園",
    "kana": "カイゴロウジンフクシシセツ　ホウヨウエン",
    "address": "熊本県宇城市三角町里浦２８５５番５",
    "lat": 32.6234886,
    "lng": 130.5539893,
    "tel": "0964-54-1100",
    "url": "http://houyouen.jp/",
    "pref": "熊本県",
    "city": "宇城市",
    "category": "tokuyou",
    "serviceType": "介護老人福祉施設",
    "capacity": 60,
    "openDays": [],
    "openDaysNote": ""
  },
  {
    "id": "4372300394",
    "name": "特別養護老人ホーム　しらぬい荘",
    "kana": "トクベツヨウゴロウジンホーム　シラヌイソウ",
    "address": "熊本県宇城市松橋町竹崎1142番地の1",
    "lat": 32.6276357,
    "lng": 130.7105229,
    "tel": "0964-32-0709",
    "url": "http://www.shiranuiso.or.jp/",
    "pref": "熊本県",
    "city": "宇城市",
    "category": "tokuyou",
    "serviceType": "介護老人福祉施設",
    "capacity": 0,
    "openDays": [],
    "openDaysNote": ""
  },
  {
    "id": "4371300106",
    "name": "特別養護老人ホーム　水晶苑",
    "kana": "トクベツヨウゴロウジンホーム　スイショウエン",
    "address": "熊本県宇城市豊野町糸石２５１３",
    "lat": 32.6319636,
    "lng": 130.7548394,
    "tel": "0964-45-3755",
    "url": "http://www.suisyouen.info/",
    "pref": "熊本県",
    "city": "宇城市",
    "category": "tokuyou",
    "serviceType": "介護老人福祉施設",
    "capacity": 0,
    "openDays": [],
    "openDaysNote": ""
  },
  {
    "id": "4372300402",
    "name": "特別養護老人ホームひだけ荘",
    "kana": "トクベツヨウゴロウジンホームヒダケソウ",
    "address": "熊本県宇城市小川町南海東２０３０番地",
    "lat": 32.5815799,
    "lng": 130.7428534,
    "tel": "0964-34-6300",
    "url": "http:hidakekai.hippy.jp",
    "pref": "熊本県",
    "city": "宇城市",
    "category": "tokuyou",
    "serviceType": "介護老人福祉施設",
    "capacity": 0,
    "openDays": [],
    "openDaysNote": ""
  },
  {
    "id": "4372200313",
    "name": "特別養護老人ホーム蕉夢苑",
    "kana": "トクベツヨウゴロウジンホームショウムエン",
    "address": "熊本県宇城市不知火町長崎740番地",
    "lat": 32.6424023,
    "lng": 130.6465428,
    "tel": "0964-32-5551",
    "url": "https://shoumuen.com",
    "pref": "熊本県",
    "city": "宇城市",
    "category": "tokuyou",
    "serviceType": "介護老人福祉施設",
    "capacity": 50,
    "openDays": [],
    "openDaysNote": ""
  },
  {
    "id": "4371100316",
    "name": "特別養護老人ホーム　照古苑",
    "kana": "トクベツヨウゴロウジンホーム　ショウコエン",
    "address": "熊本県宇土市南段原町１６１－２",
    "lat": 32.6800134,
    "lng": 130.6631907,
    "tel": "0964-22-4100",
    "url": "http://www.hakujitsukai.jp",
    "pref": "熊本県",
    "city": "宇土市",
    "category": "tokuyou",
    "serviceType": "介護老人福祉施設",
    "capacity": 0,
    "openDays": [],
    "openDaysNote": ""
  },
  {
    "id": "4372801722",
    "name": "ユニット型特別養護老人ホ－ムひろやす荘",
    "kana": "ユニットガタトクベツヨウゴロウジンホ－ムヒロヤスソウ",
    "address": "熊本県上益城郡益城町安永1080番地",
    "lat": 32.734,
    "lng": 130.86,
    "tel": "096-286-4192",
    "url": "http://www.jikou-kai.com/hiroyasu",
    "pref": "熊本県",
    "city": "益城町",
    "category": "tokuyou",
    "serviceType": "介護老人福祉施設",
    "capacity": 0,
    "openDays": [],
    "openDaysNote": ""
  },
  {
    "id": "4372801573",
    "name": "特別養護老人ホーム　いこいの里",
    "kana": "トクベツヨウゴロウジンホーム　イコイノサト",
    "address": "熊本県上益城郡益城町福原1988番地1",
    "lat": 32.7829726,
    "lng": 130.8319672,
    "tel": "096-287-5666",
    "url": "http://kinko-kai.jp/",
    "pref": "熊本県",
    "city": "益城町",
    "category": "tokuyou",
    "serviceType": "介護老人福祉施設",
    "capacity": 50,
    "openDays": [],
    "openDaysNote": ""
  },
  {
    "id": "4372800344",
    "name": "特別養護老人ホームひろやす荘",
    "kana": "トクベツヨウゴロウジンホームヒロヤスソウ",
    "address": "熊本県上益城郡益城町大字安永1080番地",
    "lat": 32.7908609,
    "lng": 130.811785,
    "tel": "096-286-4192",
    "url": "http://www.jikou-kai.com/hiroyasu",
    "pref": "熊本県",
    "city": "益城町",
    "category": "tokuyou",
    "serviceType": "介護老人福祉施設",
    "capacity": 0,
    "openDays": [],
    "openDaysNote": ""
  },
  {
    "id": "4372801375",
    "name": "特別養護老人ホーム花へんろ",
    "kana": "トクベツヨウゴロウジンホームハナヘンロ",
    "address": "熊本県上益城郡益城町惣領1670",
    "lat": 32.7876333,
    "lng": 130.8006359,
    "tel": "096-287-8706",
    "url": "https://www.hanahenro.jp/",
    "pref": "熊本県",
    "city": "益城町",
    "category": "tokuyou",
    "serviceType": "介護老人福祉施設",
    "capacity": 50,
    "openDays": [],
    "openDaysNote": ""
  },
  {
    "id": "4372800336",
    "name": "介護老人福祉施設　康寿苑",
    "kana": "カイゴロウジンフクシシセツ　コウジュエン",
    "address": "熊本県上益城郡嘉島町北甘木2073番地",
    "lat": 32.7488365,
    "lng": 130.7710166,
    "tel": "096-237-3001",
    "url": "http://kayuukai.xsrv.jp",
    "pref": "熊本県",
    "city": "嘉島町",
    "category": "tokuyou",
    "serviceType": "介護老人福祉施設",
    "capacity": 0,
    "openDays": [],
    "openDaysNote": ""
  },
  {
    "id": "4372600371",
    "name": "介護老人福祉施設　あさひが丘荘",
    "kana": "カイゴロウジンフクシシセツ　アサヒガオカソウ",
    "address": "熊本県菊池市旭志伊坂４４９番地１",
    "lat": 32.9347365,
    "lng": 130.8323772,
    "tel": "0968-37-3636",
    "url": "http://www.asahigaokasou.or.jp",
    "pref": "熊本県",
    "city": "菊池市",
    "category": "tokuyou",
    "serviceType": "介護老人福祉施設",
    "capacity": 38,
    "openDays": [],
    "openDaysNote": ""
  },
  {
    "id": "4371001167",
    "name": "社会福祉法人東康会特別養護老人ホームつまごめ荘",
    "kana": "シャカイフクシホウジントウコウカイトクベツヨウゴロウジンホームツマゴメソウ",
    "address": "熊本県菊池市今５８番地",
    "lat": 32.9710317,
    "lng": 130.8148683,
    "tel": "0968-25-1600",
    "url": "",
    "pref": "熊本県",
    "city": "菊池市",
    "category": "tokuyou",
    "serviceType": "介護老人福祉施設",
    "capacity": 102,
    "openDays": [],
    "openDaysNote": ""
  },
  {
    "id": "4372600363",
    "name": "特別養護老人ホーム清泉",
    "kana": "トクベツヨウゴロウジンホームセイセン",
    "address": "熊本県菊池市七城町亀尾2429",
    "lat": 32.9553711,
    "lng": 130.768224,
    "tel": "0968-26-4811",
    "url": "https://seisen-aikeikai.wixsite.com/seisen",
    "pref": "熊本県",
    "city": "菊池市",
    "category": "tokuyou",
    "serviceType": "介護老人福祉施設",
    "capacity": 30,
    "openDays": [],
    "openDaysNote": ""
  },
  {
    "id": "4372600959",
    "name": "特別養護老人ホーム泗水苑",
    "kana": "トクベツヨウゴロウジンホームシスイエン",
    "address": "菊池市泗水町永１０２１番地",
    "lat": 32.9260092,
    "lng": 130.8029023,
    "tel": "0968-38-6680",
    "url": "https://www.sisuien.com",
    "pref": "熊本県",
    "city": "菊池市",
    "category": "tokuyou",
    "serviceType": "介護老人福祉施設",
    "capacity": 30,
    "openDays": [],
    "openDaysNote": ""
  },
  {
    "id": "4372600397",
    "name": "特別養護老人ﾎｰﾑ　きほう苑",
    "kana": "トクベツヨウゴロウジンホーム　キホウエン",
    "address": "熊本県菊池郡菊陽町大字辛川1929番地",
    "lat": 32.8473718,
    "lng": 130.8065256,
    "tel": "096-232-1188",
    "url": "http://seiyou-kai.net/",
    "pref": "熊本県",
    "city": "菊陽町",
    "category": "tokuyou",
    "serviceType": "介護老人福祉施設",
    "capacity": 50,
    "openDays": [],
    "openDaysNote": ""
  },
  {
    "id": "4373100785",
    "name": "特別養護老人ホーム千寿園",
    "kana": "トクベツヨウゴロウジンホームセンジュエン",
    "address": "熊本県球磨郡球磨村大字渡乙880番地21",
    "lat": 32.2345940912672,
    "lng": 130.703923508077,
    "tel": "0966-33-0101",
    "url": "https://www.jiaikai1010.or.jp/",
    "pref": "熊本県",
    "city": "球磨村",
    "category": "tokuyou",
    "serviceType": "介護老人福祉施設",
    "capacity": 0,
    "openDays": [],
    "openDaysNote": ""
  },
  {
    "id": "4372400897",
    "name": "特別養護老人ホーム葉山苑",
    "kana": "トクベツヨウゴロウジンホームハヤマエン",
    "address": "熊本県玉名郡玉東町大字木葉３４８番地",
    "lat": 32.914261,
    "lng": 130.6203828,
    "tel": "0968-71-4000",
    "url": "http://www.hayamaen.com",
    "pref": "熊本県",
    "city": "玉東町",
    "category": "tokuyou",
    "serviceType": "介護老人福祉施設",
    "capacity": 0,
    "openDays": [],
    "openDaysNote": ""
  },
  {
    "id": "4372400400",
    "name": "介護老人福祉施設たいめい苑",
    "kana": "カイゴロウジンフクシシセツタイメイエン",
    "address": "熊本県玉名市岱明町古閑３８８番地",
    "lat": 32.9304732,
    "lng": 130.5060098,
    "tel": "0968-57-1220",
    "url": "http://ww7.tiki.ne.jp/~taimeien",
    "pref": "熊本県",
    "city": "玉名市",
    "category": "tokuyou",
    "serviceType": "介護老人福祉施設",
    "capacity": 0,
    "openDays": [],
    "openDaysNote": ""
  },
  {
    "id": "4370601249",
    "name": "個室ユニット型特別養護老人ホームたいめいえん",
    "kana": "コシツユニットガタトクベツヨウゴロウジンホームタイメイエン",
    "address": "熊本県玉名市岱明町古閑388たいめい苑 たいめい苑",
    "lat": 32.9304732,
    "lng": 130.5060098,
    "tel": "0968-57-1220",
    "url": "ww7.tiki.ne.jp/~taimeien/",
    "pref": "熊本県",
    "city": "玉名市",
    "category": "tokuyou",
    "serviceType": "介護老人福祉施設",
    "capacity": 0,
    "openDays": [],
    "openDaysNote": ""
  },
  {
    "id": "4370600324",
    "name": "特別養護老人ホーム　さくら苑",
    "kana": "トクベツヨウゴロウジンホーム　サクラエン",
    "address": "熊本県玉名市伊倉北方1533番地",
    "lat": 32.9141274,
    "lng": 130.574748,
    "tel": "0968-75-1139",
    "url": "http://www.sakura-en.com/",
    "pref": "熊本県",
    "city": "玉名市",
    "category": "tokuyou",
    "serviceType": "介護老人福祉施設",
    "capacity": 0,
    "openDays": [],
    "openDaysNote": ""
  },
  {
    "id": "4372400418",
    "name": "特別養護老人ホーム　慈幸苑",
    "kana": "トクベツヨウゴロウジンホーム　ジコウエン",
    "address": "熊本県玉名市横島町横島2381-1",
    "lat": 32.8793661,
    "lng": 130.5615863,
    "tel": "0968-84-3711",
    "url": "https://souyukai.or.jp/",
    "pref": "熊本県",
    "city": "玉名市",
    "category": "tokuyou",
    "serviceType": "介護老人福祉施設",
    "capacity": null,
    "openDays": [],
    "openDaysNote": ""
  },
  {
    "id": "4370600316",
    "name": "特別養護老人ホーム　岱山苑",
    "kana": "トクベツヨウゴロウジンホーム　タイザンエン",
    "address": "玉名市築地兎町1596番地1",
    "lat": 32.94114138722,
    "lng": 130.533856302933,
    "tel": "0968-74-3361",
    "url": "http://www.taizanen.com",
    "pref": "熊本県",
    "city": "玉名市",
    "category": "tokuyou",
    "serviceType": "介護老人福祉施設",
    "capacity": 80,
    "openDays": [],
    "openDaysNote": ""
  },
  {
    "id": "4372400426",
    "name": "特別養護老人ホーム　有明ホーム",
    "kana": "トクベツヨウゴロウジンホーム　アリアケホーム",
    "address": "熊本県玉名市天水町部田見440番地",
    "lat": 32.885413,
    "lng": 130.5697687,
    "tel": "0968-82-3332",
    "url": "http://www.ariakehome.jp/",
    "pref": "熊本県",
    "city": "玉名市",
    "category": "tokuyou",
    "serviceType": "介護老人福祉施設",
    "capacity": 0,
    "openDays": [],
    "openDaysNote": ""
  },
  {
    "id": "4373100371",
    "name": "特別養護老人ホームにしき園",
    "kana": "トクベツヨウゴロウジンホームニシキエン",
    "address": "熊本県球磨郡錦町大字木上北150番地1",
    "lat": 32.2267016,
    "lng": 130.8131244,
    "tel": "0966-38-3800",
    "url": "http://nisikien.com/",
    "pref": "熊本県",
    "city": "錦町",
    "category": "tokuyou",
    "serviceType": "介護老人福祉施設",
    "capacity": 50,
    "openDays": [],
    "openDaysNote": ""
  },
  {
    "id": "4370104624",
    "name": "特別養護老人ホーム　　みかんの丘",
    "kana": "トクベツヨウゴロウジンホーム　ミカンノオカ",
    "address": "熊本市西区河内町白浜字堀切１４４０－２",
    "lat": 32.8452761559568,
    "lng": 130.601529482717,
    "tel": "096-278-4055",
    "url": "https://mikan-oka.com",
    "pref": "熊本県",
    "city": "熊本市西区",
    "category": "tokuyou",
    "serviceType": "介護老人福祉施設",
    "capacity": 50,
    "openDays": [],
    "openDaysNote": ""
  },
  {
    "id": "4370100671",
    "name": "特別養護老人ホーム　リバーサイド熊本",
    "kana": "トクベツヨウゴロウジンホーム　リバーサイドクマモト",
    "address": "熊本市西区河内町野出１９３６－１",
    "lat": 32.8263721,
    "lng": 130.6274336,
    "tel": "096-277-2288",
    "url": "https://shunkokai.jp",
    "pref": "熊本県",
    "city": "熊本市西区",
    "category": "tokuyou",
    "serviceType": "介護老人福祉施設",
    "capacity": 0,
    "openDays": [],
    "openDaysNote": ""
  },
  {
    "id": "4370112502",
    "name": "特別養護老人ホーム　輝祥苑",
    "kana": "トクベツヨウゴロウジンホーム　キショウエン",
    "address": "熊本県熊本市西区戸坂町23番35号",
    "lat": 53.41291,
    "lng": -8.24388999999996,
    "tel": "096-355-0522",
    "url": "http://www.rissi.or.jp",
    "pref": "熊本県",
    "city": "熊本市西区",
    "category": "tokuyou",
    "serviceType": "介護老人福祉施設",
    "capacity": 0,
    "openDays": [],
    "openDaysNote": ""
  },
  {
    "id": "4370100697",
    "name": "特別養護老人ホーム　聖母の丘",
    "kana": "トクベツヨウゴロウジンホーム　セイボノオカ",
    "address": "熊本市西区島崎６丁目１－２７",
    "lat": 32.8116157,
    "lng": 130.6888539,
    "tel": "096-355-3017",
    "url": "seibonooka.sakura.ne.jp/",
    "pref": "熊本県",
    "city": "熊本市西区",
    "category": "tokuyou",
    "serviceType": "介護老人福祉施設",
    "capacity": 50,
    "openDays": [],
    "openDaysNote": ""
  },
  {
    "id": "4370110019",
    "name": "特別養護老人ホームグッドライフ熊本駅前",
    "kana": "トクベツヨウゴロウジンホーム　グッドライフクマモトエキマエ",
    "address": "熊本市西区春日2丁目1番24号",
    "lat": 32.7888678,
    "lng": 130.6912125,
    "tel": "096－355－0020",
    "url": "http://www.seishoukai-gl.jp",
    "pref": "熊本県",
    "city": "熊本市西区",
    "category": "tokuyou",
    "serviceType": "介護老人福祉施設",
    "capacity": 0,
    "openDays": [],
    "openDaysNote": ""
  },
  {
    "id": "4370102594",
    "name": "特別養護老人ホームさくらの苑",
    "kana": "トクベツヨウゴロウジンホームサクラノソノ",
    "address": "熊本市西区松尾町近津1361番地",
    "lat": 32.8025355,
    "lng": 130.6061826,
    "tel": "096-311-4333",
    "url": "http://ryowakai.com",
    "pref": "熊本県",
    "city": "熊本市西区",
    "category": "tokuyou",
    "serviceType": "介護老人福祉施設",
    "capacity": 0,
    "openDays": [],
    "openDaysNote": ""
  },
  {
    "id": "4370100663",
    "name": "特別養護老人ホーム三和荘",
    "kana": "トクベツヨウゴロウジンホームサンワソウ",
    "address": "熊本県熊本市西区城山大塘4-1-15",
    "lat": 32.7848791,
    "lng": 130.651416,
    "tel": "096-329-6500",
    "url": "http://sanwaso.jp/",
    "pref": "熊本県",
    "city": "熊本市西区",
    "category": "tokuyou",
    "serviceType": "介護老人福祉施設",
    "capacity": 52,
    "openDays": [],
    "openDaysNote": ""
  },
  {
    "id": "4370100580",
    "name": "パウラスホーム",
    "kana": "パウラスホーム",
    "address": "熊本県熊本市中央区神水1丁目14番1号",
    "lat": 32.7849940379436,
    "lng": 130.742819397623,
    "tel": "096-384-1727",
    "url": "http://jiaien.or.jp",
    "pref": "熊本県",
    "city": "熊本市中央区",
    "category": "tokuyou",
    "serviceType": "介護老人福祉施設",
    "capacity": 64,
    "openDays": [],
    "openDaysNote": ""
  },
  {
    "id": "4370100721",
    "name": "花みずき　介護老人福祉施設",
    "kana": "ハナミズキ　　カイゴロウジンフクシシセツ",
    "address": "熊本市中央区出水7丁目９０－１",
    "lat": 32.7737757,
    "lng": 130.7283181,
    "tel": "096-370-6511",
    "url": "http://www.yuriekai.jp/",
    "pref": "熊本県",
    "city": "熊本市中央区",
    "category": "tokuyou",
    "serviceType": "介護老人福祉施設",
    "capacity": 52,
    "openDays": [],
    "openDaysNote": ""
  },
  {
    "id": "4370100648",
    "name": "小規模型ユニット型介護老人福祉施設　リデルホーム黒髪",
    "kana": "ショウキボガタユニットガタカイゴロウジンフクシシセツリデルホームクロカミ",
    "address": "熊本市中央区黒髪５丁目２３番１号",
    "lat": 32.8189855,
    "lng": 130.7307979,
    "tel": "096-343-0489",
    "url": "http://www.riddell-wright.com/",
    "pref": "熊本県",
    "city": "熊本市中央区",
    "category": "tokuyou",
    "serviceType": "介護老人福祉施設",
    "capacity": 30,
    "openDays": [],
    "openDaysNote": ""
  },
  {
    "id": "4370114011",
    "name": "特別養護老人ホーム琴平本町",
    "kana": "トクベツヨウゴロウジンホームコトヒラホンマチ",
    "address": "熊本県熊本市中央区琴平本町10-32",
    "lat": 32.7870448,
    "lng": 130.7045976,
    "tel": "096-362-0100",
    "url": "https://www.kumamoto-houjyukai.jp/",
    "pref": "熊本県",
    "city": "熊本市中央区",
    "category": "tokuyou",
    "serviceType": "介護老人福祉施設",
    "capacity": null,
    "openDays": [],
    "openDaysNote": ""
  },
  {
    "id": "4370111504",
    "name": "ユニット型特別養護老人ホーム　白川の里",
    "kana": "ユニットガタトクベツヨウゴロウジンホーム　シラカワノサト",
    "address": "熊本県熊本市東区小山町２４９３番地",
    "lat": 32.834598,
    "lng": 130.810595,
    "tel": "096-380-5891",
    "url": "http://shirakawa.ed.jp/group/grouplist/shirakawanosato/",
    "pref": "熊本県",
    "city": "熊本市東区",
    "category": "tokuyou",
    "serviceType": "介護老人福祉施設",
    "capacity": 0,
    "openDays": [],
    "openDaysNote": ""
  },
  {
    "id": "4370103741",
    "name": "指定介護老人福祉施設　るり苑",
    "kana": "シテイカイゴロウジンフクシシセツ　ルリエン",
    "address": "熊本市東区上南部1丁目16-36",
    "lat": 32.8354729,
    "lng": 130.7663351,
    "tel": "096-388-2121",
    "url": "http://www.rurien.jimusho.jp",
    "pref": "熊本県",
    "city": "熊本市東区",
    "category": "tokuyou",
    "serviceType": "介護老人福祉施設",
    "capacity": 0,
    "openDays": [],
    "openDaysNote": ""
  },
  {
    "id": "4370100705",
    "name": "特別養護老人ホーム　ヴィラ・ながみね",
    "kana": "トクベツヨウゴロウジンホーム　ヴィラ・ナガミネ",
    "address": "熊本県熊本市東区長嶺南4丁目12番65号",
    "lat": 32.8077953,
    "lng": 130.7749126,
    "tel": "096-387-2200",
    "url": "http://www.vira.or.jp/",
    "pref": "熊本県",
    "city": "熊本市東区",
    "category": "tokuyou",
    "serviceType": "介護老人福祉施設",
    "capacity": 52,
    "openDays": [],
    "openDaysNote": ""
  },
  {
    "id": "4370105043",
    "name": "特別養護老人ホーム　シルバーピアさくら樹",
    "kana": "トクベツヨウゴロウジンホーム　シルバーピアサクラギ",
    "address": "熊本市東区佐土原３丁目１２－２６",
    "lat": 32.7952965,
    "lng": 130.7823177,
    "tel": "096-365-5533",
    "url": "http://www.108kai.com",
    "pref": "熊本県",
    "city": "熊本市東区",
    "category": "tokuyou",
    "serviceType": "介護老人福祉施設",
    "capacity": 0,
    "openDays": [],
    "openDaysNote": ""
  },
  {
    "id": "4370100614",
    "name": "特別養護老人ホーム　バラ苑",
    "kana": "トクベツヨウゴロウジンホーム　バラエン",
    "address": "熊本県熊本市東区小山町1781番地",
    "lat": 32.8318136301475,
    "lng": 130.812241593254,
    "tel": "096-380-2321",
    "url": "https://www.k-nisseikai.jp",
    "pref": "熊本県",
    "city": "熊本市東区",
    "category": "tokuyou",
    "serviceType": "介護老人福祉施設",
    "capacity": 50,
    "openDays": [],
    "openDaysNote": ""
  },
  {
    "id": "4370106801",
    "name": "特別養護老人ホーム　白川の里",
    "kana": "トクベツヨウゴロウジンホーム　シラカワノサト",
    "address": "熊本市東区小山町２４９３番地",
    "lat": 32.8345786,
    "lng": 130.8104506,
    "tel": "096-380-5891",
    "url": "http://shirakawa.ed.jp/group/grouplist/shirakawanosato/",
    "pref": "熊本県",
    "city": "熊本市東区",
    "category": "tokuyou",
    "serviceType": "介護老人福祉施設",
    "capacity": 0,
    "openDays": [],
    "openDaysNote": ""
  },
  {
    "id": "4370105993",
    "name": "特別養護老人ホームたくまの里",
    "kana": "トクベツヨウゴロウジンホウムタクマノサト",
    "address": "熊本市東区御領1丁目１３－２６",
    "lat": 32.8217797,
    "lng": 130.7616106,
    "tel": "096-382-3222",
    "url": "http://www.takumanosato.com/",
    "pref": "熊本県",
    "city": "熊本市東区",
    "category": "tokuyou",
    "serviceType": "介護老人福祉施設",
    "capacity": 50,
    "openDays": [],
    "openDaysNote": ""
  },
  {
    "id": "4370100739",
    "name": "特別養護老人ホームハーモニー",
    "kana": "トクベツヨウゴロウジンホームハーモニー",
    "address": "熊本市東区秋津町秋田171-3",
    "lat": 32.7660569,
    "lng": 130.7662744,
    "tel": "096-360-5050",
    "url": "http://harmony-k.or.jp/",
    "pref": "熊本県",
    "city": "熊本市東区",
    "category": "tokuyou",
    "serviceType": "介護老人福祉施設",
    "capacity": 52,
    "openDays": [],
    "openDaysNote": ""
  },
  {
    "id": "4370112965",
    "name": "特別養護老人ホーム画図重富苑",
    "kana": "トクベツヨウゴロウジンホームエズシゲトミエン",
    "address": "画図町重富968番",
    "lat": 32.7561349305812,
    "lng": 130.73348932324,
    "tel": "096-370-6655",
    "url": "https://k-zenrinkai.or.jp/",
    "pref": "熊本県",
    "city": "熊本市東区",
    "category": "tokuyou",
    "serviceType": "介護老人福祉施設",
    "capacity": 0,
    "openDays": [],
    "openDaysNote": ""
  },
  {
    "id": "4370100622",
    "name": "特別養護老人ホーム　みゆき園",
    "kana": "トクベツヨウゴロウジンホーム　ミユキエン",
    "address": "熊本県熊本市南区御幸笛田6丁目6番71号",
    "lat": 32.7585072,
    "lng": 130.7105952,
    "tel": "096-379-3666",
    "url": "http://www.miyukinosato.or.jp",
    "pref": "熊本県",
    "city": "熊本市南区",
    "category": "tokuyou",
    "serviceType": "介護老人福祉施設",
    "capacity": 0,
    "openDays": [],
    "openDaysNote": ""
  },
  {
    "id": "4372300386",
    "name": "特別養護老人ホーム　ゆうとぴあ",
    "kana": "トクベツヨウゴロウジンホーム　ユウトピア",
    "address": "熊本県熊本市南区富合町古閑９９４－１",
    "lat": 32.7093357,
    "lng": 130.6765278,
    "tel": "096-358-4117",
    "url": "wasoukai.com",
    "pref": "熊本県",
    "city": "熊本市南区",
    "category": "tokuyou",
    "serviceType": "介護老人福祉施設",
    "capacity": 0,
    "openDays": [],
    "openDaysNote": ""
  },
  {
    "id": "4372300378",
    "name": "特別養護老人ホーム　祥麟館",
    "kana": "トクベツヨウゴロウジンホーム　ショウリンカン",
    "address": "熊本県熊本市南区城南町沈目１５１３",
    "lat": 32.697002,
    "lng": 130.7506923,
    "tel": "0964-28-7711",
    "url": "http://www.k-group.jp/shorin/index.html",
    "pref": "熊本県",
    "city": "熊本市南区",
    "category": "tokuyou",
    "serviceType": "介護老人福祉施設",
    "capacity": 0,
    "openDays": [],
    "openDaysNote": ""
  },
  {
    "id": "4370100630",
    "name": "特別養護老人ホーム　天寿園",
    "kana": "トクベツヨウゴロウジンホーム　テンジュエン",
    "address": "熊本市南区奥古閑町４３７５番１",
    "lat": 32.7294554,
    "lng": 130.6208389,
    "tel": "096-223-0533",
    "url": "https://fuku-juryo.jp",
    "pref": "熊本県",
    "city": "熊本市南区",
    "category": "tokuyou",
    "serviceType": "介護老人福祉施設",
    "capacity": 51,
    "openDays": [],
    "openDaysNote": ""
  },
  {
    "id": "4370105738",
    "name": "特別養護老人ホーム　力合つくし庵",
    "kana": "トクベツヨウゴロウジンホーム　リキゴウツクシアン",
    "address": "熊本市南区合志４丁目３番５０号",
    "lat": 32.7549347,
    "lng": 130.6746622,
    "tel": "096-357-2941",
    "url": "http://www.sanko-kai.or.jp/",
    "pref": "熊本県",
    "city": "熊本市南区",
    "category": "tokuyou",
    "serviceType": "介護老人福祉施設",
    "capacity": 0,
    "openDays": [],
    "openDaysNote": ""
  },
  {
    "id": "4370100713",
    "name": "特別養護老人ホームこぼり苑",
    "kana": "トクベツヨウゴロウジンホームコボリエン",
    "address": "熊本市南区護藤町１５８６番地",
    "lat": 32.7492907,
    "lng": 130.6734625,
    "tel": "096-358-5688",
    "url": "http://www.koborien.or.jp",
    "pref": "熊本県",
    "city": "熊本市南区",
    "category": "tokuyou",
    "serviceType": "介護老人福祉施設",
    "capacity": 0,
    "openDays": [],
    "openDaysNote": ""
  },
  {
    "id": "4370100655",
    "name": "特別養護老人ホームシルバー日吉",
    "kana": "トクベツヨウゴロウジンホームシルバーヒヨシ",
    "address": "熊本市南区平成2丁目6番9号",
    "lat": 32.7781719,
    "lng": 130.7026757,
    "tel": "096-370-0055",
    "url": "http://care-net.biz/43/silver",
    "pref": "熊本県",
    "city": "熊本市南区",
    "category": "tokuyou",
    "serviceType": "介護老人福祉施設",
    "capacity": 0,
    "openDays": [],
    "openDaysNote": ""
  },
  {
    "id": "4370109813",
    "name": "特別養護老人ホーム川尻ヒルズ",
    "kana": "トクベツヨウゴロウジンホームカワシリヒルズ",
    "address": "熊本市南区南高江7丁目3番ケアタウン　かわしり ケアタウン　かわしり",
    "lat": 32.7444692641063,
    "lng": 130.686355325131,
    "tel": "096-288-2806",
    "url": "http://caretown-kawashiri.jp",
    "pref": "熊本県",
    "city": "熊本市南区",
    "category": "tokuyou",
    "serviceType": "介護老人福祉施設",
    "capacity": 60,
    "openDays": [],
    "openDaysNote": ""
  },
  {
    "id": "4350180321",
    "name": "うえきのさと",
    "kana": "ウエキノ郷",
    "address": "熊本県熊本市北区小糸山町752-1",
    "lat": 32.8918033,
    "lng": 130.6922175,
    "tel": "096-275-1600",
    "url": "https://www.uekinosato.terao.or.jp/",
    "pref": "熊本県",
    "city": "熊本市北区",
    "category": "tokuyou",
    "serviceType": "介護老人福祉施設",
    "capacity": 0,
    "openDays": [],
    "openDaysNote": ""
  },
  {
    "id": "4370102412",
    "name": "特別養護老人ホーム　あいこう",
    "kana": "トクベツヨウゴロウジンホーム　アイコウ",
    "address": "熊本県熊本市北区清水新地三丁目5番33号",
    "lat": 32.847944,
    "lng": 130.7395113,
    "tel": "096-348-0661",
    "url": "http://www.aikou.or.jp",
    "pref": "熊本県",
    "city": "熊本市北区",
    "category": "tokuyou",
    "serviceType": "介護老人福祉施設",
    "capacity": null,
    "openDays": [],
    "openDaysNote": ""
  },
  {
    "id": "4370110647",
    "name": "特別養護老人ホーム　かなんの杜",
    "kana": "トクベツヨウゴロウジンホーム　カナンノモリ",
    "address": "熊本県熊本市北区植木町植木４３２番地",
    "lat": 32.8948986279677,
    "lng": 130.690698959,
    "tel": "０９６－２７２－３３００",
    "url": "http/www.kanan.or.jp",
    "pref": "熊本県",
    "city": "熊本市北区",
    "category": "tokuyou",
    "serviceType": "介護老人福祉施設",
    "capacity": 60,
    "openDays": [],
    "openDaysNote": ""
  },
  {
    "id": "4370100689",
    "name": "特別養護老人ホーム　コスモス・ファミリー熊本",
    "kana": "トクベツヨウゴロウジンホーム　コスモス・ファミリークマモト",
    "address": "熊本市北区太郎迫町144-1",
    "lat": 32.8600058,
    "lng": 130.6723853,
    "tel": "096-245-2800",
    "url": "http://www.shafuku-aiseikai.or.jp/",
    "pref": "熊本県",
    "city": "熊本市北区",
    "category": "tokuyou",
    "serviceType": "介護老人福祉施設",
    "capacity": 52,
    "openDays": [],
    "openDaysNote": ""
  },
  {
    "id": "4372500365",
    "name": "特別養護老人ホーム　黎明館",
    "kana": "トクベツヨウゴロウジンホーム　レイメイカン",
    "address": "熊本県熊本市北区植木町豊田１８７番地",
    "lat": 32.9358215663995,
    "lng": 130.7129338433,
    "tel": "096-272-5055",
    "url": "http://www/sanpo-fukushi.com/kanri/",
    "pref": "熊本県",
    "city": "熊本市北区",
    "category": "tokuyou",
    "serviceType": "介護老人福祉施設",
    "capacity": 50,
    "openDays": [],
    "openDaysNote": ""
  },
  {
    "id": "4370100598",
    "name": "特別養護老人ホームくわのみ荘",
    "kana": "トクベツヨウゴロウジンホームクワノミソウ",
    "address": "熊本市北区鹿子木町４０５",
    "lat": 32.8722271,
    "lng": 130.6963302,
    "tel": "096-245-1447",
    "url": "http://www.kuwa.or.jp",
    "pref": "熊本県",
    "city": "熊本市北区",
    "category": "tokuyou",
    "serviceType": "介護老人福祉施設",
    "capacity": 0,
    "openDays": [],
    "openDaysNote": ""
  },
  {
    "id": "4370103097",
    "name": "特別養護老人ホームさわらび",
    "kana": "トクベツヨウゴロウジンホームサワラビ",
    "address": "熊本県熊本市北区弓削４丁目８番１号",
    "lat": 32.8543446278927,
    "lng": 130.78177564418,
    "tel": "096-386-3855",
    "url": "https://kumamotokikujyukai.or.jp/",
    "pref": "熊本県",
    "city": "熊本市北区",
    "category": "tokuyou",
    "serviceType": "介護老人福祉施設",
    "capacity": 54,
    "openDays": [],
    "openDaysNote": ""
  },
  {
    "id": "4370100606",
    "name": "特別養護老人ホーム天望庵",
    "kana": "トクベツヨウゴロウジンホームテンボウアン",
    "address": "熊本県熊本市北区龍田陳内1丁目3番30号",
    "lat": 32.8227615680184,
    "lng": 130.745754419049,
    "tel": "096-339-7111",
    "url": "https://jiyukai/or.jp/",
    "pref": "熊本県",
    "city": "熊本市北区",
    "category": "tokuyou",
    "serviceType": "介護老人福祉施設",
    "capacity": 0,
    "openDays": [],
    "openDaysNote": ""
  },
  {
    "id": "4372800682",
    "name": "特別養護老人ホーム　グリーンヒルみふね",
    "kana": "トクベツヨウゴロウジンホーム　グリーンヒルミフネ",
    "address": "熊本県上益城郡御船町辺田見840-9",
    "lat": 32.7146991,
    "lng": 130.8124436,
    "tel": "096-281-7777",
    "url": "https://greenhillmifune.com/",
    "pref": "熊本県",
    "city": "御船町",
    "category": "tokuyou",
    "serviceType": "介護老人福祉施設",
    "capacity": 50,
    "openDays": [],
    "openDaysNote": ""
  },
  {
    "id": "4372800351",
    "name": "特別養護老人ホーム　桜の丘",
    "kana": "トクベツヨウゴロウジンホーム　サクラノオカ",
    "address": "熊本県上益城郡甲佐町大字西寒野1161番地",
    "lat": 32.6387062,
    "lng": 130.8122107,
    "tel": "096-234-1191",
    "url": "http://www.sakuranooka.or.jp",
    "pref": "熊本県",
    "city": "甲佐町",
    "category": "tokuyou",
    "serviceType": "介護老人福祉施設",
    "capacity": 40,
    "openDays": [],
    "openDaysNote": ""
  },
  {
    "id": "4370401335",
    "name": "ユニット型特別養護老人ホームオレンジヒル小岱",
    "kana": "ユニットガタトクベツヨウゴロウジンホームオレンジヒルショウタイ",
    "address": "熊本県荒尾市樺２５１６番地",
    "lat": 32.9662332,
    "lng": 130.5002538,
    "tel": "0968-68-8111",
    "url": "ｈｔｔｐ://ks-orange.jp/",
    "pref": "熊本県",
    "city": "荒尾市",
    "category": "tokuyou",
    "serviceType": "介護老人福祉施設",
    "capacity": 0,
    "openDays": [],
    "openDaysNote": ""
  },
  {
    "id": "4370400329",
    "name": "特別養護老人ホーム　オレンジヒル小岱",
    "kana": "トクベツヨウゴロウジンホーム　オレンジヒルショウタイ",
    "address": "熊本県荒尾市樺２５１６番地",
    "lat": 32.9662332,
    "lng": 130.5002538,
    "tel": "0968-68-8100",
    "url": "http://ks-orange.jp/",
    "pref": "熊本県",
    "city": "荒尾市",
    "category": "tokuyou",
    "serviceType": "介護老人福祉施設",
    "capacity": 0,
    "openDays": [],
    "openDaysNote": ""
  },
  {
    "id": "4370400311",
    "name": "白寿園",
    "kana": "ハクジュエン",
    "address": "熊本県荒尾市一部字鴻巣２１２２番地",
    "lat": 32.9686958,
    "lng": 130.4543431,
    "tel": "0968-68-0176",
    "url": "http://www.hakujuen.jp",
    "pref": "熊本県",
    "city": "荒尾市",
    "category": "tokuyou",
    "serviceType": "介護老人福祉施設",
    "capacity": 73,
    "openDays": [],
    "openDaysNote": ""
  },
  {
    "id": "4372700429",
    "name": "特別養護老人ホーム梅香苑",
    "kana": "トクベツヨウゴロウジンホームバイコウエン",
    "address": "熊本県阿蘇郡高森町高森3175番地",
    "lat": 32.8440417,
    "lng": 131.1436891,
    "tel": "0967-62-3111",
    "url": "https://gakujyukai.com/",
    "pref": "熊本県",
    "city": "高森町",
    "category": "tokuyou",
    "serviceType": "介護老人福祉施設",
    "capacity": 80,
    "openDays": [],
    "openDaysNote": ""
  },
  {
    "id": "4372600405",
    "name": "指定介護老人福祉施設　紀水ナーシングホーム",
    "kana": "シテイカイゴロウジンフクシシセツ　キスイナーシングホーム",
    "address": "熊本県合志市竹迫2224番地",
    "lat": 32.8791078,
    "lng": 130.7837297,
    "tel": "096-248-7110",
    "url": "",
    "pref": "熊本県",
    "city": "合志市",
    "category": "tokuyou",
    "serviceType": "介護老人福祉施設",
    "capacity": 0,
    "openDays": [],
    "openDaysNote": ""
  },
  {
    "id": "4371600323",
    "name": "特別養護老人ホーム　菊香園1.2番館",
    "kana": "トクベツヨウゴロウジンホームキクカエン",
    "address": "熊本県合志市御代志718-4",
    "lat": 32.9017308,
    "lng": 130.7572951,
    "tel": "096-242-0138",
    "url": "ｈｔｔｐ：//www.ｓａｎｓｈｉｋａｉｋｉｋｕｋａｅｎ．ｏｒ．ｊｐ",
    "pref": "熊本県",
    "city": "合志市",
    "category": "tokuyou",
    "serviceType": "介護老人福祉施設",
    "capacity": 78,
    "openDays": [],
    "openDaysNote": ""
  },
  {
    "id": "4372600413",
    "name": "特別養護老人ホーム菊香園",
    "kana": "トクベツヨウゴロウジンホームキクカエン",
    "address": "熊本県合志市御代志718-4",
    "lat": 32.9017336,
    "lng": 130.7572812,
    "tel": "096-242-0138",
    "url": "http://www.sanshikaikikukaen.or.jp",
    "pref": "熊本県",
    "city": "合志市",
    "category": "tokuyou",
    "serviceType": "介護老人福祉施設",
    "capacity": 42,
    "openDays": [],
    "openDaysNote": ""
  },
  {
    "id": "4370801088",
    "name": "ユニット型特別養護老人ホーム　一本松荘",
    "kana": "ユニットガタトクベツヨウゴロウジンホーム　イッポンマツソウ",
    "address": "熊本県山鹿市鹿本町津袋450",
    "lat": 33.0120959,
    "lng": 130.7545901,
    "tel": "0968-46-2524",
    "url": "http://www.ipponmatu.com/",
    "pref": "熊本県",
    "city": "山鹿市",
    "category": "tokuyou",
    "serviceType": "介護老人福祉施設",
    "capacity": null,
    "openDays": [],
    "openDaysNote": ""
  },
  {
    "id": "4372500340",
    "name": "介護老人福祉施設　矢筈荘",
    "kana": "カイゴロウジンフクシシセツ　ヤハズソウ",
    "address": "熊本県山鹿市菊鹿町長502番地",
    "lat": 33.0422239,
    "lng": 130.7619553,
    "tel": "0968-48-2111",
    "url": "http://yahazusou.com/",
    "pref": "熊本県",
    "city": "山鹿市",
    "category": "tokuyou",
    "serviceType": "介護老人福祉施設",
    "capacity": 0,
    "openDays": [],
    "openDaysNote": ""
  },
  {
    "id": "4372500647",
    "name": "特別養護老人ホーム　あいさと",
    "kana": "トクベツヨウゴロウジンホーム　アイサト",
    "address": "熊本県山鹿市鹿央町合里1039番地",
    "lat": 32.9782928,
    "lng": 130.6755695,
    "tel": "0968-36-2333",
    "url": "http://www.keisho-kai.jp",
    "pref": "熊本県",
    "city": "山鹿市",
    "category": "tokuyou",
    "serviceType": "介護老人福祉施設",
    "capacity": 30,
    "openDays": [],
    "openDaysNote": ""
  },
  {
    "id": "4370800320",
    "name": "特別養護老人ホーム　チブサン荘",
    "kana": "トクベツヨウゴロウジンホ-ム　チブサンソウ",
    "address": "熊本県山鹿市鍋田1888番地1",
    "lat": 33.0219495,
    "lng": 130.6666859,
    "tel": "0968-43-6711",
    "url": "http://tibusansou.com/",
    "pref": "熊本県",
    "city": "山鹿市",
    "category": "tokuyou",
    "serviceType": "介護老人福祉施設",
    "capacity": 0,
    "openDays": [],
    "openDaysNote": ""
  },
  {
    "id": "4372500357",
    "name": "特別養護老人ホーム　一本松荘",
    "kana": "トクベツヨウゴロウジンホーム　イッポンマツソウ",
    "address": "熊本県山鹿市鹿本町津袋４５０",
    "lat": 33.0114931,
    "lng": 130.7541235,
    "tel": "0968-46-2524",
    "url": "http://www.ipponmatu.com/",
    "pref": "熊本県",
    "city": "山鹿市",
    "category": "tokuyou",
    "serviceType": "介護老人福祉施設",
    "capacity": 0,
    "openDays": [],
    "openDaysNote": ""
  },
  {
    "id": "4372500332",
    "name": "特別養護老人ホームあやすぎ荘",
    "kana": "トクベツヨウゴロウジンホームアヤスギソウ",
    "address": "熊本県山鹿市鹿北町岩野５４９７番地の２",
    "lat": 33.1082473,
    "lng": 130.6894727,
    "tel": "0968-32-2117",
    "url": "http://www.ayasugisou.com",
    "pref": "熊本県",
    "city": "山鹿市",
    "category": "tokuyou",
    "serviceType": "介護老人福祉施設",
    "capacity": 0,
    "openDays": [],
    "openDaysNote": ""
  },
  {
    "id": "4370800338",
    "name": "特別養護老人ホーム愛隣の家",
    "kana": "トクベツヨウゴロウジンホームアイリンノイエ",
    "address": "熊本県山鹿市津留2027",
    "lat": 33.0557909,
    "lng": 130.6855556,
    "tel": "0968-43-2770",
    "url": "http://aileans.com/ie/",
    "pref": "熊本県",
    "city": "山鹿市",
    "category": "tokuyou",
    "serviceType": "介護老人福祉施設",
    "capacity": 0,
    "openDays": [],
    "openDaysNote": ""
  },
  {
    "id": "4372700411",
    "name": "特別養護老人ホーム　蘇望苑",
    "kana": "トクベツヨウゴロウジンホーム　ソボウエン",
    "address": "熊本県上益城郡山都町滝上２２３－１",
    "lat": 32.6886658,
    "lng": 131.1402479,
    "tel": "0967-83-0870",
    "url": "https://sobouen.com",
    "pref": "熊本県",
    "city": "山都町",
    "category": "tokuyou",
    "serviceType": "介護老人福祉施設",
    "capacity": 30,
    "openDays": [],
    "openDaysNote": ""
  },
  {
    "id": "4372800369",
    "name": "特別養護老人ホーム　矢部大矢荘",
    "kana": "トクベツヨウゴロウジンホーム　ヤベオオヤソウ",
    "address": "熊本県上益城郡山都町北中島2684-2",
    "lat": 32.7334379,
    "lng": 130.9376664,
    "tel": "0967-75-0333",
    "url": "http://www.ooyasou.com",
    "pref": "熊本県",
    "city": "山都町",
    "category": "tokuyou",
    "serviceType": "介護老人福祉施設",
    "capacity": 0,
    "openDays": [],
    "openDaysNote": ""
  },
  {
    "id": "4373200395",
    "name": "特別養護老人ホームひかりの園",
    "kana": "トクベツヨウゴロウジンホームヒカリノソノ",
    "address": "熊本県上天草市松島町今泉1004-1",
    "lat": 32.4900876,
    "lng": 130.4234735,
    "tel": "0969-56-1900",
    "url": "http://hikarinosono1995.com",
    "pref": "熊本県",
    "city": "上天草市",
    "category": "tokuyou",
    "serviceType": "介護老人福祉施設",
    "capacity": 50,
    "openDays": [],
    "openDaysNote": ""
  },
  {
    "id": "4373200429",
    "name": "特別養護老人ホーム相生荘（ユニット型）",
    "kana": "トクベツヨウゴロウジンホウムアイオイソウユニットガタ",
    "address": "熊本県上天草市龍ヶ岳町大道158番地",
    "lat": 32.3947693,
    "lng": 130.3512406,
    "tel": "0969-63-0131",
    "url": "",
    "pref": "熊本県",
    "city": "上天草市",
    "category": "tokuyou",
    "serviceType": "介護老人福祉施設",
    "capacity": 0,
    "openDays": [],
    "openDaysNote": ""
  },
  {
    "id": "4373200387",
    "name": "特別養護老人ホーム南風苑",
    "kana": "トクベツヨウゴロウジンホームナンプウエン",
    "address": "熊本県上天草市大矢野町登立８５３１番地",
    "lat": 32.5936957896916,
    "lng": 130.432733284656,
    "tel": "0964-56-0263",
    "url": "https://nanpuen.com/",
    "pref": "熊本県",
    "city": "上天草市",
    "category": "tokuyou",
    "serviceType": "介護老人福祉施設",
    "capacity": 80,
    "openDays": [],
    "openDaysNote": ""
  },
  {
    "id": "4373200411",
    "name": "特別養護老人ホーム翔洋苑",
    "kana": "トクベツヨウゴロウジンホウムショウヨウエン",
    "address": "熊本県上天草市姫戸町姫浦字西成川内3055番地106",
    "lat": 32.4555463,
    "lng": 130.4178056,
    "tel": "0969-58-3611",
    "url": "http://www.shoyoen.or.jp/",
    "pref": "熊本県",
    "city": "上天草市",
    "category": "tokuyou",
    "serviceType": "介護老人福祉施設",
    "capacity": 0,
    "openDays": [],
    "openDaysNote": ""
  },
  {
    "id": "4370300347",
    "name": "特別養護老人ホーム　聖心ホーム",
    "kana": "トクベツヨウゴロウジンホーム　セイシンホーム",
    "address": "熊本県人吉市寺町９番地5",
    "lat": 32.2067298,
    "lng": 130.7617407,
    "tel": "0966-23-3320",
    "url": "",
    "pref": "熊本県",
    "city": "人吉市",
    "category": "tokuyou",
    "serviceType": "介護老人福祉施設",
    "capacity": 0,
    "openDays": [],
    "openDaysNote": ""
  },
  {
    "id": "4370301121",
    "name": "特別養護老人ホーム龍生園",
    "kana": "トクベツヨウゴロウジンホームリュウセイエン",
    "address": "熊本県人吉市下原田町字瓜生田字若宮１０５７-９",
    "lat": 32.2305263105504,
    "lng": 130.71957566198,
    "tel": "0966-22-6621",
    "url": "http://ryuseien.jp",
    "pref": "熊本県",
    "city": "人吉市",
    "category": "tokuyou",
    "serviceType": "介護老人福祉施設",
    "capacity": 117,
    "openDays": [],
    "openDaysNote": ""
  },
  {
    "id": "4373100918",
    "name": "特別養護老人ホーム　桜の里",
    "kana": "トクベツヨウゴロウジンホーム　サクラノサト",
    "address": "熊本県球磨郡水上村大字岩野2658番地１",
    "lat": 32.3143423,
    "lng": 131.0095459,
    "tel": "0966-44-0770",
    "url": "oyakuen-g.or.jp",
    "pref": "熊本県",
    "city": "水上村",
    "category": "tokuyou",
    "serviceType": "介護老人福祉施設",
    "capacity": 0,
    "openDays": [],
    "openDaysNote": ""
  },
  {
    "id": "4370500839",
    "name": "特別養護老人ホーム　白梅の杜",
    "kana": "トクベツヨウゴロウジンホーム　シラウメノモリ",
    "address": "熊本県水俣市古賀町２丁目５－３２",
    "lat": 32.2126991,
    "lng": 130.3982488,
    "tel": "0966-63-1223",
    "url": "http://www.shiraumesou.com/",
    "pref": "熊本県",
    "city": "水俣市",
    "category": "tokuyou",
    "serviceType": "介護老人福祉施設",
    "capacity": 0,
    "openDays": [],
    "openDaysNote": ""
  },
  {
    "id": "4370500300",
    "name": "特別養護老人ホーム　白梅荘",
    "kana": "トクベツヨウゴロウジンホーム　シラウメソウ",
    "address": "熊本県水俣市古賀町２丁目５番３１号",
    "lat": 32.2130010247851,
    "lng": 130.398180827339,
    "tel": "0966-63-4715",
    "url": "http://www.shiraumesou.com",
    "pref": "熊本県",
    "city": "水俣市",
    "category": "tokuyou",
    "serviceType": "介護老人福祉施設",
    "capacity": 0,
    "openDays": [],
    "openDaysNote": ""
  },
  {
    "id": "4372700452",
    "name": "特別養護老人ホームみどりの館",
    "kana": "トクベツヨウゴロウジンホーム　ミドリノヤカタ",
    "address": "熊本県阿蘇郡西原村布田897番地1",
    "lat": 32.8294945,
    "lng": 130.883587,
    "tel": "096-279-4825",
    "url": "https://seijinkai-midori.org/",
    "pref": "熊本県",
    "city": "西原村",
    "category": "tokuyou",
    "serviceType": "介護老人福祉施設",
    "capacity": 40,
    "openDays": [],
    "openDaysNote": ""
  },
  {
    "id": "4373100421",
    "name": "特別養護老人ホーム川辺川園",
    "kana": "トクベツヨウゴロウジンホ－ムカワベガワエン",
    "address": "熊本県球磨郡相良村大字川辺1771番地",
    "lat": 32.2568712,
    "lng": 130.81556,
    "tel": "0966-35-0861",
    "url": "www.pe-toru.or.jp",
    "pref": "熊本県",
    "city": "相良村",
    "category": "tokuyou",
    "serviceType": "介護老人福祉施設",
    "capacity": 0,
    "openDays": [],
    "openDaysNote": ""
  },
  {
    "id": "4373100405",
    "name": "特別養護老人ホーム　あずみ野",
    "kana": "トクベツヨウゴロウジンホーム　アズミノ",
    "address": "熊本県球磨郡多良木町多良木２５７－１",
    "lat": 32.2666918,
    "lng": 130.9438634,
    "tel": "0966-42-6400",
    "url": "http://azumino.k-vihara.jp",
    "pref": "熊本県",
    "city": "多良木町",
    "category": "tokuyou",
    "serviceType": "介護老人福祉施設",
    "capacity": 0,
    "openDays": [],
    "openDaysNote": ""
  },
  {
    "id": "4373101304",
    "name": "特別養護老人ホームあずみ野",
    "kana": "トクベツヨウゴロウジンホームアズミノ",
    "address": "熊本県球磨郡多良木町多良木257-1",
    "lat": 32.2666918,
    "lng": 130.9438634,
    "tel": "0966-42-6400",
    "url": "http://azumino.k-vihara.jp",
    "pref": "熊本県",
    "city": "多良木町",
    "category": "tokuyou",
    "serviceType": "介護老人福祉施設",
    "capacity": 0,
    "openDays": [],
    "openDaysNote": ""
  },
  {
    "id": "4372600389",
    "name": "特別養護老人ホーム　つつじ山荘",
    "kana": "トクベツヨウゴロウジンホーム　ツツジサンソウ",
    "address": "熊本県菊池郡大津町大字大津2061番地",
    "lat": 32.8820814,
    "lng": 130.87615,
    "tel": "096-293-4014",
    "url": "http://kaigocsc.co.jp/tutuji",
    "pref": "熊本県",
    "city": "大津町",
    "category": "tokuyou",
    "serviceType": "介護老人福祉施設",
    "capacity": 110,
    "openDays": [],
    "openDaysNote": ""
  },
  {
    "id": "4372400467",
    "name": "特別養護老人ホーム　月華苑",
    "kana": "トクベツヨウゴロウジンホーム　ゲッカエン",
    "address": "熊本県玉名郡長洲町清源寺1060",
    "lat": 32.9291448,
    "lng": 130.4646489,
    "tel": "0968-69-2018",
    "url": "https://gekka-en.com/",
    "pref": "熊本県",
    "city": "長洲町",
    "category": "tokuyou",
    "serviceType": "介護老人福祉施設",
    "capacity": 50,
    "openDays": [],
    "openDaysNote": ""
  },
  {
    "id": "4373000787",
    "name": "社会福祉法人清風会　特別養護老人ホームあけぼの苑　よらんかな",
    "kana": "シャカイフクシホウジンセイフウカイトクベツヨウゴロウジンホーム　アケボノエン　ヨランカナ",
    "address": "熊本県葦北郡津奈木町大字岩城1520番地",
    "lat": 32.2282589,
    "lng": 130.4552843,
    "tel": "0966-78-4070",
    "url": "ａｋｅｂｏｎｏ．ｏｒ．ｊｐ",
    "pref": "熊本県",
    "city": "津奈木町",
    "category": "tokuyou",
    "serviceType": "介護老人福祉施設",
    "capacity": 0,
    "openDays": [],
    "openDaysNote": ""
  },
  {
    "id": "4373000365",
    "name": "特別養護老人ホーム　あけぼの苑",
    "kana": "トクベツヨウゴロウジンホーム　アケボノエン",
    "address": "熊本県葦北郡津奈木町大字岩城1520番地",
    "lat": 32.2282589,
    "lng": 130.4552843,
    "tel": "0966-78-4070",
    "url": "akebonoenn.or.jp",
    "pref": "熊本県",
    "city": "津奈木町",
    "category": "tokuyou",
    "serviceType": "介護老人福祉施設",
    "capacity": 0,
    "openDays": [],
    "openDaysNote": ""
  },
  {
    "id": "4370700330",
    "name": "ユニット型特別養護老人ホーム慈晃園",
    "kana": "ユニットガタトクベツヨウゴロウジンホームジコウエン",
    "address": "熊本県天草市佐伊津町928",
    "lat": 32.4860771,
    "lng": 130.1941369,
    "tel": "0969-23-6610",
    "url": "http://www.jikouen2016.com",
    "pref": "熊本県",
    "city": "天草市",
    "category": "tokuyou",
    "serviceType": "介護老人福祉施設",
    "capacity": 90,
    "openDays": [],
    "openDaysNote": ""
  },
  {
    "id": "4371500788",
    "name": "ユニット型特別養護老人ホーム明照園",
    "kana": "ユニットガタトクベツヨウゴロウジンホーム　メイショウエン",
    "address": "熊本県天草市久玉町1273番地1",
    "lat": 32.218273,
    "lng": 130.0288476,
    "tel": "0969-73-3245",
    "url": "http//meishoen.com",
    "pref": "熊本県",
    "city": "天草市",
    "category": "tokuyou",
    "serviceType": "介護老人福祉施設",
    "capacity": 30,
    "openDays": [],
    "openDaysNote": ""
  },
  {
    "id": "4373200502",
    "name": "特別養護老人ホーム　実相園",
    "kana": "トクベツヨウゴロウジンホーム　ジッソウエン",
    "address": "熊本県天草市河浦町河浦1971",
    "lat": 32.3065538081352,
    "lng": 130.065644803041,
    "tel": "0969-76-0355",
    "url": "https://jissouen.sakura.ne.jp",
    "pref": "熊本県",
    "city": "天草市",
    "category": "tokuyou",
    "serviceType": "介護老人福祉施設",
    "capacity": 0,
    "openDays": [],
    "openDaysNote": ""
  },
  {
    "id": "4373200460",
    "name": "特別養護老人ホーム　新和苑",
    "kana": "トクベツヨウゴロウジンホーム　シンワエン",
    "address": "熊本県天草市新和町小宮地７６３番地２",
    "lat": 32.3715869,
    "lng": 130.1858445,
    "tel": "0969-46-3838",
    "url": "http://www.shinwaen.net/",
    "pref": "熊本県",
    "city": "天草市",
    "category": "tokuyou",
    "serviceType": "介護老人福祉施設",
    "capacity": null,
    "openDays": [],
    "openDaysNote": ""
  },
  {
    "id": "4373200452",
    "name": "特別養護老人ホーム　梅寿荘",
    "kana": "トクベツヨウゴロウジンホーム　バイジュソウ",
    "address": "熊本県天草市栖本町湯船原661番地",
    "lat": 32.4164203,
    "lng": 130.2770939,
    "tel": "0969-66-2132",
    "url": "http://www.baijuso.sakura.ne.jp/",
    "pref": "熊本県",
    "city": "天草市",
    "category": "tokuyou",
    "serviceType": "介護老人福祉施設",
    "capacity": 30,
    "openDays": [],
    "openDaysNote": ""
  },
  {
    "id": "4373200445",
    "name": "特別養護老人ホーム愛愛園",
    "kana": "トクベツヨウゴロウジンホーム　アイアイエン",
    "address": "熊本県天草市倉岳町棚底８５０番地１０５",
    "lat": 32.416664,
    "lng": 130.3457647,
    "tel": "0969-64-3366",
    "url": "",
    "pref": "熊本県",
    "city": "天草市",
    "category": "tokuyou",
    "serviceType": "介護老人福祉施設",
    "capacity": 30,
    "openDays": [],
    "openDaysNote": ""
  },
  {
    "id": "4373200437",
    "name": "特別養護老人ホーム御所浦苑",
    "kana": "トクベツヨウゴロウジンホーム　ゴショウラエン",
    "address": "熊本県天草市御所浦町御所浦4393番地1",
    "lat": 32.3374782,
    "lng": 130.3346602,
    "tel": "0969-52-3727",
    "url": "http://tensuikai.com",
    "pref": "熊本県",
    "city": "天草市",
    "category": "tokuyou",
    "serviceType": "介護老人福祉施設",
    "capacity": 0,
    "openDays": [],
    "openDaysNote": ""
  },
  {
    "id": "4373200478",
    "name": "特別養護老人ホーム紫明寮",
    "kana": "トクベツヨウゴロウジンホームシメイリョウ",
    "address": "熊本県天草市五和町二江４６６８番地",
    "lat": 32.5482454,
    "lng": 130.119359,
    "tel": "0969-33-0021",
    "url": "https://shimeiryo.com/",
    "pref": "熊本県",
    "city": "天草市",
    "category": "tokuyou",
    "serviceType": "介護老人福祉施設",
    "capacity": 0,
    "openDays": [],
    "openDaysNote": ""
  },
  {
    "id": "4373200494",
    "name": "特別養護老人ホーム春光苑",
    "kana": "トクベツヨウゴロウジンホームシュンコウエン",
    "address": "熊本県天草市天草町高浜北633番地",
    "lat": 32.3845792,
    "lng": 129.9964831,
    "tel": "0969-42-0646",
    "url": "http://www.airin-syunkouen.com",
    "pref": "熊本県",
    "city": "天草市",
    "category": "tokuyou",
    "serviceType": "介護老人福祉施設",
    "capacity": 0,
    "openDays": [],
    "openDaysNote": ""
  },
  {
    "id": "4370900294",
    "name": "特別養護老人ホーム明照園",
    "kana": "トクベツヨウゴロウジンホーム　メイショウエン",
    "address": "熊本県天草市久玉町1273番地1",
    "lat": 32.2183489421817,
    "lng": 130.028702550124,
    "tel": "0969-73-3245",
    "url": "http://meishoen.com",
    "pref": "熊本県",
    "city": "天草市",
    "category": "tokuyou",
    "serviceType": "介護老人福祉施設",
    "capacity": 0,
    "openDays": [],
    "openDaysNote": ""
  },
  {
    "id": "4373200403",
    "name": "特別養護老人ホーム麗洋苑",
    "kana": "トクベツヨウゴロウジンホームレイヨウエン",
    "address": "熊本県天草市有明町須子１９６４番地",
    "lat": 32.5107371,
    "lng": 130.3431597,
    "tel": "0969-53-0477",
    "url": "https://reiyouen0477.jp",
    "pref": "熊本県",
    "city": "天草市",
    "category": "tokuyou",
    "serviceType": "介護老人福祉施設",
    "capacity": 0,
    "openDays": [],
    "openDaysNote": ""
  },
  {
    "id": "4373101486",
    "name": "特別養護老人ホーム　福寿荘",
    "kana": "トクベツヨウゴロウジンホーム　フクジュソウ",
    "address": "熊本県球磨郡湯前町836番地",
    "lat": 32.2744634573099,
    "lng": 130.996316474,
    "tel": "0966-43-3151",
    "url": "https://fukuzyusou.com",
    "pref": "熊本県",
    "city": "湯前町",
    "category": "tokuyou",
    "serviceType": "介護老人福祉施設",
    "capacity": 90,
    "openDays": [],
    "openDaysNote": ""
  },
  {
    "id": "4372700437",
    "name": "指定介護老人福祉施設　特別養護老人ホーム水生苑",
    "kana": "トクベツヨウゴロウジンホーム　スイセイエン",
    "address": "阿蘇郡南阿蘇村1282番地",
    "lat": 32.8357556543176,
    "lng": 131.072439533994,
    "tel": "0967-62-9688",
    "url": "suiseien.com",
    "pref": "熊本県",
    "city": "南阿蘇村",
    "category": "tokuyou",
    "serviceType": "介護老人福祉施設",
    "capacity": 30,
    "openDays": [],
    "openDaysNote": ""
  },
  {
    "id": "4372700445",
    "name": "特別養護老人ホーム陽ノ丘荘",
    "kana": "トクベツヨウゴロウジンホームヒノオカソウ",
    "address": "熊本県阿蘇郡南阿蘇村大字河陽4463番地",
    "lat": 32.8677041436025,
    "lng": 131.002770150049,
    "tel": "0967-67-2500",
    "url": "http://www.hinooka1990.or.jp",
    "pref": "熊本県",
    "city": "南阿蘇村",
    "category": "tokuyou",
    "serviceType": "介護老人福祉施設",
    "capacity": 40,
    "openDays": [],
    "openDaysNote": ""
  },
  {
    "id": "4372401606",
    "name": "特別養護老人ホーム　延寿荘",
    "kana": "トクベツヨウゴロウジンホーム　エンジュソウ",
    "address": "熊本県玉名郡南関町小原1770番地",
    "lat": 33.0294074,
    "lng": 130.5309024,
    "tel": "0968-53-0934",
    "url": "mikawa-fukusikai.com",
    "pref": "熊本県",
    "city": "南関町",
    "category": "tokuyou",
    "serviceType": "介護老人福祉施設",
    "capacity": 30,
    "openDays": [],
    "openDaysNote": ""
  },
  {
    "id": "4372700403",
    "name": "特別養護老人ホーム悠清苑",
    "kana": "トクベツヨウゴロウジンホーム　ユウセイエン",
    "address": "熊本県阿蘇郡南小国町大字満願寺5854番地１特別養護老人ホーム悠清苑 特別養護老人ホーム悠清苑",
    "lat": 33.0727406628292,
    "lng": 131.126082321426,
    "tel": "0967-44-0800",
    "url": "https://yuseien.grupo.jp/",
    "pref": "熊本県",
    "city": "南小国町",
    "category": "tokuyou",
    "serviceType": "介護老人福祉施設",
    "capacity": 50,
    "openDays": [],
    "openDaysNote": ""
  },
  {
    "id": "4370202634",
    "name": "ユニット型　特別養護老人ホーム　安寿の里",
    "kana": "ユニットガタ　トクベツヨウゴロウジンホーム　アンジュノサト",
    "address": "熊本県八代市鏡町両出880番地1",
    "lat": 32.5486717,
    "lng": 130.635468,
    "tel": "0965-53-2100",
    "url": "anju@spice.ocn.ne.jp",
    "pref": "熊本県",
    "city": "八代市",
    "category": "tokuyou",
    "serviceType": "介護老人福祉施設",
    "capacity": null,
    "openDays": [],
    "openDaysNote": ""
  },
  {
    "id": "4370200398",
    "name": "社会福祉法人　松高福祉会　　介護老人福祉施設　みやび園",
    "kana": "シャカイフクシホウジン　マツタカフクシカイ　　カイゴロウジンフクシシセツ　ミヤビエン",
    "address": "熊本県八代市高島町4221番地",
    "lat": 32.5238325,
    "lng": 130.5828698,
    "tel": "0965-32-0088",
    "url": "http://www.tagata-group.jp/miyabien/",
    "pref": "熊本県",
    "city": "八代市",
    "category": "tokuyou",
    "serviceType": "介護老人福祉施設",
    "capacity": 0,
    "openDays": [],
    "openDaysNote": ""
  },
  {
    "id": "4370200414",
    "name": "特別養護老人ホーム　すずらんの里",
    "kana": "トクベツヨウゴロウジンホーム　スズランノサト",
    "address": "熊本県八代市葭牟田町435番地",
    "lat": 32.4937344,
    "lng": 130.5789875,
    "tel": "0965-39-7511",
    "url": "http://www.tenryuukai.jp",
    "pref": "熊本県",
    "city": "八代市",
    "category": "tokuyou",
    "serviceType": "介護老人福祉施設",
    "capacity": 50,
    "openDays": [],
    "openDaysNote": ""
  },
  {
    "id": "4372900367",
    "name": "特別養護老人ホーム　ひかわの里",
    "kana": "トクベツヨウゴロウジンホームヒカワノサト",
    "address": "熊本県八代市東陽町南７５２番地１",
    "lat": 32.5482855,
    "lng": 130.7105772,
    "tel": "0965-65-3100",
    "url": "http://tousen-kai.or.jp",
    "pref": "熊本県",
    "city": "八代市",
    "category": "tokuyou",
    "serviceType": "介護老人福祉施設",
    "capacity": 0,
    "openDays": [],
    "openDaysNote": ""
  },
  {
    "id": "4370200406",
    "name": "特別養護老人ホーム　ま心苑",
    "kana": "トクベツヨウゴロウジンホーム　マゴコロエン",
    "address": "熊本県八代市敷川内町２２５１番地１",
    "lat": 32.4574889,
    "lng": 130.5990765,
    "tel": "0965-31-7600",
    "url": "http://magokoroen.jp",
    "pref": "熊本県",
    "city": "八代市",
    "category": "tokuyou",
    "serviceType": "介護老人福祉施設",
    "capacity": 49,
    "openDays": [],
    "openDaysNote": ""
  },
  {
    "id": "4370202071",
    "name": "特別養護老人ホーム　みなみ園",
    "kana": "トクベツヨウゴロウジンホーム　ミナミエン",
    "address": "熊本県八代市日奈久塩南町５４番地",
    "lat": 32.4357795,
    "lng": 130.5775187,
    "tel": "0965-38-3730",
    "url": "",
    "pref": "熊本県",
    "city": "八代市",
    "category": "tokuyou",
    "serviceType": "介護老人福祉施設",
    "capacity": 60,
    "openDays": [],
    "openDaysNote": ""
  },
  {
    "id": "4372900664",
    "name": "特別養護老人ホーム　安寿の里",
    "kana": "トクベツヨウゴロウジンホーム　アンジュノサト",
    "address": "熊本県八代市鏡町両出８８０－１",
    "lat": 32.5486717,
    "lng": 130.635468,
    "tel": "0965-53-2100",
    "url": "http://www.kaigonet.net/anju/",
    "pref": "熊本県",
    "city": "八代市",
    "category": "tokuyou",
    "serviceType": "介護老人福祉施設",
    "capacity": null,
    "openDays": [],
    "openDaysNote": ""
  },
  {
    "id": "4372900334",
    "name": "特別養護老人ホーム　康和苑",
    "kana": "トクベツヨウゴロウジンホーム　コウワエン",
    "address": "熊本県八代市千丁町太牟田1300番地8",
    "lat": 32.5417423,
    "lng": 130.6476984,
    "tel": "0965-46-1144",
    "url": "",
    "pref": "熊本県",
    "city": "八代市",
    "category": "tokuyou",
    "serviceType": "介護老人福祉施設",
    "capacity": 0,
    "openDays": [],
    "openDaysNote": ""
  },
  {
    "id": "4370200380",
    "name": "特別養護老人ホームあさひ園",
    "kana": "トクベツヨウゴロウジンホーム　アサヒエン",
    "address": "八代市上日置町２３４５番地",
    "lat": 32.5094994,
    "lng": 130.6278083,
    "tel": "0965-35-5757",
    "url": "http://www.kyoujukai.jp",
    "pref": "熊本県",
    "city": "八代市",
    "category": "tokuyou",
    "serviceType": "介護老人福祉施設",
    "capacity": 50,
    "openDays": [],
    "openDaysNote": ""
  },
  {
    "id": "4370200356",
    "name": "特別養護老人ホーム行楽園",
    "kana": "トクベツヨウゴロウジンホームコウラクエン",
    "address": "熊本県八代市日奈久塩北町２９０５番地",
    "lat": 32.4327633,
    "lng": 130.5838405,
    "tel": "0965-38-2011",
    "url": "",
    "pref": "熊本県",
    "city": "八代市",
    "category": "tokuyou",
    "serviceType": "介護老人福祉施設",
    "capacity": 60,
    "openDays": [],
    "openDaysNote": ""
  },
  {
    "id": "4372900797",
    "name": "特別養護老人ホーム坂本の里一灯苑",
    "kana": "トクベツヨウゴロウジンホームサカモトノサトイットウエン",
    "address": "熊本県八代市坂本町坂本１０７１",
    "lat": 32.4411096,
    "lng": 130.6692162,
    "tel": "0965-53-7277",
    "url": "https://www.s-ittouen.com/",
    "pref": "熊本県",
    "city": "八代市",
    "category": "tokuyou",
    "serviceType": "介護老人福祉施設",
    "capacity": 50,
    "openDays": [],
    "openDaysNote": ""
  },
  {
    "id": "4372301475",
    "name": "ユニット型特別養護老人ホーム陽光園東館",
    "kana": "ユニットガタトクベツヨウゴロウジンホーム　ヨウコウエンヒガシカン",
    "address": "熊本県下益城郡美里町二和田1233",
    "lat": 32.6192445114353,
    "lng": 130.86374931475,
    "tel": "0964-47-2611",
    "url": "youkouen.com",
    "pref": "熊本県",
    "city": "美里町",
    "category": "tokuyou",
    "serviceType": "介護老人福祉施設",
    "capacity": null,
    "openDays": [],
    "openDaysNote": ""
  },
  {
    "id": "4372301467",
    "name": "特別養護老人ホーム　こもれび　二番館",
    "kana": "トクベツヨウゴロウジンホームコモレビニバンカン",
    "address": "熊本県下益城郡美里町佐俣３３８番地",
    "lat": 32.622175,
    "lng": 130.8210774,
    "tel": "0964-47-6200",
    "url": "http://shinseiki.jp/",
    "pref": "熊本県",
    "city": "美里町",
    "category": "tokuyou",
    "serviceType": "介護老人福祉施設",
    "capacity": 30,
    "openDays": [],
    "openDaysNote": ""
  },
  {
    "id": "4372300410",
    "name": "特別養護老人ホーム　陽光園　本館",
    "kana": "トクベツヨウゴロウジンホーム　ヨウコウエン",
    "address": "熊本県下益城郡美里町二和田１２３３",
    "lat": 32.6197483,
    "lng": 130.8635857,
    "tel": "0964-47-2600",
    "url": "https://senjukai.jp",
    "pref": "熊本県",
    "city": "美里町",
    "category": "tokuyou",
    "serviceType": "介護老人福祉施設",
    "capacity": null,
    "openDays": [],
    "openDaysNote": ""
  },
  {
    "id": "4372300782",
    "name": "特別養護老人ホームこもれび一番館",
    "kana": "トクベツヨウゴロウジンホームコモレビイチバンカン",
    "address": "熊本県下益城郡美里町佐俣338番地",
    "lat": 32.622175,
    "lng": 130.8210774,
    "tel": "0964-47-6200",
    "url": "http://shinseiki.jp",
    "pref": "熊本県",
    "city": "美里町",
    "category": "tokuyou",
    "serviceType": "介護老人福祉施設",
    "capacity": 0,
    "openDays": [],
    "openDaysNote": ""
  },
  {
    "id": "4372901019",
    "name": "特別養護老人ホーム　やすらぎ荘別館",
    "kana": "トクベツヨウゴロウジンホーム　ヤスラギソウベッカン",
    "address": "熊本県八代郡氷川町鹿島９４５番地",
    "lat": 32.5799116,
    "lng": 130.6681229,
    "tel": "0965-52-0173",
    "url": "http://www8910kai.jp/",
    "pref": "熊本県",
    "city": "氷川町",
    "category": "tokuyou",
    "serviceType": "介護老人福祉施設",
    "capacity": 0,
    "openDays": [],
    "openDaysNote": ""
  },
  {
    "id": "4372900342",
    "name": "特別養護老人ホームやすらぎ荘",
    "kana": "トクベツヨウゴロウジンホームヤスラギソウ",
    "address": "熊本県八代郡氷川町鹿島945番地",
    "lat": 32.5799116,
    "lng": 130.6681229,
    "tel": "0965-52-0173",
    "url": "http://www.8910kai.jp/",
    "pref": "熊本県",
    "city": "氷川町",
    "category": "tokuyou",
    "serviceType": "介護老人福祉施設",
    "capacity": 0,
    "openDays": [],
    "openDaysNote": ""
  },
  {
    "id": "4372900359",
    "name": "特別養護老人ホーム早尾園",
    "kana": "トクベツヨウゴロウジンホームハヤオエン",
    "address": "熊本県八代郡氷川町早尾132",
    "lat": 32.5495630139744,
    "lng": 130.676608418957,
    "tel": "0965-62-3838",
    "url": "http://hayaoen.org/",
    "pref": "熊本県",
    "city": "氷川町",
    "category": "tokuyou",
    "serviceType": "介護老人福祉施設",
    "capacity": 60,
    "openDays": [],
    "openDaysNote": ""
  },
  {
    "id": "4373200486",
    "name": "特別養護老人ホーム　楽洋の里",
    "kana": "トクベツヨウゴロウジンホーム　ラクヨウノサト",
    "address": "熊本県天草郡苓北町上津深江230-1",
    "lat": 32.5148758,
    "lng": 130.0675199,
    "tel": "0969-37-0202",
    "url": "http://jiseikai.amakusa-web.jp",
    "pref": "熊本県",
    "city": "苓北町",
    "category": "tokuyou",
    "serviceType": "介護老人福祉施設",
    "capacity": 0,
    "openDays": [],
    "openDaysNote": ""
  },
  {
    "id": "4372400442",
    "name": "特別養護老人ホーム　和楽荘",
    "kana": "トクベツヨウゴロウジンホーム　ワラクソウ",
    "address": "熊本県玉名郡和水町平野１３００番地",
    "lat": 33.0372555,
    "lng": 130.6216549,
    "tel": "0968-34-2227",
    "url": "https://www.mikawa-fukusikai.com/",
    "pref": "熊本県",
    "city": "和水町",
    "category": "tokuyou",
    "serviceType": "介護老人福祉施設",
    "capacity": 50,
    "openDays": [],
    "openDaysNote": ""
  },
  {
    "id": "4372401200",
    "name": "和水町特別養護老人ホームきくすい荘",
    "kana": "ナゴミマチトクベツヨウゴロウジンホームキクスイソウ",
    "address": "熊本県玉名郡和水町江田4025番地",
    "lat": 32.9818802,
    "lng": 130.6055985,
    "tel": "0968-86-2177",
    "url": "http://www.town.nagomi.lg.jp/one_html3/pub/default.aspx?c_id=59",
    "pref": "熊本県",
    "city": "和水町",
    "category": "tokuyou",
    "serviceType": "介護老人福祉施設",
    "capacity": 0,
    "openDays": [],
    "openDaysNote": ""
  }
]