[
  {
    "id": "1772100010",
    "name": "特別養護老人ホーム　ことぶき園",
    "kana": "トクベツヨウゴロウジンホーム　コトブキエン",
    "address": "石川県かほく市学園台5丁目19番地1",
    "lat": 36.7798802166103,
    "lng": 136.729490970102,
    "tel": "076-282-5670",
    "url": "https://f-kotobukien.jp",
    "pref": "石川県",
    "city": "かほく市",
    "category": "tokuyou",
    "serviceType": "介護老人福祉施設",
    "capacity": 80,
    "openDays": [],
    "openDaysNote": ""
  },
  {
    "id": "1772100028",
    "name": "特別養護老人ホームあかしあ荘",
    "kana": "トクベツヨウゴロウジンホーム　アカシアソウ",
    "address": "石川県かほく市白尾タ220番地",
    "lat": 36.7176509370819,
    "lng": 136.695944245018,
    "tel": "076-283-5075",
    "url": "http://care-net.biz/17/akasiasou/",
    "pref": "石川県",
    "city": "かほく市",
    "category": "tokuyou",
    "serviceType": "介護老人福祉施設",
    "capacity": 100,
    "openDays": [],
    "openDaysNote": ""
  },
  {
    "id": "1770700225",
    "name": "特別養護老人ホーム　はくいの郷",
    "kana": "トクベツヨウゴロウジンホーム　ハクイノサト",
    "address": "石川県羽咋市島出町上1番地３",
    "lat": 36.9003753052436,
    "lng": 136.771326257672,
    "tel": "０７６７－２２－８８１１",
    "url": "koukenkai.com",
    "pref": "石川県",
    "city": "羽咋市",
    "category": "tokuyou",
    "serviceType": "介護老人福祉施設",
    "capacity": 0,
    "openDays": [],
    "openDaysNote": ""
  },
  {
    "id": "1770700027",
    "name": "特別養護老人ホーム眉丈園",
    "kana": "トクベツヨウゴロウジンホームビジョウエン",
    "address": "石川県羽咋市的場町稻荷山出口２６番地２",
    "lat": 36.9017898039311,
    "lng": 136.780020263893,
    "tel": "0767-22-5616",
    "url": "http://www.bijyoukai.net/",
    "pref": "石川県",
    "city": "羽咋市",
    "category": "tokuyou",
    "serviceType": "介護老人福祉施設",
    "capacity": 0,
    "openDays": [],
    "openDaysNote": ""
  },
  {
    "id": "1770600698",
    "name": "ユニット型特別養護老人ホームサンライフたきの里",
    "kana": "ユニットガタトクベツヨウゴロウジンホームサンライフタキノサト",
    "address": "石川県加賀市山中温泉滝町リ１番地１",
    "lat": 36.2591834,
    "lng": 136.4008259,
    "tel": "0761-78-0666",
    "url": "https://chokyuhukushi.jp/",
    "pref": "石川県",
    "city": "加賀市",
    "category": "tokuyou",
    "serviceType": "介護老人福祉施設",
    "capacity": 0,
    "openDays": [],
    "openDaysNote": ""
  },
  {
    "id": "1770600052",
    "name": "特別養護老人ホーム　加賀中央慈妙院",
    "kana": "カガチュウオウジミョウイン",
    "address": "石川県加賀市山田町蛇谷1番地16",
    "lat": 36.3261359,
    "lng": 136.3350466,
    "tel": "0761-72-7111",
    "url": "http://www.tokuhoukai.jp/",
    "pref": "石川県",
    "city": "加賀市",
    "category": "tokuyou",
    "serviceType": "介護老人福祉施設",
    "capacity": 0,
    "openDays": [],
    "openDaysNote": ""
  },
  {
    "id": "1770600375",
    "name": "特別養護老人ホーム　慈妙院加賀",
    "kana": "トクベツヨウゴロウジンホーム　ジミョウインカガ",
    "address": "石川県加賀市大聖寺東町1丁目30番地",
    "lat": 36.3056324,
    "lng": 136.3189043,
    "tel": "0761-73-3317",
    "url": "http：//www.tokuhoukai.jp",
    "pref": "石川県",
    "city": "加賀市",
    "category": "tokuyou",
    "serviceType": "介護老人福祉施設",
    "capacity": 0,
    "openDays": [],
    "openDaysNote": ""
  },
  {
    "id": "1770600581",
    "name": "特別養護老人ホーム　藤華苑",
    "kana": "トクベツヨウゴロウジンホーム　トウカエン",
    "address": "石川県加賀市大聖寺東町1丁目26番地3",
    "lat": 36.3051561007707,
    "lng": 136.318762464418,
    "tel": "0761-75-7332",
    "url": "http://www.tokuhoukai.jp/",
    "pref": "石川県",
    "city": "加賀市",
    "category": "tokuyou",
    "serviceType": "介護老人福祉施設",
    "capacity": 0,
    "openDays": [],
    "openDaysNote": ""
  },
  {
    "id": "1770600177",
    "name": "特別養護老人ホーム　片山津温泉日日好日院",
    "kana": "トクベツヨウゴロウジンホーム　カタヤマヅオンセンヒビコウジツイン",
    "address": "石川県加賀市片山津温泉ア９６番地１",
    "lat": 36.3487695,
    "lng": 136.3641625,
    "tel": "0761-74-7231",
    "url": "http://www.tokuhoukai.jp",
    "pref": "石川県",
    "city": "加賀市",
    "category": "tokuyou",
    "serviceType": "介護老人福祉施設",
    "capacity": 0,
    "openDays": [],
    "openDaysNote": ""
  },
  {
    "id": "1770103131",
    "name": "やすはら苑",
    "kana": "ヤスハラエン",
    "address": "金沢市下安原町東1458番地1",
    "lat": 36.5730751,
    "lng": 136.5757813,
    "tel": "076-240-6611",
    "url": "https://yasuharaen.or.jp/",
    "pref": "石川県",
    "city": "金沢市",
    "category": "tokuyou",
    "serviceType": "介護老人福祉施設",
    "capacity": 50,
    "openDays": [],
    "openDaysNote": ""
  },
  {
    "id": "1770100236",
    "name": "社会福祉法人　北伸福祉会　第二金沢朱鷺の苑",
    "kana": "シャカイフクシホウジン　ホクシンフクシカイ　ダイニカナザワトキノエン",
    "address": "石川県金沢市上辰巳町10-211-１",
    "lat": 36.5154265,
    "lng": 136.7026698,
    "tel": "076-229-8181",
    "url": "http://www.toknoen.com",
    "pref": "石川県",
    "city": "金沢市",
    "category": "tokuyou",
    "serviceType": "介護老人福祉施設",
    "capacity": 0,
    "openDays": [],
    "openDaysNote": ""
  },
  {
    "id": "1770100244",
    "name": "社会福祉法人　北伸福祉会　特別養護老人ホーム　金沢朱鷺の苑",
    "kana": "シャカイフクシホウジン　ホクシンフクシカイ　トクベツヨウゴロウジンホーム　カナザワトキノエン",
    "address": "金沢市岸川町ほ5番地",
    "lat": 36.6400462,
    "lng": 136.7114505,
    "tel": "076－257－7100",
    "url": "https://www.tokinoen.com/",
    "pref": "石川県",
    "city": "金沢市",
    "category": "tokuyou",
    "serviceType": "介護老人福祉施設",
    "capacity": 106,
    "openDays": [],
    "openDaysNote": ""
  },
  {
    "id": "1770100277",
    "name": "社会福祉法人北伸福祉会　特別養護老人ホーム中央金沢朱鷺の苑",
    "kana": "シャカイフクシホウジンホクシンフクシカイ　トクベツヨウゴロウジンホームチュウオウカナザワトキノエン",
    "address": "石川県金沢市広岡２丁目１番７号",
    "lat": 36.5769342,
    "lng": 136.6437859,
    "tel": "０７６－２３４－７８７８",
    "url": "http;//chuo＠tokinoen.com",
    "pref": "石川県",
    "city": "金沢市",
    "category": "tokuyou",
    "serviceType": "介護老人福祉施設",
    "capacity": 104,
    "openDays": [],
    "openDaysNote": ""
  },
  {
    "id": "1770100160",
    "name": "第三万陽苑",
    "kana": "ダイサンマンヨウエン",
    "address": "石川県金沢市三小牛町２４の３番地１",
    "lat": 36.5045689,
    "lng": 136.6729409,
    "tel": "０７６－２８０－６７８１",
    "url": "https://daisanmanyoen.yofuen.com",
    "pref": "石川県",
    "city": "金沢市",
    "category": "tokuyou",
    "serviceType": "介護老人福祉施設",
    "capacity": 0,
    "openDays": [],
    "openDaysNote": ""
  },
  {
    "id": "1770105102",
    "name": "特別養護老人ホーム　あかつき",
    "kana": "トクベツヨウゴロウジンホーム　アカツキ",
    "address": "石川県金沢市平和町１丁目2-28",
    "lat": 36.5385032,
    "lng": 136.6632026,
    "tel": "076-242-2378",
    "url": "http://www.seishi.isg.or.jp/akatsuki/index.html",
    "pref": "石川県",
    "city": "金沢市",
    "category": "tokuyou",
    "serviceType": "介護老人福祉施設",
    "capacity": 0,
    "openDays": [],
    "openDaysNote": ""
  },
  {
    "id": "1770100186",
    "name": "特別養護老人ホーム　やすらぎホーム",
    "kana": "トクベツヨウゴロウジンホーム　ヤスラギホーム",
    "address": "金沢市上荒屋1-39",
    "lat": 36.5456846,
    "lng": 136.5930501,
    "tel": "076-269-0808",
    "url": "http://www.yasuragi39.com/",
    "pref": "石川県",
    "city": "金沢市",
    "category": "tokuyou",
    "serviceType": "介護老人福祉施設",
    "capacity": 0,
    "openDays": [],
    "openDaysNote": ""
  },
  {
    "id": "1770103073",
    "name": "特別養護老人ホーム　金澤五番丁",
    "kana": "トクベツヨウゴロウジンホーム　カナザワゴバンチョウ",
    "address": "石川県金沢市下本多町五番丁１４番地特別養護老人ホーム金澤五番丁 特別養護老人ホーム金澤五番丁",
    "lat": 36.5567482,
    "lng": 136.6579718,
    "tel": "076-262-1165",
    "url": "http://www.bijyoukai.net/",
    "pref": "石川県",
    "city": "金沢市",
    "category": "tokuyou",
    "serviceType": "介護老人福祉施設",
    "capacity": null,
    "openDays": [],
    "openDaysNote": ""
  },
  {
    "id": "1770101358",
    "name": "特別養護老人ホーム　戸室和楽ホーム",
    "kana": "トクベツヨウゴロウジンホーム　トムロワラクホーム",
    "address": "石川県金沢市俵町コ１番地１",
    "lat": 36.5333936,
    "lng": 136.7172448,
    "tel": "076-232-6511",
    "url": "http://www.bijyoukai.net/",
    "pref": "石川県",
    "city": "金沢市",
    "category": "tokuyou",
    "serviceType": "介護老人福祉施設",
    "capacity": 0,
    "openDays": [],
    "openDaysNote": ""
  },
  {
    "id": "1770100434",
    "name": "特別養護老人ホーム　千木園",
    "kana": "トクベツヨウゴロウジンホーム　センギエン",
    "address": "石川県金沢市千木町ホ３番地１",
    "lat": 36.6119111,
    "lng": 136.6717883,
    "tel": "０７６－２５７－０９５０",
    "url": "http://sengi.jp/sengien/",
    "pref": "石川県",
    "city": "金沢市",
    "category": "tokuyou",
    "serviceType": "介護老人福祉施設",
    "capacity": null,
    "openDays": [],
    "openDaysNote": ""
  },
  {
    "id": "1770102364",
    "name": "特別養護老人ホーム　第２千木園",
    "kana": "トクベツヨウゴロウジンホーム　ダイニセンギエン",
    "address": "石川県金沢市観法寺町ヘ７４番地１",
    "lat": 36.6222541,
    "lng": 136.7045989,
    "tel": "076-258-6900",
    "url": "http://www.sengi.jp/dai2sengien/",
    "pref": "石川県",
    "city": "金沢市",
    "category": "tokuyou",
    "serviceType": "介護老人福祉施設",
    "capacity": 0,
    "openDays": [],
    "openDaysNote": ""
  },
  {
    "id": "1770100152",
    "name": "特別養護老人ホーム　第二万陽苑",
    "kana": "ダイニマンヨウエン",
    "address": "石川県金沢市大桑町中ノ大平１８番地２５",
    "lat": 36.524519,
    "lng": 136.6748964,
    "tel": "０７６－２４３－０１０１",
    "url": "http://www.yofuen.com",
    "pref": "石川県",
    "city": "金沢市",
    "category": "tokuyou",
    "serviceType": "介護老人福祉施設",
    "capacity": 150,
    "openDays": [],
    "openDaysNote": ""
  },
  {
    "id": "1770101911",
    "name": "特別養護老人ホームいずみ園",
    "kana": "トクベツヨウゴロウジンホームイズミエン",
    "address": "石川県金沢市増泉４丁目４番２８号",
    "lat": 36.5569337,
    "lng": 136.6351039,
    "tel": "076-245-5500",
    "url": "https://www.izumien.or.jp/",
    "pref": "石川県",
    "city": "金沢市",
    "category": "tokuyou",
    "serviceType": "介護老人福祉施設",
    "capacity": 100,
    "openDays": [],
    "openDaysNote": ""
  },
  {
    "id": "1770105813",
    "name": "特別養護老人ホームさくらセンター",
    "kana": "トクベツヨウゴロウジンホームサクラセンター",
    "address": "石川県金沢市湊２丁目１６９番地",
    "lat": 36.6350908,
    "lng": 136.6524759,
    "tel": "076-237-5313",
    "url": "http://sakura-center.org/",
    "pref": "石川県",
    "city": "金沢市",
    "category": "tokuyou",
    "serviceType": "介護老人福祉施設",
    "capacity": 0,
    "openDays": [],
    "openDaysNote": ""
  },
  {
    "id": "1770103230",
    "name": "特別養護老人ホームなんぶやすらぎホーム",
    "kana": "トクベツヨウゴロウジンホームナンブヤスラギホーム",
    "address": "石川県金沢市弥生３丁目２番１号",
    "lat": 36.5438577,
    "lng": 136.6431761,
    "tel": "０７６－２４１－９６００",
    "url": "http//yasuragi39.com",
    "pref": "石川県",
    "city": "金沢市",
    "category": "tokuyou",
    "serviceType": "介護老人福祉施設",
    "capacity": 0,
    "openDays": [],
    "openDaysNote": ""
  },
  {
    "id": "1770100350",
    "name": "特別養護老人ホーム寿晃園",
    "kana": "トクベツヨウゴロウジンホームジュコウエン",
    "address": "石川県金沢市鞍月東１丁目１９番地",
    "lat": 36.5937567,
    "lng": 136.6307723,
    "tel": "076-237-8300",
    "url": "http://chuoufukushikai.jp/",
    "pref": "石川県",
    "city": "金沢市",
    "category": "tokuyou",
    "serviceType": "介護老人福祉施設",
    "capacity": 50,
    "openDays": [],
    "openDaysNote": ""
  },
  {
    "id": "1770100699",
    "name": "特別養護老人ホーム石川県八田ホーム",
    "kana": "トクベツヨウゴロウジンホームイシカワケンハッタホーム",
    "address": "石川県金沢市八田町東912番地",
    "lat": 36.6283793050639,
    "lng": 136.687918149074,
    "tel": "076-257-2333",
    "url": "http://care-net.biz/17/hattahome/",
    "pref": "石川県",
    "city": "金沢市",
    "category": "tokuyou",
    "serviceType": "介護老人福祉施設",
    "capacity": 0,
    "openDays": [],
    "openDaysNote": ""
  },
  {
    "id": "1770105466",
    "name": "万陽苑(清風館)",
    "kana": "マンヨウエン　（セイフウカン）",
    "address": "石川県金沢市三口新町1丁目8番1号",
    "lat": 36.5398058,
    "lng": 136.6833846,
    "tel": "076－263－7692",
    "url": "http://www.yofuen.com",
    "pref": "石川県",
    "city": "金沢市",
    "category": "tokuyou",
    "serviceType": "介護老人福祉施設",
    "capacity": 0,
    "openDays": [],
    "openDaysNote": ""
  },
  {
    "id": "1770100145",
    "name": "万陽苑（明悠館）",
    "kana": "マンヨウエン（メイユウカン）",
    "address": "金沢市三口新町1丁目8番1号",
    "lat": 36.5398058,
    "lng": 136.6833846,
    "tel": "０７６－２６３－７６９２",
    "url": "http://www.yofuen.com/",
    "pref": "石川県",
    "city": "金沢市",
    "category": "tokuyou",
    "serviceType": "介護老人福祉施設",
    "capacity": 0,
    "openDays": [],
    "openDaysNote": ""
  },
  {
    "id": "1770101309",
    "name": "萬生苑",
    "kana": "マンショウエン",
    "address": "金沢市利屋町は64番地1",
    "lat": 36.6451401,
    "lng": 136.7138555,
    "tel": "076-257-8111",
    "url": "www://kyuraku.info/mannsyouen",
    "pref": "石川県",
    "city": "金沢市",
    "category": "tokuyou",
    "serviceType": "介護老人福祉施設",
    "capacity": 0,
    "openDays": [],
    "openDaysNote": ""
  },
  {
    "id": "1771700125",
    "name": "特別養護老人ホーム　能登穴水聖頌園",
    "kana": "トクベツヨウゴロウジンホーム　ノトアナミズセイショウエン",
    "address": "石川県鳳珠郡穴水町字岩車6,27の2番地",
    "lat": 37.2112538,
    "lng": 136.9606872,
    "tel": "0768-56-1520",
    "url": "http://www.bokuyoufukushikai.com",
    "pref": "石川県",
    "city": "穴水町",
    "category": "tokuyou",
    "serviceType": "介護老人福祉施設",
    "capacity": 61,
    "openDays": [],
    "openDaysNote": ""
  },
  {
    "id": "1771500210",
    "name": "ますほの里",
    "kana": "マスホノサト",
    "address": "石川県羽咋郡志賀町酒見韮山205番地特別養護老人ホームますほの里 特別養護老人ホームますほの里",
    "lat": 37.1511219,
    "lng": 136.7010873,
    "tel": "0767-42-2343",
    "url": "",
    "pref": "石川県",
    "city": "志賀町",
    "category": "tokuyou",
    "serviceType": "介護老人福祉施設",
    "capacity": null,
    "openDays": [],
    "openDaysNote": ""
  },
  {
    "id": "1771500095",
    "name": "介護老人福祉施設はまなす園",
    "kana": "カイゴロウジンフクシシセツハマナスエン",
    "address": "羽咋郡志賀町赤住ハの４番地１",
    "lat": 37.0498217,
    "lng": 136.7404754,
    "tel": "0767-32-3888",
    "url": "http://www.hamanasuen.jp",
    "pref": "石川県",
    "city": "志賀町",
    "category": "tokuyou",
    "serviceType": "介護老人福祉施設",
    "capacity": 100,
    "openDays": [],
    "openDaysNote": ""
  },
  {
    "id": "1770200010",
    "name": "エレガンテなぎの浦",
    "kana": "エレガンテナギノウラ",
    "address": "七尾市津向町ト部１０７番地４",
    "lat": 37.0564248543188,
    "lng": 136.955187737333,
    "tel": "0767-52-0223",
    "url": "http://www.tokujyu.jp",
    "pref": "石川県",
    "city": "七尾市",
    "category": "tokuyou",
    "serviceType": "介護老人福祉施設",
    "capacity": 0,
    "openDays": [],
    "openDaysNote": ""
  },
  {
    "id": "1770200374",
    "name": "のとじま悠々ホーム",
    "kana": "ノトジマユウユウホーム",
    "address": "石川県七尾市能登島半浦町5部6番地2",
    "lat": 37.1239376223946,
    "lng": 136.928466193857,
    "tel": "0767-85-2571",
    "url": "https://saharagroup-jp",
    "pref": "石川県",
    "city": "七尾市",
    "category": "tokuyou",
    "serviceType": "介護老人福祉施設",
    "capacity": 57,
    "openDays": [],
    "openDaysNote": ""
  },
  {
    "id": "1770200184",
    "name": "介護老人福祉施設　千寿苑",
    "kana": "カイゴロウジンフクシシセツ　センジュエン",
    "address": "石川県七尾市千野町に部15番地",
    "lat": 37.0177070389067,
    "lng": 136.953055531352,
    "tel": "0767-57-8801",
    "url": "http://enyama.jp/senjuen/",
    "pref": "石川県",
    "city": "七尾市",
    "category": "tokuyou",
    "serviceType": "介護老人福祉施設",
    "capacity": 0,
    "openDays": [],
    "openDaysNote": ""
  },
  {
    "id": "1770200523",
    "name": "特別養護老人ホーム　ななみの里",
    "kana": "トクベツヨウゴロウジンホーム　ナナミノサト",
    "address": "石川県七尾市石崎町泉台1番地1",
    "lat": 37.0828239,
    "lng": 136.930225,
    "tel": "0767-62-0070",
    "url": "http://www.nanami-01.jp",
    "pref": "石川県",
    "city": "七尾市",
    "category": "tokuyou",
    "serviceType": "介護老人福祉施設",
    "capacity": 0,
    "openDays": [],
    "openDaysNote": ""
  },
  {
    "id": "1770200259",
    "name": "特別養護老人ホーム　秀楽苑",
    "kana": "トクベツヨウゴロウジンホーム　シュウラクエン",
    "address": "石川県七尾市中島町鹿島台は部17番地3",
    "lat": 37.1310423,
    "lng": 136.8895712,
    "tel": "0767-66-1600",
    "url": "http://www.shurakuen.jp/",
    "pref": "石川県",
    "city": "七尾市",
    "category": "tokuyou",
    "serviceType": "介護老人福祉施設",
    "capacity": 80,
    "openDays": [],
    "openDaysNote": ""
  },
  {
    "id": "1770200135",
    "name": "特別養護老人ホームあっとほーむ若葉",
    "kana": "トクベツヨウゴロウジンホームアットホームワカバ",
    "address": "石川県七尾市矢田町22号七株田12番地5",
    "lat": 37.025588,
    "lng": 136.9831918,
    "tel": "0767-53-8701",
    "url": "http://www.homewakaba.com",
    "pref": "石川県",
    "city": "七尾市",
    "category": "tokuyou",
    "serviceType": "介護老人福祉施設",
    "capacity": 100,
    "openDays": [],
    "openDaysNote": ""
  },
  {
    "id": "1770500013",
    "name": "特別養護老人ホーム長寿園",
    "kana": "トクベツヨウゴロウジンホームチョウジュエン",
    "address": "宝立町春日野4字117番地",
    "lat": 37.4113186,
    "lng": 137.2402722,
    "tel": "0768-84-2252",
    "url": "https://choujukai-isk.jp",
    "pref": "石川県",
    "city": "珠洲市",
    "category": "tokuyou",
    "serviceType": "介護老人福祉施設",
    "capacity": 0,
    "openDays": [],
    "openDaysNote": ""
  },
  {
    "id": "1770300034",
    "name": "介護老人福祉施設　自生園",
    "kana": "カイゴロウジンフクシシセツジショウエン",
    "address": "石川県小松市上荒屋町ソ４番地１０",
    "lat": 36.3281492,
    "lng": 136.4312025,
    "tel": "0761-65-1800",
    "url": "https://jishoen.com/",
    "pref": "石川県",
    "city": "小松市",
    "category": "tokuyou",
    "serviceType": "介護老人福祉施設",
    "capacity": 0,
    "openDays": [],
    "openDaysNote": ""
  },
  {
    "id": "1770300182",
    "name": "介護老人福祉施設　第二松寿園",
    "kana": "カイゴロウジンフクシシセツ　ダイニショウジュエン",
    "address": "石川県小松市月津町ヲ９５番地",
    "lat": 36.3515556,
    "lng": 136.4145901,
    "tel": "0761-43-2771",
    "url": "https://syoujyuen.jp/",
    "pref": "石川県",
    "city": "小松市",
    "category": "tokuyou",
    "serviceType": "介護老人福祉施設",
    "capacity": 0,
    "openDays": [],
    "openDaysNote": ""
  },
  {
    "id": "1770300083",
    "name": "介護老人福祉施設松寿園",
    "kana": "カイゴロウジンフクシシセツショウジュエン",
    "address": "石川県小松市向本折町ホ31番地",
    "lat": 36.3968306,
    "lng": 136.4397442,
    "tel": "0761-22-2217",
    "url": "http://syoujyuen.jp",
    "pref": "石川県",
    "city": "小松市",
    "category": "tokuyou",
    "serviceType": "介護老人福祉施設",
    "capacity": 0,
    "openDays": [],
    "openDaysNote": ""
  },
  {
    "id": "1770300422",
    "name": "特別養護老人ホーム　みゆきの郷",
    "kana": "トクベツヨウゴロウジンホーム　ミユキノサト",
    "address": "石川県小松市松崎町赤場１－１",
    "lat": 36.3718409,
    "lng": 136.4142456,
    "tel": "0761-43-1123",
    "url": "https://tensenkai.jp/miyukinosato/",
    "pref": "石川県",
    "city": "小松市",
    "category": "tokuyou",
    "serviceType": "介護老人福祉施設",
    "capacity": 0,
    "openDays": [],
    "openDaysNote": ""
  },
  {
    "id": "1770300612",
    "name": "特別養護老人ホーム　愛らんど萌寿",
    "kana": "トクベツヨウゴロウジンホーム　アイランドモス",
    "address": "石川県小松市波佐谷町東６４番地",
    "lat": 36.3423378520911,
    "lng": 136.479392734918,
    "tel": "0761-46-1112",
    "url": "",
    "pref": "石川県",
    "city": "小松市",
    "category": "tokuyou",
    "serviceType": "介護老人福祉施設",
    "capacity": 10,
    "openDays": [],
    "openDaysNote": ""
  },
  {
    "id": "1770300521",
    "name": "特別養護老人ホーム　明峰の里",
    "kana": "トクベツヨウゴロウジンホーム　メイホウノサト",
    "address": "石川県小松市蛭川町西１０３番地１",
    "lat": 36.4341718,
    "lng": 136.4552138,
    "tel": "０７６１－２０－１７８８",
    "url": "https://meihou-kai.jp",
    "pref": "石川県",
    "city": "小松市",
    "category": "tokuyou",
    "serviceType": "介護老人福祉施設",
    "capacity": 0,
    "openDays": [],
    "openDaysNote": ""
  },
  {
    "id": "1770300059",
    "name": "特別養護老人ホームあたかの郷",
    "kana": "トクベツヨウゴロウジンホームアタカノサト",
    "address": "石川県小松市安宅町ル１番地２８",
    "lat": 36.4253499,
    "lng": 136.424178,
    "tel": "0761-24-8800",
    "url": "http://www.asahikai.net/",
    "pref": "石川県",
    "city": "小松市",
    "category": "tokuyou",
    "serviceType": "介護老人福祉施設",
    "capacity": 0,
    "openDays": [],
    "openDaysNote": ""
  },
  {
    "id": "1770301057",
    "name": "特別養護老人ホームめぐみの里",
    "kana": "トクベツヨウゴロウジンホームメグミノサト",
    "address": "石川県小松市平面町へ１３３番地１特別養護老人ホームめぐみの里 特別養護老人ホームめぐみの里",
    "lat": 36.420755270877,
    "lng": 136.467262320695,
    "tel": "0761-22-0111",
    "url": "http://www.meguminosato.or.jp/",
    "pref": "石川県",
    "city": "小松市",
    "category": "tokuyou",
    "serviceType": "介護老人福祉施設",
    "capacity": 90,
    "openDays": [],
    "openDaysNote": ""
  },
  {
    "id": "1771200225",
    "name": "特別養護老人ホームかんじん川北",
    "kana": "トクベツヨウゴロウジンホームカンジンカワキタ",
    "address": "石川県能美郡川北町字壱ツ屋２２５番地１特別養護老人ホームかんじん川北 特別養護老人ホームかんじん川北",
    "lat": 36.4667785771966,
    "lng": 136.542663801961,
    "tel": "076-277-1100",
    "url": "http://yowakai.jp",
    "pref": "石川県",
    "city": "川北町",
    "category": "tokuyou",
    "serviceType": "介護老人福祉施設",
    "capacity": 60,
    "openDays": [],
    "openDaysNote": ""
  },
  {
    "id": "1771600051",
    "name": "特別養護老人ホーム鹿寿苑",
    "kana": "トクベツヨウゴロウジンホームロクジュエン",
    "address": "石川県鹿島郡中能登町西馬場エ部５６番地",
    "lat": 36.98,
    "lng": 136.902,
    "tel": "0767-72-2600",
    "url": "https://www.rokujyuen.com",
    "pref": "石川県",
    "city": "中能登町",
    "category": "tokuyou",
    "serviceType": "介護老人福祉施設",
    "capacity": 0,
    "openDays": [],
    "openDaysNote": ""
  },
  {
    "id": "1771400148",
    "name": "特別養護老人ホームあがたの里",
    "kana": "トクベツヨウゴロウジンホームアガタノサト",
    "address": "石川県河北郡津幡町字能瀬イ1番地1あがたの里 あがたの里",
    "lat": 36.6895246,
    "lng": 136.7261805,
    "tel": "076-288-8935",
    "url": "http://www.agata.ecnet.jp",
    "pref": "石川県",
    "city": "津幡町",
    "category": "tokuyou",
    "serviceType": "介護老人福祉施設",
    "capacity": 100,
    "openDays": [],
    "openDaysNote": ""
  },
  {
    "id": "1771400775",
    "name": "特別養護老人ホームふぃらーじゅ",
    "kana": "トクベツヨウゴロウジンホームフィラージュ",
    "address": "石川県河北郡津幡町字東荒屋４１３番地",
    "lat": 36.6634122,
    "lng": 136.750967,
    "tel": "076-288-1765",
    "url": "http://www.feuillage.gr.jp/",
    "pref": "石川県",
    "city": "津幡町",
    "category": "tokuyou",
    "serviceType": "介護老人福祉施設",
    "capacity": 90,
    "openDays": [],
    "openDaysNote": ""
  },
  {
    "id": "1771400098",
    "name": "特別養護老人ホーム　夕陽ヶ丘苑",
    "kana": "トクベツヨウゴロウジンホーム　ユウヒガオカエン",
    "address": "河北郡内灘町字大学１丁目５番地１",
    "lat": 36.659879,
    "lng": 136.6476526,
    "tel": "076-286-9911",
    "url": "http://care‐net.biz/17/yuuhigaokaen/",
    "pref": "石川県",
    "city": "内灘町",
    "category": "tokuyou",
    "serviceType": "介護老人福祉施設",
    "capacity": 97,
    "openDays": [],
    "openDaysNote": ""
  },
  {
    "id": "1771700174",
    "name": "特別養護老人ホーム　こすもす",
    "kana": "トクベツヨウゴロウジンホーム　コスモス",
    "address": "石川県鳳珠郡能登町字五郎左エ門分藤17番地",
    "lat": 37.3447890063254,
    "lng": 137.087225934531,
    "tel": "0768-76-2002",
    "url": "www.cosmos-seisyokai.com",
    "pref": "石川県",
    "city": "能登町",
    "category": "tokuyou",
    "serviceType": "介護老人福祉施設",
    "capacity": 80,
    "openDays": [],
    "openDaysNote": ""
  },
  {
    "id": "1771700117",
    "name": "特別養護老人ホーム石川県鳳寿荘",
    "kana": "トクベツヨウゴロウジンホームイシカワケンホウジュソウ",
    "address": "能登町字藤波井字48-2",
    "lat": 37.3532156,
    "lng": 137.2445214,
    "tel": "0768-62-1241",
    "url": "https://care-net.biz/17/houjusou/",
    "pref": "石川県",
    "city": "能登町",
    "category": "tokuyou",
    "serviceType": "介護老人福祉施設",
    "capacity": 0,
    "openDays": [],
    "openDaysNote": ""
  },
  {
    "id": "1771700265",
    "name": "特別養護老人ホーム第二長寿園",
    "kana": "トクベツヨウゴロウジンホームダイニチョウジュエン",
    "address": "鳳珠郡能登町字布浦ノ字１０番地３",
    "lat": 37.3449061,
    "lng": 137.2531794,
    "tel": "0768-72-8888",
    "url": "https://choujukai-isk.jp",
    "pref": "石川県",
    "city": "能登町",
    "category": "tokuyou",
    "serviceType": "介護老人福祉施設",
    "capacity": 0,
    "openDays": [],
    "openDaysNote": ""
  },
  {
    "id": "1772300040",
    "name": "特別養護老人ホーム　ボニュール根上苑",
    "kana": "トクベツヨウゴロウジンホーム　ボニュールネアガリエン",
    "address": "石川県能美市下ノ江町イ201番地1",
    "lat": 36.4385405,
    "lng": 136.4534722,
    "tel": "0761-56-0081",
    "url": "https://kihoukai.jp",
    "pref": "石川県",
    "city": "能美市",
    "category": "tokuyou",
    "serviceType": "介護老人福祉施設",
    "capacity": 0,
    "openDays": [],
    "openDaysNote": ""
  },
  {
    "id": "1772300057",
    "name": "特別養護老人ホーム湯寿園",
    "kana": "トクベツヨウゴロウジンホームトウジュエン",
    "address": "能美市湯谷町乙88番地",
    "lat": 36.4361135,
    "lng": 136.524228,
    "tel": "0761-58-6555",
    "url": "http://www.toujukai.com/",
    "pref": "石川県",
    "city": "能美市",
    "category": "tokuyou",
    "serviceType": "介護老人福祉施設",
    "capacity": 0,
    "openDays": [],
    "openDaysNote": ""
  },
  {
    "id": "1772200125",
    "name": "つるべ荘",
    "kana": "ツルベソウ",
    "address": "一塚町1351番地１",
    "lat": 36.5614951,
    "lng": 136.5589191,
    "tel": "０７６－２７６－２０２０",
    "url": "https://www.fukushikai-m.com",
    "pref": "石川県",
    "city": "白山市",
    "category": "tokuyou",
    "serviceType": "介護老人福祉施設",
    "capacity": 0,
    "openDays": [],
    "openDaysNote": ""
  },
  {
    "id": "1772200208",
    "name": "特別養護老人ホーム　あじさいの郷",
    "kana": "トクベツヨウゴロウジンホーム　アジサイノサト",
    "address": "白山市明島町春130番地",
    "lat": 36.4610958,
    "lng": 136.6128519,
    "tel": "076-273-0123",
    "url": "https://care-net.biz/17/ajisai2004/",
    "pref": "石川県",
    "city": "白山市",
    "category": "tokuyou",
    "serviceType": "介護老人福祉施設",
    "capacity": 0,
    "openDays": [],
    "openDaysNote": ""
  },
  {
    "id": "1772200133",
    "name": "特別養護老人ホーム　キラッと篤寿苑",
    "kana": "トクベツヨウゴロウジンホーム　キラットトクジュエン",
    "address": "白山市平加町ヌ110-1",
    "lat": 36.4934807,
    "lng": 136.4891739,
    "tel": "076-278-2555",
    "url": "http://www.tokuhoukai.jp/",
    "pref": "石川県",
    "city": "白山市",
    "category": "tokuyou",
    "serviceType": "介護老人福祉施設",
    "capacity": 60,
    "openDays": [],
    "openDaysNote": ""
  },
  {
    "id": "1772200224",
    "name": "特別養護老人ホーム　大門園",
    "kana": "トクベツヨウゴロウジンホーム　ダイモンエン",
    "address": "石川県白山市佐良ロ123番地",
    "lat": 36.324617,
    "lng": 136.6465576,
    "tel": "076-255-5221",
    "url": "https://daimonen.com",
    "pref": "石川県",
    "city": "白山市",
    "category": "tokuyou",
    "serviceType": "介護老人福祉施設",
    "capacity": 100,
    "openDays": [],
    "openDaysNote": ""
  },
  {
    "id": "1772200018",
    "name": "特別養護老人ホーム　福寿園",
    "kana": "トクベツヨウゴロウジンホーム　フクジュエン",
    "address": "白山市山島台四丁目100番地",
    "lat": 36.4706687,
    "lng": 136.5758196,
    "tel": "076-276-3545",
    "url": "http://www.fukujyukai.jp/",
    "pref": "石川県",
    "city": "白山市",
    "category": "tokuyou",
    "serviceType": "介護老人福祉施設",
    "capacity": 0,
    "openDays": [],
    "openDaysNote": ""
  },
  {
    "id": "1772200026",
    "name": "特別養護老人ホーム松美苑",
    "kana": "トクベツヨウゴロウジンホームショウビエン",
    "address": "石川県白山市笠間町1738番地",
    "lat": 36.5025379,
    "lng": 136.5223207,
    "tel": "076-274-6776",
    "url": "http://www.fukujyukai.jp/kasama/index.html",
    "pref": "石川県",
    "city": "白山市",
    "category": "tokuyou",
    "serviceType": "介護老人福祉施設",
    "capacity": 80,
    "openDays": [],
    "openDaysNote": ""
  },
  {
    "id": "1772200257",
    "name": "美杉の郷",
    "kana": "ミスギノサト",
    "address": "白山市桑島４号８７番地５",
    "lat": 36.1985246,
    "lng": 136.6255982,
    "tel": "076-259-2117",
    "url": "www.misuginosato.jp",
    "pref": "石川県",
    "city": "白山市",
    "category": "tokuyou",
    "serviceType": "介護老人福祉施設",
    "capacity": 70,
    "openDays": [],
    "openDaysNote": ""
  },
  {
    "id": "1771500152",
    "name": "特別養護老人ホーム　宝達苑",
    "kana": "トクベツヨウゴロウジンホーム　ホウダツエン",
    "address": "石川県羽咋郡宝達志水町北川尻二部55番地",
    "lat": 36.8002226218108,
    "lng": 136.749957340912,
    "tel": "0767-28-5710",
    "url": "http://www.koukenkai.com",
    "pref": "石川県",
    "city": "宝達志水町",
    "category": "tokuyou",
    "serviceType": "介護老人福祉施設",
    "capacity": 0,
    "openDays": [],
    "openDaysNote": ""
  },
  {
    "id": "1771500111",
    "name": "特別養護老人ホームちどり園",
    "kana": "トクベツヨウゴロウジンホームチドリエン",
    "address": "石川県羽咋郡宝達志水町宿五号１０番地２",
    "lat": 36.8441142,
    "lng": 136.7756657,
    "tel": "0767-28-5511",
    "url": "http://nagisa-chidori.com/",
    "pref": "石川県",
    "city": "宝達志水町",
    "category": "tokuyou",
    "serviceType": "介護老人福祉施設",
    "capacity": 0,
    "openDays": [],
    "openDaysNote": ""
  },
  {
    "id": "1771300496",
    "name": "特別養護老人ホームかんじん",
    "kana": "トクベツヨウゴロウジンホームカンジン",
    "address": "石川県野々市市新庄二丁目４５番地",
    "lat": 36.4967712883734,
    "lng": 136.609929839287,
    "tel": "076-248-7767",
    "url": "https://yowakai.jp/kanjin/",
    "pref": "石川県",
    "city": "野々市市",
    "category": "tokuyou",
    "serviceType": "介護老人福祉施設",
    "capacity": 70,
    "openDays": [],
    "openDaysNote": ""
  },
  {
    "id": "1771300173",
    "name": "富樫苑",
    "kana": "トガシエン",
    "address": "石川県野々市市中林4-62",
    "lat": 36.5160576,
    "lng": 136.600508,
    "tel": "076-248-8765",
    "url": "http://www.togashien.jp",
    "pref": "石川県",
    "city": "野々市市",
    "category": "tokuyou",
    "serviceType": "介護老人福祉施設",
    "capacity": 0,
    "openDays": [],
    "openDaysNote": ""
  },
  {
    "id": "1770400099",
    "name": "ユニット型特別養護老人ホーム　みやび",
    "kana": "ユニットガタトクベツヨウゴロウジンホーム　ミヤビ",
    "address": "輪島市町野町寺地1027番地",
    "lat": 37.4349397,
    "lng": 137.0870975,
    "tel": "0768-32-0006",
    "url": "https://kotobukifukushikai.com/miyabi/",
    "pref": "石川県",
    "city": "輪島市",
    "category": "tokuyou",
    "serviceType": "介護老人福祉施設",
    "capacity": 60,
    "openDays": [],
    "openDaysNote": ""
  },
  {
    "id": "1770400115",
    "name": "指定介護老人福祉施設あかかみ",
    "kana": "シテイカイゴロウジンフクシシセツアカカミ",
    "address": "石川県輪島市門前町赤神１０の１番地",
    "lat": 37.2461951,
    "lng": 136.708625466934,
    "tel": "0768-45-1249",
    "url": "http//www.akakami.jp/",
    "pref": "石川県",
    "city": "輪島市",
    "category": "tokuyou",
    "serviceType": "介護老人福祉施設",
    "capacity": 0,
    "openDays": [],
    "openDaysNote": ""
  },
  {
    "id": "1770400016",
    "name": "特別養護老人ホーム　あての木園",
    "kana": "トクベツヨウゴロウジンホーム　アテノキエン",
    "address": "輪島市三井町小泉上野２番地",
    "lat": 37.2970977,
    "lng": 136.8964318,
    "tel": "0768-26-1661",
    "url": "atenoki@skyblue.ocn.ne.jp",
    "pref": "石川県",
    "city": "輪島市",
    "category": "tokuyou",
    "serviceType": "介護老人福祉施設",
    "capacity": 0,
    "openDays": [],
    "openDaysNote": ""
  },
  {
    "id": "1770400123",
    "name": "特別養護老人ホームゆきわりそう",
    "kana": "トクベツヨウゴロウジンホームユキワリソウ",
    "address": "石川県輪島市門前町深田２２－４２番地",
    "lat": 37.2891781,
    "lng": 136.7805975,
    "tel": "0768-42-3333",
    "url": "http://yukiwarisou.org",
    "pref": "石川県",
    "city": "輪島市",
    "category": "tokuyou",
    "serviceType": "介護老人福祉施設",
    "capacity": 0,
    "openDays": [],
    "openDaysNote": ""
  }
]