[
  {
    "id": "1471600070",
    "name": "介護老人福祉施設ミノワホーム",
    "kana": "カイゴロウジンフクシシセツミノワホーム",
    "address": "神奈川県愛甲郡愛川町角田１４０－３",
    "lat": 35.5257016,
    "lng": 139.3255664,
    "tel": "046-285-3535",
    "url": "https://aikawa-shunjukai.jp/minowahome",
    "pref": "神奈川県",
    "city": "愛川町",
    "category": "tokuyou",
    "serviceType": "介護老人福祉施設",
    "capacity": 0,
    "openDays": [],
    "openDaysNote": ""
  },
  {
    "id": "1471600021",
    "name": "志田山ホーム",
    "kana": "シダサンホーム",
    "address": "神奈川県愛甲郡愛川町三増２７２７",
    "lat": 35.5405326,
    "lng": 139.2859501,
    "tel": "046-281-4313",
    "url": "http://www.shidasanho-mu.jp",
    "pref": "神奈川県",
    "city": "愛川町",
    "category": "tokuyou",
    "serviceType": "介護老人福祉施設",
    "capacity": 50,
    "openDays": [],
    "openDaysNote": ""
  },
  {
    "id": "1471600245",
    "name": "特別養護老人ホーム　愛和の里",
    "kana": "トクベツヨウゴロウジンホーム　アイワノサト",
    "address": "神奈川県愛甲郡愛川町田代680番地",
    "lat": 35.528676,
    "lng": 139.2915721,
    "tel": "046-281-1551",
    "url": "http://www.aiwanosato.jp",
    "pref": "神奈川県",
    "city": "愛川町",
    "category": "tokuyou",
    "serviceType": "介護老人福祉施設",
    "capacity": 90,
    "openDays": [],
    "openDaysNote": ""
  },
  {
    "id": "1474400015",
    "name": "道志会居宅介護支援事業所",
    "kana": "ドウシカイキョタクカイゴシエンジギョウショ",
    "address": "神奈川県綾瀬市早川城山2-11-3",
    "lat": 35.4361446,
    "lng": 139.4214485,
    "tel": "0467-76-3399",
    "url": "http://www.doushikai.or.jp",
    "pref": "神奈川県",
    "city": "綾瀬市",
    "category": "tokuyou",
    "serviceType": "介護老人福祉施設",
    "capacity": 90,
    "openDays": [],
    "openDaysNote": ""
  },
  {
    "id": "1474400080",
    "name": "特別養護老人ホーム　泉正園",
    "kana": "トクベツヨウゴロウジンホーム　センショウエン",
    "address": "神奈川県綾瀬市上土棚南１－１１－２０",
    "lat": 35.4124208,
    "lng": 139.4442693,
    "tel": "0467-70-1888",
    "url": "http://www.senshoukai.com",
    "pref": "神奈川県",
    "city": "綾瀬市",
    "category": "tokuyou",
    "serviceType": "介護老人福祉施設",
    "capacity": 0,
    "openDays": [],
    "openDaysNote": ""
  },
  {
    "id": "1474400643",
    "name": "特別養護老人ホーム　杜の郷",
    "kana": "トクベツヨウゴロウジンホーム　モリノサト",
    "address": "神奈川県綾瀬市寺尾南1-5-31",
    "lat": 35.4480601,
    "lng": 139.4297837,
    "tel": "0467-76-3800",
    "url": "https://www.senju-kai.com/",
    "pref": "神奈川県",
    "city": "綾瀬市",
    "category": "tokuyou",
    "serviceType": "介護老人福祉施設",
    "capacity": 90,
    "openDays": [],
    "openDaysNote": ""
  },
  {
    "id": "1474000997",
    "name": "伊勢原ホーム",
    "kana": "イセハラホーム",
    "address": "神奈川県伊勢原市子易1254-4",
    "lat": 35.4170294,
    "lng": 139.2686362,
    "tel": "0463-93-5521",
    "url": "http://www.dairoku.org",
    "pref": "神奈川県",
    "city": "伊勢原市",
    "category": "tokuyou",
    "serviceType": "介護老人福祉施設",
    "capacity": 53,
    "openDays": [],
    "openDaysNote": ""
  },
  {
    "id": "1474000153",
    "name": "介護老人福祉施設　らんの里",
    "kana": "カイゴロウジンフクシシセツランノサト",
    "address": "神奈川県伊勢原市沼目６－１２５７",
    "lat": 35.3885651,
    "lng": 139.3303382,
    "tel": "0463-97-2002",
    "url": "http://showyoukai.com/",
    "pref": "神奈川県",
    "city": "伊勢原市",
    "category": "tokuyou",
    "serviceType": "介護老人福祉施設",
    "capacity": 0,
    "openDays": [],
    "openDaysNote": ""
  },
  {
    "id": "1474000039",
    "name": "高齢者総合支援センター泉心荘",
    "kana": "コウレイシャソウゴウシエンセンターセンシンソウ",
    "address": "神奈川県伊勢原市三ノ宮511番地の1",
    "lat": 35.4085338,
    "lng": 139.2884511,
    "tel": "0463-92-6722",
    "url": "https://senshinso.or.jp/",
    "pref": "神奈川県",
    "city": "伊勢原市",
    "category": "tokuyou",
    "serviceType": "介護老人福祉施設",
    "capacity": null,
    "openDays": [],
    "openDaysNote": ""
  },
  {
    "id": "1474001003",
    "name": "高齢者総合支援センター泉心荘（ユニット）",
    "kana": "コウレイシャソウゴウシエンセンターセンシンソウ（ユニット）",
    "address": "神奈川県伊勢原市三ノ宮511番地の1",
    "lat": 35.4085338,
    "lng": 139.2884511,
    "tel": "0463-92-6722",
    "url": "https://senshinso.or.jp/",
    "pref": "神奈川県",
    "city": "伊勢原市",
    "category": "tokuyou",
    "serviceType": "介護老人福祉施設",
    "capacity": 0,
    "openDays": [],
    "openDaysNote": ""
  },
  {
    "id": "1474000146",
    "name": "特別養護老人ホーム　伊勢原ホーム",
    "kana": "トクベツヨウゴロウジンホーム　イセハラホーム",
    "address": "神奈川県伊勢原市子易1254-4",
    "lat": 35.4169146411543,
    "lng": 139.268125239183,
    "tel": "0463-93-5521",
    "url": "http://www.dairoku.org",
    "pref": "神奈川県",
    "city": "伊勢原市",
    "category": "tokuyou",
    "serviceType": "介護老人福祉施設",
    "capacity": 31,
    "openDays": [],
    "openDaysNote": ""
  },
  {
    "id": "1474000849",
    "name": "特別養護老人ホーム　湘南けやきの郷",
    "kana": "トクベツヨウゴロウジンホーム　ショウナンケヤキノサト",
    "address": "神奈川県伊勢原市小稲葉字一色1281番",
    "lat": 35.3919477337238,
    "lng": 139.351370078435,
    "tel": "0463-96-4178",
    "url": "http://www.inabakai.or.jp/",
    "pref": "神奈川県",
    "city": "伊勢原市",
    "category": "tokuyou",
    "serviceType": "介護老人福祉施設",
    "capacity": 0,
    "openDays": [],
    "openDaysNote": ""
  },
  {
    "id": "1474001599",
    "name": "特別養護老人ホーム光響荘",
    "kana": "トクベツヨウゴロウジンホームコウキョウソウ",
    "address": "神奈川県伊勢原市東大竹1511番地",
    "lat": 35.3891087922374,
    "lng": 139.305011134046,
    "tel": "0463-75-8460",
    "url": "https://asukafukushikai.com/center_welfare/koukyousou",
    "pref": "神奈川県",
    "city": "伊勢原市",
    "category": "tokuyou",
    "serviceType": "介護老人福祉施設",
    "capacity": null,
    "openDays": [],
    "openDaysNote": ""
  },
  {
    "id": "1471904613",
    "name": "さくらの里山科",
    "kana": "サクラノサトヤマシナ",
    "address": "神奈川県横須賀市太田和5-86-1",
    "lat": 35.2318322,
    "lng": 139.6507159,
    "tel": "046-857-6333",
    "url": "http://sakura2000.jp/",
    "pref": "神奈川県",
    "city": "横須賀市",
    "category": "tokuyou",
    "serviceType": "介護老人福祉施設",
    "capacity": 0,
    "openDays": [],
    "openDaysNote": ""
  },
  {
    "id": "1471900264",
    "name": "サニーヒル横須賀",
    "kana": "サニーヒルヨコスカ",
    "address": "神奈川県横須賀市長井６－２１－７",
    "lat": 35.1951086,
    "lng": 139.6089082,
    "tel": "046-855-3032",
    "url": "http://www.sunnyhill.or.jp",
    "pref": "神奈川県",
    "city": "横須賀市",
    "category": "tokuyou",
    "serviceType": "介護老人福祉施設",
    "capacity": 0,
    "openDays": [],
    "openDaysNote": ""
  },
  {
    "id": "1471900546",
    "name": "衣笠ホーム",
    "kana": "キヌガサホーム",
    "address": "神奈川県横須賀市芦名２－４－１",
    "lat": 35.2321340990385,
    "lng": 139.617462086508,
    "tel": "046-856-7101",
    "url": "https://www.kinugasa.or.jp/care/home/",
    "pref": "神奈川県",
    "city": "横須賀市",
    "category": "tokuyou",
    "serviceType": "介護老人福祉施設",
    "capacity": 10,
    "openDays": [],
    "openDaysNote": ""
  },
  {
    "id": "1471901783",
    "name": "横須賀あじさい園",
    "kana": "ヨコスカアジサイエン",
    "address": "神奈川県横須賀市粟田2-20-1",
    "lat": 35.2259091178921,
    "lng": 139.682389307271,
    "tel": "046-839-3581",
    "url": "http://www.ajisaikai.com/",
    "pref": "神奈川県",
    "city": "横須賀市",
    "category": "tokuyou",
    "serviceType": "介護老人福祉施設",
    "capacity": 0,
    "openDays": [],
    "openDaysNote": ""
  },
  {
    "id": "1471901544",
    "name": "横須賀老人ホーム　介護老人福祉施設",
    "kana": "ヨコスカロウジンホーム　カイゴロウジンフクシシセツ",
    "address": "神奈川県横須賀市野比５－５－６",
    "lat": 35.2120009,
    "lng": 139.7066811,
    "tel": "046-848-1761",
    "url": "http://www.kanagawa-swc.com/yokosuka",
    "pref": "神奈川県",
    "city": "横須賀市",
    "category": "tokuyou",
    "serviceType": "介護老人福祉施設",
    "capacity": 205,
    "openDays": [],
    "openDaysNote": ""
  },
  {
    "id": "1471900579",
    "name": "介護老人福祉施設　横須賀愛光園",
    "kana": "カイゴロウジンフクシシセツ　ヨコスカアイコウエン",
    "address": "神奈川県横須賀市武3-39-1",
    "lat": 35.2207586,
    "lng": 139.6487217,
    "tel": "046-857-6600",
    "url": "http://www.seirei.or.jp/elderlyhome/yokosuka/",
    "pref": "神奈川県",
    "city": "横須賀市",
    "category": "tokuyou",
    "serviceType": "介護老人福祉施設",
    "capacity": 65,
    "openDays": [],
    "openDaysNote": ""
  },
  {
    "id": "1471905172",
    "name": "介護老人福祉施設　横須賀愛光園（ユニット型）",
    "kana": "カイゴロウジンフクシシセツ　ヨコスカアイコウエン（ユニットガタ）",
    "address": "神奈川県横須賀市武3-39-1",
    "lat": 35.2813412,
    "lng": 139.6722005,
    "tel": "046-857-6600",
    "url": "https://www.seirei.or.jp/elderlyhome/yokosuka/",
    "pref": "神奈川県",
    "city": "横須賀市",
    "category": "tokuyou",
    "serviceType": "介護老人福祉施設",
    "capacity": 40,
    "openDays": [],
    "openDaysNote": ""
  },
  {
    "id": "1471904621",
    "name": "介護老人福祉施設　玉成苑",
    "kana": "カイゴロウジンフクシシセツ　ギョクセイエン",
    "address": "神奈川県横須賀市長浦町5-80-1",
    "lat": 35.2900517,
    "lng": 139.6394231,
    "tel": "046-874-5836",
    "url": "http://www.senseikai.or.jp",
    "pref": "神奈川県",
    "city": "横須賀市",
    "category": "tokuyou",
    "serviceType": "介護老人福祉施設",
    "capacity": 0,
    "openDays": [],
    "openDaysNote": ""
  },
  {
    "id": "1471900538",
    "name": "共楽荘特養ホーム",
    "kana": "キョウラクソウトクヨウホーム",
    "address": "神奈川県横須賀市衣笠栄町4-14",
    "lat": 35.2631899901215,
    "lng": 139.655984157672,
    "tel": "046-851-1904",
    "url": "https://kyourakusou.jp/",
    "pref": "神奈川県",
    "city": "横須賀市",
    "category": "tokuyou",
    "serviceType": "介護老人福祉施設",
    "capacity": 0,
    "openDays": [],
    "openDaysNote": ""
  },
  {
    "id": "1471900132",
    "name": "高齢者総合福祉センターヒューマン",
    "kana": "コウレイシャソウゴウフクシセンター　ヒューマン",
    "address": "神奈川県横須賀市佐島３丁目１２番１５号",
    "lat": 35.2287405,
    "lng": 139.6047639,
    "tel": "046-856-7088",
    "url": "https://www.human-fujimi.jp/",
    "pref": "神奈川県",
    "city": "横須賀市",
    "category": "tokuyou",
    "serviceType": "介護老人福祉施設",
    "capacity": 90,
    "openDays": [],
    "openDaysNote": ""
  },
  {
    "id": "1471901742",
    "name": "太陽の家",
    "kana": "タイヨウノイエ",
    "address": "神奈川県横須賀市西浦賀６丁目１番１号",
    "lat": 35.2324765,
    "lng": 139.7235651,
    "tel": "046-846-5133",
    "url": "http://www.ui21.or.jp",
    "pref": "神奈川県",
    "city": "横須賀市",
    "category": "tokuyou",
    "serviceType": "介護老人福祉施設",
    "capacity": 0,
    "openDays": [],
    "openDaysNote": ""
  },
  {
    "id": "1471902898",
    "name": "太陽の家二番館",
    "kana": "タイヨウノイエニバンカン",
    "address": "神奈川県横須賀市西浦賀６－1－2",
    "lat": 35.2313044,
    "lng": 139.7246345,
    "tel": "046-841-2088",
    "url": "https//www.ui21.or.jp/",
    "pref": "神奈川県",
    "city": "横須賀市",
    "category": "tokuyou",
    "serviceType": "介護老人福祉施設",
    "capacity": 0,
    "openDays": [],
    "openDaysNote": ""
  },
  {
    "id": "1471900611",
    "name": "特別養護老人ホーム　シャローム",
    "kana": "トクベツヨウゴロウジンホーム　シャローム",
    "address": "神奈川県横須賀市走水1丁目35番地",
    "lat": 35.2630731,
    "lng": 139.7279564,
    "tel": "046-842-1031",
    "url": "https://www.yokosuka-shalom.jp/",
    "pref": "神奈川県",
    "city": "横須賀市",
    "category": "tokuyou",
    "serviceType": "介護老人福祉施設",
    "capacity": 106,
    "openDays": [],
    "openDaysNote": ""
  },
  {
    "id": "1471900595",
    "name": "特別養護老人ホーム　やまびこ荘",
    "kana": "トクベツヨウゴロウジンホームヤマビコソウ",
    "address": "神奈川県横須賀市武３－３９－２",
    "lat": 35.2212724,
    "lng": 139.6487606,
    "tel": "046-858-0800",
    "url": "http://www.yamabiko.com",
    "pref": "神奈川県",
    "city": "横須賀市",
    "category": "tokuyou",
    "serviceType": "介護老人福祉施設",
    "capacity": 88,
    "openDays": [],
    "openDaysNote": ""
  },
  {
    "id": "1471900603",
    "name": "特別養護老人ホーム　横須賀椿園",
    "kana": "トクベツヨウゴロウジンホーム　ヨコスカツバキエン",
    "address": "神奈川県横須賀市太田和2-3-21",
    "lat": 35.223611,
    "lng": 139.6321426,
    "tel": "046-857-9598",
    "url": "https://soutokukai.com",
    "pref": "神奈川県",
    "city": "横須賀市",
    "category": "tokuyou",
    "serviceType": "介護老人福祉施設",
    "capacity": null,
    "openDays": [],
    "openDaysNote": ""
  },
  {
    "id": "1471902187",
    "name": "特別養護老人ホーム　興寿苑",
    "kana": "トクベツヨウゴロウジンホームコウジュエン",
    "address": "神奈川県横須賀市池上6-5-21",
    "lat": 35.2647759,
    "lng": 139.6382865,
    "tel": "046-852-1301",
    "url": "http://kojukai.or.jp/",
    "pref": "神奈川県",
    "city": "横須賀市",
    "category": "tokuyou",
    "serviceType": "介護老人福祉施設",
    "capacity": 0,
    "openDays": [],
    "openDaysNote": ""
  },
  {
    "id": "1471900553",
    "name": "特別養護老人ホーム　恵徳苑",
    "kana": "トクベツヨウゴロウジンホームケイトクエン",
    "address": "神奈川県横須賀市日の出町1-9-1",
    "lat": 35.2807298800697,
    "lng": 139.675018202869,
    "tel": "046-823-5132",
    "url": "http://www.keitokuen.or.jp/keitokuen.html",
    "pref": "神奈川県",
    "city": "横須賀市",
    "category": "tokuyou",
    "serviceType": "介護老人福祉施設",
    "capacity": 0,
    "openDays": [],
    "openDaysNote": ""
  },
  {
    "id": "1471901809",
    "name": "特別養護老人ホーム　塚山ホーム",
    "kana": "トクベツヨウゴロウジンホーム　ツカヤマホーム",
    "address": "神奈川県横須賀市吉倉町2-24-1",
    "lat": 35.2829162,
    "lng": 139.6449557,
    "tel": "046-821-5811",
    "url": "https://tsukayama-home.com/",
    "pref": "神奈川県",
    "city": "横須賀市",
    "category": "tokuyou",
    "serviceType": "介護老人福祉施設",
    "capacity": 0,
    "openDays": [],
    "openDaysNote": ""
  },
  {
    "id": "1471904670",
    "name": "特別養護老人ホームゆうあいの郷衣笠",
    "kana": "トクベツヨウゴロウジンホームユウアイノサトキヌガサ",
    "address": "神奈川県横須賀市衣笠町44-7",
    "lat": 35.2374237483136,
    "lng": 139.661463483467,
    "tel": "046-874-7401",
    "url": "https://www.shonanyuuaikai.or.jp/kinugasa.html",
    "pref": "神奈川県",
    "city": "横須賀市",
    "category": "tokuyou",
    "serviceType": "介護老人福祉施設",
    "capacity": 0,
    "openDays": [],
    "openDaysNote": ""
  },
  {
    "id": "1471900587",
    "name": "特別養護老人ホーム横須賀グリーンヒル",
    "kana": "トクベツヨウゴロウジンホームヨコスカグリーンヒル",
    "address": "神奈川県横須賀市大矢部1丁目9番30号",
    "lat": 35.2423594108676,
    "lng": 139.66898464418,
    "tel": "046-833-5546",
    "url": "https://yokosuka-greenhil.jp/pages/64/",
    "pref": "神奈川県",
    "city": "横須賀市",
    "category": "tokuyou",
    "serviceType": "介護老人福祉施設",
    "capacity": 0,
    "openDays": [],
    "openDaysNote": ""
  },
  {
    "id": "1473200051",
    "name": "さくら苑",
    "kana": "サクラエン",
    "address": "神奈川県横浜市旭区下川井町360番地",
    "lat": 35.4831935,
    "lng": 139.5167108,
    "tel": "045-952-1111",
    "url": "http://www.shuhokai.or.jp",
    "pref": "神奈川県",
    "city": "横浜市旭区",
    "category": "tokuyou",
    "serviceType": "介護老人福祉施設",
    "capacity": 0,
    "openDays": [],
    "openDaysNote": ""
  },
  {
    "id": "1473200135",
    "name": "シャローム横浜",
    "kana": "シャロームヨコハマ",
    "address": "神奈川県横浜市旭区上川井町１９８８",
    "lat": 35.4950375,
    "lng": 139.4919758,
    "tel": "045-922-7333",
    "url": "https://www.adventist-welfare.jp/yokohama/index.html",
    "pref": "神奈川県",
    "city": "横浜市旭区",
    "category": "tokuyou",
    "serviceType": "介護老人福祉施設",
    "capacity": 0,
    "openDays": [],
    "openDaysNote": ""
  },
  {
    "id": "1473200226",
    "name": "旭ホーム",
    "kana": "アサヒホーム",
    "address": "神奈川県横浜市旭区川井本町154-6",
    "lat": 35.4906947,
    "lng": 139.5062279,
    "tel": "045-954-4822",
    "url": "https://www.asahihome.ne.jp/",
    "pref": "神奈川県",
    "city": "横浜市旭区",
    "category": "tokuyou",
    "serviceType": "介護老人福祉施設",
    "capacity": 50,
    "openDays": [],
    "openDaysNote": ""
  },
  {
    "id": "1473201570",
    "name": "介護老人福祉施設　ヴィラ横浜",
    "kana": "カイゴロウジンフクシシセツゔィラヨコハマ",
    "address": "神奈川県横浜市旭区上白根町1437-1",
    "lat": 35.5000436232963,
    "lng": 139.526515405557,
    "tel": "045-953-6733",
    "url": "https://www.yokohama.tokuyou.jp/",
    "pref": "神奈川県",
    "city": "横浜市旭区",
    "category": "tokuyou",
    "serviceType": "介護老人福祉施設",
    "capacity": 110,
    "openDays": [],
    "openDaysNote": ""
  },
  {
    "id": "1473201968",
    "name": "介護老人福祉施設　ヴィラ南本宿",
    "kana": "カイゴロウジンフクシシセツ　ゔィラミナミホンジュク",
    "address": "神奈川県横浜市旭区南本宿町109-1",
    "lat": 35.4565941,
    "lng": 139.5428395,
    "tel": "045-351-7500",
    "url": "https://honjuku.tokuyou.jp/",
    "pref": "神奈川県",
    "city": "横浜市旭区",
    "category": "tokuyou",
    "serviceType": "介護老人福祉施設",
    "capacity": 0,
    "openDays": [],
    "openDaysNote": ""
  },
  {
    "id": "1473200721",
    "name": "介護老人福祉施設　サンライズヒル横浜",
    "kana": "カイゴロウジンフクシシセツ　サンライズヒルヨコハマ",
    "address": "神奈川県横浜市旭区上白根町１２０７－１",
    "lat": 35.4986335,
    "lng": 139.5267957,
    "tel": "045-955-5341",
    "url": "http://www.sunrisehill-yokohama.com",
    "pref": "神奈川県",
    "city": "横浜市旭区",
    "category": "tokuyou",
    "serviceType": "介護老人福祉施設",
    "capacity": 100,
    "openDays": [],
    "openDaysNote": ""
  },
  {
    "id": "1473201877",
    "name": "介護老人福祉施設ヴィラ桜ケ丘",
    "kana": "カイゴロウジンフクシシセツウ゛ィラサクラガオカ",
    "address": "神奈川県横浜市旭区上白根町1436-10",
    "lat": 35.4999412743545,
    "lng": 139.527405860188,
    "tel": "045-952-2300",
    "url": "https://sakura.tokuyou.jp",
    "pref": "神奈川県",
    "city": "横浜市旭区",
    "category": "tokuyou",
    "serviceType": "介護老人福祉施設",
    "capacity": 90,
    "openDays": [],
    "openDaysNote": ""
  },
  {
    "id": "1473200259",
    "name": "介護老人福祉施設弥生苑",
    "kana": "カイゴロウジンフクシシセツヤヨイエン",
    "address": "神奈川県横浜市旭区上川井町１２４１－１",
    "lat": 35.4913251,
    "lng": 139.5046696,
    "tel": "045-922-5141",
    "url": "http://www.toureikai.jp/",
    "pref": "神奈川県",
    "city": "横浜市旭区",
    "category": "tokuyou",
    "serviceType": "介護老人福祉施設",
    "capacity": 0,
    "openDays": [],
    "openDaysNote": ""
  },
  {
    "id": "1473200531",
    "name": "今宿ホーム",
    "kana": "イマジュクホーム",
    "address": "神奈川県横浜市旭区今宿1-5-1",
    "lat": 35.4758418,
    "lng": 139.5267297,
    "tel": "045-360-1002",
    "url": "http://keiyukai.org/index.html",
    "pref": "神奈川県",
    "city": "横浜市旭区",
    "category": "tokuyou",
    "serviceType": "介護老人福祉施設",
    "capacity": null,
    "openDays": [],
    "openDaysNote": ""
  },
  {
    "id": "1473200200",
    "name": "社会福祉法人創生会　特別養護老人ホーム　あだちホーム",
    "kana": "シャカイフクシホウジンソウセイカイ　トクベツヨウゴロウジンホームアダチホーム",
    "address": "神奈川県横浜市旭区上川井町2287",
    "lat": 35.5014033,
    "lng": 139.496242,
    "tel": "045-922-1501",
    "url": "http://adachihome.net",
    "pref": "神奈川県",
    "city": "横浜市旭区",
    "category": "tokuyou",
    "serviceType": "介護老人福祉施設",
    "capacity": 0,
    "openDays": [],
    "openDaysNote": ""
  },
  {
    "id": "1473201299",
    "name": "水の郷",
    "kana": "ミズノサト",
    "address": "神奈川県横浜市旭区上川井町3059",
    "lat": 35.4978437,
    "lng": 139.5075831,
    "tel": "045-921-1211",
    "url": "http://www.mizunosato.or.jp/",
    "pref": "神奈川県",
    "city": "横浜市旭区",
    "category": "tokuyou",
    "serviceType": "介護老人福祉施設",
    "capacity": 100,
    "openDays": [],
    "openDaysNote": ""
  },
  {
    "id": "1473201851",
    "name": "特別養護老人ホーム　かわいの家",
    "kana": "トクベツヨウゴロウジンホーム　カワイノイエ",
    "address": "神奈川県横浜市旭区川井宿町69番地1",
    "lat": 35.4946616,
    "lng": 139.5181298,
    "tel": "045-954-4500",
    "url": "https://www.foryou.or.jp",
    "pref": "神奈川県",
    "city": "横浜市旭区",
    "category": "tokuyou",
    "serviceType": "介護老人福祉施設",
    "capacity": 0,
    "openDays": [],
    "openDaysNote": ""
  },
  {
    "id": "1473201406",
    "name": "特別養護老人ホーム　グリーンライフ",
    "kana": "トクベツヨウゴロウジンホーム　グリーンライフ",
    "address": "神奈川県横浜市旭区中白根3-31-11",
    "lat": 35.4976003,
    "lng": 139.5437497,
    "tel": "045-959-5230",
    "url": "http://www.ryokuhokai.or.jp/",
    "pref": "神奈川県",
    "city": "横浜市旭区",
    "category": "tokuyou",
    "serviceType": "介護老人福祉施設",
    "capacity": 0,
    "openDays": [],
    "openDaysNote": ""
  },
  {
    "id": "1473200234",
    "name": "特別養護老人ホーム　グリンサイド清盛",
    "kana": "トウクベツヨウゴロウジンホーム　グリンサイドセイジョウ",
    "address": "神奈川県横浜市旭区万騎が原4",
    "lat": 35.4558359,
    "lng": 139.5366929,
    "tel": "045-362-3355",
    "url": "http://gurinsaido-seijyou.com/",
    "pref": "神奈川県",
    "city": "横浜市旭区",
    "category": "tokuyou",
    "serviceType": "介護老人福祉施設",
    "capacity": 104,
    "openDays": [],
    "openDaysNote": ""
  },
  {
    "id": "1473201687",
    "name": "特別養護老人ホーム　サニーヒル横浜",
    "kana": "トクベツヨウゴロウジンホーム　サニーヒルヨコハマ",
    "address": "神奈川県横浜市旭区上川井町４２６",
    "lat": 35.494541,
    "lng": 139.501878,
    "tel": "045-920-0320",
    "url": "http://www.sunnyhill.or.jp/",
    "pref": "神奈川県",
    "city": "横浜市旭区",
    "category": "tokuyou",
    "serviceType": "介護老人福祉施設",
    "capacity": 0,
    "openDays": [],
    "openDaysNote": ""
  },
  {
    "id": "1473202081",
    "name": "特別養護老人ホーム　今川の郷",
    "kana": "トクベツヨウゴロウジンホーム　イマガワノサト",
    "address": "神奈川県横浜市旭区今川町36-1",
    "lat": 35.4740587,
    "lng": 139.5348818,
    "tel": "045-367-1165",
    "url": "http://www.sanjyukai.com/imagawanosato/",
    "pref": "神奈川県",
    "city": "横浜市旭区",
    "category": "tokuyou",
    "serviceType": "介護老人福祉施設",
    "capacity": 120,
    "openDays": [],
    "openDaysNote": ""
  },
  {
    "id": "1473201125",
    "name": "特別養護老人ホーム　椿寿",
    "kana": "トクベツヨウゴロウジンホーム　チンジュ",
    "address": "神奈川県横浜市旭区上白根町７９２－４",
    "lat": 35.4998001,
    "lng": 139.536692,
    "tel": "045-958-1088",
    "url": "http://chinju.kaikei-en.com/",
    "pref": "神奈川県",
    "city": "横浜市旭区",
    "category": "tokuyou",
    "serviceType": "介護老人福祉施設",
    "capacity": 0,
    "openDays": [],
    "openDaysNote": ""
  },
  {
    "id": "1473200267",
    "name": "特別養護老人ホーム　富士見園",
    "kana": "トクベツヨウゴロウジンホーム　フジミエン",
    "address": "神奈川県横浜市旭区南本宿町１２５番１",
    "lat": 35.4518907108142,
    "lng": 139.546365313492,
    "tel": "045-352-1122",
    "url": "http://park1.wakwak.com/~meiyuukai/",
    "pref": "神奈川県",
    "city": "横浜市旭区",
    "category": "tokuyou",
    "serviceType": "介護老人福祉施設",
    "capacity": 0,
    "openDays": [],
    "openDaysNote": ""
  },
  {
    "id": "1473202107",
    "name": "特別養護老人ホーム　陽光苑",
    "kana": "トクベツヨウゴロウジンホーム　ヨウコウエン",
    "address": "神奈川県横浜市旭区今宿1-66-26",
    "lat": 35.4793163,
    "lng": 139.516997,
    "tel": "045-959-1081",
    "url": "http://www.yokokai.jp/",
    "pref": "神奈川県",
    "city": "横浜市旭区",
    "category": "tokuyou",
    "serviceType": "介護老人福祉施設",
    "capacity": 100,
    "openDays": [],
    "openDaysNote": ""
  },
  {
    "id": "1470700012",
    "name": "中原苑",
    "kana": "ナカハラエン",
    "address": "神奈川県横浜市磯子区中原3-6-10",
    "lat": 35.3887373,
    "lng": 139.6124283,
    "tel": "045-776-3500",
    "url": "https://nakaharaen.com/service/tokuyou/",
    "pref": "神奈川県",
    "city": "横浜市磯子区",
    "category": "tokuyou",
    "serviceType": "介護老人福祉施設",
    "capacity": 100,
    "openDays": [],
    "openDaysNote": ""
  },
  {
    "id": "1470700616",
    "name": "特別養護老人ホーム　たきがしら芭蕉苑",
    "kana": "トクベツヨウゴロウジンホーム　タキガシラバショウエン",
    "address": "神奈川県横浜市磯子区滝頭２－３０－１",
    "lat": 35.4202056,
    "lng": 139.6225185,
    "tel": "045-750-5151",
    "url": "https://chikubukai.jp/",
    "pref": "神奈川県",
    "city": "横浜市磯子区",
    "category": "tokuyou",
    "serviceType": "介護老人福祉施設",
    "capacity": 0,
    "openDays": [],
    "openDaysNote": ""
  },
  {
    "id": "1470701325",
    "name": "特別養護老人ホーム　磯子自然村",
    "kana": "トクベツヨウゴロウジンホーム　イソゴシゼンムラ",
    "address": "神奈川県横浜市磯子区氷取沢町60番17",
    "lat": 35.3647818,
    "lng": 139.6077764,
    "tel": "045-778-1120",
    "url": "http://f-shizenmura.or.jp/",
    "pref": "神奈川県",
    "city": "横浜市磯子区",
    "category": "tokuyou",
    "serviceType": "介護老人福祉施設",
    "capacity": 0,
    "openDays": [],
    "openDaysNote": ""
  },
  {
    "id": "1470701135",
    "name": "特別養護老人ホーム　新磯子ホーム",
    "kana": "トクベツヨウゴロウジンホーム　シンイソゴホーム",
    "address": "神奈川県横浜市磯子区滝頭２－２９－１",
    "lat": 35.42025,
    "lng": 139.6231074,
    "tel": "045-750-5585",
    "url": "https://shafuku-doujinkai.or.jp/",
    "pref": "神奈川県",
    "city": "横浜市磯子区",
    "category": "tokuyou",
    "serviceType": "介護老人福祉施設",
    "capacity": 0,
    "openDays": [],
    "openDaysNote": ""
  },
  {
    "id": "1470700285",
    "name": "特別養護老人ホーム　峰の郷",
    "kana": "トクベツヨウゴロウジンホーム　ミネノサト",
    "address": "神奈川県横浜市磯子区峰町654-1",
    "lat": 35.3647369,
    "lng": 139.5940776,
    "tel": "045-833-1742",
    "url": "https://www.houenkai.com/",
    "pref": "神奈川県",
    "city": "横浜市磯子区",
    "category": "tokuyou",
    "serviceType": "介護老人福祉施設",
    "capacity": 0,
    "openDays": [],
    "openDaysNote": ""
  },
  {
    "id": "1470701424",
    "name": "特別養護老人ホーム　峰の郷（ユニット）",
    "kana": "トウベツヨウゴロウジンホーム　ミネノサト(ユニット）",
    "address": "神奈川県横浜市磯子区峰町654-1",
    "lat": 35.3647369,
    "lng": 139.5940776,
    "tel": "045-833-1742",
    "url": "https://www.houenkai.com",
    "pref": "神奈川県",
    "city": "横浜市磯子区",
    "category": "tokuyou",
    "serviceType": "介護老人福祉施設",
    "capacity": 0,
    "openDays": [],
    "openDaysNote": ""
  },
  {
    "id": "1473500062",
    "name": "上郷苑",
    "kana": "カミゴウエン",
    "address": "神奈川県横浜市栄区野七里1-36-1",
    "lat": 35.3476832,
    "lng": 139.5763681,
    "tel": "045-891-6066",
    "url": "https://www.y-chojukai.or.jp/kamigou/",
    "pref": "神奈川県",
    "city": "横浜市栄区",
    "category": "tokuyou",
    "serviceType": "介護老人福祉施設",
    "capacity": null,
    "openDays": [],
    "openDaysNote": ""
  },
  {
    "id": "1473501029",
    "name": "上郷苑東館",
    "kana": "カミゴウエンヒガシカン",
    "address": "神奈川県横浜市栄区野七里1-36-1",
    "lat": 35.3475706313728,
    "lng": 139.576371248149,
    "tel": "045-897-3055",
    "url": "https://www.y-chojukai.or.jp/kamigou/",
    "pref": "神奈川県",
    "city": "横浜市栄区",
    "category": "tokuyou",
    "serviceType": "介護老人福祉施設",
    "capacity": null,
    "openDays": [],
    "openDaysNote": ""
  },
  {
    "id": "1473500153",
    "name": "特別養護老人ホーム　クロスハート栄・横浜",
    "kana": "トクベツヨウゴロウジンホーム　クロスハートサカエ・ヨコハマ",
    "address": "神奈川県横浜市栄区公田町1020-5",
    "lat": 35.3509689,
    "lng": 139.5584197,
    "tel": "045-896-1234",
    "url": "https://www.shinkoufukushikai.com/care-cats/nursing-home/",
    "pref": "神奈川県",
    "city": "横浜市栄区",
    "category": "tokuyou",
    "serviceType": "介護老人福祉施設",
    "capacity": 112,
    "openDays": [],
    "openDaysNote": ""
  },
  {
    "id": "1473500724",
    "name": "特別養護老人ホーム　陽のあたる丘　ＭＩＳＯＮＯ",
    "kana": "トクベツヨウゴロウジンホームヒノアタルオカミソノ",
    "address": "神奈川県横浜市栄区鍛冶ケ谷２－４０－１",
    "lat": 35.3706721,
    "lng": 139.5622055,
    "tel": "045-892-1423",
    "url": "http://www.kotokukai.or.jp/",
    "pref": "神奈川県",
    "city": "横浜市栄区",
    "category": "tokuyou",
    "serviceType": "介護老人福祉施設",
    "capacity": 100,
    "openDays": [],
    "openDaysNote": ""
  },
  {
    "id": "1473500682",
    "name": "特別養護老人ホームライフコートさかえ",
    "kana": "トクベツヨウゴロウジンホーム　ライフコートサカエ",
    "address": "神奈川県横浜市栄区公田町１０６１－１９",
    "lat": 35.3494247,
    "lng": 139.5644191,
    "tel": "045-890-5066",
    "url": "https://www.hoshokai.jp/",
    "pref": "神奈川県",
    "city": "横浜市栄区",
    "category": "tokuyou",
    "serviceType": "介護老人福祉施設",
    "capacity": 110,
    "openDays": [],
    "openDaysNote": ""
  },
  {
    "id": "1473500864",
    "name": "特別養護老人ホーム田谷の里",
    "kana": "トクベツヨウゴロウジンホームタヤノサト",
    "address": "神奈川県横浜市栄区田谷町1364番地2",
    "lat": 35.3661449,
    "lng": 139.5199527,
    "tel": "045-852-0012",
    "url": "https://www.aiseifukusikai.jp/facility/tayanosato/",
    "pref": "神奈川県",
    "city": "横浜市栄区",
    "category": "tokuyou",
    "serviceType": "介護老人福祉施設",
    "capacity": 100,
    "openDays": [],
    "openDaysNote": ""
  },
  {
    "id": "1470800812",
    "name": "横浜能見台ホーム",
    "kana": "ヨコハマノウケンダイホーム",
    "address": "神奈川県横浜市金沢区能見台東2-4能見台ふれあい館 能見台ふれあい館",
    "lat": 35.3596082,
    "lng": 139.6271829,
    "tel": "045-790-6381",
    "url": "https://yokohama-noukendai.jp",
    "pref": "神奈川県",
    "city": "横浜市金沢区",
    "category": "tokuyou",
    "serviceType": "介護老人福祉施設",
    "capacity": 80,
    "openDays": [],
    "openDaysNote": ""
  },
  {
    "id": "1470800507",
    "name": "介護老人福祉施設　わかたけ富岡",
    "kana": "カイゴロウジンフクシシセツワカタケトミオカ",
    "address": "神奈川県横浜市金沢区富岡東2-1-5",
    "lat": 35.3799667,
    "lng": 139.632485,
    "tel": "045-776-1230",
    "url": "https://wakatake.net/category/facility/tomioka/",
    "pref": "神奈川県",
    "city": "横浜市金沢区",
    "category": "tokuyou",
    "serviceType": "介護老人福祉施設",
    "capacity": 124,
    "openDays": [],
    "openDaysNote": ""
  },
  {
    "id": "1470800168",
    "name": "社会福祉法人　倖和会　金沢美浜ホーム",
    "kana": "シャカイフクシホウジン　コウワカイ　カナザワミハマホーム",
    "address": "神奈川県横浜市金沢区釜利谷東４－１２－１特別養護老人ホーム金沢美浜ホーム 特別養護老人ホーム金沢美浜ホーム",
    "lat": 35.3514007,
    "lng": 139.614648,
    "tel": "045-788-1600",
    "url": "",
    "pref": "神奈川県",
    "city": "横浜市金沢区",
    "category": "tokuyou",
    "serviceType": "介護老人福祉施設",
    "capacity": 0,
    "openDays": [],
    "openDaysNote": ""
  },
  {
    "id": "1470802305",
    "name": "特別養護老人ホーム　ラスール金沢文庫",
    "kana": "トクベツヨウゴロウジンホーム　ラスールカナザワブンコ",
    "address": "神奈川県横浜市金沢区大川2-10",
    "lat": 35.3395792055894,
    "lng": 139.619961866332,
    "tel": "045-786-8880",
    "url": "http://koseikai-star.com/facility/103",
    "pref": "神奈川県",
    "city": "横浜市金沢区",
    "category": "tokuyou",
    "serviceType": "介護老人福祉施設",
    "capacity": 200,
    "openDays": [],
    "openDaysNote": ""
  },
  {
    "id": "1470800176",
    "name": "特別養護老人ホーム　わかくさ",
    "kana": "トクベツヨウゴロウジンホーム　ワカクサ",
    "address": "神奈川県横浜市金沢区泥亀2-12-1",
    "lat": 35.3358879998254,
    "lng": 139.625095574947,
    "tel": "045-784-6900",
    "url": "https://saiseikai-wakakusa.jp",
    "pref": "神奈川県",
    "city": "横浜市金沢区",
    "category": "tokuyou",
    "serviceType": "介護老人福祉施設",
    "capacity": 0,
    "openDays": [],
    "openDaysNote": ""
  },
  {
    "id": "1470800465",
    "name": "特別養護老人ホーム　富岡はまかぜ",
    "kana": "トクベツヨウゴロウジンホームトミオカハマカゼ",
    "address": "神奈川県横浜市金沢区富岡東２－１－６",
    "lat": 35.3798306,
    "lng": 139.633085,
    "tel": "045-769-2015",
    "url": "http://www.himawarifukushi.or.jp",
    "pref": "神奈川県",
    "city": "横浜市金沢区",
    "category": "tokuyou",
    "serviceType": "介護老人福祉施設",
    "capacity": 0,
    "openDays": [],
    "openDaysNote": ""
  },
  {
    "id": "1470802826",
    "name": "特別養護老人ホームシーサイドかなざわ",
    "kana": "トクベツヨウゴロウジンホームシーサイドカナザワ",
    "address": "神奈川県横浜市金沢区柴町343-5",
    "lat": 35.3439492,
    "lng": 139.6374949,
    "tel": "045-780-1322",
    "url": "https://www.subaru-fukushi.or.jp/facilitty/seaside-kanazawa/",
    "pref": "神奈川県",
    "city": "横浜市金沢区",
    "category": "tokuyou",
    "serviceType": "介護老人福祉施設",
    "capacity": 0,
    "openDays": [],
    "openDaysNote": ""
  },
  {
    "id": "1470802776",
    "name": "特別養護老人ホーム横濱かなざわ翔裕園",
    "kana": "トクベツヨウゴロウジンホームヨコハマカナザワショウユウエン",
    "address": "神奈川県横浜市金沢区町屋町１－１",
    "lat": 35.3381933,
    "lng": 139.6264615,
    "tel": "045-353-3080",
    "url": "https://www.genkimuragroup.jp/facilitylist/yokohama-kanazawa/",
    "pref": "神奈川県",
    "city": "横浜市金沢区",
    "category": "tokuyou",
    "serviceType": "介護老人福祉施設",
    "capacity": 0,
    "openDays": [],
    "openDaysNote": ""
  },
  {
    "id": "1471000040",
    "name": "高齢者介護総合センター　聖母の園",
    "kana": "コウレイシャカイゴソウゴウセンター　セイボノソノ",
    "address": "神奈川県横浜市戸塚区原宿4-35-3",
    "lat": 35.3757269,
    "lng": 139.5019849,
    "tel": "045-851-6053",
    "url": "http://www.seibonosono.jp/",
    "pref": "神奈川県",
    "city": "横浜市戸塚区",
    "category": "tokuyou",
    "serviceType": "介護老人福祉施設",
    "capacity": 0,
    "openDays": [],
    "openDaysNote": ""
  },
  {
    "id": "1471000354",
    "name": "社会福祉法人　あゆみの国のなかま　特別養護老人ホーム　しなの森のさと",
    "kana": "シャカイフクシホウジン　アユミノクニノナカマ　トクベツヨウゴロウジンホーム　シナノモリノサト",
    "address": "神奈川県横浜市戸塚区品濃町1386-1",
    "lat": 35.437702,
    "lng": 139.5515165,
    "tel": "045-826-1222",
    "url": "http://www.sinanomori.jp",
    "pref": "神奈川県",
    "city": "横浜市戸塚区",
    "category": "tokuyou",
    "serviceType": "介護老人福祉施設",
    "capacity": 0,
    "openDays": [],
    "openDaysNote": ""
  },
  {
    "id": "1471002905",
    "name": "特別養護老人ホーム　けいあいの郷　影取",
    "kana": "トクベツヨウゴロウジンホーム　ケイアイノサト　カゲトリ",
    "address": "神奈川県横浜市戸塚区影取町85-1",
    "lat": 35.3632973217972,
    "lng": 139.497025071025,
    "tel": "045-858-3360",
    "url": "https://keiainosato-kagetori.jp/",
    "pref": "神奈川県",
    "city": "横浜市戸塚区",
    "category": "tokuyou",
    "serviceType": "介護老人福祉施設",
    "capacity": 100,
    "openDays": [],
    "openDaysNote": ""
  },
  {
    "id": "1471000222",
    "name": "特別養護老人ホーム　しらゆり園",
    "kana": "トクベツヨウゴロウジンホーム　シラユリエン",
    "address": "神奈川県横浜市戸塚区汲沢町986番地",
    "lat": 35.3919328,
    "lng": 139.5158031,
    "tel": "045-861-1112",
    "url": "https://www.hakuhoukai.jp",
    "pref": "神奈川県",
    "city": "横浜市戸塚区",
    "category": "tokuyou",
    "serviceType": "介護老人福祉施設",
    "capacity": 0,
    "openDays": [],
    "openDaysNote": ""
  },
  {
    "id": "1471001816",
    "name": "特別養護老人ホーム　ライフヒルズ舞岡苑",
    "kana": "トクベツヨウゴロウジンホームライフヒルズマイオカエン",
    "address": "神奈川県横浜市戸塚区舞岡町３３３８－７",
    "lat": 35.4085174,
    "lng": 139.5551337,
    "tel": "045-825-1234",
    "url": "http://www.hoshokai.jp/maiokaen/",
    "pref": "神奈川県",
    "city": "横浜市戸塚区",
    "category": "tokuyou",
    "serviceType": "介護老人福祉施設",
    "capacity": 0,
    "openDays": [],
    "openDaysNote": ""
  },
  {
    "id": "1471002939",
    "name": "特別養護老人ホーム　リアメゾン戸塚",
    "kana": "トクベツヨウゴロウジンホーム　リアメゾントツカ",
    "address": "神奈川県横浜市戸塚区原宿5-46-1リアメゾン戸塚 リアメゾン戸塚",
    "lat": 35.3702388,
    "lng": 139.5035097,
    "tel": "045-852-5080",
    "url": "https://lienmaisontotsuka.com/",
    "pref": "神奈川県",
    "city": "横浜市戸塚区",
    "category": "tokuyou",
    "serviceType": "介護老人福祉施設",
    "capacity": 110,
    "openDays": [],
    "openDaysNote": ""
  },
  {
    "id": "1471000172",
    "name": "特別養護老人ホーム　松みどりホーム",
    "kana": "トクベツヨウゴロウジンホーム　マツミドリホーム",
    "address": "神奈川県横浜市戸塚区原宿町２－５６－３",
    "lat": 35.377579406554,
    "lng": 139.510726597484,
    "tel": "045-851-8087",
    "url": "http://www.srk.or.jp/home/",
    "pref": "神奈川県",
    "city": "横浜市戸塚区",
    "category": "tokuyou",
    "serviceType": "介護老人福祉施設",
    "capacity": 70,
    "openDays": [],
    "openDaysNote": ""
  },
  {
    "id": "1471000305",
    "name": "特別養護老人ホーム　太陽の國",
    "kana": "トクベツヨウゴロウジンホーム　タイヨウノクニ",
    "address": "神奈川県横浜市戸塚区名瀬町1566",
    "lat": 35.4339525,
    "lng": 139.5376428,
    "tel": "045-812-8435",
    "url": "https://www.apollon.or.jp",
    "pref": "神奈川県",
    "city": "横浜市戸塚区",
    "category": "tokuyou",
    "serviceType": "介護老人福祉施設",
    "capacity": 0,
    "openDays": [],
    "openDaysNote": ""
  },
  {
    "id": "1471002509",
    "name": "特別養護老人ホーム　来夢の里",
    "kana": "トクベツヨウゴロウジンホーム　ライムノサト",
    "address": "神奈川県横浜市戸塚区汲沢町295番",
    "lat": 35.3959211,
    "lng": 139.5173391,
    "tel": "045-869-0171",
    "url": "http://www.raimu.or.jp",
    "pref": "神奈川県",
    "city": "横浜市戸塚区",
    "category": "tokuyou",
    "serviceType": "介護老人福祉施設",
    "capacity": 110,
    "openDays": [],
    "openDaysNote": ""
  },
  {
    "id": "1471000644",
    "name": "特別養護老人ホーム　和みの園",
    "kana": "トクベツヨウゴロウジンホーム　ナゴミノソノ",
    "address": "神奈川県横浜市戸塚区東俣野町1705",
    "lat": 35.3732023,
    "lng": 139.4965743,
    "tel": "045-851-0753",
    "url": "https://nagominosono.jp",
    "pref": "神奈川県",
    "city": "横浜市戸塚区",
    "category": "tokuyou",
    "serviceType": "介護老人福祉施設",
    "capacity": 0,
    "openDays": [],
    "openDaysNote": ""
  },
  {
    "id": "1471002228",
    "name": "特別養護老人ホーム恒春の丘",
    "kana": "トクベツヨウゴロウジンホームコウシュンノオカ",
    "address": "神奈川県横浜市戸塚区舞岡町3048-5",
    "lat": 35.4044403,
    "lng": 139.5555727,
    "tel": "045-825-8011",
    "url": "https://shinzen-fukushi.jp/kousyunnooka",
    "pref": "神奈川県",
    "city": "横浜市戸塚区",
    "category": "tokuyou",
    "serviceType": "介護老人福祉施設",
    "capacity": 180,
    "openDays": [],
    "openDaysNote": ""
  },
  {
    "id": "1473100103",
    "name": "社会福祉法人大富福祉会　特別養護老人ホームパラダイム港南",
    "kana": "シャカイフクシホウジンダイトミフクシカイトクベツヨウゴロウジンホームパラダイムコウナン",
    "address": "神奈川県横浜市港南区下永谷3丁目10番7号",
    "lat": 35.4087896,
    "lng": 139.5610165,
    "tel": "045-824-7333",
    "url": "https://daitomi.org/",
    "pref": "神奈川県",
    "city": "横浜市港南区",
    "category": "tokuyou",
    "serviceType": "介護老人福祉施設",
    "capacity": 56,
    "openDays": [],
    "openDaysNote": ""
  },
  {
    "id": "1473101028",
    "name": "特別養護老人ホーム　サンバレー",
    "kana": "トクベツヨウゴロウジンホーム　サンバレー",
    "address": "神奈川県横浜市港南区下永谷4-24-1",
    "lat": 35.4025377,
    "lng": 139.5579225,
    "tel": "045-828-3781",
    "url": "http://shafuku-doujinkai.or.jp/facility/facility/nursing-home/sunvalley",
    "pref": "神奈川県",
    "city": "横浜市港南区",
    "category": "tokuyou",
    "serviceType": "介護老人福祉施設",
    "capacity": 0,
    "openDays": [],
    "openDaysNote": ""
  },
  {
    "id": "1473100160",
    "name": "特別養護老人ホーム　すずかけの郷",
    "kana": "トクベツヨウゴロウジンホームスズカケノサト",
    "address": "神奈川県横浜市港南区野庭町１６８８番地",
    "lat": 35.3866174,
    "lng": 139.5654746,
    "tel": "045-848-1165",
    "url": "https://www.subaru-fukushi.or.jp",
    "pref": "神奈川県",
    "city": "横浜市港南区",
    "category": "tokuyou",
    "serviceType": "介護老人福祉施設",
    "capacity": 0,
    "openDays": [],
    "openDaysNote": ""
  },
  {
    "id": "1473102828",
    "name": "特別養護老人ホーム　ひまわり港南台",
    "kana": "トクベツヨウゴロウジンホーム　ヒマワリコウナンダイ",
    "address": "神奈川県横浜市港南区日野南3-7-10",
    "lat": 35.3758546,
    "lng": 139.5709275,
    "tel": "045-830-3710",
    "url": "http://fuku-ikuseikai.com/",
    "pref": "神奈川県",
    "city": "横浜市港南区",
    "category": "tokuyou",
    "serviceType": "介護老人福祉施設",
    "capacity": 0,
    "openDays": [],
    "openDaysNote": ""
  },
  {
    "id": "1473103024",
    "name": "特別養護老人ホーム　泉の郷日野南",
    "kana": "トクベツヨウゴロウジンホーム　イズミノサトヒノミナミ",
    "address": "神奈川県横浜市港南区日野南４-２９-９",
    "lat": 35.3800221,
    "lng": 139.5698634,
    "tel": "045-352-7220",
    "url": "https://i-seikoukai.or.jp",
    "pref": "神奈川県",
    "city": "横浜市港南区",
    "category": "tokuyou",
    "serviceType": "介護老人福祉施設",
    "capacity": 110,
    "openDays": [],
    "openDaysNote": ""
  },
  {
    "id": "1473100079",
    "name": "特別養護老人ホーム　野庭苑",
    "kana": "トクベツヨウゴロウジンホームノバエン",
    "address": "神奈川県横浜市港南区日野南５－５６－２",
    "lat": 35.3805904,
    "lng": 139.5604445,
    "tel": "045-892-8881",
    "url": "http://www.himawarifukushi.or.jp/nobaen/",
    "pref": "神奈川県",
    "city": "横浜市港南区",
    "category": "tokuyou",
    "serviceType": "介護老人福祉施設",
    "capacity": 96,
    "openDays": [],
    "openDaysNote": ""
  },
  {
    "id": "1473103107",
    "name": "特別養護老人ホームひぎり園",
    "kana": "トクベツヨウゴロウジンホームヒギリエン",
    "address": "神奈川県横浜市港南区上永谷町４６１０番地１",
    "lat": 35.3866100468252,
    "lng": 139.562205771828,
    "tel": "045-374-4165",
    "url": "https://higirien.com",
    "pref": "神奈川県",
    "city": "横浜市港南区",
    "category": "tokuyou",
    "serviceType": "介護老人福祉施設",
    "capacity": 0,
    "openDays": [],
    "openDaysNote": ""
  },
  {
    "id": "1473102562",
    "name": "特別養護老人ホーム笹の風",
    "kana": "トクベツヨウゴロウジンホームササノカゼ",
    "address": "神奈川県横浜市港南区笹下四丁目12番35号",
    "lat": 35.3887313,
    "lng": 139.5973966,
    "tel": "045-840-4165",
    "url": "https://www.jurakuen.jp/",
    "pref": "神奈川県",
    "city": "横浜市港南区",
    "category": "tokuyou",
    "serviceType": "介護老人福祉施設",
    "capacity": 0,
    "openDays": [],
    "openDaysNote": ""
  },
  {
    "id": "1473102836",
    "name": "特別養護老人ホーム日野サザンポート",
    "kana": "トクベツヨウゴロウジンホームヒノサザンポート",
    "address": "神奈川県横浜市港南区日野6-13-1",
    "lat": 35.3928840716016,
    "lng": 139.578450105581,
    "tel": "045-370-7600",
    "url": "https://shafuku-doujinkai.or.jp/facility/nursing-home/hino-southernport",
    "pref": "神奈川県",
    "city": "横浜市港南区",
    "category": "tokuyou",
    "serviceType": "介護老人福祉施設",
    "capacity": 130,
    "openDays": [],
    "openDaysNote": ""
  },
  {
    "id": "1473100020",
    "name": "特別養護老人ホーム芙蓉苑",
    "kana": "トクベツヨウゴロウジンホームフヨウエン",
    "address": "神奈川県横浜市港南区下永谷４－２１－１０",
    "lat": 35.4013573,
    "lng": 139.5573559,
    "tel": "045-822-5911",
    "url": "https://shafuku-doujinkai.or.jp/facility/nursing-home/fuyouen",
    "pref": "神奈川県",
    "city": "横浜市港南区",
    "category": "tokuyou",
    "serviceType": "介護老人福祉施設",
    "capacity": 0,
    "openDays": [],
    "openDaysNote": ""
  },
  {
    "id": "1470901669",
    "name": "介護老人福祉施設　ニューバード",
    "kana": "カイゴロウジンフクシシセツ　ニューバード",
    "address": "神奈川県横浜市港北区新羽町2530-4",
    "lat": 35.5303812,
    "lng": 139.6056881,
    "tel": "045-534-0150",
    "url": "http://www.kindai-rf.or.jp/newbird/",
    "pref": "神奈川県",
    "city": "横浜市港北区",
    "category": "tokuyou",
    "serviceType": "介護老人福祉施設",
    "capacity": 100,
    "openDays": [],
    "openDaysNote": ""
  },
  {
    "id": "1470901933",
    "name": "介護老人福祉施設新吉田",
    "kana": "カイゴロウジンフクシシセツ　シンヨシダ",
    "address": "神奈川県横浜市港北区新吉田町5728-1",
    "lat": 35.5381608,
    "lng": 139.6062739,
    "tel": "045-590-5051",
    "url": "https://itofukushikai.com/guide/shinyoshida/",
    "pref": "神奈川県",
    "city": "横浜市港北区",
    "category": "tokuyou",
    "serviceType": "介護老人福祉施設",
    "capacity": 200,
    "openDays": [],
    "openDaysNote": ""
  },
  {
    "id": "1470901255",
    "name": "新横浜パークサイドホーム",
    "kana": "シンヨコハマパークサイドホーム",
    "address": "神奈川県横浜市港北区新横浜１丁目２２番４",
    "lat": 35.5044672,
    "lng": 139.6094412,
    "tel": "045-471-8688",
    "url": "https://www.senrikai.jp/",
    "pref": "神奈川県",
    "city": "横浜市港北区",
    "category": "tokuyou",
    "serviceType": "介護老人福祉施設",
    "capacity": 104,
    "openDays": [],
    "openDaysNote": ""
  },
  {
    "id": "1470902782",
    "name": "第2新横浜パークサイドホーム",
    "kana": "ダイニシンヨコハマパークサイドホーム",
    "address": "神奈川県横浜市港北区新横浜1丁目2番地6",
    "lat": 35.5025142224272,
    "lng": 139.610611090807,
    "tel": "045-473-4188",
    "url": "https://www.senrikai.jp/",
    "pref": "神奈川県",
    "city": "横浜市港北区",
    "category": "tokuyou",
    "serviceType": "介護老人福祉施設",
    "capacity": 120,
    "openDays": [],
    "openDaysNote": ""
  },
  {
    "id": "1470902154",
    "name": "特別養護老人ホーム　ひばり",
    "kana": "トクベツヨウゴロウジンホーム　ヒバリ",
    "address": "神奈川県横浜市港北区新吉田町６０８８番２７",
    "lat": 35.5405075,
    "lng": 139.5998274,
    "tel": "045-548-3311",
    "url": "http://aozora-fukushikai.or.jp",
    "pref": "神奈川県",
    "city": "横浜市港北区",
    "category": "tokuyou",
    "serviceType": "介護老人福祉施設",
    "capacity": 0,
    "openDays": [],
    "openDaysNote": ""
  },
  {
    "id": "1470902410",
    "name": "特別養護老人ホーム　ワゲン新横浜",
    "kana": "トクベツヨウゴロウジンホーム　ワゲンシンヨコハマ",
    "address": "神奈川県横浜市港北区大豆戸町724-4",
    "lat": 35.514858,
    "lng": 139.6222477,
    "tel": "045-540-6776",
    "url": "http://www.wagen.or.jp/shinyokohama/",
    "pref": "神奈川県",
    "city": "横浜市港北区",
    "category": "tokuyou",
    "serviceType": "介護老人福祉施設",
    "capacity": 183,
    "openDays": [],
    "openDaysNote": ""
  },
  {
    "id": "1470900158",
    "name": "特別養護老人ホーム　港北みどり園",
    "kana": "トクベツヨウゴロウジンホーム　コウホクミドリエン",
    "address": "神奈川県横浜市港北区新吉田町6051番地",
    "lat": 35.5398549,
    "lng": 139.6031992,
    "tel": "045-592-7201",
    "url": "http://www.ryokuhokai.or.jp",
    "pref": "神奈川県",
    "city": "横浜市港北区",
    "category": "tokuyou",
    "serviceType": "介護老人福祉施設",
    "capacity": 0,
    "openDays": [],
    "openDaysNote": ""
  },
  {
    "id": "1470901156",
    "name": "特別養護老人ホーム　新横浜さわやか苑",
    "kana": "トクベツヨウゴロウジンホームシンヨコハマサワヤカエン",
    "address": "神奈川県横浜市港北区大豆戸町572-5",
    "lat": 35.5150968,
    "lng": 139.6227643,
    "tel": "045-544-4165",
    "url": "http://seikoukai-group.or.jp",
    "pref": "神奈川県",
    "city": "横浜市港北区",
    "category": "tokuyou",
    "serviceType": "介護老人福祉施設",
    "capacity": 150,
    "openDays": [],
    "openDaysNote": ""
  },
  {
    "id": "1470201169",
    "name": "羽沢の家　特別養護老人ホーム",
    "kana": "ハザワノイエ　トクベツヨウゴロウジンホーム",
    "address": "神奈川県横浜市神奈川区羽沢町９８０",
    "lat": 35.4913326,
    "lng": 139.5914045,
    "tel": "045-372-1239",
    "url": "https://hazawanoie.com/hazawa/index.html",
    "pref": "神奈川県",
    "city": "横浜市神奈川区",
    "category": "tokuyou",
    "serviceType": "介護老人福祉施設",
    "capacity": 0,
    "openDays": [],
    "openDaysNote": ""
  },
  {
    "id": "1470202951",
    "name": "羽沢の家二番館　特別養護老人ホーム",
    "kana": "ハザワノイエニバンカン　トクベツヨウゴロウジンホーム",
    "address": "神奈川県横浜市神奈川区羽沢町1667-1",
    "lat": 35.4952122581365,
    "lng": 139.59535188459,
    "tel": "045-372-1241",
    "url": "https://hazawanoie.com/hazawa2/index.html",
    "pref": "神奈川県",
    "city": "横浜市神奈川区",
    "category": "tokuyou",
    "serviceType": "介護老人福祉施設",
    "capacity": null,
    "openDays": [],
    "openDaysNote": ""
  },
  {
    "id": "1470203371",
    "name": "介護老人福祉施設　玉成苑羽沢",
    "kana": "カイゴロウジンフクシシセツ　ギョクセイエンハザワ",
    "address": "神奈川県横浜市神奈川区羽沢町1442-1",
    "lat": 35.4928405823533,
    "lng": 139.585777135582,
    "tel": "045-489-7763",
    "url": "https://www.senseikai.or.jp/publics/index/56",
    "pref": "神奈川県",
    "city": "横浜市神奈川区",
    "category": "tokuyou",
    "serviceType": "介護老人福祉施設",
    "capacity": null,
    "openDays": [],
    "openDaysNote": ""
  },
  {
    "id": "1470202183",
    "name": "介護老人福祉施設ヴィラ神奈川",
    "kana": "カイゴロウジンフクシシセツウ゛ィラカナガワ",
    "address": "神奈川県横浜市神奈川区菅田町19",
    "lat": 35.4932351031661,
    "lng": 139.57329623748,
    "tel": "045-471-1300",
    "url": "https://www.kanagawa.tokuyou.jp",
    "pref": "神奈川県",
    "city": "横浜市神奈川区",
    "category": "tokuyou",
    "serviceType": "介護老人福祉施設",
    "capacity": 140,
    "openDays": [],
    "openDaysNote": ""
  },
  {
    "id": "1470200013",
    "name": "若竹苑",
    "kana": "ワカタケエン",
    "address": "神奈川県横浜市神奈川区羽沢町550-1",
    "lat": 35.4826639,
    "lng": 139.5767558,
    "tel": "045-381-3232",
    "url": "https://wakatake.net/category/facility/wakatakeen/",
    "pref": "神奈川県",
    "city": "横浜市神奈川区",
    "category": "tokuyou",
    "serviceType": "介護老人福祉施設",
    "capacity": 0,
    "openDays": [],
    "openDaysNote": ""
  },
  {
    "id": "1470202944",
    "name": "太陽の家横濱羽沢",
    "kana": "タイヨウノイエヨコハマハザワ",
    "address": "神奈川県横浜市神奈川区羽沢町2番地1",
    "lat": 35.4846102383328,
    "lng": 139.595518205557,
    "tel": "045-442-4907",
    "url": "http://www.ui21.or.jp/",
    "pref": "神奈川県",
    "city": "横浜市神奈川区",
    "category": "tokuyou",
    "serviceType": "介護老人福祉施設",
    "capacity": 0,
    "openDays": [],
    "openDaysNote": ""
  },
  {
    "id": "1470200252",
    "name": "東神奈川特別養護老人ホーム若草",
    "kana": "ヒガシカナガワトクベツヨウゴロウジンホームワカクサ",
    "address": "神奈川県横浜市神奈川区反町1-7-5東神奈川特別養護老人ホーム若草 東神奈川特別養護老人ホーム若草",
    "lat": 35.4745554533378,
    "lng": 139.628356813492,
    "tel": "045-320-3231",
    "url": "http://www.kazuefukushikai.jp",
    "pref": "神奈川県",
    "city": "横浜市神奈川区",
    "category": "tokuyou",
    "serviceType": "介護老人福祉施設",
    "capacity": 0,
    "openDays": [],
    "openDaysNote": ""
  },
  {
    "id": "1470200377",
    "name": "特別養護老人ホーム　けやき荘",
    "kana": "トクベツヨウゴロウジンホーム　ケヤキソウ",
    "address": "神奈川県横浜市神奈川区菅田町1-1",
    "lat": 35.4940597,
    "lng": 139.5740836,
    "tel": "045-470-3900",
    "url": "https://keyakisou.jp",
    "pref": "神奈川県",
    "city": "横浜市神奈川区",
    "category": "tokuyou",
    "serviceType": "介護老人福祉施設",
    "capacity": 200,
    "openDays": [],
    "openDaysNote": ""
  },
  {
    "id": "1470201300",
    "name": "特別養護老人ホーム　菅田心愛の里",
    "kana": "トクベツヨウゴロウジンホームスゲタシンアイノサト",
    "address": "神奈川県横浜市神奈川区菅田町１１２２",
    "lat": 35.4972095,
    "lng": 139.5816803,
    "tel": "045-470-7788",
    "url": "http://www.nanaha.net/",
    "pref": "神奈川県",
    "city": "横浜市神奈川区",
    "category": "tokuyou",
    "serviceType": "介護老人福祉施設",
    "capacity": 100,
    "openDays": [],
    "openDaysNote": ""
  },
  {
    "id": "1470203181",
    "name": "特別養護老人ホームあさくら苑新子安",
    "kana": "トクベツヨウゴロウジンホームアサクラエンシンコヤス",
    "address": "神奈川県横浜市神奈川区子安台1-16-15",
    "lat": 35.4939059,
    "lng": 139.6582026,
    "tel": "045-633-7004",
    "url": "http://www.asakuraen.jp/",
    "pref": "神奈川県",
    "city": "横浜市神奈川区",
    "category": "tokuyou",
    "serviceType": "介護老人福祉施設",
    "capacity": 110,
    "openDays": [],
    "openDaysNote": ""
  },
  {
    "id": "1470201276",
    "name": "福寿園横浜",
    "kana": "フクジュエンヨコハマ",
    "address": "神奈川県横浜市神奈川区菅田町２３３１－１",
    "lat": 35.4998203300465,
    "lng": 139.590750846819,
    "tel": "045-474-1180",
    "url": "http://kyoujokai.net/facility/f02/",
    "pref": "神奈川県",
    "city": "横浜市神奈川区",
    "category": "tokuyou",
    "serviceType": "介護老人福祉施設",
    "capacity": 100,
    "openDays": [],
    "openDaysNote": ""
  },
  {
    "id": "1473400552",
    "name": "スプリングガーデン瀬谷",
    "kana": "スプリングガーデンセヤ",
    "address": "神奈川県横浜市瀬谷区下瀬谷１－２７－２５",
    "lat": 35.4517779,
    "lng": 139.4846331,
    "tel": "045-304-0241",
    "url": "https://senshoukai.com/spring_garden-special-care/",
    "pref": "神奈川県",
    "city": "横浜市瀬谷区",
    "category": "tokuyou",
    "serviceType": "介護老人福祉施設",
    "capacity": 0,
    "openDays": [],
    "openDaysNote": ""
  },
  {
    "id": "1473400024",
    "name": "ゆうあいの郷",
    "kana": "ユウアイノサト",
    "address": "神奈川県横浜市瀬谷区宮沢3-25-1",
    "lat": 35.4516947,
    "lng": 139.4919937,
    "tel": "045-303-8080",
    "url": "https://shonanyuuaikai.or.jp",
    "pref": "神奈川県",
    "city": "横浜市瀬谷区",
    "category": "tokuyou",
    "serviceType": "介護老人福祉施設",
    "capacity": 100,
    "openDays": [],
    "openDaysNote": ""
  },
  {
    "id": "1473400412",
    "name": "介護老人福祉施設ひだまり館",
    "kana": "カイゴロウジンフクシシセツヒダマリカン",
    "address": "神奈川県横浜市瀬谷区二ツ橋町283番1",
    "lat": 35.4688232,
    "lng": 139.4992484,
    "tel": "045-364-2227",
    "url": "https://hidamarikan.com",
    "pref": "神奈川県",
    "city": "横浜市瀬谷区",
    "category": "tokuyou",
    "serviceType": "介護老人福祉施設",
    "capacity": 86,
    "openDays": [],
    "openDaysNote": ""
  },
  {
    "id": "1473401121",
    "name": "介護老人福祉施設ラペ瀬谷",
    "kana": "カイゴロウジンフクシシセツラペセヤ",
    "address": "神奈川県横浜市瀬谷区目黒町２１－１０",
    "lat": 35.4955584,
    "lng": 139.4697156,
    "tel": "045-924-3788",
    "url": "https://ryokujyukai.com/facility/seya",
    "pref": "神奈川県",
    "city": "横浜市瀬谷区",
    "category": "tokuyou",
    "serviceType": "介護老人福祉施設",
    "capacity": 0,
    "openDays": [],
    "openDaysNote": ""
  },
  {
    "id": "1473400776",
    "name": "特別養護老人ホーム　ファミリーイン瀬谷",
    "kana": "トクベツヨウゴロウジンホーム　ファミリーインセヤ",
    "address": "神奈川県横浜市瀬谷区中屋敷3-11-1",
    "lat": 35.4828062,
    "lng": 139.482385,
    "tel": "045-304-1181",
    "url": "http://www.seishinfukushikai.jp",
    "pref": "神奈川県",
    "city": "横浜市瀬谷区",
    "category": "tokuyou",
    "serviceType": "介護老人福祉施設",
    "capacity": 120,
    "openDays": [],
    "openDaysNote": ""
  },
  {
    "id": "1473400206",
    "name": "特別養護老人ホーム　みなみの苑",
    "kana": "トクベツヨウゴロウジンホーム　ミナミノソノ",
    "address": "神奈川県横浜市瀬谷区阿久和南３－２８－３",
    "lat": 35.437402,
    "lng": 139.5035181,
    "tel": "045-364-0373",
    "url": "http://www.aikokai-minamigp.or.jp/index.html",
    "pref": "神奈川県",
    "city": "横浜市瀬谷区",
    "category": "tokuyou",
    "serviceType": "介護老人福祉施設",
    "capacity": 0,
    "openDays": [],
    "openDaysNote": ""
  },
  {
    "id": "1473400974",
    "name": "特別養護老人ホーム愛成苑",
    "kana": "トクベツヨウゴロウジンホームアイセイエン",
    "address": "神奈川県横浜市瀬谷区瀬谷町4131-16",
    "lat": 35.4807181,
    "lng": 139.4901152,
    "tel": "045-300-0881",
    "url": "http://www.aiseienn.jp/",
    "pref": "神奈川県",
    "city": "横浜市瀬谷区",
    "category": "tokuyou",
    "serviceType": "介護老人福祉施設",
    "capacity": 0,
    "openDays": [],
    "openDaysNote": ""
  },
  {
    "id": "1470300086",
    "name": "パークサイド岡野ホーム",
    "kana": "パークサイドオカノホーム",
    "address": "神奈川県横浜市西区岡野２－１５－６",
    "lat": 35.4621340513877,
    "lng": 139.612718732541,
    "tel": "045-311-2360",
    "url": "http://www.kanagawa-doen.jp/",
    "pref": "神奈川県",
    "city": "横浜市西区",
    "category": "tokuyou",
    "serviceType": "介護老人福祉施設",
    "capacity": 64,
    "openDays": [],
    "openDaysNote": ""
  },
  {
    "id": "1470300045",
    "name": "特別養護老人ホーム　ハマノ愛生園",
    "kana": "トクベツヨウゴロウジンホーム　ハマノアイセイエン",
    "address": "神奈川県横浜市西区浅間台６番地",
    "lat": 35.4645467550482,
    "lng": 139.609320852115,
    "tel": "045-311-3750",
    "url": "https://www.hamano.or.jp/",
    "pref": "神奈川県",
    "city": "横浜市西区",
    "category": "tokuyou",
    "serviceType": "介護老人福祉施設",
    "capacity": 92,
    "openDays": [],
    "openDaysNote": ""
  },
  {
    "id": "1470300425",
    "name": "特別養護老人ホーム　戸部ハマノ愛生園",
    "kana": "トクベツヨウゴロウジンホーム　トベハマノアイセイエン",
    "address": "神奈川県横浜市西区戸部本町５０番３３号",
    "lat": 35.4573451,
    "lng": 139.618135,
    "tel": "045-317-8100",
    "url": "https://www.hamano.or.jp",
    "pref": "神奈川県",
    "city": "横浜市西区",
    "category": "tokuyou",
    "serviceType": "介護老人福祉施設",
    "capacity": 0,
    "openDays": [],
    "openDaysNote": ""
  },
  {
    "id": "1470301704",
    "name": "白梅野毛山ホーム",
    "kana": "シラウメノゲヤマホーム",
    "address": "神奈川県横浜市西区老松町21",
    "lat": 35.4469814,
    "lng": 139.6241707,
    "tel": "045-243-3600",
    "url": "https://www.shiraume.or.jp/facility/faci11/",
    "pref": "神奈川県",
    "city": "横浜市西区",
    "category": "tokuyou",
    "serviceType": "介護老人福祉施設",
    "capacity": 0,
    "openDays": [],
    "openDaysNote": ""
  },
  {
    "id": "1473701900",
    "name": "てるてる園",
    "kana": "テルテルエン",
    "address": "神奈川県横浜市青葉区奈良町2578番",
    "lat": 35.5668891,
    "lng": 139.4767264,
    "tel": "045-962-8378",
    "url": "http://www.taimeikai.com",
    "pref": "神奈川県",
    "city": "横浜市青葉区",
    "category": "tokuyou",
    "serviceType": "介護老人福祉施設",
    "capacity": 0,
    "openDays": [],
    "openDaysNote": ""
  },
  {
    "id": "1473701520",
    "name": "わかたけ青葉",
    "kana": "ワカタケアオバ",
    "address": "神奈川県横浜市青葉区奈良4-6-1",
    "lat": 35.5521634,
    "lng": 139.4829241,
    "tel": "045-960-0651",
    "url": "https://wakatake.net/category/facility/aoba-facility/",
    "pref": "神奈川県",
    "city": "横浜市青葉区",
    "category": "tokuyou",
    "serviceType": "介護老人福祉施設",
    "capacity": 0,
    "openDays": [],
    "openDaysNote": ""
  },
  {
    "id": "1473701967",
    "name": "介護老人福祉施設　大樹の郷",
    "kana": "カイゴロウジンフクシシセツ　ダイジュノサト",
    "address": "神奈川県横浜市青葉区恩田町２２８２",
    "lat": 35.5468918941479,
    "lng": 139.497566987172,
    "tel": "045-960-3701",
    "url": "http://ryokujyukai.com/",
    "pref": "神奈川県",
    "city": "横浜市青葉区",
    "category": "tokuyou",
    "serviceType": "介護老人福祉施設",
    "capacity": 0,
    "openDays": [],
    "openDaysNote": ""
  },
  {
    "id": "1473701926",
    "name": "青葉ヒルズ",
    "kana": "アオバヒルズ",
    "address": "神奈川県横浜市青葉区鴨志田町1260",
    "lat": 35.5581618,
    "lng": 139.4999426,
    "tel": "045-961-0088",
    "url": "http://www.swct.or.jp/",
    "pref": "神奈川県",
    "city": "横浜市青葉区",
    "category": "tokuyou",
    "serviceType": "介護老人福祉施設",
    "capacity": 130,
    "openDays": [],
    "openDaysNote": ""
  },
  {
    "id": "1473702205",
    "name": "創生園青葉",
    "kana": "ソウセイエンアオバ",
    "address": "神奈川県横浜市青葉区奈良町881番13号",
    "lat": 35.5591129,
    "lng": 139.4880762,
    "tel": "045-962-2515",
    "url": "http://www.souseikai.or.jp",
    "pref": "神奈川県",
    "city": "横浜市青葉区",
    "category": "tokuyou",
    "serviceType": "介護老人福祉施設",
    "capacity": 200,
    "openDays": [],
    "openDaysNote": ""
  },
  {
    "id": "1473700571",
    "name": "特別養護老人ホーム　ヴェルデの森",
    "kana": "トクベツヨウゴロウジンホーム　ウ゛ェルデノモリ",
    "address": "神奈川県横浜市青葉区寺家町５４８－２",
    "lat": 35.5705218,
    "lng": 139.5042251,
    "tel": "045-962-6006",
    "url": "http://www.verude.or.jp",
    "pref": "神奈川県",
    "city": "横浜市青葉区",
    "category": "tokuyou",
    "serviceType": "介護老人福祉施設",
    "capacity": 120,
    "openDays": [],
    "openDaysNote": ""
  },
  {
    "id": "1473701058",
    "name": "特別養護老人ホーム　ピア市ヶ尾",
    "kana": "トクベツヨウゴロウジンホーム　ピアイチガオ",
    "address": "神奈川県横浜市青葉区市ケ尾町522-10",
    "lat": 35.5429809,
    "lng": 139.5449298,
    "tel": "045-973-7607",
    "url": "http://www.kouyoukai.jp/",
    "pref": "神奈川県",
    "city": "横浜市青葉区",
    "category": "tokuyou",
    "serviceType": "介護老人福祉施設",
    "capacity": 0,
    "openDays": [],
    "openDaysNote": ""
  },
  {
    "id": "1473700183",
    "name": "特別養護老人ホーム　ひかり苑",
    "kana": "トクベツヨウゴロウジンホーム　ヒカリエン",
    "address": "神奈川県横浜市青葉区さつきが丘8-4",
    "lat": 35.5318875,
    "lng": 139.5187017,
    "tel": "045-971-4602",
    "url": "https://midorifukushikai.or.jp/facility/hikarien/",
    "pref": "神奈川県",
    "city": "横浜市青葉区",
    "category": "tokuyou",
    "serviceType": "介護老人福祉施設",
    "capacity": 80,
    "openDays": [],
    "openDaysNote": ""
  },
  {
    "id": "1473704532",
    "name": "特別養護老人ホーム　プレシャス横浜",
    "kana": "トクベツヨウゴロウジンホーム　プレシャスヨコハマ",
    "address": "神奈川県横浜市青葉区元石川町４１８１番地１",
    "lat": 35.5778387762525,
    "lng": 139.539940274045,
    "tel": "045‐530‐4666",
    "url": "https://asukafukushikai.com",
    "pref": "神奈川県",
    "city": "横浜市青葉区",
    "category": "tokuyou",
    "serviceType": "介護老人福祉施設",
    "capacity": null,
    "openDays": [],
    "openDaysNote": ""
  },
  {
    "id": "1473704003",
    "name": "特別養護老人ホーム　みすずが丘",
    "kana": "トクベツヨウゴロウジンホーム　ミスズガオカ",
    "address": "神奈川県横浜市青葉区みすずが丘２３－２",
    "lat": 35.5595628716844,
    "lng": 139.540687988361,
    "tel": "045-978-6800",
    "url": "http://fujizuka.com/misuzugaoka",
    "pref": "神奈川県",
    "city": "横浜市青葉区",
    "category": "tokuyou",
    "serviceType": "介護老人福祉施設",
    "capacity": null,
    "openDays": [],
    "openDaysNote": ""
  },
  {
    "id": "1473702510",
    "name": "特別養護老人ホームビオラ市ケ尾",
    "kana": "トクベツヨウゴロウジンホームビオライチガオ",
    "address": "神奈川県横浜市青葉区市ヶ尾町25番地6",
    "lat": 35.5491863941352,
    "lng": 139.538573723279,
    "tel": "045-532-8729",
    "url": "http://www.nakagawa-tokushokai.com",
    "pref": "神奈川県",
    "city": "横浜市青葉区",
    "category": "tokuyou",
    "serviceType": "介護老人福祉施設",
    "capacity": 58,
    "openDays": [],
    "openDaysNote": ""
  },
  {
    "id": "1473703252",
    "name": "特別養護老人ホーム青葉あさくら苑",
    "kana": "トクベツヨウゴロウジンホームアオバアサクラエン",
    "address": "神奈川県横浜市青葉区恩田町２９９４－１",
    "lat": 35.5452341742139,
    "lng": 139.499026634393,
    "tel": "045-507-4313",
    "url": "http://www.asakuraen.jp",
    "pref": "神奈川県",
    "city": "横浜市青葉区",
    "category": "tokuyou",
    "serviceType": "介護老人福祉施設",
    "capacity": 0,
    "openDays": [],
    "openDaysNote": ""
  },
  {
    "id": "1473700191",
    "name": "特別養護老人ホーム緑の郷",
    "kana": "トクベツヨウゴロウジンホームミドリノサト",
    "address": "神奈川県横浜市青葉区鉄町2075番地3",
    "lat": 35.5695631,
    "lng": 139.5264604,
    "tel": "045-903-8500",
    "url": "http://ryokuseikai-yokohama.jp",
    "pref": "神奈川県",
    "city": "横浜市青葉区",
    "category": "tokuyou",
    "serviceType": "介護老人福祉施設",
    "capacity": 0,
    "openDays": [],
    "openDaysNote": ""
  },
  {
    "id": "1473601290",
    "name": "横浜市新橋ホーム",
    "kana": "ヨコハマシシンバシホーム",
    "address": "神奈川県横浜市泉区新橋町3番地",
    "lat": 35.4294752,
    "lng": 139.5165613,
    "tel": "045-811-0692",
    "url": "http://www.hama-wel.or.jp/office/shinbashi",
    "pref": "神奈川県",
    "city": "横浜市泉区",
    "category": "tokuyou",
    "serviceType": "介護老人福祉施設",
    "capacity": 42,
    "openDays": [],
    "openDaysNote": ""
  },
  {
    "id": "1473601571",
    "name": "介護老人福祉施設　ヴィラ泉",
    "kana": "カイゴロウジンフクシシセツ　ウ゛ィライズミ",
    "address": "神奈川県横浜市泉区上飯田町4495",
    "lat": 35.4433065,
    "lng": 139.4779865,
    "tel": "045-301-2900",
    "url": "http://izumi.tokuyou.jp/",
    "pref": "神奈川県",
    "city": "横浜市泉区",
    "category": "tokuyou",
    "serviceType": "介護老人福祉施設",
    "capacity": 110,
    "openDays": [],
    "openDaysNote": ""
  },
  {
    "id": "1473600177",
    "name": "特別養護老人ホーム　いずみ芙蓉苑",
    "kana": "トクベツヨウゴロウジンホーム　イズミフヨウエン",
    "address": "神奈川県横浜市泉区上飯田町4631",
    "lat": 35.4417457,
    "lng": 139.4809781,
    "tel": "045-304-2421",
    "url": "http://www.shafuku-doujinkai.or.jp/",
    "pref": "神奈川県",
    "city": "横浜市泉区",
    "category": "tokuyou",
    "serviceType": "介護老人福祉施設",
    "capacity": 0,
    "openDays": [],
    "openDaysNote": ""
  },
  {
    "id": "1473601480",
    "name": "特別養護老人ホーム　ウェルフェアリビング",
    "kana": "トクベツヨウゴロウジンホーム　ウェルフェアリビング",
    "address": "神奈川県横浜市泉区和泉町3170-1",
    "lat": 35.4052586,
    "lng": 139.4849002,
    "tel": "045-806-1166",
    "url": "http://www.yokohama-keishinkai.jp",
    "pref": "神奈川県",
    "city": "横浜市泉区",
    "category": "tokuyou",
    "serviceType": "介護老人福祉施設",
    "capacity": 0,
    "openDays": [],
    "openDaysNote": ""
  },
  {
    "id": "1473600920",
    "name": "特別養護老人ホーム　グリーンヒル泉・横浜",
    "kana": "トクベツヨウゴロウジンホーム　グリーンヒルイズミ・ヨコハマ",
    "address": "神奈川県横浜市泉区和泉町２３１２",
    "lat": 35.4067001,
    "lng": 139.4899693,
    "tel": "045-806-5900",
    "url": "https://greenhill-izumi.com/",
    "pref": "神奈川県",
    "city": "横浜市泉区",
    "category": "tokuyou",
    "serviceType": "介護老人福祉施設",
    "capacity": 0,
    "openDays": [],
    "openDaysNote": ""
  },
  {
    "id": "1473601381",
    "name": "特別養護老人ホーム　けいあいの郷緑園",
    "kana": "トクベツヨウゴロウジンホーム　ケイアイノサトリョクエン",
    "address": "神奈川県横浜市泉区岡津町２９２６－１",
    "lat": 35.4336191,
    "lng": 139.5205527,
    "tel": "045-815-1670",
    "url": "http://keiainosato-ryokuen.jp/",
    "pref": "神奈川県",
    "city": "横浜市泉区",
    "category": "tokuyou",
    "serviceType": "介護老人福祉施設",
    "capacity": 108,
    "openDays": [],
    "openDaysNote": ""
  },
  {
    "id": "1473601274",
    "name": "特別養護老人ホーム　めぐみ",
    "kana": "トクベツヨウゴロウジンホーム　メグミ",
    "address": "神奈川県横浜市泉区中田町３４３０－６",
    "lat": 35.4229621,
    "lng": 139.5090148,
    "tel": "045-800-4165",
    "url": "http://www.keisei-fukushikai.com",
    "pref": "神奈川県",
    "city": "横浜市泉区",
    "category": "tokuyou",
    "serviceType": "介護老人福祉施設",
    "capacity": 36,
    "openDays": [],
    "openDaysNote": ""
  },
  {
    "id": "1473601308",
    "name": "特別養護老人ホーム　横浜敬寿園",
    "kana": "トクベツヨウゴロウジンホーム　ヨコハマケイジュエン",
    "address": "神奈川県横浜市泉区和泉町5019-1",
    "lat": 35.4250674,
    "lng": 139.487825,
    "tel": "045-800-3180",
    "url": "http://www.keijuen.or.jp/yokohama/",
    "pref": "神奈川県",
    "city": "横浜市泉区",
    "category": "tokuyou",
    "serviceType": "介護老人福祉施設",
    "capacity": 110,
    "openDays": [],
    "openDaysNote": ""
  },
  {
    "id": "1473600219",
    "name": "特別養護老人ホーム　希望苑",
    "kana": "トクベツヨウゴロウジンホームキボウエン",
    "address": "神奈川県横浜市泉区池の谷3901番地１",
    "lat": 35.4487127450535,
    "lng": 139.519090065396,
    "tel": "045-812-8181",
    "url": "https://www.yokohama-kibouen.com/",
    "pref": "神奈川県",
    "city": "横浜市泉区",
    "category": "tokuyou",
    "serviceType": "介護老人福祉施設",
    "capacity": 96,
    "openDays": [],
    "openDaysNote": ""
  },
  {
    "id": "1473600300",
    "name": "特別養護老人ホーム　泉の郷",
    "kana": "トクベツヨウゴロウジンホーム　イズミノサト",
    "address": "神奈川県横浜市泉区上飯田町２０８３－１",
    "lat": 35.4241952,
    "lng": 139.483342,
    "tel": "045-800-1800",
    "url": "http://www.seikoukai.info",
    "pref": "神奈川県",
    "city": "横浜市泉区",
    "category": "tokuyou",
    "serviceType": "介護老人福祉施設",
    "capacity": 60,
    "openDays": [],
    "openDaysNote": ""
  },
  {
    "id": "1473600342",
    "name": "特別養護老人ホーム　天王森の郷",
    "kana": "トクベツヨウゴロウジンホームテンノウモリノサト",
    "address": "神奈川県横浜市泉区和泉町733",
    "lat": 35.3963488,
    "lng": 139.4876556,
    "tel": "045-804-3311",
    "url": "http://www.tenmori733.jp/",
    "pref": "神奈川県",
    "city": "横浜市泉区",
    "category": "tokuyou",
    "serviceType": "介護老人福祉施設",
    "capacity": 138,
    "openDays": [],
    "openDaysNote": ""
  },
  {
    "id": "1473600185",
    "name": "特別養護老人ホーム　白寿荘",
    "kana": "トクベツヨウゴロウジンホーム　ハクジュソウ",
    "address": "神奈川県横浜市泉区和泉町６１８１番地",
    "lat": 35.4332803,
    "lng": 139.4977769,
    "tel": "045-803-6457",
    "url": "https://kyosaikai.jp/hakuju-so/",
    "pref": "神奈川県",
    "city": "横浜市泉区",
    "category": "tokuyou",
    "serviceType": "介護老人福祉施設",
    "capacity": 0,
    "openDays": [],
    "openDaysNote": ""
  },
  {
    "id": "1473600227",
    "name": "特別養護老人ホーム恒春ノ郷",
    "kana": "トクベツヨウゴロウジンホームコウシュンノサト",
    "address": "神奈川県横浜市泉区西が岡１－３０－１",
    "lat": 35.4222427,
    "lng": 139.512034,
    "tel": "045-813-0008",
    "url": "http://www.shinzen-fukushi.jp/kousyunnosato",
    "pref": "神奈川県",
    "city": "横浜市泉区",
    "category": "tokuyou",
    "serviceType": "介護老人福祉施設",
    "capacity": 0,
    "openDays": [],
    "openDaysNote": ""
  },
  {
    "id": "1473600151",
    "name": "特別養護老人ホーム相生荘",
    "kana": "トクベツヨウゴロウジンホームアイオイソウ",
    "address": "神奈川県横浜市泉区新橋町１８０５",
    "lat": 35.4415404,
    "lng": 139.5108646,
    "tel": "045-813-3131",
    "url": "https://www.aioisou.com",
    "pref": "神奈川県",
    "city": "横浜市泉区",
    "category": "tokuyou",
    "serviceType": "介護老人福祉施設",
    "capacity": 90,
    "openDays": [],
    "openDaysNote": ""
  },
  {
    "id": "1473601415",
    "name": "緑園都市睦愛園",
    "kana": "リョクエントシムツアイエン",
    "address": "神奈川県横浜市泉区岡津町３２１７－１",
    "lat": 35.4347607,
    "lng": 139.5259605,
    "tel": "045-815-1570",
    "url": "https://www.ryokuen-mutsuai.com",
    "pref": "神奈川県",
    "city": "横浜市泉区",
    "category": "tokuyou",
    "serviceType": "介護老人福祉施設",
    "capacity": 110,
    "openDays": [],
    "openDaysNote": ""
  },
  {
    "id": "1470400233",
    "name": "特別養護老人ホーム　新山下ホーム",
    "kana": "トクベツヨウゴロウジンホーム　シンヤマシタホーム",
    "address": "神奈川県横浜市中区新山下3-15-5",
    "lat": 35.4358004,
    "lng": 139.6619659,
    "tel": "045-625-1916",
    "url": "https://yoko-fukushi.or.jp/facility/shinyamashita/",
    "pref": "神奈川県",
    "city": "横浜市中区",
    "category": "tokuyou",
    "serviceType": "介護老人福祉施設",
    "capacity": 0,
    "openDays": [],
    "openDaysNote": ""
  },
  {
    "id": "1470400423",
    "name": "特別養護老人ホーム　本牧ホーム",
    "kana": "トクベツヨウゴロウジンホーム　ホンモクホーム",
    "address": "神奈川県横浜市中区本牧原6-2",
    "lat": 35.4262575921068,
    "lng": 139.668891110451,
    "tel": "045-628-2081",
    "url": "https://www.yoko-fukushi.or.jp/honmoku/",
    "pref": "神奈川県",
    "city": "横浜市中区",
    "category": "tokuyou",
    "serviceType": "介護老人福祉施設",
    "capacity": 96,
    "openDays": [],
    "openDaysNote": ""
  },
  {
    "id": "1470103381",
    "name": "ニューバード獅子ケ谷",
    "kana": "ニューバード　シシガヤ",
    "address": "神奈川県横浜市鶴見区獅子ケ谷三丁目10-8特別養護老人ホーム　ニューバード獅子ケ谷 特別養護老人ホーム　ニューバード獅子ケ谷",
    "lat": 35.5212642569738,
    "lng": 139.642673206776,
    "tel": "045-576-3055",
    "url": "http://kindai-rf.or.jp/shishigaya/",
    "pref": "神奈川県",
    "city": "横浜市鶴見区",
    "category": "tokuyou",
    "serviceType": "介護老人福祉施設",
    "capacity": 80,
    "openDays": [],
    "openDaysNote": ""
  },
  {
    "id": "1470100056",
    "name": "やまゆりホ－ム",
    "kana": "ヤマユリホーム",
    "address": "神奈川県横浜市鶴見区獅子ケ谷二丁目15-18",
    "lat": 35.5204273,
    "lng": 139.6486757,
    "tel": "045-583-1833",
    "url": "http://www.y-kakuseikai.or.jp/",
    "pref": "神奈川県",
    "city": "横浜市鶴見区",
    "category": "tokuyou",
    "serviceType": "介護老人福祉施設",
    "capacity": 0,
    "openDays": [],
    "openDaysNote": ""
  },
  {
    "id": "1470102581",
    "name": "介護老人福祉施設　わかたけ鶴見",
    "kana": "カイゴロウジンフクシシセツ　ワカタケツルミ",
    "address": "神奈川県横浜市鶴見区矢向1-4-20",
    "lat": 35.5283680916055,
    "lng": 139.676609573016,
    "tel": "045-642-7500",
    "url": "https://wakatake.net/",
    "pref": "神奈川県",
    "city": "横浜市鶴見区",
    "category": "tokuyou",
    "serviceType": "介護老人福祉施設",
    "capacity": 0,
    "openDays": [],
    "openDaysNote": ""
  },
  {
    "id": "1470100353",
    "name": "社会福祉法人　横浜市福祉サービス協会　新鶴見ホーム",
    "kana": "シャカイフクシホウジンヨコハマシフクシサービスキョウカイシンツルミホーム",
    "address": "神奈川県横浜市鶴見区江ケ崎町２－４２",
    "lat": 35.5353222,
    "lng": 139.6758978,
    "tel": "045-570-5000",
    "url": "https://www.hama-wel.or.jp/branch/shinturumi/",
    "pref": "神奈川県",
    "city": "横浜市鶴見区",
    "category": "tokuyou",
    "serviceType": "介護老人福祉施設",
    "capacity": 0,
    "openDays": [],
    "openDaysNote": ""
  },
  {
    "id": "1470102540",
    "name": "社会福祉法人　横浜市福祉サービス協会　新鶴見ホーム新館",
    "kana": "シャカイフクシホウジン　ヨコハマシフクシサービスキョウカイ　シンツルミホームシンカン",
    "address": "神奈川県横浜市鶴見区江ケ崎町２－４２",
    "lat": 35.5354121746518,
    "lng": 139.676617382495,
    "tel": "045-583-0800",
    "url": "http://www.hama-wel.or.jp",
    "pref": "神奈川県",
    "city": "横浜市鶴見区",
    "category": "tokuyou",
    "serviceType": "介護老人福祉施設",
    "capacity": 0,
    "openDays": [],
    "openDaysNote": ""
  },
  {
    "id": "1470103613",
    "name": "特別養護老人ホーム　しょうじゅの里小野",
    "kana": "トクベツヨウゴロウジンホーム　ショウジュノサトオノ",
    "address": "神奈川県横浜市鶴見区下野谷町4-145-18",
    "lat": 35.4976329,
    "lng": 139.6818984,
    "tel": "045-521-8818",
    "url": "http://www.akaedakai.com/ono/",
    "pref": "神奈川県",
    "city": "横浜市鶴見区",
    "category": "tokuyou",
    "serviceType": "介護老人福祉施設",
    "capacity": 100,
    "openDays": [],
    "openDaysNote": ""
  },
  {
    "id": "1470102219",
    "name": "特別養護老人ホーム　しょうじゅの里鶴見",
    "kana": "トクベツヨウゴロウジンホーム　ショウジュノサト　ツルミ",
    "address": "神奈川県横浜市鶴見区江ヶ崎町2-1",
    "lat": 35.5318671,
    "lng": 139.6775256,
    "tel": "045-576-5020",
    "url": "http://www.akaedakai.com",
    "pref": "神奈川県",
    "city": "横浜市鶴見区",
    "category": "tokuyou",
    "serviceType": "介護老人福祉施設",
    "capacity": 100,
    "openDays": [],
    "openDaysNote": ""
  },
  {
    "id": "1473801437",
    "name": "介護老人福祉施設　ヴィラ都筑",
    "kana": "カイゴロウジンフクシシセツ　ウ゛ィラツヅキ",
    "address": "神奈川県横浜市都筑区大棚町392-1",
    "lat": 35.5485144,
    "lng": 139.5907282,
    "tel": "045-593-2800",
    "url": "http://www.tsuzuki.tokuyou.jp/",
    "pref": "神奈川県",
    "city": "横浜市都筑区",
    "category": "tokuyou",
    "serviceType": "介護老人福祉施設",
    "capacity": 110,
    "openDays": [],
    "openDaysNote": ""
  },
  {
    "id": "1473800124",
    "name": "介護老人福祉施設　中川の里",
    "kana": "カイゴロウジンフクシシセツ　ナカガワノサト",
    "address": "神奈川県横浜市都筑区南山田2-39-35",
    "lat": 35.5555855,
    "lng": 139.591839,
    "tel": "045-591-2333",
    "url": "http://www.nakagawa-tokushokai.com/",
    "pref": "神奈川県",
    "city": "横浜市都筑区",
    "category": "tokuyou",
    "serviceType": "介護老人福祉施設",
    "capacity": 92,
    "openDays": [],
    "openDaysNote": ""
  },
  {
    "id": "1473802880",
    "name": "介護老人福祉施設スミール荏田",
    "kana": "カイゴロウジンフクシシセツスミールエダ",
    "address": "神奈川県横浜市都筑区荏田南町4202",
    "lat": 35.5539311,
    "lng": 139.5622445,
    "tel": "045-532-3188",
    "url": "http://www.tatsuki.co/",
    "pref": "神奈川県",
    "city": "横浜市都筑区",
    "category": "tokuyou",
    "serviceType": "介護老人福祉施設",
    "capacity": 0,
    "openDays": [],
    "openDaysNote": ""
  },
  {
    "id": "1473802864",
    "name": "介護老人福祉施設わかたけ都筑",
    "kana": "カイゴロウジンフクシシセツワカタケツヅキ",
    "address": "神奈川県横浜市都筑区川和町19-1",
    "lat": 35.5180566,
    "lng": 139.5530047,
    "tel": "045-482-3811",
    "url": "https://wakatake.net/category/facility/tsuzuki/",
    "pref": "神奈川県",
    "city": "横浜市都筑区",
    "category": "tokuyou",
    "serviceType": "介護老人福祉施設",
    "capacity": null,
    "openDays": [],
    "openDaysNote": ""
  },
  {
    "id": "1473800959",
    "name": "介護老人福祉施設池辺",
    "kana": "カイゴロウジンフクシシセツイケベ",
    "address": "神奈川県横浜市都筑区池辺町2194",
    "lat": 35.5270055,
    "lng": 139.5685141,
    "tel": "045-949-1851",
    "url": "https://itofukushikai.com/guide/ikebe/",
    "pref": "神奈川県",
    "city": "横浜市都筑区",
    "category": "tokuyou",
    "serviceType": "介護老人福祉施設",
    "capacity": 0,
    "openDays": [],
    "openDaysNote": ""
  },
  {
    "id": "1473800157",
    "name": "介護老人福祉施設都筑の里",
    "kana": "カイゴロウジンフクシシセツ　ツヅキノサト",
    "address": "神奈川県横浜市都筑区茅ケ崎東５－１３－１",
    "lat": 35.54707,
    "lng": 139.5867398,
    "tel": "045-949-0601",
    "url": "http://www.nakagawa-tokushokai.com/",
    "pref": "神奈川県",
    "city": "横浜市都筑区",
    "category": "tokuyou",
    "serviceType": "介護老人福祉施設",
    "capacity": 64,
    "openDays": [],
    "openDaysNote": ""
  },
  {
    "id": "1473800728",
    "name": "特別養護老人ホーム　ハートフルガーデン川和",
    "kana": "トクベツヨウゴロウジンホーム　ハートフルガーデンカワワ",
    "address": "神奈川県横浜市都筑区川和町６６０番地",
    "lat": 35.5226751,
    "lng": 139.5517738,
    "tel": "045-930-3888",
    "url": "http://www.subaru-fukushi.or.jp",
    "pref": "神奈川県",
    "city": "横浜市都筑区",
    "category": "tokuyou",
    "serviceType": "介護老人福祉施設",
    "capacity": 0,
    "openDays": [],
    "openDaysNote": ""
  },
  {
    "id": "1473801288",
    "name": "特別養護老人ホーム　ハピネス都筑",
    "kana": "トクベツヨウゴロウジンホーム　ハピネスツヅキ",
    "address": "神奈川県横浜市都筑区牛久保町１８０８－３",
    "lat": 35.5680836,
    "lng": 139.5706879,
    "tel": "045-914-8850",
    "url": "http://family-wf.jp/",
    "pref": "神奈川県",
    "city": "横浜市都筑区",
    "category": "tokuyou",
    "serviceType": "介護老人福祉施設",
    "capacity": 0,
    "openDays": [],
    "openDaysNote": ""
  },
  {
    "id": "1470501931",
    "name": "横浜市浦舟ホーム",
    "kana": "ヨコハマシウラフネホーム",
    "address": "神奈川県横浜市南区浦舟町3-462,3階 2,3階",
    "lat": 35.4341535,
    "lng": 139.6259072,
    "tel": "045-264-1150",
    "url": "https://www.hama-wel.or.jp/branch/urafunehome/",
    "pref": "神奈川県",
    "city": "横浜市南区",
    "category": "tokuyou",
    "serviceType": "介護老人福祉施設",
    "capacity": 0,
    "openDays": [],
    "openDaysNote": ""
  },
  {
    "id": "1470503135",
    "name": "介護老人福祉施設　わかたけ南",
    "kana": "カイゴロウジンフクシシセツ　ワカタケミナミ",
    "address": "神奈川県横浜市南区山谷115-5",
    "lat": 35.4302275,
    "lng": 139.6235532,
    "tel": "045-315-4155",
    "url": "https://wakatake.net/category/facility/wakatakeminami/",
    "pref": "神奈川県",
    "city": "横浜市南区",
    "category": "tokuyou",
    "serviceType": "介護老人福祉施設",
    "capacity": null,
    "openDays": [],
    "openDaysNote": ""
  },
  {
    "id": "1470501584",
    "name": "特別養護老人ホーム　　横浜市天神ホーム",
    "kana": "トクベツヨウゴロウジンホーム　ヨコハマシテンジンホーム",
    "address": "神奈川県横浜市南区浦舟町３－４６浦舟複合福祉施設　４階 浦舟複合福祉施設　４階",
    "lat": 35.4341535,
    "lng": 139.6259072,
    "tel": "045-251-5906",
    "url": "https://yoko-fukushi.or.jp/",
    "pref": "神奈川県",
    "city": "横浜市南区",
    "category": "tokuyou",
    "serviceType": "介護老人福祉施設",
    "capacity": 72,
    "openDays": [],
    "openDaysNote": ""
  },
  {
    "id": "1470503481",
    "name": "特別養護老人ホーム　けいあいの郷　山王台",
    "kana": "トクベツヨウゴロウジンホーム　ケイアイノサト　サンノウダイ",
    "address": "神奈川県横浜市南区永田山王台39-1",
    "lat": 35.4294598749334,
    "lng": 139.585934926984,
    "tel": "045-716-0580",
    "url": "https://keiainosato-sannoudai.jp/",
    "pref": "神奈川県",
    "city": "横浜市南区",
    "category": "tokuyou",
    "serviceType": "介護老人福祉施設",
    "capacity": null,
    "openDays": [],
    "openDaysNote": ""
  },
  {
    "id": "1470502236",
    "name": "特別養護老人ホーム　リバーサイドフェニックス",
    "kana": "トクベツヨウゴロウジンホーム　リバーサイドフェニックス",
    "address": "神奈川県横浜市南区中村町5丁目316番-1",
    "lat": 35.4283905564045,
    "lng": 139.622990831213,
    "tel": "045-251-2525",
    "url": "http://www.shafuku-doujinkai.or.jp",
    "pref": "神奈川県",
    "city": "横浜市南区",
    "category": "tokuyou",
    "serviceType": "介護老人福祉施設",
    "capacity": 90,
    "openDays": [],
    "openDaysNote": ""
  },
  {
    "id": "1470500867",
    "name": "特別養護老人ホーム　香樹の里",
    "kana": "トクベツヨウゴロウジンホーム　コウジュノサト",
    "address": "神奈川県横浜市南区六ツ川4-1234-45特別養護老人ホーム香樹の里 特別養護老人ホーム香樹の里",
    "lat": 35.4229295,
    "lng": 139.5762845,
    "tel": "045-820-4123",
    "url": "http://www.kusunoki.or.jp/",
    "pref": "神奈川県",
    "city": "横浜市南区",
    "category": "tokuyou",
    "serviceType": "介護老人福祉施設",
    "capacity": 85,
    "openDays": [],
    "openDaysNote": ""
  },
  {
    "id": "1470500222",
    "name": "特別養護老人ホーム　南太田ホーム",
    "kana": "トクベツヨウゴロウジンホーム　ミナミオオタホーム",
    "address": "神奈川県横浜市南区南太田2-11-4",
    "lat": 35.437403,
    "lng": 139.6067203,
    "tel": "045-250-6771",
    "url": "https://yoko-fukushi.or.jp/facility/minamiohta/",
    "pref": "神奈川県",
    "city": "横浜市南区",
    "category": "tokuyou",
    "serviceType": "介護老人福祉施設",
    "capacity": 0,
    "openDays": [],
    "openDaysNote": ""
  },
  {
    "id": "1470500198",
    "name": "特別養護老人ホーム　白朋苑",
    "kana": "トクベツヨウゴロウジンホーム　ハクホウエン",
    "address": "神奈川県横浜市南区大岡5-13-15",
    "lat": 35.4125284,
    "lng": 139.5983491,
    "tel": "045-742-0625",
    "url": "https://hakuhouen.or.jp/",
    "pref": "神奈川県",
    "city": "横浜市南区",
    "category": "tokuyou",
    "serviceType": "介護老人福祉施設",
    "capacity": 0,
    "openDays": [],
    "openDaysNote": ""
  },
  {
    "id": "1470503283",
    "name": "特別養護老人ホームみなもの桜",
    "kana": "トクベツヨウゴロウジンホーム　ミナモノサクラ",
    "address": "神奈川県横浜市南区中村町4-274-8",
    "lat": 35.4325362,
    "lng": 139.6231748,
    "tel": "045-315-5915",
    "url": "https://yoko-fukushi.or.jp",
    "pref": "神奈川県",
    "city": "横浜市南区",
    "category": "tokuyou",
    "serviceType": "介護老人福祉施設",
    "capacity": 0,
    "openDays": [],
    "openDaysNote": ""
  },
  {
    "id": "1470500503",
    "name": "南永田桜樹の森",
    "kana": "ミナミナガタオウジュノモリ",
    "address": "神奈川県横浜市南区永田南1-2-37",
    "lat": 35.4287763,
    "lng": 139.5971437,
    "tel": "045-711-2200",
    "url": "https://shuhokai.or.jp/",
    "pref": "神奈川県",
    "city": "横浜市南区",
    "category": "tokuyou",
    "serviceType": "介護老人福祉施設",
    "capacity": 82,
    "openDays": [],
    "openDaysNote": ""
  },
  {
    "id": "1470600154",
    "name": "横浜白光会　今井の郷",
    "kana": "ヨコハマハッコウカイイマイノサト",
    "address": "神奈川県横浜市保土ケ谷区今井町７３３－２",
    "lat": 35.4496644,
    "lng": 139.5515749,
    "tel": "045-351-7736",
    "url": "http://www.imainosato.jp/",
    "pref": "神奈川県",
    "city": "横浜市保土ケ谷区",
    "category": "tokuyou",
    "serviceType": "介護老人福祉施設",
    "capacity": 0,
    "openDays": [],
    "openDaysNote": ""
  },
  {
    "id": "1470600931",
    "name": "介護老人福祉施設くぬぎ台",
    "kana": "カイゴロウジンフクシシセツクヌギダイ",
    "address": "神奈川県横浜市保土ヶ谷区川島町1363-1",
    "lat": 35.4738228,
    "lng": 139.5611045,
    "tel": "045-370-5320",
    "url": "https://itofukushikai.com/guide/kunugidai",
    "pref": "神奈川県",
    "city": "横浜市保土ケ谷区",
    "category": "tokuyou",
    "serviceType": "介護老人福祉施設",
    "capacity": 0,
    "openDays": [],
    "openDaysNote": ""
  },
  {
    "id": "1470600121",
    "name": "社会福祉法人　なでしこ会　夢の里",
    "kana": "シャカイフクシホウジンナデシコカイ　ユメノサト",
    "address": "神奈川県横浜市保土ケ谷区常盤台75-1",
    "lat": 35.4776898,
    "lng": 139.5902602,
    "tel": "045-335-0265",
    "url": "http://www.nadeshiko.or.jp/",
    "pref": "神奈川県",
    "city": "横浜市保土ケ谷区",
    "category": "tokuyou",
    "serviceType": "介護老人福祉施設",
    "capacity": null,
    "openDays": [],
    "openDaysNote": ""
  },
  {
    "id": "1470600097",
    "name": "社会福祉法人　育生会　よつば苑",
    "kana": "シャカイフクシホウジン　イクセイカイ　ヨツバエン",
    "address": "神奈川県横浜市保土ケ谷区狩場町200-9",
    "lat": 35.4406634,
    "lng": 139.5765065,
    "tel": "045-712-8601",
    "url": "http://www.fuku-ikuseikai.com",
    "pref": "神奈川県",
    "city": "横浜市保土ケ谷区",
    "category": "tokuyou",
    "serviceType": "介護老人福祉施設",
    "capacity": 0,
    "openDays": [],
    "openDaysNote": ""
  },
  {
    "id": "1470600964",
    "name": "太陽の國ほどがや",
    "kana": "タイヨウノクニホドガヤ",
    "address": "神奈川県横浜市保土ケ谷区岩井町２３８－１",
    "lat": 35.4423302,
    "lng": 139.6031345,
    "tel": "045-730-1165",
    "url": "http://www.apollon.or.jp/hodogaya/",
    "pref": "神奈川県",
    "city": "横浜市保土ケ谷区",
    "category": "tokuyou",
    "serviceType": "介護老人福祉施設",
    "capacity": 0,
    "openDays": [],
    "openDaysNote": ""
  },
  {
    "id": "1470600139",
    "name": "特別養護老人ホーム　かわしまホーム",
    "kana": "トクベツヨウゴロウジンホーム　カワシマホーム",
    "address": "神奈川県横浜市保土ケ谷区川島町1514-2",
    "lat": 35.466596,
    "lng": 139.5637516,
    "tel": "045-371-8080",
    "url": "http://www.fukushi-kousaikai.or.jp",
    "pref": "神奈川県",
    "city": "横浜市保土ケ谷区",
    "category": "tokuyou",
    "serviceType": "介護老人福祉施設",
    "capacity": 96,
    "openDays": [],
    "openDaysNote": ""
  },
  {
    "id": "1470600188",
    "name": "特別養護老人ホーム　さわやか苑",
    "kana": "トクベツヨウゴロウジンホーム　サワヤカエン",
    "address": "神奈川県横浜市保土ケ谷区上菅田町1723-1",
    "lat": 35.4951034,
    "lng": 139.5512297,
    "tel": "045-381-3567",
    "url": "https://seikoukai-group.or.jp/",
    "pref": "神奈川県",
    "city": "横浜市保土ケ谷区",
    "category": "tokuyou",
    "serviceType": "介護老人福祉施設",
    "capacity": 160,
    "openDays": [],
    "openDaysNote": ""
  },
  {
    "id": "1470601343",
    "name": "特別養護老人ホーム　ラポール三ツ沢",
    "kana": "トクベツヨウゴロウジンホーム　ラポールミツザワ",
    "address": "神奈川県横浜市保土ヶ谷区峰沢町３２５－１",
    "lat": 35.4776482,
    "lng": 139.5945986,
    "tel": "045-337-3366",
    "url": "http://www.rapport.or.jp/",
    "pref": "神奈川県",
    "city": "横浜市保土ケ谷区",
    "category": "tokuyou",
    "serviceType": "介護老人福祉施設",
    "capacity": 90,
    "openDays": [],
    "openDaysNote": ""
  },
  {
    "id": "1470601541",
    "name": "特別養護老人ホーム　レジデンシャル常盤台",
    "kana": "トクベツヨウゴロウジンホーム　レジデンシャルトキワダイ",
    "address": "神奈川県横浜市保土ケ谷区常盤台74-7",
    "lat": 35.4784814,
    "lng": 139.5918156,
    "tel": "045-348-8001",
    "url": "http://www.ikumeikai.net/tokiwadai",
    "pref": "神奈川県",
    "city": "横浜市保土ケ谷区",
    "category": "tokuyou",
    "serviceType": "介護老人福祉施設",
    "capacity": 110,
    "openDays": [],
    "openDaysNote": ""
  },
  {
    "id": "1470600840",
    "name": "特別養護老人ホーム　快風苑",
    "kana": "トクベツヨウゴロウジンホーム　カイフウエン",
    "address": "神奈川県横浜市保土ケ谷区境木町174番1",
    "lat": 35.4425184,
    "lng": 139.5654628,
    "tel": "045-355-5563",
    "url": "http://www.kaifuen.jp",
    "pref": "神奈川県",
    "city": "横浜市保土ケ谷区",
    "category": "tokuyou",
    "serviceType": "介護老人福祉施設",
    "capacity": 70,
    "openDays": [],
    "openDaysNote": ""
  },
  {
    "id": "1470602267",
    "name": "特別養護老人ホーム　梅の木ホーム",
    "kana": "トクベツヨウゴロウジンホーム　ウメノキホーム",
    "address": "神奈川県横浜市保土ヶ谷区上菅田町1372",
    "lat": 35.4835943,
    "lng": 139.5744782,
    "tel": "045-370-3151",
    "url": "http://www.yoko-fukushi.or.jp/umenoki/index.html",
    "pref": "神奈川県",
    "city": "横浜市保土ケ谷区",
    "category": "tokuyou",
    "serviceType": "介護老人福祉施設",
    "capacity": 0,
    "openDays": [],
    "openDaysNote": ""
  },
  {
    "id": "1470601137",
    "name": "美立の杜",
    "kana": "ミタテノモリ",
    "address": "神奈川県横浜市保土ケ谷区今井町609-1",
    "lat": 35.4524875466352,
    "lng": 139.551182930688,
    "tel": "045-351-7899",
    "url": "https://www.mitatenomori.com/",
    "pref": "神奈川県",
    "city": "横浜市保土ケ谷区",
    "category": "tokuyou",
    "serviceType": "介護老人福祉施設",
    "capacity": 75,
    "openDays": [],
    "openDaysNote": ""
  },
  {
    "id": "1473300109",
    "name": "ケアセンターメゾンヴェルト",
    "kana": "ケアセンターメゾンウ゛ェルト",
    "address": "神奈川県横浜市緑区鴨居7-19-1",
    "lat": 35.4982114,
    "lng": 139.554371,
    "tel": "045-935-6471",
    "url": "https://www.maisonverte.jp/",
    "pref": "神奈川県",
    "city": "横浜市緑区",
    "category": "tokuyou",
    "serviceType": "介護老人福祉施設",
    "capacity": 104,
    "openDays": [],
    "openDaysNote": ""
  },
  {
    "id": "1473300851",
    "name": "介護老人福祉施設　ビオラ三保",
    "kana": "カイゴロウジンフクシシセツ　ビオラミホ",
    "address": "神奈川県横浜市緑区三保町350",
    "lat": 35.5107721,
    "lng": 139.505583,
    "tel": "045-924-2223",
    "url": "https://www.nakagawa-tokushokai.com",
    "pref": "神奈川県",
    "city": "横浜市緑区",
    "category": "tokuyou",
    "serviceType": "介護老人福祉施設",
    "capacity": 140,
    "openDays": [],
    "openDaysNote": ""
  },
  {
    "id": "1473300141",
    "name": "介護老人福祉施設　ふじ寿か園",
    "kana": "カイゴロウジンフクシシセツ　フジズカエン",
    "address": "神奈川県横浜市緑区西八朔町773-2",
    "lat": 35.5313602,
    "lng": 139.530323,
    "tel": "045-931-7141",
    "url": "https://www.fujizuka.com",
    "pref": "神奈川県",
    "city": "横浜市緑区",
    "category": "tokuyou",
    "serviceType": "介護老人福祉施設",
    "capacity": 0,
    "openDays": [],
    "openDaysNote": ""
  },
  {
    "id": "1473301529",
    "name": "介護老人福祉施設　横浜よさこいホーム",
    "kana": "カイゴロウジンフクシシセツ　ヨコハマヨサコイホーム",
    "address": "神奈川県横浜市緑区北八朔町1368-1",
    "lat": 35.5248721,
    "lng": 139.5426136,
    "tel": "045-932-4351",
    "url": "http://www.yosakoi-home.com/index.html",
    "pref": "神奈川県",
    "city": "横浜市緑区",
    "category": "tokuyou",
    "serviceType": "介護老人福祉施設",
    "capacity": 0,
    "openDays": [],
    "openDaysNote": ""
  },
  {
    "id": "1473301198",
    "name": "介護老人福祉施設　北八朔",
    "kana": "カイゴロウジンフクシシセツ　キタハッサク",
    "address": "神奈川県横浜市緑区北八朔町１８１３－１",
    "lat": 35.5251804,
    "lng": 139.5337532,
    "tel": "045-929-6001",
    "url": "https://itofukushikai.com/",
    "pref": "神奈川県",
    "city": "横浜市緑区",
    "category": "tokuyou",
    "serviceType": "介護老人福祉施設",
    "capacity": 0,
    "openDays": [],
    "openDaysNote": ""
  },
  {
    "id": "1473300877",
    "name": "特別養護老人ホーム　しょうじゅの里三保",
    "kana": "トクベツヨウゴロウジンホーム　ショウジュノサトミホ",
    "address": "神奈川県横浜市緑区三保町171-1",
    "lat": 35.5066372,
    "lng": 139.5123687,
    "tel": "045-921-0013",
    "url": "https://kenaikai.akaedakai.com/miho/",
    "pref": "神奈川県",
    "city": "横浜市緑区",
    "category": "tokuyou",
    "serviceType": "介護老人福祉施設",
    "capacity": 170,
    "openDays": [],
    "openDaysNote": ""
  },
  {
    "id": "1473301040",
    "name": "特別養護老人ホーム　フォーシーズンズヴィラこもれび",
    "kana": "トクベツヨウゴロウジンホーム　フォーシーズンズウ”ィラコモレビ",
    "address": "神奈川県横浜市緑区三保町881-2",
    "lat": 35.5061104,
    "lng": 139.5227042,
    "tel": "045-938-0770",
    "url": "https://www.4seasons-v.jp/facilities/komorebi",
    "pref": "神奈川県",
    "city": "横浜市緑区",
    "category": "tokuyou",
    "serviceType": "介護老人福祉施設",
    "capacity": 10,
    "openDays": [],
    "openDaysNote": ""
  },
  {
    "id": "1473301677",
    "name": "特別養護老人ホーム　みずほ",
    "kana": "トクベツヨウゴロウジンホーム　ミズホ",
    "address": "神奈川県横浜市緑区長津田町2338番地1",
    "lat": 35.5293006,
    "lng": 139.4901944,
    "tel": "045-986-0063",
    "url": "http://asahi-kai.jp/",
    "pref": "神奈川県",
    "city": "横浜市緑区",
    "category": "tokuyou",
    "serviceType": "介護老人福祉施設",
    "capacity": 150,
    "openDays": [],
    "openDaysNote": ""
  },
  {
    "id": "1473300117",
    "name": "特別養護老人ホーム　慶星閣",
    "kana": "トクベツヨウゴロウジンホームケイセイカク",
    "address": "神奈川県横浜市緑区三保町2590番地",
    "lat": 35.5088601,
    "lng": 139.5246374,
    "tel": "045-934-7101",
    "url": "http://www.keiseikaku.com/",
    "pref": "神奈川県",
    "city": "横浜市緑区",
    "category": "tokuyou",
    "serviceType": "介護老人福祉施設",
    "capacity": 0,
    "openDays": [],
    "openDaysNote": ""
  },
  {
    "id": "1473301412",
    "name": "特別養護老人ホーム横浜ナーシングビレッジ",
    "kana": "トクベツヨウゴロウジンホームヨコハマナーシングビレッジ",
    "address": "神奈川県横浜市緑区白山4丁目74-3",
    "lat": 35.4995834,
    "lng": 139.5495491,
    "tel": "045-511-7788",
    "url": "http://www.hakuwakai.net/yokohama/",
    "pref": "神奈川県",
    "city": "横浜市緑区",
    "category": "tokuyou",
    "serviceType": "介護老人福祉施設",
    "capacity": 0,
    "openDays": [],
    "openDaysNote": ""
  },
  {
    "id": "1474200050",
    "name": "えびな南高齢者施設",
    "kana": "エビナミナミコウレイシャシセツ",
    "address": "神奈川県海老名市杉久保南3丁目31-6",
    "lat": 35.4211018,
    "lng": 139.4083046,
    "tel": "046-238-7681",
    "url": "http://www.ebinaminami.com/",
    "pref": "神奈川県",
    "city": "海老名市",
    "category": "tokuyou",
    "serviceType": "介護老人福祉施設",
    "capacity": 45,
    "openDays": [],
    "openDaysNote": ""
  },
  {
    "id": "1474200605",
    "name": "えびな北高齢者施設",
    "kana": "エビナキタコウレイシャシセツ",
    "address": "神奈川県海老名市上今泉4-8-28",
    "lat": 35.4699122,
    "lng": 139.4025519,
    "tel": "046-231-5888",
    "url": "https://www.ebinakita.com/",
    "pref": "神奈川県",
    "city": "海老名市",
    "category": "tokuyou",
    "serviceType": "介護老人福祉施設",
    "capacity": 65,
    "openDays": [],
    "openDaysNote": ""
  },
  {
    "id": "1474200076",
    "name": "中心荘第一老人ホーム",
    "kana": "チュウシンソウダイイチロウジンホーム",
    "address": "神奈川県海老名市上今泉4-7-1",
    "lat": 35.4684597,
    "lng": 139.4042185,
    "tel": "046-231-7152",
    "url": "https://chusinsou.net",
    "pref": "神奈川県",
    "city": "海老名市",
    "category": "tokuyou",
    "serviceType": "介護老人福祉施設",
    "capacity": 0,
    "openDays": [],
    "openDaysNote": ""
  },
  {
    "id": "1474200084",
    "name": "中心荘第二老人ホーム",
    "kana": "チュウシンソウダイニロウジンホーム",
    "address": "神奈川県海老名市上今泉4-7-1",
    "lat": 35.4684597,
    "lng": 139.4042185,
    "tel": "046-231-7152",
    "url": "https://chusinsou.net",
    "pref": "神奈川県",
    "city": "海老名市",
    "category": "tokuyou",
    "serviceType": "介護老人福祉施設",
    "capacity": 0,
    "openDays": [],
    "openDaysNote": ""
  },
  {
    "id": "1474200290",
    "name": "特別養護老人ホーム　さつき",
    "kana": "トクベツヨウゴロウジンホームサツキ",
    "address": "神奈川県海老名市中央四丁目15番1号",
    "lat": 35.4485332,
    "lng": 139.3866112,
    "tel": "046-232-1318",
    "url": "http://www.carenet.or.jp/satsuki/",
    "pref": "神奈川県",
    "city": "海老名市",
    "category": "tokuyou",
    "serviceType": "介護老人福祉施設",
    "capacity": 45,
    "openDays": [],
    "openDaysNote": ""
  },
  {
    "id": "1474200449",
    "name": "特別養護老人ホーム　シェ・モア",
    "kana": "トクベツヨウゴロウジンホーム　シェモア",
    "address": "神奈川県海老名市中央四丁目8番14号",
    "lat": 35.4481539,
    "lng": 139.3884477,
    "tel": "046-236-1318",
    "url": "http://www.carenet.or.jp/chez-moi/",
    "pref": "神奈川県",
    "city": "海老名市",
    "category": "tokuyou",
    "serviceType": "介護老人福祉施設",
    "capacity": 70,
    "openDays": [],
    "openDaysNote": ""
  },
  {
    "id": "1474201017",
    "name": "特別養護老人ホーム　陽だまり",
    "kana": "トクベツヨウゴロウジンホーム　ヒダマリ",
    "address": "神奈川県海老名市社家四丁目7番26号",
    "lat": 35.418895504314,
    "lng": 139.382415441,
    "tel": "046-237-4165",
    "url": "http://www.carenet.or.jp",
    "pref": "神奈川県",
    "city": "海老名市",
    "category": "tokuyou",
    "serviceType": "介護老人福祉施設",
    "capacity": 0,
    "openDays": [],
    "openDaysNote": ""
  },
  {
    "id": "1474201496",
    "name": "特別養護老人ホーム彩美苑",
    "kana": "トクベツヨウゴロウジンホームサイビエン",
    "address": "神奈川県海老名市柏ケ谷287-1",
    "lat": 35.4608759849681,
    "lng": 139.408678582248,
    "tel": "046-236-6800",
    "url": "https://asukafukushikai.com/center/saibien",
    "pref": "神奈川県",
    "city": "海老名市",
    "category": "tokuyou",
    "serviceType": "介護老人福祉施設",
    "capacity": 100,
    "openDays": [],
    "openDaysNote": ""
  },
  {
    "id": "1474200837",
    "name": "特別養護老人ホーム和心",
    "kana": "トクベツヨウゴロウジンホームナゴミ",
    "address": "神奈川県海老名市大谷南三丁目20番15号",
    "lat": 35.4350508149424,
    "lng": 139.399809079762,
    "tel": "046-236-4165",
    "url": "http://www.carenet.or.jp/nagomi/index.html",
    "pref": "神奈川県",
    "city": "海老名市",
    "category": "tokuyou",
    "serviceType": "介護老人福祉施設",
    "capacity": 0,
    "openDays": [],
    "openDaysNote": ""
  },
  {
    "id": "1472101698",
    "name": "稲村ガ崎きしろ",
    "kana": "イナムラガサキ　キシロ",
    "address": "神奈川県鎌倉市稲村ガ崎4-10-45",
    "lat": 35.3081488,
    "lng": 139.5206443,
    "tel": "0467-38-1313",
    "url": "http://www.kishiro.or.jp/",
    "pref": "神奈川県",
    "city": "鎌倉市",
    "category": "tokuyou",
    "serviceType": "介護老人福祉施設",
    "capacity": 0,
    "openDays": [],
    "openDaysNote": ""
  },
  {
    "id": "1472102340",
    "name": "介護老人福祉施設　ラペ鎌倉",
    "kana": "カイゴロウジンフクシシセツ　ラペカマクラ",
    "address": "神奈川県鎌倉市関谷1465-1",
    "lat": 35.3610899,
    "lng": 139.5018988,
    "tel": "0467-40-1788",
    "url": "http://ryokujyukai.com/",
    "pref": "神奈川県",
    "city": "鎌倉市",
    "category": "tokuyou",
    "serviceType": "介護老人福祉施設",
    "capacity": 0,
    "openDays": [],
    "openDaysNote": ""
  },
  {
    "id": "1472100245",
    "name": "介護老人福祉施設　七里ガ浜ホーム",
    "kana": "カイゴロウジンフクシシセツ　シチリガハマホーム",
    "address": "神奈川県鎌倉市腰越１－２－３６",
    "lat": 35.307976,
    "lng": 139.5001989,
    "tel": "0467-31-6156",
    "url": "https://www.shichirigahamahome.com",
    "pref": "神奈川県",
    "city": "鎌倉市",
    "category": "tokuyou",
    "serviceType": "介護老人福祉施設",
    "capacity": 0,
    "openDays": [],
    "openDaysNote": ""
  },
  {
    "id": "1472100088",
    "name": "鎌倉プライエムきしろ",
    "kana": "カマクラプライエムキシロ",
    "address": "神奈川県鎌倉市関谷１７８１",
    "lat": 35.3632813,
    "lng": 139.4993796,
    "tel": "0467-48-2101",
    "url": "http://www.kishiro.or.jp/",
    "pref": "神奈川県",
    "city": "鎌倉市",
    "category": "tokuyou",
    "serviceType": "介護老人福祉施設",
    "capacity": 0,
    "openDays": [],
    "openDaysNote": ""
  },
  {
    "id": "1472100807",
    "name": "鎌倉清和由比",
    "kana": "カマクラセイワユイ",
    "address": "神奈川県鎌倉市坂ノ下３３－３",
    "lat": 35.3058154,
    "lng": 139.532135,
    "tel": "0467-24-1335",
    "url": "http://kanagawa-seiwa.or.jp",
    "pref": "神奈川県",
    "city": "鎌倉市",
    "category": "tokuyou",
    "serviceType": "介護老人福祉施設",
    "capacity": 0,
    "openDays": [],
    "openDaysNote": ""
  },
  {
    "id": "1472101920",
    "name": "特別養護老人ホーム　かまくら愛の郷",
    "kana": "トクベツヨウゴロウジンホーム　カマクラアイノサト",
    "address": "神奈川県鎌倉市岡本1022-32",
    "lat": 35.3462349705489,
    "lng": 139.519764682448,
    "tel": "0467-41-1122",
    "url": "http://www.s-aishinkai.jp/ainosato/index.html",
    "pref": "神奈川県",
    "city": "鎌倉市",
    "category": "tokuyou",
    "serviceType": "介護老人福祉施設",
    "capacity": 90,
    "openDays": [],
    "openDaysNote": ""
  },
  {
    "id": "1472103231",
    "name": "特別養護老人ホーム　ヒルズ鎌倉",
    "kana": "トクベツヨウゴロウジンホーム　ヒルズカマクラ",
    "address": "神奈川県鎌倉市山崎７９3番地",
    "lat": 35.5800773,
    "lng": 139.4369733,
    "tel": "0467-46-0055",
    "url": "https://www.oafukushi.org/",
    "pref": "神奈川県",
    "city": "鎌倉市",
    "category": "tokuyou",
    "serviceType": "介護老人福祉施設",
    "capacity": 0,
    "openDays": [],
    "openDaysNote": ""
  },
  {
    "id": "1472101813",
    "name": "特別養護老人ホーム　ふれあいの泉",
    "kana": "トクベツヨウゴロウジンホーム　フレアイノイズミ",
    "address": "神奈川県鎌倉市今泉2-10-1http://www.reijukai.or.jp/ http://www.reijukai.or.jp/",
    "lat": 35.3462695,
    "lng": 139.5512091,
    "tel": "0467-46-9811",
    "url": "http://www.reijukai.or.jp/",
    "pref": "神奈川県",
    "city": "鎌倉市",
    "category": "tokuyou",
    "serviceType": "介護老人福祉施設",
    "capacity": 0,
    "openDays": [],
    "openDaysNote": ""
  },
  {
    "id": "1472100617",
    "name": "特別養護老人ホームささりんどう鎌倉",
    "kana": "トクベツヨウゴロウジンホームササリンドウカマクラ",
    "address": "神奈川県鎌倉市城廻270-2",
    "lat": 35.3565544,
    "lng": 139.5093981,
    "tel": "0467-42-3701",
    "url": "https://www.sasa-care.com/all-services",
    "pref": "神奈川県",
    "city": "鎌倉市",
    "category": "tokuyou",
    "serviceType": "介護老人福祉施設",
    "capacity": 0,
    "openDays": [],
    "openDaysNote": ""
  },
  {
    "id": "1472103512",
    "name": "特別養護老人ホーム雪のほこら",
    "kana": "トクベツヨウゴロウジンホームユキノホコラ",
    "address": "神奈川県鎌倉市関谷1610番地1",
    "lat": 35.3560721,
    "lng": 139.503159,
    "tel": "0467-55-5684",
    "url": "https://www.s-koseikai.jp/yukinohokora/",
    "pref": "神奈川県",
    "city": "鎌倉市",
    "category": "tokuyou",
    "serviceType": "介護老人福祉施設",
    "capacity": 0,
    "openDays": [],
    "openDaysNote": ""
  },
  {
    "id": "1472100252",
    "name": "特養鎌倉静養館",
    "kana": "トクヨウカマクラセイヨウカン",
    "address": "神奈川県鎌倉市由比ガ浜４－４－３０",
    "lat": 35.310418,
    "lng": 139.5444479,
    "tel": "0467-22-8021",
    "url": "http://www.seiyokan.jp",
    "pref": "神奈川県",
    "city": "鎌倉市",
    "category": "tokuyou",
    "serviceType": "介護老人福祉施設",
    "capacity": 0,
    "openDays": [],
    "openDaysNote": ""
  },
  {
    "id": "1472401437",
    "name": "介護老人福祉施設　ハピネス茅ヶ崎",
    "kana": "カイゴロウジンフクシシセツハピネスチガサキ",
    "address": "神奈川県茅ケ崎市甘沼865-1",
    "lat": 35.3518379,
    "lng": 139.4105517,
    "tel": "0467-38-4165",
    "url": "https://happiness-chigasaki.or.jp/",
    "pref": "神奈川県",
    "city": "茅ヶ崎市",
    "category": "tokuyou",
    "serviceType": "介護老人福祉施設",
    "capacity": 0,
    "openDays": [],
    "openDaysNote": ""
  },
  {
    "id": "1472400033",
    "name": "社会福祉法人　麗寿会　ふれあいの森",
    "kana": "シャカイフクシホウジンレイジュカイフレアイノモリ",
    "address": "神奈川県茅ケ崎市下寺尾１９２８番地",
    "lat": 35.3649554,
    "lng": 139.4105988,
    "tel": "0467-54-9111",
    "url": "https://www.reijukai.or.jp/",
    "pref": "神奈川県",
    "city": "茅ヶ崎市",
    "category": "tokuyou",
    "serviceType": "介護老人福祉施設",
    "capacity": 0,
    "openDays": [],
    "openDaysNote": ""
  },
  {
    "id": "1472402849",
    "name": "社会福祉法人麗寿会　ふれあいの麗寿",
    "kana": "シャカイフクシホウジン　レイジュカイ　フレアイノレイジュ",
    "address": "神奈川県茅ヶ崎市南湖1-6-15",
    "lat": 35.3288853445595,
    "lng": 139.390578418191,
    "tel": "0467-85-1122",
    "url": "http://www.reijukai.or.jp",
    "pref": "神奈川県",
    "city": "茅ヶ崎市",
    "category": "tokuyou",
    "serviceType": "介護老人福祉施設",
    "capacity": 0,
    "openDays": [],
    "openDaysNote": ""
  },
  {
    "id": "1472402831",
    "name": "社会福祉法人麗寿会　ふれあいの麗寿ユニット型",
    "kana": "シャカイフクシホウジン　レイジュカイ　フレアイノレイジュユニットガタ",
    "address": "神奈川県茅ヶ崎市南湖1-6-15",
    "lat": 35.3288667193259,
    "lng": 139.390643834393,
    "tel": "0467-85-1122",
    "url": "http://www.reijukai.or.jp/",
    "pref": "神奈川県",
    "city": "茅ヶ崎市",
    "category": "tokuyou",
    "serviceType": "介護老人福祉施設",
    "capacity": 0,
    "openDays": [],
    "openDaysNote": ""
  },
  {
    "id": "1472400249",
    "name": "特別養護老人ホーム　アザリアホーム",
    "kana": "トクベツヨウゴロウジンホーム　アザリアホーム",
    "address": "神奈川県茅ケ崎市堤691",
    "lat": 35.3639455,
    "lng": 139.4285121,
    "tel": "0467-54-5811",
    "url": "http://www.azariahome.com/top.html",
    "pref": "神奈川県",
    "city": "茅ヶ崎市",
    "category": "tokuyou",
    "serviceType": "介護老人福祉施設",
    "capacity": 82,
    "openDays": [],
    "openDaysNote": ""
  },
  {
    "id": "1472400157",
    "name": "特別養護老人ホーム　カトレアホーム",
    "kana": "トクベツヨウゴロウジンホーム　カトレアホーム",
    "address": "神奈川県茅ケ崎市下寺尾1835-2",
    "lat": 35.3661942,
    "lng": 139.4118238,
    "tel": "0467-52-8711",
    "url": "https://www.chigasaki-keijukai.com/katorea",
    "pref": "神奈川県",
    "city": "茅ヶ崎市",
    "category": "tokuyou",
    "serviceType": "介護老人福祉施設",
    "capacity": 0,
    "openDays": [],
    "openDaysNote": ""
  },
  {
    "id": "1472401122",
    "name": "特別養護老人ホーム　つるみね",
    "kana": "トクベツヨウゴロウジンホームツルミネ",
    "address": "神奈川県茅ケ崎市西久保５９６",
    "lat": 35.3445456889611,
    "lng": 139.391457521426,
    "tel": "0467-82-9911",
    "url": "http://www.turumine.or.jp/",
    "pref": "神奈川県",
    "city": "茅ヶ崎市",
    "category": "tokuyou",
    "serviceType": "介護老人福祉施設",
    "capacity": 80,
    "openDays": [],
    "openDaysNote": ""
  },
  {
    "id": "1472402229",
    "name": "特別養護老人ホーム　ゆるり",
    "kana": "トクベツヨウゴロウジンホーム　ユルリ",
    "address": "神奈川県茅ケ崎市今宿473-1",
    "lat": 35.3327891,
    "lng": 139.3810235,
    "tel": "0467-84-6211",
    "url": "http://www.syonokai.jp",
    "pref": "神奈川県",
    "city": "茅ヶ崎市",
    "category": "tokuyou",
    "serviceType": "介護老人福祉施設",
    "capacity": 0,
    "openDays": [],
    "openDaysNote": ""
  },
  {
    "id": "1472400256",
    "name": "特別養護老人ホーム　芹沢ホーム",
    "kana": "トクベツヨウゴロウジンホームセリザワホーム",
    "address": "神奈川県茅ケ崎市芹沢９３２",
    "lat": 35.3724913,
    "lng": 139.4238484,
    "tel": "0467-53-1717",
    "url": "http://www.serizawahome.com",
    "pref": "神奈川県",
    "city": "茅ヶ崎市",
    "category": "tokuyou",
    "serviceType": "介護老人福祉施設",
    "capacity": 0,
    "openDays": [],
    "openDaysNote": ""
  },
  {
    "id": "1472400660",
    "name": "特別養護老人ホーム　汐見台パシフィックステージ",
    "kana": "トクベツヨウゴロウジンホーム　シオミダイパシフィックステージ",
    "address": "神奈川県茅ケ崎市汐見台３－１０",
    "lat": 35.3220119,
    "lng": 139.4368401,
    "tel": "0467-88-7881",
    "url": "https://shiomidai.net",
    "pref": "神奈川県",
    "city": "茅ヶ崎市",
    "category": "tokuyou",
    "serviceType": "介護老人福祉施設",
    "capacity": 80,
    "openDays": [],
    "openDaysNote": ""
  },
  {
    "id": "1472401312",
    "name": "特別養護老人ホーム　湘南くすの木",
    "kana": "トクベツヨウゴロウジンホーム　ショウナンクスノキ",
    "address": "神奈川県茅ケ崎市松林3丁目4番6号",
    "lat": 35.3453873591263,
    "lng": 139.424354404894,
    "tel": "0467-52-3647",
    "url": "https://www.shonankusunoki.jp/特別養護老人ホーム湘南くすの木/",
    "pref": "神奈川県",
    "city": "茅ヶ崎市",
    "category": "tokuyou",
    "serviceType": "介護老人福祉施設",
    "capacity": 70,
    "openDays": [],
    "openDaysNote": ""
  },
  {
    "id": "1472400439",
    "name": "特別養護老人ホーム湘南ベルサイド",
    "kana": "トクベツヨウゴロウジンホーム　　ショウナンベルサイド",
    "address": "神奈川県茅ケ崎市中島７３６－１",
    "lat": 35.3285255,
    "lng": 139.3724662,
    "tel": "0467-57-3328",
    "url": "http://www.bellside.or.jp",
    "pref": "神奈川県",
    "city": "茅ヶ崎市",
    "category": "tokuyou",
    "serviceType": "介護老人福祉施設",
    "capacity": 0,
    "openDays": [],
    "openDaysNote": ""
  },
  {
    "id": "1471200533",
    "name": "ユニット型特別養護老人ホーム　きくの郷",
    "kana": "ユニットガタトクベツヨウゴロウジンホームキクノサト",
    "address": "神奈川県高座郡寒川町小動622",
    "lat": 35.3864411,
    "lng": 139.3968603,
    "tel": "0467-75-0964",
    "url": "https://senju-kai.com/特別養護老人ホーム%E3%80%80きくの郷/",
    "pref": "神奈川県",
    "city": "寒川町",
    "category": "tokuyou",
    "serviceType": "介護老人福祉施設",
    "capacity": 0,
    "openDays": [],
    "openDaysNote": ""
  },
  {
    "id": "1471200038",
    "name": "介護老人福祉施設　寒川ホーム",
    "kana": "カイゴロウジンフクシシセツ　サムカワホーム",
    "address": "神奈川県高座郡寒川町小谷1-13-5",
    "lat": 35.3804528,
    "lng": 139.3975714,
    "tel": "0467-75-0785",
    "url": "http://www.samukawahome.com",
    "pref": "神奈川県",
    "city": "寒川町",
    "category": "tokuyou",
    "serviceType": "介護老人福祉施設",
    "capacity": 64,
    "openDays": [],
    "openDaysNote": ""
  },
  {
    "id": "1471200087",
    "name": "特別養護老人ホーム　きくの郷",
    "kana": "トクベツヨウゴロウジンホーム　キクノサト",
    "address": "神奈川県高座郡寒川町小動６２２",
    "lat": 35.3864411,
    "lng": 139.3968603,
    "tel": "0467-75-0964",
    "url": "https://senju-kai.com/特別養護老人ホーム%e3%80%80きくの郷/",
    "pref": "神奈川県",
    "city": "寒川町",
    "category": "tokuyou",
    "serviceType": "介護老人福祉施設",
    "capacity": 60,
    "openDays": [],
    "openDaysNote": ""
  },
  {
    "id": "1472902244",
    "name": "グランモールさくら及川",
    "kana": "グランモールサクラオイガワ",
    "address": "神奈川県厚木市及川字柳流793番",
    "lat": 35.4636864396075,
    "lng": 139.348821475394,
    "tel": "046-243-6230",
    "url": "http://www.sakura-seiwa.jp/",
    "pref": "神奈川県",
    "city": "厚木市",
    "category": "tokuyou",
    "serviceType": "介護老人福祉施設",
    "capacity": 100,
    "openDays": [],
    "openDaysNote": ""
  },
  {
    "id": "1472900990",
    "name": "ムツアイホーム　すこやか",
    "kana": "ムツアイホーム　スコヤカ",
    "address": "神奈川県厚木市下川入１３２１",
    "lat": 35.4927479,
    "lng": 139.351812,
    "tel": "046-244-2311",
    "url": "http://www.mutuaihome.or.jp/",
    "pref": "神奈川県",
    "city": "厚木市",
    "category": "tokuyou",
    "serviceType": "介護老人福祉施設",
    "capacity": 0,
    "openDays": [],
    "openDaysNote": ""
  },
  {
    "id": "1472900065",
    "name": "ムツアイホーム　やすらぎ",
    "kana": "ムツアイホーム　ヤスラギ",
    "address": "神奈川県厚木市下川入1296",
    "lat": 35.4915314,
    "lng": 139.3529008,
    "tel": "046-245-8312",
    "url": "http://www.mutuaihome.or.jp/",
    "pref": "神奈川県",
    "city": "厚木市",
    "category": "tokuyou",
    "serviceType": "介護老人福祉施設",
    "capacity": 0,
    "openDays": [],
    "openDaysNote": ""
  },
  {
    "id": "1472901998",
    "name": "ユニット型介護老人福祉施設玉川グリーンホーム",
    "kana": "ユニットガタカイゴロウジンフクシシセツタマガワグリーンホーム",
    "address": "神奈川県厚木市小野734-2",
    "lat": 35.4340259,
    "lng": 139.3131481,
    "tel": "046-248-7778",
    "url": "https://seiryukai1989.com/",
    "pref": "神奈川県",
    "city": "厚木市",
    "category": "tokuyou",
    "serviceType": "介護老人福祉施設",
    "capacity": 0,
    "openDays": [],
    "openDaysNote": ""
  },
  {
    "id": "1472900206",
    "name": "介護老人福祉施設　玉川グリーンホーム",
    "kana": "カイゴロウジンフクシシセツタマガワグリーンホーム",
    "address": "神奈川県厚木市小野７３４－２",
    "lat": 35.4340259,
    "lng": 139.3131481,
    "tel": "046-248-7778",
    "url": "https://seiryukai1989.com/",
    "pref": "神奈川県",
    "city": "厚木市",
    "category": "tokuyou",
    "serviceType": "介護老人福祉施設",
    "capacity": 0,
    "openDays": [],
    "openDaysNote": ""
  },
  {
    "id": "1472900198",
    "name": "高齢者生活支援施設　けいわ荘",
    "kana": "コウレイシャセイカツシエンシセツ　ケイワソウ",
    "address": "神奈川県厚木市下荻野２１１７－２",
    "lat": 35.4884365,
    "lng": 139.3085792,
    "tel": "046-241-7771",
    "url": "https://k-keiwakai.com/",
    "pref": "神奈川県",
    "city": "厚木市",
    "category": "tokuyou",
    "serviceType": "介護老人福祉施設",
    "capacity": 0,
    "openDays": [],
    "openDaysNote": ""
  },
  {
    "id": "1472900073",
    "name": "高齢者総合福祉サービスセンター　森の里",
    "kana": "コウレイシャソウゴウフクシサービスセンター　モリノサト",
    "address": "神奈川県厚木市下古沢193-1",
    "lat": 35.4495271,
    "lng": 139.3226887,
    "tel": "046-248-8080",
    "url": "http://www.morinosato.jp",
    "pref": "神奈川県",
    "city": "厚木市",
    "category": "tokuyou",
    "serviceType": "介護老人福祉施設",
    "capacity": 50,
    "openDays": [],
    "openDaysNote": ""
  },
  {
    "id": "1472900842",
    "name": "第二森の里",
    "kana": "ダイニモリノサト",
    "address": "神奈川県厚木市飯山3425",
    "lat": 35.4545988,
    "lng": 139.324533,
    "tel": "046-248-3888",
    "url": "https://www.morinosato.jp/morinosato2/",
    "pref": "神奈川県",
    "city": "厚木市",
    "category": "tokuyou",
    "serviceType": "介護老人福祉施設",
    "capacity": 0,
    "openDays": [],
    "openDaysNote": ""
  },
  {
    "id": "1472901436",
    "name": "特別養護老人ホーム　はなの家とむろ",
    "kana": "トクベツヨウゴロウジンホーム　ハナノイエトムロ",
    "address": "神奈川県厚木市戸室5-9-15",
    "lat": 35.4490001,
    "lng": 139.3460456,
    "tel": "046-225-8787",
    "url": "http://koujinkai.tomei.or.jp/",
    "pref": "神奈川県",
    "city": "厚木市",
    "category": "tokuyou",
    "serviceType": "介護老人福祉施設",
    "capacity": 0,
    "openDays": [],
    "openDaysNote": ""
  },
  {
    "id": "1472902871",
    "name": "特別養護老人ホーム　メイサムホール",
    "kana": "トクベツヨウゴロウジンホーム　メイサムホール",
    "address": "神奈川県厚木市愛甲2208番１",
    "lat": 35.4225436,
    "lng": 139.3527264,
    "tel": "046-220-1165",
    "url": "https://meisam.jp/",
    "pref": "神奈川県",
    "city": "厚木市",
    "category": "tokuyou",
    "serviceType": "介護老人福祉施設",
    "capacity": null,
    "openDays": [],
    "openDaysNote": ""
  },
  {
    "id": "1472900214",
    "name": "特別養護老人ホーム　甘露苑",
    "kana": "トクベツヨウゴロウジンホーム　カンロエン",
    "address": "神奈川県厚木市山際1350番1",
    "lat": 35.5061378,
    "lng": 139.3651465,
    "tel": "046-246-0158",
    "url": "https://www.kanroen.net",
    "pref": "神奈川県",
    "city": "厚木市",
    "category": "tokuyou",
    "serviceType": "介護老人福祉施設",
    "capacity": 0,
    "openDays": [],
    "openDaysNote": ""
  },
  {
    "id": "1474101233",
    "name": "太陽の家座間",
    "kana": "タイヨウノイエザマ",
    "address": "神奈川県座間市座間２丁目８６１-１",
    "lat": 35.4804116063703,
    "lng": 139.390194417088,
    "tel": "046-298-5133",
    "url": "http://www.ui21.or.jp/shisetsu/03-zama/",
    "pref": "神奈川県",
    "city": "座間市",
    "category": "tokuyou",
    "serviceType": "介護老人福祉施設",
    "capacity": 100,
    "openDays": [],
    "openDaysNote": ""
  },
  {
    "id": "1474100102",
    "name": "特別養護老人ホーム　ベルホーム",
    "kana": "トクベツヨウゴロウジンホームベルホーム",
    "address": "神奈川県座間市栗原１２６１－１",
    "lat": 35.5011739,
    "lng": 139.4177607,
    "tel": "046-257-1121",
    "url": "https://www.bellhome.or.jp/",
    "pref": "神奈川県",
    "city": "座間市",
    "category": "tokuyou",
    "serviceType": "介護老人福祉施設",
    "capacity": 150,
    "openDays": [],
    "openDaysNote": ""
  },
  {
    "id": "1474100094",
    "name": "特別養護老人ホーム　栗原ホーム",
    "kana": "トクベツヨウゴロウジンホーム　クリハラホーム",
    "address": "神奈川県座間市栗原中央6-1-18",
    "lat": 35.486338732002,
    "lng": 139.416924593254,
    "tel": "046-251-1166",
    "url": "http://www.zama-keishinkai.or.jp/",
    "pref": "神奈川県",
    "city": "座間市",
    "category": "tokuyou",
    "serviceType": "介護老人福祉施設",
    "capacity": 0,
    "openDays": [],
    "openDaysNote": ""
  },
  {
    "id": "1474100060",
    "name": "特別養護老人ホーム　座間苑",
    "kana": "トクベツヨウゴロウジンホーム　ザマエン",
    "address": "神奈川県座間市新田宿151番地",
    "lat": 35.4775359,
    "lng": 139.3861949,
    "tel": "046-256-3363",
    "url": "http://www.zamaen.or.jp/",
    "pref": "神奈川県",
    "city": "座間市",
    "category": "tokuyou",
    "serviceType": "介護老人福祉施設",
    "capacity": 50,
    "openDays": [],
    "openDaysNote": ""
  },
  {
    "id": "1474100672",
    "name": "特別養護老人ホーム　第二座間苑",
    "kana": "トクベツヨウゴロウジンホームダイニザマエン",
    "address": "神奈川県座間市新田宿623",
    "lat": 35.4796634,
    "lng": 139.3805176,
    "tel": "046-200-8338",
    "url": "http://www.zamaen.or.jp/",
    "pref": "神奈川県",
    "city": "座間市",
    "category": "tokuyou",
    "serviceType": "介護老人福祉施設",
    "capacity": 0,
    "openDays": [],
    "openDaysNote": ""
  },
  {
    "id": "1474100631",
    "name": "特別養護老人ホームサライ",
    "kana": "トクベツヨウゴロウジンホームサライ",
    "address": "神奈川県座間市小松原一丁目17番15号",
    "lat": 35.4974996328427,
    "lng": 139.428081425795,
    "tel": "046-298-6511",
    "url": "https://saray-zama.com/",
    "pref": "神奈川県",
    "city": "座間市",
    "category": "tokuyou",
    "serviceType": "介護老人福祉施設",
    "capacity": 80,
    "openDays": [],
    "openDaysNote": ""
  },
  {
    "id": "1472701083",
    "name": "介護老人福祉施設ケアホーム三浦",
    "kana": "カイゴロウジンフクシシセツケアホームミウラ",
    "address": "神奈川県三浦市初声町下宮田3516番地1",
    "lat": 35.1863379402628,
    "lng": 139.630181836185,
    "tel": "046-888-5877",
    "url": "https://miura.tokuyou.jp/",
    "pref": "神奈川県",
    "city": "三浦市",
    "category": "tokuyou",
    "serviceType": "介護老人福祉施設",
    "capacity": 100,
    "openDays": [],
    "openDaysNote": ""
  },
  {
    "id": "1472700119",
    "name": "特別養護老人ホーム　はまゆう",
    "kana": "トクベツヨウゴロウジンホーム　ハマユウ",
    "address": "神奈川県三浦市三崎町諸磯1411‐1",
    "lat": 35.1512199,
    "lng": 139.621359,
    "tel": "046-881-6700",
    "url": "https://hamayu-so.or.jp",
    "pref": "神奈川県",
    "city": "三浦市",
    "category": "tokuyou",
    "serviceType": "介護老人福祉施設",
    "capacity": 0,
    "openDays": [],
    "openDaysNote": ""
  },
  {
    "id": "1472701091",
    "name": "特別養護老人ホーム遊楽の丘",
    "kana": "トクベツヨウゴロウジンホームユウラクノオカ",
    "address": "神奈川県三浦市南下浦町上宮田3451番地",
    "lat": 35.1812675,
    "lng": 139.6509555,
    "tel": "046-888-8000",
    "url": "http://miura-koujyukai.or.jp",
    "pref": "神奈川県",
    "city": "三浦市",
    "category": "tokuyou",
    "serviceType": "介護老人福祉施設",
    "capacity": 0,
    "openDays": [],
    "openDaysNote": ""
  },
  {
    "id": "1472700945",
    "name": "美山ユニット特養ホーム",
    "kana": "ミヤマユニットトクヨウホーム",
    "address": "神奈川県三浦市初声町下宮田1846",
    "lat": 35.1889421,
    "lng": 139.6356205,
    "tel": "046-888-3048",
    "url": "https://miyamaho-mu.jp/",
    "pref": "神奈川県",
    "city": "三浦市",
    "category": "tokuyou",
    "serviceType": "介護老人福祉施設",
    "capacity": 0,
    "openDays": [],
    "openDaysNote": ""
  },
  {
    "id": "1472700101",
    "name": "美山特養ホーム",
    "kana": "ミヤマトクヨウホーム",
    "address": "神奈川県三浦市初声町下宮田１８４６",
    "lat": 35.1889115,
    "lng": 139.6356955,
    "tel": "046-888-3048",
    "url": "https://miyamaho-mu.jp",
    "pref": "神奈川県",
    "city": "三浦市",
    "category": "tokuyou",
    "serviceType": "介護老人福祉施設",
    "capacity": 0,
    "openDays": [],
    "openDaysNote": ""
  },
  {
    "id": "1471400695",
    "name": "ユニット型介護老人福祉施設　バーデンライフ中川",
    "kana": "ユニットガタカイゴロウジンフクシシセツ　バーデンライフナカガワ",
    "address": "神奈川県足柄上郡山北町中川５１１番地",
    "lat": 35.4417656,
    "lng": 139.0462334,
    "tel": "0465-78-3838",
    "url": "http://www.badenlife.jp",
    "pref": "神奈川県",
    "city": "山北町",
    "category": "tokuyou",
    "serviceType": "介護老人福祉施設",
    "capacity": 0,
    "openDays": [],
    "openDaysNote": ""
  },
  {
    "id": "1471400117",
    "name": "介護老人福祉施設　バーデンライフ中川",
    "kana": "カイゴロウジンフクシシセツ　バーデンライフナカガワ",
    "address": "神奈川県足柄上郡山北町中川５１１",
    "lat": 35.4416767,
    "lng": 139.0462029,
    "tel": "0465-78-3838",
    "url": "http://www.badenlife.jp",
    "pref": "神奈川県",
    "city": "山北町",
    "category": "tokuyou",
    "serviceType": "介護老人福祉施設",
    "capacity": 0,
    "openDays": [],
    "openDaysNote": ""
  },
  {
    "id": "1472300183",
    "name": "ルビーホーム",
    "kana": "ルビーホーム",
    "address": "神奈川県小田原市曽我光海２番１",
    "lat": 35.3001985,
    "lng": 139.1819121,
    "tel": "0465-42-1278",
    "url": "http://rubyhome.or.jp/rubyhome.html",
    "pref": "神奈川県",
    "city": "小田原市",
    "category": "tokuyou",
    "serviceType": "介護老人福祉施設",
    "capacity": 80,
    "openDays": [],
    "openDaysNote": ""
  },
  {
    "id": "1472300191",
    "name": "介護老人福祉施設　たちばなの里",
    "kana": "カイゴロウジンフクシシセツ　タチバナノサト",
    "address": "神奈川県小田原市小船213番地1",
    "lat": 35.3018827,
    "lng": 139.2205323,
    "tel": "0465-44-1100",
    "url": "http://www.sakimura-group.com/tachibana/",
    "pref": "神奈川県",
    "city": "小田原市",
    "category": "tokuyou",
    "serviceType": "介護老人福祉施設",
    "capacity": 0,
    "openDays": [],
    "openDaysNote": ""
  },
  {
    "id": "1472302759",
    "name": "介護老人福祉施設　たちばなの里　ユニット",
    "kana": "カイゴロウジンフクシシセツ　タチバナノサト　ユニット",
    "address": "神奈川県小田原市小船213番地1",
    "lat": 35.3018827,
    "lng": 139.2205323,
    "tel": "0465-44-1100",
    "url": "https://www.sakimura-group.com/tachibana/",
    "pref": "神奈川県",
    "city": "小田原市",
    "category": "tokuyou",
    "serviceType": "介護老人福祉施設",
    "capacity": 0,
    "openDays": [],
    "openDaysNote": ""
  },
  {
    "id": "1472300159",
    "name": "介護老人福祉施設　西湘老人ホーム",
    "kana": "カイゴロウジンフクシシセツ　セイショウロウジンホーム",
    "address": "神奈川県小田原市早川853番地",
    "lat": 35.2393306,
    "lng": 139.1440588,
    "tel": "0465-24-1181",
    "url": "http://www.seisyou.or.jp",
    "pref": "神奈川県",
    "city": "小田原市",
    "category": "tokuyou",
    "serviceType": "介護老人福祉施設",
    "capacity": 0,
    "openDays": [],
    "openDaysNote": ""
  },
  {
    "id": "1472300175",
    "name": "介護老人福祉施設　陽光の園",
    "kana": "カイゴロウジンフクシシセツ　ヨウコウノソノ",
    "address": "神奈川県小田原市入生田475番地",
    "lat": 35.2419848192173,
    "lng": 139.11807288109,
    "tel": "0465-24-0013",
    "url": "https://kanagawa-koureikyo.or.jp/tyoujyu/",
    "pref": "神奈川県",
    "city": "小田原市",
    "category": "tokuyou",
    "serviceType": "介護老人福祉施設",
    "capacity": 0,
    "openDays": [],
    "openDaysNote": ""
  },
  {
    "id": "1472302452",
    "name": "特別養護老人ホーム　いこい",
    "kana": "トクベツヨウゴロウジンホーム　イコイ",
    "address": "神奈川県小田原市久野4406番1",
    "lat": 35.2585700668355,
    "lng": 139.115440676446,
    "tel": "0465-43-8011",
    "url": "https://i-koi.net",
    "pref": "神奈川県",
    "city": "小田原市",
    "category": "tokuyou",
    "serviceType": "介護老人福祉施設",
    "capacity": 100,
    "openDays": [],
    "openDaysNote": ""
  },
  {
    "id": "1472302957",
    "name": "特別養護老人ホーム　ジョイヴィレッジ",
    "kana": "トクベツヨウゴロウジンホーム　ジョイウ゛ィレッジ",
    "address": "神奈川県小田原市酒匂956番地1",
    "lat": 35.2775243,
    "lng": 139.1890848,
    "tel": "0465-27-1100",
    "url": "https://www.sakimura-group.com/joyvillage/",
    "pref": "神奈川県",
    "city": "小田原市",
    "category": "tokuyou",
    "serviceType": "介護老人福祉施設",
    "capacity": 0,
    "openDays": [],
    "openDaysNote": ""
  },
  {
    "id": "1472301421",
    "name": "特別養護老人ホーム　芳徳の郷ほなみ",
    "kana": "トクベツヨウゴロウジンホーム　ホウトクノサトホナミ",
    "address": "神奈川県小田原市栢山3565",
    "lat": 35.3072849,
    "lng": 139.1338112,
    "tel": "0465-39-2231",
    "url": "https://shofukai.com",
    "pref": "神奈川県",
    "city": "小田原市",
    "category": "tokuyou",
    "serviceType": "介護老人福祉施設",
    "capacity": 0,
    "openDays": [],
    "openDaysNote": ""
  },
  {
    "id": "1472300167",
    "name": "特別養護老人ホーム潤生園",
    "kana": "トクベツヨウゴロウジンホームジュンセイエン",
    "address": "神奈川県小田原市穴部377",
    "lat": 35.279206,
    "lng": 139.1437953,
    "tel": "0465-34-6001",
    "url": "http://www.junseien.jp",
    "pref": "神奈川県",
    "city": "小田原市",
    "category": "tokuyou",
    "serviceType": "介護老人福祉施設",
    "capacity": 100,
    "openDays": [],
    "openDaysNote": ""
  },
  {
    "id": "1472303708",
    "name": "特別養護老人ホーム宙のとびら",
    "kana": "トクベツヨウゴロウジンホームソラノトビラ",
    "address": "神奈川県小田原市久野498-1",
    "lat": 35.2747219,
    "lng": 139.1529264,
    "tel": "0465-46-7188",
    "url": "http://www.s-koseikai.jp/",
    "pref": "神奈川県",
    "city": "小田原市",
    "category": "tokuyou",
    "serviceType": "介護老人福祉施設",
    "capacity": null,
    "openDays": [],
    "openDaysNote": ""
  },
  {
    "id": "1471400489",
    "name": "特別養護老人ホーム　レストフルヴィレッジ",
    "kana": "トクベツヨウゴロウジンホーム　レストフルウ゛ィレッジ",
    "address": "神奈川県足柄上郡松田町寄３０９０－１",
    "lat": 35.399952,
    "lng": 139.1372693,
    "tel": "0465-88-2910",
    "url": "https://www.restful-village.com/",
    "pref": "神奈川県",
    "city": "松田町",
    "category": "tokuyou",
    "serviceType": "介護老人福祉施設",
    "capacity": 80,
    "openDays": [],
    "openDaysNote": ""
  },
  {
    "id": "1472801933",
    "name": "介護老人福祉施設　ユニット菖蒲荘",
    "kana": "カイゴロウジンフクシシセツ　ユニットショウブソウ",
    "address": "神奈川県秦野市三廻部508-2",
    "lat": 35.3995247856636,
    "lng": 139.162751940862,
    "tel": "0463-88-7651",
    "url": "https://mutsumif.jp",
    "pref": "神奈川県",
    "city": "秦野市",
    "category": "tokuyou",
    "serviceType": "介護老人福祉施設",
    "capacity": 40,
    "openDays": [],
    "openDaysNote": ""
  },
  {
    "id": "1472800182",
    "name": "介護老人福祉施設　寿湘ケ丘老人ホーム",
    "kana": "カイゴロウジンフクシシセツ　ジュショウガオカロウジンホーム",
    "address": "神奈川県秦野市千村497-1",
    "lat": 35.3654217,
    "lng": 139.1721139,
    "tel": "0463-88-4150",
    "url": "http://mutsumif.jp",
    "pref": "神奈川県",
    "city": "秦野市",
    "category": "tokuyou",
    "serviceType": "介護老人福祉施設",
    "capacity": 0,
    "openDays": [],
    "openDaysNote": ""
  },
  {
    "id": "1472800190",
    "name": "介護老人福祉施設菖蒲荘",
    "kana": "カイゴロウジンフクシシセツショウブソウ",
    "address": "神奈川県秦野市三廻部508番地の2",
    "lat": 35.3996280141207,
    "lng": 139.162654553442,
    "tel": "0463-88-7651",
    "url": "https://mutsumif.jp",
    "pref": "神奈川県",
    "city": "秦野市",
    "category": "tokuyou",
    "serviceType": "介護老人福祉施設",
    "capacity": 40,
    "openDays": [],
    "openDaysNote": ""
  },
  {
    "id": "1472800588",
    "name": "湘南老人ホーム　介護老人福祉施設",
    "kana": "ショウナンロウジンホーム　カイゴロウジンフクシシセツ",
    "address": "神奈川県秦野市下1169-2",
    "lat": 35.3563451,
    "lng": 139.2572372,
    "tel": "0463-76-7580",
    "url": "http://www.kanagawa-swc.com/shonan/",
    "pref": "神奈川県",
    "city": "秦野市",
    "category": "tokuyou",
    "serviceType": "介護老人福祉施設",
    "capacity": 0,
    "openDays": [],
    "openDaysNote": ""
  },
  {
    "id": "1472800919",
    "name": "特別養護老人ホーム　はだの松寿苑",
    "kana": "トクベツヨウゴロウジンホーム　ハダノショウジュエン",
    "address": "神奈川県秦野市戸川381-12",
    "lat": 35.3904746,
    "lng": 139.1868402,
    "tel": "0463-74-2003",
    "url": "https://www.hadanosyojuen.com/",
    "pref": "神奈川県",
    "city": "秦野市",
    "category": "tokuyou",
    "serviceType": "介護老人福祉施設",
    "capacity": 100,
    "openDays": [],
    "openDaysNote": ""
  },
  {
    "id": "1472801875",
    "name": "特別養護老人ホーム　秦野陽光園",
    "kana": "トクベツヨウゴロウジンホーム　ハダノヨウコウエン",
    "address": "神奈川県秦野市曽屋1177-1",
    "lat": 35.3810267,
    "lng": 139.2128548,
    "tel": "0463-72-7642",
    "url": "https://www.hakuju-kai.com",
    "pref": "神奈川県",
    "city": "秦野市",
    "category": "tokuyou",
    "serviceType": "介護老人福祉施設",
    "capacity": 100,
    "openDays": [],
    "openDaysNote": ""
  },
  {
    "id": "1472800521",
    "name": "特別養護老人ホーム湖",
    "kana": "トクベツヨウゴロウジンホームミズウミ",
    "address": "神奈川県秦野市平沢入窪2426-1",
    "lat": 35.3571071294068,
    "lng": 139.193050746944,
    "tel": "0463-84-6565",
    "url": "http://www.hadano.or.jp",
    "pref": "神奈川県",
    "city": "秦野市",
    "category": "tokuyou",
    "serviceType": "介護老人福祉施設",
    "capacity": 0,
    "openDays": [],
    "openDaysNote": ""
  },
  {
    "id": "1472500220",
    "name": "介護老人福祉施設　逗子清寿苑",
    "kana": "カイゴロウジンフクシシセツ　ズシセイジュエン",
    "address": "神奈川県逗子市久木8-1290-1",
    "lat": 35.3137206,
    "lng": 139.5783871,
    "tel": "046-873-8902",
    "url": "http://www.hakuou.or.jp",
    "pref": "神奈川県",
    "city": "逗子市",
    "category": "tokuyou",
    "serviceType": "介護老人福祉施設",
    "capacity": 0,
    "openDays": [],
    "openDaysNote": ""
  },
  {
    "id": "1472500089",
    "name": "逗子ホームせせらぎ",
    "kana": "ズシホーム　セセラギ",
    "address": "神奈川県逗子市池子３－７８９",
    "lat": 35.307258,
    "lng": 139.6023019,
    "tel": "046-873-2501",
    "url": "http://www.zushi-seseragi.jp/",
    "pref": "神奈川県",
    "city": "逗子市",
    "category": "tokuyou",
    "serviceType": "介護老人福祉施設",
    "capacity": 80,
    "openDays": [],
    "openDaysNote": ""
  },
  {
    "id": "1472500857",
    "name": "特別養護老人ホーム逗子杜の郷",
    "kana": "トクベツヨウゴロウジンホームズシモリノサト",
    "address": "神奈川県逗子市沼間1-23-1",
    "lat": 35.2965719853802,
    "lng": 139.604884734393,
    "tel": "046-870-6800",
    "url": "http://www.s-aishinkai.jp/morinosato/",
    "pref": "神奈川県",
    "city": "逗子市",
    "category": "tokuyou",
    "serviceType": "介護老人福祉施設",
    "capacity": 0,
    "openDays": [],
    "openDaysNote": ""
  },
  {
    "id": "1472500865",
    "name": "特別養護老人ホーム逗子杜の郷　ユニット型",
    "kana": "トクベツヨウゴロウジンホームズシモリノサト　ユニットガタ",
    "address": "神奈川県逗子市沼間1-23-1",
    "lat": 35.2969923,
    "lng": 139.6046487,
    "tel": "046-870-6800",
    "url": "http://www.s-aishinkai.jp/morinosato/",
    "pref": "神奈川県",
    "city": "逗子市",
    "category": "tokuyou",
    "serviceType": "介護老人福祉施設",
    "capacity": 0,
    "openDays": [],
    "openDaysNote": ""
  },
  {
    "id": "1475500037",
    "name": "みかど荘",
    "kana": "ミカドソウ",
    "address": "神奈川県川崎市宮前区西野川三丁目39番18号",
    "lat": 35.5707138,
    "lng": 139.6104668,
    "tel": "044-766-0511",
    "url": "http://www.kunugizaka.com",
    "pref": "神奈川県",
    "city": "川崎市宮前区",
    "category": "tokuyou",
    "serviceType": "介護老人福祉施設",
    "capacity": 70,
    "openDays": [],
    "openDaysNote": ""
  },
  {
    "id": "1475500177",
    "name": "社会福祉法人セイワ　介護老人福祉施設鷲ヶ峯",
    "kana": "シャカイフクシホウジンセイワ　カイゴロウジンフクシシセツワシガミネ",
    "address": "神奈川県川崎市宮前区菅生ヶ丘13-1",
    "lat": 35.597107,
    "lng": 139.5454273,
    "tel": "044-978-2721",
    "url": "https://www.seiwa-washigamine.jp",
    "pref": "神奈川県",
    "city": "川崎市宮前区",
    "category": "tokuyou",
    "serviceType": "介護老人福祉施設",
    "capacity": 0,
    "openDays": [],
    "openDaysNote": ""
  },
  {
    "id": "1475500342",
    "name": "特別養護老人ホーム　　　富士見プラザ",
    "kana": "トクベツヨウゴロウジンホーム　　フジミプラザ",
    "address": "神奈川県川崎市宮前区南野川1-8-11",
    "lat": 35.5721774,
    "lng": 139.5990098,
    "tel": "044-751-2252",
    "url": "http://www.fujimiplaza.com",
    "pref": "神奈川県",
    "city": "川崎市宮前区",
    "category": "tokuyou",
    "serviceType": "介護老人福祉施設",
    "capacity": 0,
    "openDays": [],
    "openDaysNote": ""
  },
  {
    "id": "1475502017",
    "name": "特別養護老人ホーム　プラチナ・ヴィラ野川",
    "kana": "トクベツヨウゴロウジンホーム　プラチナ・ゔィラノガワ",
    "address": "神奈川県川崎市宮前区南野川3丁目23番地2",
    "lat": 35.5694773836026,
    "lng": 139.611940350926,
    "tel": "044-753-5525",
    "url": "https://www.platinum-villa.jp/nogawa.html",
    "pref": "神奈川県",
    "city": "川崎市宮前区",
    "category": "tokuyou",
    "serviceType": "介護老人福祉施設",
    "capacity": 68,
    "openDays": [],
    "openDaysNote": ""
  },
  {
    "id": "1475502025",
    "name": "特別養護老人ホーム　プラチナ・ヴィラ野川／ユニット型",
    "kana": "トクベツヨウゴロウジンホーム　プラチナ・ゔィラノガワ／ユニットガタ",
    "address": "神奈川県川崎市宮前区南野川3丁目23番地2",
    "lat": 35.5694717699379,
    "lng": 139.61198490869,
    "tel": "044-753-5525",
    "url": "https://www.platinum-villa.jp/nogawa.html",
    "pref": "神奈川県",
    "city": "川崎市宮前区",
    "category": "tokuyou",
    "serviceType": "介護老人福祉施設",
    "capacity": 39,
    "openDays": [],
    "openDaysNote": ""
  },
  {
    "id": "1475500938",
    "name": "特別養護老人ホーム　フレンド神木",
    "kana": "トクベツヨウゴロウジンホーム　フレンドシボク",
    "address": "神奈川県川崎市宮前区神木本町5-12-15",
    "lat": 35.5996066,
    "lng": 139.5805379,
    "tel": "044-871-2010",
    "url": "https://sanshinkai.or.jp/",
    "pref": "神奈川県",
    "city": "川崎市宮前区",
    "category": "tokuyou",
    "serviceType": "介護老人福祉施設",
    "capacity": 0,
    "openDays": [],
    "openDaysNote": ""
  },
  {
    "id": "1475501522",
    "name": "特別養護老人ホーム　わらく桃の丘",
    "kana": "トクベツヨウゴロウジンホーム　ワラクモモノオカ",
    "address": "神奈川県川崎市宮前区野川本町3-17-3",
    "lat": 35.5754897690711,
    "lng": 139.619059288581,
    "tel": "044-777-8910",
    "url": "https://warakukai.or.jp",
    "pref": "神奈川県",
    "city": "川崎市宮前区",
    "category": "tokuyou",
    "serviceType": "介護老人福祉施設",
    "capacity": 0,
    "openDays": [],
    "openDaysNote": ""
  },
  {
    "id": "1475501530",
    "name": "特別養護老人ホーム　わらく桃の丘　（ユニット型）",
    "kana": "トクベツヨウゴロウジンホーム　ワラクモモノオカ(ユニットガタ）",
    "address": "神奈川県川崎市宮前区野川本町3-17-3",
    "lat": 35.5755857582654,
    "lng": 139.619068515387,
    "tel": "044-777-8910",
    "url": "https://warakukai.or.jp",
    "pref": "神奈川県",
    "city": "川崎市宮前区",
    "category": "tokuyou",
    "serviceType": "介護老人福祉施設",
    "capacity": 0,
    "openDays": [],
    "openDaysNote": ""
  },
  {
    "id": "1475101638",
    "name": "ユニット型特別養護老人ホーム　南さいわい",
    "kana": "ユニットガタトクベツヨウゴロウジンホーム　ミナミサイワイ",
    "address": "神奈川県川崎市幸区南幸町3丁目149-3",
    "lat": 35.5351420682074,
    "lng": 139.686865025934,
    "tel": "044-542-3695",
    "url": "http://www.misasakai.or.jp/",
    "pref": "神奈川県",
    "city": "川崎市幸区",
    "category": "tokuyou",
    "serviceType": "介護老人福祉施設",
    "capacity": 42,
    "openDays": [],
    "openDaysNote": ""
  },
  {
    "id": "1475101109",
    "name": "介護老人福祉施設　みんなと暮らす町",
    "kana": "カイゴロウジンフクシシセツ　ミンナトクラスマチ",
    "address": "神奈川県川崎市幸区東古市場１１６－１２",
    "lat": 35.5515027,
    "lng": 139.6883351,
    "tel": "044-520-1901",
    "url": "http://www.taiyonosono.or.jp/",
    "pref": "神奈川県",
    "city": "川崎市幸区",
    "category": "tokuyou",
    "serviceType": "介護老人福祉施設",
    "capacity": 0,
    "openDays": [],
    "openDaysNote": ""
  },
  {
    "id": "1475100077",
    "name": "社会福祉法人セイワ　介護老人福祉施設幸風苑",
    "kana": "シャカイフクシホウジンセイワ　カイゴロウジンフクシシセツコウフウエン",
    "address": "神奈川県川崎市幸区都町64-1",
    "lat": 35.5366494,
    "lng": 139.6873495,
    "tel": "044-511-3141",
    "url": "https://www.seiwa-koufuen.jp",
    "pref": "神奈川県",
    "city": "川崎市幸区",
    "category": "tokuyou",
    "serviceType": "介護老人福祉施設",
    "capacity": 0,
    "openDays": [],
    "openDaysNote": ""
  },
  {
    "id": "1475101604",
    "name": "特別養護老人ホーム　クロスハート幸・川崎",
    "kana": "トクベツヨウゴロウジンホーム　クロスハートサイワイ・カワサキ",
    "address": "神奈川県川崎市幸区河原町1-37",
    "lat": 35.5392928696329,
    "lng": 139.693069178992,
    "tel": "044-533-9400",
    "url": "https://www.shinkoufukushikai.com/",
    "pref": "神奈川県",
    "city": "川崎市幸区",
    "category": "tokuyou",
    "serviceType": "介護老人福祉施設",
    "capacity": 140,
    "openDays": [],
    "openDaysNote": ""
  },
  {
    "id": "1475101612",
    "name": "特別養護老人ホーム　クロスハート幸・川崎　ユニット型",
    "kana": "トクベツヨウゴロウジンホーム　クロスハートサイワイ・カワサキ　ユニットガタ",
    "address": "神奈川県川崎市幸区河原町1-37",
    "lat": 36.5497797,
    "lng": 139.8833129,
    "tel": "044-533-9400",
    "url": "https://www.shinkoufukushikai.com/",
    "pref": "神奈川県",
    "city": "川崎市幸区",
    "category": "tokuyou",
    "serviceType": "介護老人福祉施設",
    "capacity": 42,
    "openDays": [],
    "openDaysNote": ""
  },
  {
    "id": "1475102701",
    "name": "特別養護老人ホーム　しゃんぐりら",
    "kana": "トクベツヨウゴロウジンホームシャングリラ",
    "address": "神奈川県川崎市幸区東小倉6-1",
    "lat": 35.5462193,
    "lng": 139.6765418,
    "tel": "044-520-3860",
    "url": "http://heartful-K.org/",
    "pref": "神奈川県",
    "city": "川崎市幸区",
    "category": "tokuyou",
    "serviceType": "介護老人福祉施設",
    "capacity": null,
    "openDays": [],
    "openDaysNote": ""
  },
  {
    "id": "1475102511",
    "name": "特別養護老人ホーム　夢見ヶ崎",
    "kana": "トクベツヨウゴロウジンホーム　ユメミガサキ",
    "address": "神奈川県川崎市幸区南加瀬1-7-14",
    "lat": 35.5469357,
    "lng": 139.6678049,
    "tel": "044-587-1651",
    "url": "http://www.warakukai.or.jp/facility/facility04.html",
    "pref": "神奈川県",
    "city": "川崎市幸区",
    "category": "tokuyou",
    "serviceType": "介護老人福祉施設",
    "capacity": 0,
    "openDays": [],
    "openDaysNote": ""
  },
  {
    "id": "1475102719",
    "name": "特別養護老人ホームしゃんぐりら（ユニット）",
    "kana": "トクベツヨウゴロウジンホームシャングリラ（ユニット）",
    "address": "神奈川県川崎市幸区東小倉6-1",
    "lat": 35.5462193,
    "lng": 139.6765418,
    "tel": "044-520-3860",
    "url": "http://heartful-K.org/",
    "pref": "神奈川県",
    "city": "川崎市幸区",
    "category": "tokuyou",
    "serviceType": "介護老人福祉施設",
    "capacity": null,
    "openDays": [],
    "openDaysNote": ""
  },
  {
    "id": "1475101620",
    "name": "特別養護老人ホーム南さいわい",
    "kana": "トクベツヨウゴロウジンホームミナミサイワイ",
    "address": "神奈川県川崎市幸区南幸町3丁目149-3",
    "lat": 35.5351507988961,
    "lng": 139.686886483606,
    "tel": "044-542-3695",
    "url": "http://www.misasakai.or.jp",
    "pref": "神奈川県",
    "city": "川崎市幸区",
    "category": "tokuyou",
    "serviceType": "介護老人福祉施設",
    "capacity": 100,
    "openDays": [],
    "openDaysNote": ""
  },
  {
    "id": "1475303101",
    "name": "高津山桜の森",
    "kana": "タカツヤマザクラノモリ",
    "address": "神奈川県川崎市高津区久末1510-10",
    "lat": 35.5628079871111,
    "lng": 139.622456055156,
    "tel": "044-948-5721",
    "url": "https://www.shuhokai.or.jp/",
    "pref": "神奈川県",
    "city": "川崎市高津区",
    "category": "tokuyou",
    "serviceType": "介護老人福祉施設",
    "capacity": 0,
    "openDays": [],
    "openDaysNote": ""
  },
  {
    "id": "1475303119",
    "name": "高津山桜の森／ユニット型",
    "kana": "タカツヤマザクラノモリ／ユニットガタ",
    "address": "神奈川県川崎市高津区久末1510-10",
    "lat": 35.5628167147877,
    "lng": 139.62244532632,
    "tel": "044-948-5721",
    "url": "https://www.shuhokai.or.jp/",
    "pref": "神奈川県",
    "city": "川崎市高津区",
    "category": "tokuyou",
    "serviceType": "介護老人福祉施設",
    "capacity": 0,
    "openDays": [],
    "openDaysNote": ""
  },
  {
    "id": "1475300115",
    "name": "社会福祉法人セイワ　介護老人福祉施設　すえなが",
    "kana": "シャカイフクシホウジンセイワ　カイゴロウジンフクシシセツ　スエナガ",
    "address": "神奈川県川崎市高津区末長1丁目3番13号",
    "lat": 35.5953073,
    "lng": 139.6086461,
    "tel": "044-861-5318",
    "url": "https://www.seiwa-suenaga.jp/",
    "pref": "神奈川県",
    "city": "川崎市高津区",
    "category": "tokuyou",
    "serviceType": "介護老人福祉施設",
    "capacity": 0,
    "openDays": [],
    "openDaysNote": ""
  },
  {
    "id": "1475302285",
    "name": "特別養護老人ホーム　おだかの郷/ユニット型",
    "kana": "トクベツヨウゴロウジンホーム　オダカノサト/ユニットガタ",
    "address": "神奈川県川崎市高津区末長2-20-20",
    "lat": 35.5881282249197,
    "lng": 139.612704603705,
    "tel": "044-982-1110",
    "url": "http://hyakusyunkai.com/",
    "pref": "神奈川県",
    "city": "川崎市高津区",
    "category": "tokuyou",
    "serviceType": "介護老人福祉施設",
    "capacity": 0,
    "openDays": [],
    "openDaysNote": ""
  },
  {
    "id": "1475302293",
    "name": "特別養護老人ホーム　おだかの郷/従来型",
    "kana": "トクベツヨウゴロウジンホーム　オダカノサト/ジュウライガタ",
    "address": "神奈川県川崎市高津区末長2-20-20",
    "lat": 35.5881674870436,
    "lng": 139.612742154631,
    "tel": "044-982-1110",
    "url": "https://hyakusyunkai.com/",
    "pref": "神奈川県",
    "city": "川崎市高津区",
    "category": "tokuyou",
    "serviceType": "介護老人福祉施設",
    "capacity": 0,
    "openDays": [],
    "openDaysNote": ""
  },
  {
    "id": "1475303473",
    "name": "特別養護老人ホーム　蟹ヶ谷(ユニット型）",
    "kana": "トクベツヨウゴロウジンホーム　カニガヤ（ユニットガタ）",
    "address": "神奈川県川崎市高津区蟹ヶ谷265-1",
    "lat": 35.5665168,
    "lng": 139.6315266,
    "tel": "044-948-4972",
    "url": "https://hakusan-fukushikai.com/kanigaya",
    "pref": "神奈川県",
    "city": "川崎市高津区",
    "category": "tokuyou",
    "serviceType": "介護老人福祉施設",
    "capacity": null,
    "openDays": [],
    "openDaysNote": ""
  },
  {
    "id": "1475303465",
    "name": "特別養護老人ホーム　蟹ヶ谷（従来型）",
    "kana": "トクベツヨウゴロウジンホーム　カニガヤ（ジュウライガタ）",
    "address": "神奈川県川崎市高津区蟹ヶ谷265-1",
    "lat": 35.5665168,
    "lng": 139.6315266,
    "tel": "044-948-4972",
    "url": "https://hakusan-fukushikai.com/kanigaya",
    "pref": "神奈川県",
    "city": "川崎市高津区",
    "category": "tokuyou",
    "serviceType": "介護老人福祉施設",
    "capacity": null,
    "openDays": [],
    "openDaysNote": ""
  },
  {
    "id": "1475302996",
    "name": "特別養護老人ホーム　新緑の郷",
    "kana": "トクベツヨウゴロウジンホーム　シンリョクノサト",
    "address": "神奈川県川崎市高津区久末473番地14",
    "lat": 35.5622289277974,
    "lng": 139.617402052659,
    "tel": "044-948-7025",
    "url": "http://www.ryokuseikai-yokohama.jp",
    "pref": "神奈川県",
    "city": "川崎市高津区",
    "category": "tokuyou",
    "serviceType": "介護老人福祉施設",
    "capacity": null,
    "openDays": [],
    "openDaysNote": ""
  },
  {
    "id": "1475303002",
    "name": "特別養護老人ホーム　新緑の郷(ユニット)",
    "kana": "トクベツヨウゴロウジンホーム　シンリョクノサト(ユニット)",
    "address": "神奈川県川崎市高津区久末473番地14",
    "lat": 35.5627124,
    "lng": 139.6171135,
    "tel": "044-948-7025",
    "url": "http://ryokuseikai-yokohama.jp",
    "pref": "神奈川県",
    "city": "川崎市高津区",
    "category": "tokuyou",
    "serviceType": "介護老人福祉施設",
    "capacity": null,
    "openDays": [],
    "openDaysNote": ""
  },
  {
    "id": "1475300149",
    "name": "特別養護老人ホーム　和楽館",
    "kana": "トクベツヨウゴロウジンホーム　ワラクカン",
    "address": "神奈川県川崎市高津区千年１４１－２",
    "lat": 35.5744132,
    "lng": 139.6211653,
    "tel": "044-766-7660",
    "url": "https://www.warakukai.or.jp",
    "pref": "神奈川県",
    "city": "川崎市高津区",
    "category": "tokuyou",
    "serviceType": "介護老人福祉施設",
    "capacity": 60,
    "openDays": [],
    "openDaysNote": ""
  },
  {
    "id": "1475303663",
    "name": "特別養護老人ホーム陽だまりの園",
    "kana": "トクベツヨウゴロウジンホームヒダマリノソノ",
    "address": "神奈川県川崎市高津区諏訪２－１０－１５",
    "lat": 35.6033239,
    "lng": 139.6282447,
    "tel": "044-814-5635",
    "url": "http://www.taiyonosono.or.jp",
    "pref": "神奈川県",
    "city": "川崎市高津区",
    "category": "tokuyou",
    "serviceType": "介護老人福祉施設",
    "capacity": null,
    "openDays": [],
    "openDaysNote": ""
  },
  {
    "id": "1475004287",
    "name": "ユニット型特別養護老人ホーム　川崎ラシクル",
    "kana": "ユニットガタトクベツヨウゴロウジンホーム　カワサキラシクル",
    "address": "神奈川県川崎市川崎区日進町5-1",
    "lat": 35.5259468,
    "lng": 139.6928817,
    "tel": "044-589-3880",
    "url": "https://www.misasakai.or.jp/shisetsu/rashikuru.php",
    "pref": "神奈川県",
    "city": "川崎市川崎区",
    "category": "tokuyou",
    "serviceType": "介護老人福祉施設",
    "capacity": null,
    "openDays": [],
    "openDaysNote": ""
  },
  {
    "id": "1475001416",
    "name": "介護老人福祉施設　ビオラ川崎",
    "kana": "カイゴロウジンフクシシセツ　ビオラカワサキ",
    "address": "神奈川県川崎市川崎区小田栄2-1-7",
    "lat": 35.5123804,
    "lng": 139.7098093,
    "tel": "044-333-0001",
    "url": "https://www.nakagawa-tokushokai.com/",
    "pref": "神奈川県",
    "city": "川崎市川崎区",
    "category": "tokuyou",
    "serviceType": "介護老人福祉施設",
    "capacity": 0,
    "openDays": [],
    "openDaysNote": ""
  },
  {
    "id": "1475000178",
    "name": "介護老人福祉施設　恒春園",
    "kana": "カイゴロウジンフクシシセツ　コウシュンエン",
    "address": "神奈川県川崎市川崎区小川町１０－１０",
    "lat": 35.5264981,
    "lng": 139.6963907,
    "tel": "044-211-1177",
    "url": "https://www.majima-fukushikai.jp",
    "pref": "神奈川県",
    "city": "川崎市川崎区",
    "category": "tokuyou",
    "serviceType": "介護老人福祉施設",
    "capacity": 60,
    "openDays": [],
    "openDaysNote": ""
  },
  {
    "id": "1475000186",
    "name": "介護老人福祉施設　大師の里",
    "kana": "カイゴロウジンフクシシセツダイシノサト",
    "address": "神奈川県川崎市川崎区日ノ出２－７－１",
    "lat": 35.5304091,
    "lng": 139.7430147,
    "tel": "044-266-1191",
    "url": "https://www.majima-fukushikai.jp",
    "pref": "神奈川県",
    "city": "川崎市川崎区",
    "category": "tokuyou",
    "serviceType": "介護老人福祉施設",
    "capacity": 0,
    "openDays": [],
    "openDaysNote": ""
  },
  {
    "id": "1475004691",
    "name": "高齢者福祉施設しおん",
    "kana": "コウレイシャフクシシセツシオン",
    "address": "神奈川県川崎市川崎区本町1-1-1",
    "lat": 35.5331927,
    "lng": 139.7017873,
    "tel": "044-222-7761",
    "url": "https://heartful-k.valentia.design/shion/companyinfo/",
    "pref": "神奈川県",
    "city": "川崎市川崎区",
    "category": "tokuyou",
    "serviceType": "介護老人福祉施設",
    "capacity": 0,
    "openDays": [],
    "openDaysNote": ""
  },
  {
    "id": "1475000129",
    "name": "社会福祉法人セイワ　介護老人福祉施設桜寿園",
    "kana": "シャカイフクシホウジンセイワ　カイゴロウジンフクシシセツオウジュエン",
    "address": "神奈川県川崎市川崎区桜本2-39-4",
    "lat": 35.5211848,
    "lng": 139.726366,
    "tel": "044-287-2566",
    "url": "https://seiwa-oujyuen.jp/index.html",
    "pref": "神奈川県",
    "city": "川崎市川崎区",
    "category": "tokuyou",
    "serviceType": "介護老人福祉施設",
    "capacity": 0,
    "openDays": [],
    "openDaysNote": ""
  },
  {
    "id": "1475002422",
    "name": "特別養護老人ホーム　ゆとりあ",
    "kana": "トクベツヨウゴロウジンホーム　ユトリア",
    "address": "神奈川県川崎市川崎区殿町1-11-10",
    "lat": 35.5401384,
    "lng": 139.743656,
    "tel": "044-277-1165",
    "url": "http://yutoria.jp/",
    "pref": "神奈川県",
    "city": "川崎市川崎区",
    "category": "tokuyou",
    "serviceType": "介護老人福祉施設",
    "capacity": 0,
    "openDays": [],
    "openDaysNote": ""
  },
  {
    "id": "1475002430",
    "name": "特別養護老人ホーム　ゆとりあ",
    "kana": "トクベツヨウゴロウジンホーム　ユトリア",
    "address": "神奈川県川崎市川崎区殿町1-11-10",
    "lat": 35.5401384,
    "lng": 139.743656,
    "tel": "044-277-1165",
    "url": "http://www.yutoria.jp",
    "pref": "神奈川県",
    "city": "川崎市川崎区",
    "category": "tokuyou",
    "serviceType": "介護老人福祉施設",
    "capacity": 0,
    "openDays": [],
    "openDaysNote": ""
  },
  {
    "id": "1475003552",
    "name": "特別養護老人ホーム　境町フェニックス",
    "kana": "トクベツヨウゴロウジンホーム　サカイチョウフェニックス",
    "address": "神奈川県川崎市川崎区境町11-9",
    "lat": 35.52409,
    "lng": 139.7092257,
    "tel": "044-222-3800",
    "url": "http://shafuku-doujinkai.or.jp/",
    "pref": "神奈川県",
    "city": "川崎市川崎区",
    "category": "tokuyou",
    "serviceType": "介護老人福祉施設",
    "capacity": 0,
    "openDays": [],
    "openDaysNote": ""
  },
  {
    "id": "1475003560",
    "name": "特別養護老人ホーム　境町フェニックス（ユニット型）",
    "kana": "トクベツヨウゴロウジンホーム　サカイチョウフェニックス（ユニットガタ）",
    "address": "神奈川県川崎市川崎区境町11-9",
    "lat": 35.52409,
    "lng": 139.7092257,
    "tel": "044-222-3800",
    "url": "http://shafuku-doujinkai.or.jp",
    "pref": "神奈川県",
    "city": "川崎市川崎区",
    "category": "tokuyou",
    "serviceType": "介護老人福祉施設",
    "capacity": 0,
    "openDays": [],
    "openDaysNote": ""
  },
  {
    "id": "1475004279",
    "name": "特別養護老人ホーム　川崎ラシクル",
    "kana": "トクベツヨウゴロウジンホーム　カワサキラシクル",
    "address": "神奈川県川崎市川崎区日進町5-1",
    "lat": 35.5260908727493,
    "lng": 139.692790504894,
    "tel": "044-589-3880",
    "url": "https://www.misasakai.or.jp/shisetsu/rashikuru.php",
    "pref": "神奈川県",
    "city": "川崎市川崎区",
    "category": "tokuyou",
    "serviceType": "介護老人福祉施設",
    "capacity": null,
    "openDays": [],
    "openDaysNote": ""
  },
  {
    "id": "1475400683",
    "name": "よみうりランド花ハウス",
    "kana": "ヨミウリランドハナハウス",
    "address": "神奈川県川崎市多摩区菅仙谷4-1-4",
    "lat": 35.6217665,
    "lng": 139.5197226,
    "tel": "044-969-3111",
    "url": "https://www.hana-house.org",
    "pref": "神奈川県",
    "city": "川崎市多摩区",
    "category": "tokuyou",
    "serviceType": "介護老人福祉施設",
    "capacity": 150,
    "openDays": [],
    "openDaysNote": ""
  },
  {
    "id": "1475400154",
    "name": "介護老人福祉施設　太陽の園",
    "kana": "カイゴロウジンフクシシセツ　タイヨウノソノ",
    "address": "神奈川県川崎市多摩区栗谷２－１６－６",
    "lat": 35.6075803,
    "lng": 139.5346027,
    "tel": "044-955-9181",
    "url": "http://www.taiyonosono.or.jp/",
    "pref": "神奈川県",
    "city": "川崎市多摩区",
    "category": "tokuyou",
    "serviceType": "介護老人福祉施設",
    "capacity": 0,
    "openDays": [],
    "openDaysNote": ""
  },
  {
    "id": "1475403125",
    "name": "特別養護老人ホーム　しゅくがわら三清荘",
    "kana": "トクベツヨウゴロウジンホーム　シュクガワラサンセイソウ",
    "address": "神奈川県川崎市多摩区宿河原６－２０－１９",
    "lat": 35.611231,
    "lng": 139.585176,
    "tel": "044-935-2690",
    "url": "https://www.keizankai.or.jp/kaigo/shukugawara/",
    "pref": "神奈川県",
    "city": "川崎市多摩区",
    "category": "tokuyou",
    "serviceType": "介護老人福祉施設",
    "capacity": null,
    "openDays": [],
    "openDaysNote": ""
  },
  {
    "id": "1475400188",
    "name": "特別養護老人ホーム　菅の里",
    "kana": "トクベツヨウゴロウジンホーム　スゲノサト",
    "address": "神奈川県川崎市多摩区菅北浦３丁目１０番２０号",
    "lat": 35.6314816,
    "lng": 139.5323237,
    "tel": "044-946-3400",
    "url": "https://tokushin-suge.com",
    "pref": "神奈川県",
    "city": "川崎市多摩区",
    "category": "tokuyou",
    "serviceType": "介護老人福祉施設",
    "capacity": 0,
    "openDays": [],
    "openDaysNote": ""
  },
  {
    "id": "1475401913",
    "name": "特別養護老人ホーム　生田広場",
    "kana": "トクベツヨウゴロウジンホーム　イクタヒロバ",
    "address": "神奈川県川崎市多摩区西生田５－２４－２",
    "lat": 35.6057362,
    "lng": 139.5251675,
    "tel": "044-967-0881",
    "url": "http://www.yotsubakai.jp/",
    "pref": "神奈川県",
    "city": "川崎市多摩区",
    "category": "tokuyou",
    "serviceType": "介護老人福祉施設",
    "capacity": 0,
    "openDays": [],
    "openDaysNote": ""
  },
  {
    "id": "1475401921",
    "name": "特別養護老人ホーム　生田広場（ユニット型）",
    "kana": "トクベツヨウゴロウジンホーム　（ユニットガタ）",
    "address": "神奈川県川崎市多摩区西生田5-24-2",
    "lat": 35.6057362,
    "lng": 139.5251675,
    "tel": "044-967-0881",
    "url": "http://yotsubakai.jp/",
    "pref": "神奈川県",
    "city": "川崎市多摩区",
    "category": "tokuyou",
    "serviceType": "介護老人福祉施設",
    "capacity": 0,
    "openDays": [],
    "openDaysNote": ""
  },
  {
    "id": "1475401707",
    "name": "特別養護老人ホームヴィラージュ川崎",
    "kana": "トクベツヨウゴロウジンホーム　ウ゛ィラージュカワサキ",
    "address": "神奈川県川崎市多摩区宿河原1丁目18番1号",
    "lat": 35.6179178183547,
    "lng": 139.577681435582,
    "tel": "044-930-5552",
    "url": "https://biseikai.or.jp/",
    "pref": "神奈川県",
    "city": "川崎市多摩区",
    "category": "tokuyou",
    "serviceType": "介護老人福祉施設",
    "capacity": 0,
    "openDays": [],
    "openDaysNote": ""
  },
  {
    "id": "1475402572",
    "name": "特別養護老人ホームヴィラージュ川崎（ユニット型）",
    "kana": "トクベツヨウゴロウジンホームウ”ィラージュカワサキ（ユニットガタ）",
    "address": "神奈川県川崎市多摩区宿河原一丁目18番1号",
    "lat": 35.6179181,
    "lng": 139.5776179,
    "tel": "044-930-5552",
    "url": "https://biseikai.or.jp/",
    "pref": "神奈川県",
    "city": "川崎市多摩区",
    "category": "tokuyou",
    "serviceType": "介護老人福祉施設",
    "capacity": 0,
    "openDays": [],
    "openDaysNote": ""
  },
  {
    "id": "1475401996",
    "name": "特別養護老人ホームまほろば",
    "kana": "トクベツヨウゴロウジンホームマホロバ",
    "address": "神奈川県川崎市多摩区生田1-4-17",
    "lat": 35.6261821201755,
    "lng": 139.541749419946,
    "tel": "044-945-6000",
    "url": "http://www.mizuho-care.jp/",
    "pref": "神奈川県",
    "city": "川崎市多摩区",
    "category": "tokuyou",
    "serviceType": "介護老人福祉施設",
    "capacity": 0,
    "openDays": [],
    "openDaysNote": ""
  },
  {
    "id": "1475401988",
    "name": "特別養護老人ホーム生田まほろば",
    "kana": "トクベツヨウゴロウジンホームイクタマホロバ",
    "address": "神奈川県川崎市多摩区生田1-4-17",
    "lat": 35.6261855057981,
    "lng": 139.541744874205,
    "tel": "044-945-6000",
    "url": "http://www.mizuho-care.jp/",
    "pref": "神奈川県",
    "city": "川崎市多摩区",
    "category": "tokuyou",
    "serviceType": "介護老人福祉施設",
    "capacity": 0,
    "openDays": [],
    "openDaysNote": ""
  },
  {
    "id": "1475402911",
    "name": "特別養護老人ホーム多摩川の里",
    "kana": "トクベツヨウゴロウジンホームタマガワノサト",
    "address": "神奈川県川崎市多摩区中野島6-13-5",
    "lat": 35.6321710655975,
    "lng": 139.551813488837,
    "tel": "044-935-5200",
    "url": "http://www.kfj.or.jp/",
    "pref": "神奈川県",
    "city": "川崎市多摩区",
    "category": "tokuyou",
    "serviceType": "介護老人福祉施設",
    "capacity": null,
    "openDays": [],
    "openDaysNote": ""
  },
  {
    "id": "1475203111",
    "name": "社会福祉法人セイワ　介護老人福祉施設すみよし",
    "kana": "シャカイフクシホウジンセイワ　カイゴロウジンフクシシセツスミヨシ",
    "address": "神奈川県川崎市中原区木月祗園町2-1",
    "lat": 35.5689487,
    "lng": 139.6486234,
    "tel": "044-455-0880",
    "url": "https://www.seiwa-sumiyoshi.jp",
    "pref": "神奈川県",
    "city": "川崎市中原区",
    "category": "tokuyou",
    "serviceType": "介護老人福祉施設",
    "capacity": 0,
    "openDays": [],
    "openDaysNote": ""
  },
  {
    "id": "1475200612",
    "name": "社会福祉法人セイワ　介護老人福祉施設みやうち",
    "kana": "シャカイフクシホウジンセイワ　カイゴロウジンフクシシセツミヤウチ",
    "address": "神奈川県川崎市中原区宮内１－２５－１",
    "lat": 35.5944209,
    "lng": 139.6410702,
    "tel": "044-740-2810",
    "url": "https://seiwa-miyauchi.jp/",
    "pref": "神奈川県",
    "city": "川崎市中原区",
    "category": "tokuyou",
    "serviceType": "介護老人福祉施設",
    "capacity": 0,
    "openDays": [],
    "openDaysNote": ""
  },
  {
    "id": "1475202956",
    "name": "特別養護老人ホーム　桜の丘（ユニット型）",
    "kana": "トクベツヨウゴロウジンホーム　サクラノオカ（ユニットガタ）",
    "address": "神奈川県川崎市中原区井田3-16-1",
    "lat": 35.5637898,
    "lng": 139.6362492,
    "tel": "044-948-6350",
    "url": "http://hakusan-fukushikai.com/",
    "pref": "神奈川県",
    "city": "川崎市中原区",
    "category": "tokuyou",
    "serviceType": "介護老人福祉施設",
    "capacity": 0,
    "openDays": [],
    "openDaysNote": ""
  },
  {
    "id": "1475202949",
    "name": "特別養護老人ホーム　桜の丘（従来型）",
    "kana": "トクベツヨウゴロウジンホーム　サクラノオカ（ジュウライガタ）",
    "address": "神奈川県川崎市中原区井田３－１６－１",
    "lat": 35.5637898,
    "lng": 139.6362492,
    "tel": "044-948-6350",
    "url": "http://hakusan-fukushikai.com/",
    "pref": "神奈川県",
    "city": "川崎市中原区",
    "category": "tokuyou",
    "serviceType": "介護老人福祉施設",
    "capacity": 0,
    "openDays": [],
    "openDaysNote": ""
  },
  {
    "id": "1475200802",
    "name": "特別養護老人ホーム　等々力",
    "kana": "トクベツヨウゴロウジンホームトドロキ",
    "address": "神奈川県川崎市中原区宮内4丁目19番26号",
    "lat": 35.5880719,
    "lng": 139.6453175,
    "tel": "044-753-2260",
    "url": "https://kasugakai１．wixsite.com/kasugakai",
    "pref": "神奈川県",
    "city": "川崎市中原区",
    "category": "tokuyou",
    "serviceType": "介護老人福祉施設",
    "capacity": 0,
    "openDays": [],
    "openDaysNote": ""
  },
  {
    "id": "1475203319",
    "name": "特別養護老人ホームヴィラージュ中原",
    "kana": "トクベツヨウゴロウジンホーム　ウ゛ィラージュナカハラ",
    "address": "神奈川県川崎市中原区上小田中1-28-55",
    "lat": 35.5919315696035,
    "lng": 139.630800393254,
    "tel": "044-789-9188",
    "url": "https://info-nakahara.wixsite.com/vnakahara",
    "pref": "神奈川県",
    "city": "川崎市中原区",
    "category": "tokuyou",
    "serviceType": "介護老人福祉施設",
    "capacity": 0,
    "openDays": [],
    "openDaysNote": ""
  },
  {
    "id": "1475203103",
    "name": "特別養護老人ホームひらまの里",
    "kana": "トクベツヨウゴロウジンホームヒラマノサト",
    "address": "神奈川県川崎市中原区上平間611-1",
    "lat": 35.5568999,
    "lng": 139.6815649,
    "tel": "044-544-3994",
    "url": "http://kfj.or.jp/aged/",
    "pref": "神奈川県",
    "city": "川崎市中原区",
    "category": "tokuyou",
    "serviceType": "介護老人福祉施設",
    "capacity": null,
    "openDays": [],
    "openDaysNote": ""
  },
  {
    "id": "1475600092",
    "name": "特別養護老人ホーム　あさおの丘",
    "kana": "トクベツヨウゴロウジンホーム　アサオノオカ",
    "address": "神奈川県川崎市麻生区栗木台1-12-1",
    "lat": 35.6078019,
    "lng": 139.4763757,
    "tel": "044-988-5010",
    "url": "http://www.heartful-k.org/",
    "pref": "神奈川県",
    "city": "川崎市麻生区",
    "category": "tokuyou",
    "serviceType": "介護老人福祉施設",
    "capacity": 70,
    "openDays": [],
    "openDaysNote": ""
  },
  {
    "id": "1475601926",
    "name": "特別養護老人ホーム　みどりの丘",
    "kana": "トクベツヨウゴロウジンホーム　ミドリノオカ",
    "address": "神奈川県川崎市麻生区王禅寺1241-38",
    "lat": 35.5918075,
    "lng": 139.525768,
    "tel": "044-955-1746",
    "url": "http://midorinooka.jp",
    "pref": "神奈川県",
    "city": "川崎市麻生区",
    "category": "tokuyou",
    "serviceType": "介護老人福祉施設",
    "capacity": 0,
    "openDays": [],
    "openDaysNote": ""
  },
  {
    "id": "1475601892",
    "name": "特別養護老人ホーム　ルピナス王禅寺",
    "kana": "トクベツヨウゴロウジンホーム　ルピナスオウゼンジ",
    "address": "神奈川県川崎市麻生区王禅寺東3丁目2-36",
    "lat": 35.5881665993466,
    "lng": 139.522471204369,
    "tel": "044-299-8886",
    "url": "http://www.seisyokai.com",
    "pref": "神奈川県",
    "city": "川崎市麻生区",
    "category": "tokuyou",
    "serviceType": "介護老人福祉施設",
    "capacity": 0,
    "openDays": [],
    "openDaysNote": ""
  },
  {
    "id": "1475601900",
    "name": "特別養護老人ホーム　ルピナス王禅寺（ユニット型）",
    "kana": "トクベツヨウゴロウジンホーム　ルピナスオウゼンジ（ユニットガタ）",
    "address": "神奈川県川崎市麻生区王禅寺東3丁目2－36",
    "lat": 35.5880968,
    "lng": 139.5220045,
    "tel": "044-299-8886",
    "url": "http://www.seisyokai.com",
    "pref": "神奈川県",
    "city": "川崎市麻生区",
    "category": "tokuyou",
    "serviceType": "介護老人福祉施設",
    "capacity": 0,
    "openDays": [],
    "openDaysNote": ""
  },
  {
    "id": "1475602080",
    "name": "特別養護老人ホーム　レジデンシャル百合ヶ丘",
    "kana": "トクベツヨウゴロウジンホーム　レジデンシャルユリガオカ",
    "address": "神奈川県川崎市麻生区東百合丘1-12-35",
    "lat": 35.6014896,
    "lng": 139.5250455,
    "tel": "044-455-7150",
    "url": "http://www.ikumeikai.net/yurigaoka/",
    "pref": "神奈川県",
    "city": "川崎市麻生区",
    "category": "tokuyou",
    "serviceType": "介護老人福祉施設",
    "capacity": 0,
    "openDays": [],
    "openDaysNote": ""
  },
  {
    "id": "1475602098",
    "name": "特別養護老人ホーム　レジデンシャル百合ヶ丘(ユニット型）",
    "kana": "トクベツヨウゴロウジンホーム　レジデンシャルユリガオカ（ユニットガタ）",
    "address": "神奈川県川崎市麻生区東百合丘1-12-35",
    "lat": 35.6014896,
    "lng": 139.5250455,
    "tel": "044-455-7150",
    "url": "http://www.ikumeikai.net/yurigaoka/",
    "pref": "神奈川県",
    "city": "川崎市麻生区",
    "category": "tokuyou",
    "serviceType": "介護老人福祉施設",
    "capacity": 0,
    "openDays": [],
    "openDaysNote": ""
  },
  {
    "id": "1475600126",
    "name": "特別養護老人ホーム　柿生アルナ園",
    "kana": "トクベツヨウゴロウジンホーム　カキオアルナエン",
    "address": "神奈川県川崎市麻生区上麻生５－１９－１０",
    "lat": 35.5909198,
    "lng": 139.5010805,
    "tel": "044-987-0021",
    "url": "http://www.arunaen.jp",
    "pref": "神奈川県",
    "city": "川崎市麻生区",
    "category": "tokuyou",
    "serviceType": "介護老人福祉施設",
    "capacity": null,
    "openDays": [],
    "openDaysNote": ""
  },
  {
    "id": "1475600043",
    "name": "特別養護老人ホーム　金井原苑",
    "kana": "トクベツヨウゴロウジンホーム　カナイバラエン",
    "address": "神奈川県川崎市麻生区片平1430",
    "lat": 35.6023864,
    "lng": 139.4794758,
    "tel": "044-986-1560",
    "url": "https://kanaibara.or.jp",
    "pref": "神奈川県",
    "city": "川崎市麻生区",
    "category": "tokuyou",
    "serviceType": "介護老人福祉施設",
    "capacity": 98,
    "openDays": [],
    "openDaysNote": ""
  },
  {
    "id": "1475601033",
    "name": "特別養護老人ホーム　潮見台みどりの丘",
    "kana": "トクベツヨウゴロウジンホーム　シオミダイミドリノオカ",
    "address": "神奈川県川崎市麻生区王禅寺1241-38",
    "lat": 35.5918075,
    "lng": 139.525768,
    "tel": "044-955-1746",
    "url": "http://midorinooka.jp",
    "pref": "神奈川県",
    "city": "川崎市麻生区",
    "category": "tokuyou",
    "serviceType": "介護老人福祉施設",
    "capacity": 0,
    "openDays": [],
    "openDaysNote": ""
  },
  {
    "id": "1475600134",
    "name": "特別養護老人ホーム　虹の里",
    "kana": "トクベツヨウゴロウジンホームニジノサト",
    "address": "神奈川県川崎市麻生区王禅寺963－26",
    "lat": 35.5839529,
    "lng": 139.5232768,
    "tel": "044-986-1007",
    "url": "http://nijinosato.or.jp/",
    "pref": "神奈川県",
    "city": "川崎市麻生区",
    "category": "tokuyou",
    "serviceType": "介護老人福祉施設",
    "capacity": 108,
    "openDays": [],
    "openDaysNote": ""
  },
  {
    "id": "1475602536",
    "name": "特別養護老人ホームまごころタウン＊新百合ヶ丘",
    "kana": "マゴコロタウンシンユリガオカ",
    "address": "神奈川県川崎市麻生区百合丘3丁目15－1",
    "lat": 35.5997656,
    "lng": 139.5212783,
    "tel": "044-281-4348",
    "url": "https://shinyuri.magokoro-w.com/",
    "pref": "神奈川県",
    "city": "川崎市麻生区",
    "category": "tokuyou",
    "serviceType": "介護老人福祉施設",
    "capacity": 0,
    "openDays": [],
    "openDaysNote": ""
  },
  {
    "id": "1475602544",
    "name": "特別養護老人ホームまごころタウン＊新百合ヶ丘(ユニット型）",
    "kana": "トクベツヨウゴロウジンホームマゴコロタウン＊シンユリガオカ（ユニットガタ）",
    "address": "神奈川県川崎市麻生区百合丘3丁目15－1",
    "lat": 35.5997656,
    "lng": 139.5212783,
    "tel": "044-281-4348",
    "url": "https://shinyuri.magokoro-w.com/",
    "pref": "神奈川県",
    "city": "川崎市麻生区",
    "category": "tokuyou",
    "serviceType": "介護老人福祉施設",
    "capacity": 0,
    "openDays": [],
    "openDaysNote": ""
  },
  {
    "id": "1475601637",
    "name": "特別養護老人ホームラスール麻生（ユニット型）",
    "kana": "トクベツヨウゴロウジンホームラスールアサオ（ユニットガタ）",
    "address": "神奈川県川崎市麻生区白山一丁目1番1号",
    "lat": 35.5908015,
    "lng": 139.514518,
    "tel": "044-712-7722",
    "url": "http://hakusan-fukushikai.com",
    "pref": "神奈川県",
    "city": "川崎市麻生区",
    "category": "tokuyou",
    "serviceType": "介護老人福祉施設",
    "capacity": 0,
    "openDays": [],
    "openDaysNote": ""
  },
  {
    "id": "1475601629",
    "name": "特別養護老人ホームラスール麻生（従来型）",
    "kana": "トクベツヨウゴロウジンホームラスールアサオ（ジュウライガタ）",
    "address": "神奈川県川崎市麻生区白山1-1-3",
    "lat": 35.5909459,
    "lng": 139.5143271,
    "tel": "044-712-7722",
    "url": "http://hakusan-fukushikai.com",
    "pref": "神奈川県",
    "city": "川崎市麻生区",
    "category": "tokuyou",
    "serviceType": "介護老人福祉施設",
    "capacity": 88,
    "openDays": [],
    "openDaysNote": ""
  },
  {
    "id": "1475601132",
    "name": "特別養護老人ホーム片平長寿の里",
    "kana": "トクベツヨウゴロウジンホームカタヒラチョウジュノサト",
    "address": "神奈川県川崎市麻生区片平１８２９",
    "lat": 35.595157,
    "lng": 139.4846035,
    "tel": "044-455-4188",
    "url": "http://kfj.or.jp",
    "pref": "神奈川県",
    "city": "川崎市麻生区",
    "category": "tokuyou",
    "serviceType": "介護老人福祉施設",
    "capacity": 0,
    "openDays": [],
    "openDaysNote": ""
  },
  {
    "id": "1475601140",
    "name": "特別養護老人ホーム片平長寿の里",
    "kana": "トクベツヨウゴロウジンホームカタヒラチョウジュノサト",
    "address": "神奈川県川崎市麻生区片平１８２９",
    "lat": 35.595157,
    "lng": 139.4846035,
    "tel": "044-455-4188",
    "url": "http://www.kfj.or.jp",
    "pref": "神奈川県",
    "city": "川崎市麻生区",
    "category": "tokuyou",
    "serviceType": "介護老人福祉施設",
    "capacity": 0,
    "openDays": [],
    "openDaysNote": ""
  },
  {
    "id": "1472600640",
    "name": "リバーサイド田名ホーム",
    "kana": "リバーサイドタナホーム",
    "address": "神奈川県相模原市中央区田名8512-1",
    "lat": 35.5363611,
    "lng": 139.3467802,
    "tel": "042-778-2882",
    "url": "http://aisenkai-riverside.jp/publics/index/28",
    "pref": "神奈川県",
    "city": "相模原市中央区",
    "category": "tokuyou",
    "serviceType": "介護老人福祉施設",
    "capacity": 50,
    "openDays": [],
    "openDaysNote": ""
  },
  {
    "id": "1472600020",
    "name": "社会福祉法人　上溝緑寿会　コスモスセンター",
    "kana": "シャカイフクシホウジンカミミゾリョクジュカイ　コスモスセンター",
    "address": "神奈川県相模原市中央区上溝５４２３－５",
    "lat": 35.5545766,
    "lng": 139.3666526,
    "tel": "042-768-1801",
    "url": "https://cosmos-c.or.jp/2024wp/cosmos-center/",
    "pref": "神奈川県",
    "city": "相模原市中央区",
    "category": "tokuyou",
    "serviceType": "介護老人福祉施設",
    "capacity": 0,
    "openDays": [],
    "openDaysNote": ""
  },
  {
    "id": "1472611407",
    "name": "特別養護老人ホーム　しょうじゅの里相模原",
    "kana": "トクベツヨウゴロウジンホーム　ショウジュノサトサガミハラ",
    "address": "神奈川県相模原市中央区すすきの町22-12",
    "lat": 35.5895172,
    "lng": 139.3689639,
    "tel": "042-704-8817",
    "url": "http://www.akaedakai.com/sagamihara/index.html",
    "pref": "神奈川県",
    "city": "相模原市中央区",
    "category": "tokuyou",
    "serviceType": "介護老人福祉施設",
    "capacity": null,
    "openDays": [],
    "openDaysNote": ""
  },
  {
    "id": "1472600681",
    "name": "特別養護老人ホーム　はあとぴあ",
    "kana": "トクベツヨウゴロウジンホームハアトピア",
    "address": "神奈川県相模原市中央区清新7丁目4番1号",
    "lat": 35.5737399,
    "lng": 139.3642217,
    "tel": "042-786-8320",
    "url": "https://chisenkai.or.jp/heartpia/",
    "pref": "神奈川県",
    "city": "相模原市中央区",
    "category": "tokuyou",
    "serviceType": "介護老人福祉施設",
    "capacity": 0,
    "openDays": [],
    "openDaysNote": ""
  },
  {
    "id": "1472601846",
    "name": "特別養護老人ホーム　みたけ",
    "kana": "トクベツヨウゴロウジンホーム　ミタケ",
    "address": "神奈川県相模原市中央区下九沢980",
    "lat": 35.5744324,
    "lng": 139.3456789,
    "tel": "042-700-0277",
    "url": "https://mitake-h.com/",
    "pref": "神奈川県",
    "city": "相模原市中央区",
    "category": "tokuyou",
    "serviceType": "介護老人福祉施設",
    "capacity": 0,
    "openDays": [],
    "openDaysNote": ""
  },
  {
    "id": "1472600657",
    "name": "特別養護老人ホーム　塩田ホーム",
    "kana": "トクベツヨウゴロウジンホーム　シオダホーム",
    "address": "神奈川県相模原市中央区田名塩田2-5-24",
    "lat": 35.534939,
    "lng": 139.3568458,
    "tel": "042-778-4090",
    "url": "https://www.daichinokai.jp/profile/shiodahome/",
    "pref": "神奈川県",
    "city": "相模原市中央区",
    "category": "tokuyou",
    "serviceType": "介護老人福祉施設",
    "capacity": 51,
    "openDays": [],
    "openDaysNote": ""
  },
  {
    "id": "1472605904",
    "name": "特別養護老人ホーム　塩田ホーム（ユニット型）",
    "kana": "トクベツヨウゴロウジンホーム　シオダホーム（ユニットガタ）",
    "address": "神奈川県相模原市中央区田名塩田2-5-24特別養護老人ホーム　塩田ホーム 特別養護老人ホーム　塩田ホーム",
    "lat": 35.534939,
    "lng": 139.3568458,
    "tel": "042-778-4090",
    "url": "https://www.daichinokai.jp/profile/shiodahome/",
    "pref": "神奈川県",
    "city": "相模原市中央区",
    "category": "tokuyou",
    "serviceType": "介護老人福祉施設",
    "capacity": 0,
    "openDays": [],
    "openDaysNote": ""
  },
  {
    "id": "1472600699",
    "name": "特別養護老人ホーム　泰政園",
    "kana": "トクベツヨウゴロウジンホーム　タイセイエン",
    "address": "神奈川県相模原市中央区中央5-3-18",
    "lat": 35.5704072,
    "lng": 139.364769,
    "tel": "042-751-7732",
    "url": "http://taiseikai-web.com",
    "pref": "神奈川県",
    "city": "相模原市中央区",
    "category": "tokuyou",
    "serviceType": "介護老人福祉施設",
    "capacity": 0,
    "openDays": [],
    "openDaysNote": ""
  },
  {
    "id": "1472607843",
    "name": "特別養護老人ホーム　大野北誠心園",
    "kana": "トクベツヨウゴロウジンホーム　オオノキタセイシンエン",
    "address": "神奈川県相模原市中央区東淵野辺5-24-13大野北誠心園 大野北誠心園",
    "lat": 35.5611599,
    "lng": 139.406771,
    "tel": "042-758-7733",
    "url": "https://www.sankokai.com",
    "pref": "神奈川県",
    "city": "相模原市中央区",
    "category": "tokuyou",
    "serviceType": "介護老人福祉施設",
    "capacity": null,
    "openDays": [],
    "openDaysNote": ""
  },
  {
    "id": "1472606688",
    "name": "特別養護老人ホームマナーハウス横山台",
    "kana": "トクベツヨウゴロウジンホームマナーハウスヨコヤマダイ",
    "address": "神奈川県相模原市中央区横山台１－２８－３",
    "lat": 35.5677701294972,
    "lng": 139.356115379762,
    "tel": "042-759-5122",
    "url": "https://www.soukafukushikai.jp",
    "pref": "神奈川県",
    "city": "相模原市中央区",
    "category": "tokuyou",
    "serviceType": "介護老人福祉施設",
    "capacity": 120,
    "openDays": [],
    "openDaysNote": ""
  },
  {
    "id": "1472604147",
    "name": "特別養護老人ホーム縁ＪＯＹ",
    "kana": "トクベツヨウゴロウジンホ-ムエンジョイ",
    "address": "神奈川県相模原市中央区田名7691番地1",
    "lat": 35.5457651,
    "lng": 139.3456189,
    "tel": "042-764-1110",
    "url": "https://fukushimura.or.jp/facilities/enjoy/",
    "pref": "神奈川県",
    "city": "相模原市中央区",
    "category": "tokuyou",
    "serviceType": "介護老人福祉施設",
    "capacity": 90,
    "openDays": [],
    "openDaysNote": ""
  },
  {
    "id": "1472600616",
    "name": "シルバータウン相模原特別養護老人ホーム",
    "kana": "シルバータウンサガミハラトクベツヨウゴロウジンホーム",
    "address": "神奈川県相模原市南区大野台５－１３－７",
    "lat": 35.5504059,
    "lng": 139.4089545,
    "tel": "042-755-0301",
    "url": "http://www.kanagawa-doen.jp/silvertown-sagamihara/",
    "pref": "神奈川県",
    "city": "相模原市南区",
    "category": "tokuyou",
    "serviceType": "介護老人福祉施設",
    "capacity": 0,
    "openDays": [],
    "openDaysNote": ""
  },
  {
    "id": "1472605953",
    "name": "シルバータウン相模原特別養護老人ホーム（ユニット）",
    "kana": "シルバータウンサガミハラトクベツヨウゴロウジンホーム（ユニット）",
    "address": "神奈川県相模原市南区大野台5-13-7",
    "lat": 35.5499726,
    "lng": 139.4091656,
    "tel": "042-755-0301",
    "url": "http://www.kanagawa-doen.jp/silvertown-sagamihara/",
    "pref": "神奈川県",
    "city": "相模原市南区",
    "category": "tokuyou",
    "serviceType": "介護老人福祉施設",
    "capacity": 0,
    "openDays": [],
    "openDaysNote": ""
  },
  {
    "id": "1472606019",
    "name": "はなさか",
    "kana": "ハナサカ",
    "address": "神奈川県相模原市南区磯部4363番",
    "lat": 35.5110477,
    "lng": 139.3908545,
    "tel": "046-259-6300",
    "url": "https://www.kotonear.com/houtokukai/",
    "pref": "神奈川県",
    "city": "相模原市南区",
    "category": "tokuyou",
    "serviceType": "介護老人福祉施設",
    "capacity": 100,
    "openDays": [],
    "openDaysNote": ""
  },
  {
    "id": "1472607397",
    "name": "介護老人福祉施設　ラペ相模原",
    "kana": "カイゴロウジンフクシシセツ　ラペサガミハラ",
    "address": "神奈川県相模原市南区当麻３５３９－１",
    "lat": 35.5209840289261,
    "lng": 139.368932062952,
    "tel": "042-778-5890",
    "url": "https://ryokujyukai.com/",
    "pref": "神奈川県",
    "city": "相模原市南区",
    "category": "tokuyou",
    "serviceType": "介護老人福祉施設",
    "capacity": 0,
    "openDays": [],
    "openDaysNote": ""
  },
  {
    "id": "1472605532",
    "name": "相陽台ホーム",
    "kana": "ソウヨウダイホーム",
    "address": "神奈川県相模原市南区下溝4303",
    "lat": 35.5235119,
    "lng": 139.3867795,
    "tel": "042-777-3501",
    "url": "https://www.souyoudaihome.com/",
    "pref": "神奈川県",
    "city": "相模原市南区",
    "category": "tokuyou",
    "serviceType": "介護老人福祉施設",
    "capacity": 90,
    "openDays": [],
    "openDaysNote": ""
  },
  {
    "id": "1472600624",
    "name": "特別養護老人ホーム　あさみぞホーム",
    "kana": "トクベツヨウゴロウジンホーム　アサミゾホーム",
    "address": "神奈川県相模原市南区下溝2305番地",
    "lat": 35.5385231,
    "lng": 139.3809296,
    "tel": "042-778-1811",
    "url": "https://www.kirakukai.or.jp/jigyou/home",
    "pref": "神奈川県",
    "city": "相模原市南区",
    "category": "tokuyou",
    "serviceType": "介護老人福祉施設",
    "capacity": 0,
    "openDays": [],
    "openDaysNote": ""
  },
  {
    "id": "1472600731",
    "name": "特別養護老人ホーム　グレープの里",
    "kana": "トクベツヨウゴロウジンホーム　グレープノサト",
    "address": "神奈川県相模原市南区西大沼5-4-20",
    "lat": 35.5366965,
    "lng": 139.413349,
    "tel": "042-741-0054",
    "url": "https://www.grape-sato.jp/",
    "pref": "神奈川県",
    "city": "相模原市南区",
    "category": "tokuyou",
    "serviceType": "介護老人福祉施設",
    "capacity": 0,
    "openDays": [],
    "openDaysNote": ""
  },
  {
    "id": "1472603024",
    "name": "特別養護老人ホーム　こもれび",
    "kana": "トクベツヨウゴロウジンホーム　コモレビ",
    "address": "神奈川県相模原市南区大野台４－４－３６",
    "lat": 35.5476926,
    "lng": 139.402644,
    "tel": "042-757-7330",
    "url": "https://www.comolebi.org/",
    "pref": "神奈川県",
    "city": "相模原市南区",
    "category": "tokuyou",
    "serviceType": "介護老人福祉施設",
    "capacity": 60,
    "openDays": [],
    "openDaysNote": ""
  },
  {
    "id": "1472600707",
    "name": "特別養護老人ホーム　モモ",
    "kana": "トクベツヨウゴロウジンホーム　モモ",
    "address": "神奈川県相模原市南区鵜野森１－２２－１７",
    "lat": 35.5463199,
    "lng": 139.4296472,
    "tel": "042-767-8030",
    "url": "https://sosaykai.org/facility/home-momo/",
    "pref": "神奈川県",
    "city": "相模原市南区",
    "category": "tokuyou",
    "serviceType": "介護老人福祉施設",
    "capacity": 62,
    "openDays": [],
    "openDaysNote": ""
  },
  {
    "id": "1472604907",
    "name": "特別養護老人ホーム　よもぎの里　愛の丘",
    "kana": "トクベツヨウゴロウジンホーム　ヨモギノサトアイノオカ",
    "address": "神奈川県相模原市南区当麻490番地1",
    "lat": 35.5322584,
    "lng": 139.3660118,
    "tel": "042-778-7211",
    "url": "https://kirakukai.or.jp",
    "pref": "神奈川県",
    "city": "相模原市南区",
    "category": "tokuyou",
    "serviceType": "介護老人福祉施設",
    "capacity": 100,
    "openDays": [],
    "openDaysNote": ""
  },
  {
    "id": "1472605128",
    "name": "特別養護老人ホーム　りんどう麻溝",
    "kana": "トクベツヨウゴロウジンホーム　リンドウアサミゾ",
    "address": "神奈川県相模原市南区麻溝台5－9－30",
    "lat": 35.5297373,
    "lng": 139.4076802,
    "tel": "042-701-4165",
    "url": "http://rindou-asamizo.net/",
    "pref": "神奈川県",
    "city": "相模原市南区",
    "category": "tokuyou",
    "serviceType": "介護老人福祉施設",
    "capacity": 0,
    "openDays": [],
    "openDaysNote": ""
  },
  {
    "id": "1472607215",
    "name": "特別養護老人ホーム　相模原すみれ園（従来型）",
    "kana": "トクベツヨウゴロウジンホーム　サガミハラスミレエン（ジュウライガタ）",
    "address": "神奈川県相模原市南区東大沼3-29-47-1",
    "lat": 35.538944302724,
    "lng": 139.417763182426,
    "tel": "042-851-6217",
    "url": "https://sagamihara-sumire.jp/",
    "pref": "神奈川県",
    "city": "相模原市南区",
    "category": "tokuyou",
    "serviceType": "介護老人福祉施設",
    "capacity": 0,
    "openDays": [],
    "openDaysNote": ""
  },
  {
    "id": "1472606027",
    "name": "特別養護老人ホーム　相模原敬寿園",
    "kana": "トクベツヨウゴロウジンホーム　サガミハラケイジュエン",
    "address": "神奈川県相模原市南区磯部4507-1",
    "lat": 35.5146247,
    "lng": 139.3911266,
    "tel": "046-298-1555",
    "url": "https://keijuen.or.jp/sagamihara/",
    "pref": "神奈川県",
    "city": "相模原市南区",
    "category": "tokuyou",
    "serviceType": "介護老人福祉施設",
    "capacity": 150,
    "openDays": [],
    "openDaysNote": ""
  },
  {
    "id": "1472606662",
    "name": "特別養護老人ホーム　大野台幸園",
    "kana": "トクベツヨウゴロウジンホーム　オオノダイサイワイエン",
    "address": "神奈川県相模原市南区大野台3-14-11",
    "lat": 35.5542001,
    "lng": 139.3982692,
    "tel": "042-753-5011",
    "url": "https://www.saiwai-kai.com/saiwaien/service/onodai.html",
    "pref": "神奈川県",
    "city": "相模原市南区",
    "category": "tokuyou",
    "serviceType": "介護老人福祉施設",
    "capacity": 120,
    "openDays": [],
    "openDaysNote": ""
  },
  {
    "id": "1472600749",
    "name": "特別養護老人ホーム　東林間シニアクラブ",
    "kana": "トクベツヨウゴロウジンホウムヒガシリンカンシニアクラブ",
    "address": "神奈川県相模原市南区上鶴間6-6-1",
    "lat": 35.5235711,
    "lng": 139.4428967,
    "tel": "042-767-2210",
    "url": "https://www.yamahisakai.jp/",
    "pref": "神奈川県",
    "city": "相模原市南区",
    "category": "tokuyou",
    "serviceType": "介護老人福祉施設",
    "capacity": 0,
    "openDays": [],
    "openDaysNote": ""
  },
  {
    "id": "1472609252",
    "name": "特別養護老人ホームマナーハウス麻溝台",
    "kana": "トクベツヨウゴロウジンホームマナーハウスアサミゾダイ",
    "address": "神奈川県相模原市南区下溝３０１８番地",
    "lat": 35.5404582153087,
    "lng": 139.389240203041,
    "tel": "042-777-8165",
    "url": "https://www.soukafukushikai.jp/area/detail/?id=1",
    "pref": "神奈川県",
    "city": "相模原市南区",
    "category": "tokuyou",
    "serviceType": "介護老人福祉施設",
    "capacity": 0,
    "openDays": [],
    "openDaysNote": ""
  },
  {
    "id": "1472600715",
    "name": "特別養護老人ホーム幸園",
    "kana": "トクベツヨウゴロウジンホームサイワイエン",
    "address": "神奈川県相模原市南区相模大野9-12-22",
    "lat": 35.5264593,
    "lng": 139.4401607,
    "tel": "042-766-1700",
    "url": "https://saiwai-kai.com/",
    "pref": "神奈川県",
    "city": "相模原市南区",
    "category": "tokuyou",
    "serviceType": "介護老人福祉施設",
    "capacity": 0,
    "openDays": [],
    "openDaysNote": ""
  },
  {
    "id": "1472607223",
    "name": "特別養護老人ホーム相模原すみれ園（ユニット型）",
    "kana": "トクベツヨウゴロウジンホーム　サガミハラスミレエン（ユニットガタ）",
    "address": "神奈川県相模原市南区東大沼3-29-47-1",
    "lat": 35.5389522946758,
    "lng": 139.417771037939,
    "tel": "042-851-6217",
    "url": "https://sagamihara-sumire.jp/tokuyou/index.html",
    "pref": "神奈川県",
    "city": "相模原市南区",
    "category": "tokuyou",
    "serviceType": "介護老人福祉施設",
    "capacity": 60,
    "openDays": [],
    "openDaysNote": ""
  },
  {
    "id": "1472611472",
    "name": "特別養護老人ホーム太陽の家相模原清菊園",
    "kana": "トクベツヨウゴロウジンホームタイヨウノイエサガミハラセイキクエン",
    "address": "神奈川県相模原市南区上鶴間7丁目20番5号",
    "lat": 35.517828,
    "lng": 139.4438203,
    "tel": "042-711-6166",
    "url": "https://seikikuen.wixsite.com/home",
    "pref": "神奈川県",
    "city": "相模原市南区",
    "category": "tokuyou",
    "serviceType": "介護老人福祉施設",
    "capacity": null,
    "openDays": [],
    "openDaysNote": ""
  },
  {
    "id": "1472609633",
    "name": "ボーナビール二本松ケアセンター",
    "kana": "ボーナビールニホンマツケアセンター",
    "address": "神奈川県相模原市緑区二本松2-30-39",
    "lat": 35.5913463,
    "lng": 139.3154534,
    "tel": "042-772-4121",
    "url": "http://tokyo-busonkai.or.jp",
    "pref": "神奈川県",
    "city": "相模原市緑区",
    "category": "tokuyou",
    "serviceType": "介護老人福祉施設",
    "capacity": null,
    "openDays": [],
    "openDaysNote": ""
  },
  {
    "id": "1471700037",
    "name": "ライフホーム城山",
    "kana": "ライフホームシロヤマ",
    "address": "神奈川県相模原市緑区小倉1620",
    "lat": 35.5731143,
    "lng": 139.307355,
    "tel": "042-783-0018",
    "url": "http://lifehomeshiroyama.com/",
    "pref": "神奈川県",
    "city": "相模原市緑区",
    "category": "tokuyou",
    "serviceType": "介護老人福祉施設",
    "capacity": 0,
    "openDays": [],
    "openDaysNote": ""
  },
  {
    "id": "1471700227",
    "name": "介護老人福祉施設　さがみ湖桂寿苑",
    "kana": "カイゴロウジンフクシシセツ　サガミコケイジュエン",
    "address": "神奈川県相模原市緑区寸沢嵐３３３１",
    "lat": 35.6027515,
    "lng": 139.1983302,
    "tel": "042-685-2526",
    "url": "https://www.keizyuen.net/",
    "pref": "神奈川県",
    "city": "相模原市緑区",
    "category": "tokuyou",
    "serviceType": "介護老人福祉施設",
    "capacity": null,
    "openDays": [],
    "openDaysNote": ""
  },
  {
    "id": "1471700052",
    "name": "介護老人福祉施設　旭ヶ丘特別養護老人ホーム",
    "kana": "カイゴロウジンフクシシセツ　アサヒガオカトクベツヨウゴロウジンホーム",
    "address": "神奈川県相模原市緑区根小屋2363番地2",
    "lat": 35.5800898,
    "lng": 139.2624649,
    "tel": "042-784-5670",
    "url": "https://www.asahigaoka-h.jp/",
    "pref": "神奈川県",
    "city": "相模原市緑区",
    "category": "tokuyou",
    "serviceType": "介護老人福祉施設",
    "capacity": 50,
    "openDays": [],
    "openDaysNote": ""
  },
  {
    "id": "1472606159",
    "name": "特別養護老人ホーム　ケアプラザさがみはら",
    "kana": "トクベツヨウゴロウジンホーム　ケアプラザサガミハラ",
    "address": "神奈川県相模原市緑区大島２９５番地ケアプラザさがみはら ケアプラザさがみはら",
    "lat": 35.5833092537183,
    "lng": 139.316502170361,
    "tel": "042-713-3818",
    "url": "https://horaikai.or.jp/spot/sagamihara1",
    "pref": "神奈川県",
    "city": "相模原市緑区",
    "category": "tokuyou",
    "serviceType": "介護老人福祉施設",
    "capacity": 130,
    "openDays": [],
    "openDaysNote": ""
  },
  {
    "id": "1471700060",
    "name": "特別養護老人ホーム　銀の館",
    "kana": "トクベツヨウゴロウジンホーム　ギンノヤカタ",
    "address": "神奈川県相模原市緑区佐野川2575",
    "lat": 35.6410528,
    "lng": 139.1318157,
    "tel": "0426-87-6551",
    "url": "https://raphaelkai.com/gin.html",
    "pref": "神奈川県",
    "city": "相模原市緑区",
    "category": "tokuyou",
    "serviceType": "介護老人福祉施設",
    "capacity": 50,
    "openDays": [],
    "openDaysNote": ""
  },
  {
    "id": "1472605318",
    "name": "特別養護老人ホーム　青根苑　1号館",
    "kana": "トクベツヨウゴロウジンホーム　アオネエン　イチゴウカン",
    "address": "神奈川県相模原市緑区青根1728-1",
    "lat": 35.5437302,
    "lng": 139.1284909,
    "tel": "042-787-8230",
    "url": "http://seihou-kai.jp/aoneen/",
    "pref": "神奈川県",
    "city": "相模原市緑区",
    "category": "tokuyou",
    "serviceType": "介護老人福祉施設",
    "capacity": 0,
    "openDays": [],
    "openDaysNote": ""
  },
  {
    "id": "1472605326",
    "name": "特別養護老人ホーム　青根苑　2号館",
    "kana": "トクベツヨウゴロウジンホーム　アオネエン　ニゴウカン",
    "address": "神奈川県相模原市緑区青根1728-1",
    "lat": 35.5437302,
    "lng": 139.1284909,
    "tel": "042-787-8230",
    "url": "http://seihou-kai.jp/aoneen/",
    "pref": "神奈川県",
    "city": "相模原市緑区",
    "category": "tokuyou",
    "serviceType": "介護老人福祉施設",
    "capacity": 40,
    "openDays": [],
    "openDaysNote": ""
  },
  {
    "id": "1472600673",
    "name": "特別養護老人ホーム　中の郷",
    "kana": "トクベツヨウゴロウジンホーム　ナカノゴウ",
    "address": "神奈川県相模原市緑区大島1556",
    "lat": 35.576,
    "lng": 139.3234725,
    "tel": "042-763-0005",
    "url": "http://www.nakanogou.org/",
    "pref": "神奈川県",
    "city": "相模原市緑区",
    "category": "tokuyou",
    "serviceType": "介護老人福祉施設",
    "capacity": 54,
    "openDays": [],
    "openDaysNote": ""
  },
  {
    "id": "1472607389",
    "name": "特別養護老人ホーム　中の郷　ユニット型",
    "kana": "トクベツヨウゴロウジンホーム　ナカノゴウ　ユニットガタ",
    "address": "神奈川県相模原市緑区大島1556",
    "lat": 35.576,
    "lng": 139.3234725,
    "tel": "042-763-0005",
    "url": "http://www.nakanogou.org/",
    "pref": "神奈川県",
    "city": "相模原市緑区",
    "category": "tokuyou",
    "serviceType": "介護老人福祉施設",
    "capacity": 40,
    "openDays": [],
    "openDaysNote": ""
  },
  {
    "id": "1472600723",
    "name": "特別養護老人ホーム　東橋本ひまわりホーム",
    "kana": "トクベツヨウゴロウジンホーム　ヒガシハシモトヒマワリホーム",
    "address": "神奈川県相模原市緑区東橋本4-14-36",
    "lat": 35.5984162,
    "lng": 139.3578102,
    "tel": "042-773-2006",
    "url": "http://www.himawarihome.jp/",
    "pref": "神奈川県",
    "city": "相模原市緑区",
    "category": "tokuyou",
    "serviceType": "介護老人福祉施設",
    "capacity": 0,
    "openDays": [],
    "openDaysNote": ""
  },
  {
    "id": "1472608031",
    "name": "特別養護老人ホーム相模湖みどりの丘",
    "kana": "トクベツヨウゴロウジンホームサガミコミドリノオカ",
    "address": "神奈川県相模原市緑区寸沢嵐1019-8",
    "lat": 35.5981639,
    "lng": 139.2067712,
    "tel": "042-685-1165",
    "url": "http://www.mdr.juei.or.jp/",
    "pref": "神奈川県",
    "city": "相模原市緑区",
    "category": "tokuyou",
    "serviceType": "介護老人福祉施設",
    "capacity": 0,
    "openDays": [],
    "openDaysNote": ""
  },
  {
    "id": "1471400943",
    "name": "あしがら広域福祉センターひかりの里",
    "kana": "アシガラコウイキフクシセンターヒカリノサト",
    "address": "神奈川県足柄上郡大井町西大井1055番地",
    "lat": 35.3220331,
    "lng": 139.1477424,
    "tel": "0465-82-2294",
    "url": "http://www.kanagawa-swc.com/hikarinosato",
    "pref": "神奈川県",
    "city": "大井町",
    "category": "tokuyou",
    "serviceType": "介護老人福祉施設",
    "capacity": 0,
    "openDays": [],
    "openDaysNote": ""
  },
  {
    "id": "1471300853",
    "name": "特別養護老人ホーム　大磯喜楽園",
    "kana": "トクベツヨウゴロウジンホーム　オオイソキラクエン",
    "address": "神奈川県中郡大磯町虫窪285番地2",
    "lat": 35.3258134,
    "lng": 139.2636203,
    "tel": "0463-72-3050",
    "url": "http://houyuukai.or.jp/",
    "pref": "神奈川県",
    "city": "大磯町",
    "category": "tokuyou",
    "serviceType": "介護老人福祉施設",
    "capacity": 0,
    "openDays": [],
    "openDaysNote": ""
  },
  {
    "id": "1471300861",
    "name": "特別養護老人ホーム湘南喜楽園",
    "kana": "トクベツヨウゴロウジンホームショウナンキラクエン",
    "address": "神奈川県中郡大磯町国府本郷1401番地1",
    "lat": 35.3112769,
    "lng": 139.2834384,
    "tel": "0463-60-3901",
    "url": "http://houyuukai.or.jp/",
    "pref": "神奈川県",
    "city": "大磯町",
    "category": "tokuyou",
    "serviceType": "介護老人福祉施設",
    "capacity": 50,
    "openDays": [],
    "openDaysNote": ""
  },
  {
    "id": "1473001939",
    "name": "ル・リアンふかみ",
    "kana": "ル・リアンフカミ",
    "address": "神奈川県大和市深見2106-1",
    "lat": 35.475213,
    "lng": 139.4705137,
    "tel": "046-200-3366",
    "url": "http://www.sagamisyouyuukai.or.jp",
    "pref": "神奈川県",
    "city": "大和市",
    "category": "tokuyou",
    "serviceType": "介護老人福祉施設",
    "capacity": 90,
    "openDays": [],
    "openDaysNote": ""
  },
  {
    "id": "1473000014",
    "name": "ロゼホームつきみ野",
    "kana": "ロゼホームツキミノ",
    "address": "神奈川県大和市下鶴間418-2",
    "lat": 35.5132208,
    "lng": 139.4613957,
    "tel": "046-272-8808",
    "url": "http://www.rozehome.com/",
    "pref": "神奈川県",
    "city": "大和市",
    "category": "tokuyou",
    "serviceType": "介護老人福祉施設",
    "capacity": 68,
    "openDays": [],
    "openDaysNote": ""
  },
  {
    "id": "1473002614",
    "name": "介護老人福祉施設スミール桜ヶ丘",
    "kana": "カイゴロウジンフクシシセツスミールサクラガオカ",
    "address": "神奈川県大和市上和田1021-1",
    "lat": 35.4504006472653,
    "lng": 139.471014148492,
    "tel": "046-267-3818",
    "url": "http://www.tatsuki.co/",
    "pref": "神奈川県",
    "city": "大和市",
    "category": "tokuyou",
    "serviceType": "介護老人福祉施設",
    "capacity": 100,
    "openDays": [],
    "openDaysNote": ""
  },
  {
    "id": "1473000196",
    "name": "高齢者介護福祉施設　サンホーム鶴間",
    "kana": "コウレイシャカイゴフクシシセツ　サンホームツルマ",
    "address": "神奈川県大和市西鶴間八丁目1番2号",
    "lat": 35.4842547,
    "lng": 139.4411956,
    "tel": "046-277-0033",
    "url": "http://sunhome.life.coocan.jp/",
    "pref": "神奈川県",
    "city": "大和市",
    "category": "tokuyou",
    "serviceType": "介護老人福祉施設",
    "capacity": null,
    "openDays": [],
    "openDaysNote": ""
  },
  {
    "id": "1473001046",
    "name": "社会福祉法人プレマ会　みなみ風",
    "kana": "シャカイフクシホウジンプレマカイ　ミナミカゼ",
    "address": "神奈川県大和市上草柳164番5",
    "lat": 35.4738982856217,
    "lng": 139.441175909856,
    "tel": "046-264-1000",
    "url": "http://puremakai.or.jp",
    "pref": "神奈川県",
    "city": "大和市",
    "category": "tokuyou",
    "serviceType": "介護老人福祉施設",
    "capacity": 92,
    "openDays": [],
    "openDaysNote": ""
  },
  {
    "id": "1473001194",
    "name": "特別養護老人ホーム　ひまわりの郷",
    "kana": "トクベツヨウゴロウジンホーム　ヒマワリノサト",
    "address": "神奈川県大和市上和田3467-1",
    "lat": 35.4368681,
    "lng": 139.4684151,
    "tel": "046-201-0310",
    "url": "https://www.himawarinosato.jp",
    "pref": "神奈川県",
    "city": "大和市",
    "category": "tokuyou",
    "serviceType": "介護老人福祉施設",
    "capacity": 80,
    "openDays": [],
    "openDaysNote": ""
  },
  {
    "id": "1473003182",
    "name": "特別養護老人ホーム　ほの里南林間",
    "kana": "トクベツヨウゴロウジンホーム　ホノサトミナミリンカン",
    "address": "神奈川県大和市南林間6-31-28",
    "lat": 35.4884509306644,
    "lng": 139.438110839269,
    "tel": "046-272-3770",
    "url": "http://www.daichinokai.jp",
    "pref": "神奈川県",
    "city": "大和市",
    "category": "tokuyou",
    "serviceType": "介護老人福祉施設",
    "capacity": null,
    "openDays": [],
    "openDaysNote": ""
  },
  {
    "id": "1473003190",
    "name": "特別養護老人ホーム　ほの里南林間",
    "kana": "トクベツヨウゴロウジンホーム　ホノサトミナミリンカン",
    "address": "神奈川県大和市南林間6-31-28",
    "lat": 35.4883074,
    "lng": 139.4380753,
    "tel": "046-272-3770",
    "url": "http://www.daichinokai.jp",
    "pref": "神奈川県",
    "city": "大和市",
    "category": "tokuyou",
    "serviceType": "介護老人福祉施設",
    "capacity": null,
    "openDays": [],
    "openDaysNote": ""
  },
  {
    "id": "1473000170",
    "name": "特別養護老人ホーム　敬愛の園",
    "kana": "トクベツヨウゴロウジンホーム　ケイアイノソノ",
    "address": "神奈川県大和市福田1551",
    "lat": 35.4238865,
    "lng": 139.4637126,
    "tel": "046-267-1210",
    "url": "https://www.since1950-keiaikai-yamato.or.jp",
    "pref": "神奈川県",
    "city": "大和市",
    "category": "tokuyou",
    "serviceType": "介護老人福祉施設",
    "capacity": 74,
    "openDays": [],
    "openDaysNote": ""
  },
  {
    "id": "1473000188",
    "name": "特別養護老人ホーム　晃風園",
    "kana": "トクベツヨウゴロウジンホームコウフウエン",
    "address": "神奈川県大和市草柳2-15-1",
    "lat": 35.46044,
    "lng": 139.4582289,
    "tel": "046-263-8728",
    "url": "http://www.kofuen.jp/",
    "pref": "神奈川県",
    "city": "大和市",
    "category": "tokuyou",
    "serviceType": "介護老人福祉施設",
    "capacity": 0,
    "openDays": [],
    "openDaysNote": ""
  },
  {
    "id": "1473000261",
    "name": "特別養護老人ホーム　和喜園",
    "kana": "トクベツヨウゴロウジンホーム　ワキエン",
    "address": "神奈川県大和市下和田字下ノ原822番地1",
    "lat": 35.426439,
    "lng": 139.4701178,
    "tel": "046-268-2733",
    "url": "https://wakien.jp/",
    "pref": "神奈川県",
    "city": "大和市",
    "category": "tokuyou",
    "serviceType": "介護老人福祉施設",
    "capacity": 0,
    "openDays": [],
    "openDaysNote": ""
  },
  {
    "id": "1473002002",
    "name": "特別養護老人ホーム　和喜園　田園",
    "kana": "トクベツヨウゴロウジンホーム　ワキエン　デンエン",
    "address": "神奈川県大和市下和田822-1",
    "lat": 35.426439,
    "lng": 139.4701178,
    "tel": "046-268-2733",
    "url": "https://wakien.jp",
    "pref": "神奈川県",
    "city": "大和市",
    "category": "tokuyou",
    "serviceType": "介護老人福祉施設",
    "capacity": 0,
    "openDays": [],
    "openDaysNote": ""
  },
  {
    "id": "1471400315",
    "name": "介護老人福祉施設　中井富士白苑",
    "kana": "カイゴロウジンフクシシセツ　ナカイフジシロエン",
    "address": "神奈川県足柄上郡中井町井ノ口２３０５－４",
    "lat": 35.3423769,
    "lng": 139.2289398,
    "tel": "0465-81-5888",
    "url": "https://www.fujishiroen.or.jp/nakai",
    "pref": "神奈川県",
    "city": "中井町",
    "category": "tokuyou",
    "serviceType": "介護老人福祉施設",
    "capacity": 100,
    "openDays": [],
    "openDaysNote": ""
  },
  {
    "id": "1471500502",
    "name": "シーサイド湯河原",
    "kana": "シーサイドユガワラ",
    "address": "神奈川県足柄下郡湯河原町吉浜１２０番地１",
    "lat": 35.1513675,
    "lng": 139.1271483,
    "tel": "0465-64-1700",
    "url": "http://www.seaside-yugawara.jp",
    "pref": "神奈川県",
    "city": "湯河原町",
    "category": "tokuyou",
    "serviceType": "介護老人福祉施設",
    "capacity": 80,
    "openDays": [],
    "openDaysNote": ""
  },
  {
    "id": "1471500122",
    "name": "介護老人福祉施設　心花春",
    "kana": "カイゴロウジンフクシシセツ　コハル",
    "address": "神奈川県足柄下郡湯河原町鍛冶屋627",
    "lat": 35.158877,
    "lng": 139.1111688,
    "tel": "0465-63-2586",
    "url": "https://koharu-yugawara.jp/",
    "pref": "神奈川県",
    "city": "湯河原町",
    "category": "tokuyou",
    "serviceType": "介護老人福祉施設",
    "capacity": 0,
    "openDays": [],
    "openDaysNote": ""
  },
  {
    "id": "1472200037",
    "name": "グリーンライフ湘南",
    "kana": "グリーンライフショウナン",
    "address": "神奈川県藤沢市石川３９２８－５",
    "lat": 35.3734349,
    "lng": 139.4647409,
    "tel": "0466-84-1165",
    "url": "https://www.kijyu.or.jp",
    "pref": "神奈川県",
    "city": "藤沢市",
    "category": "tokuyou",
    "serviceType": "介護老人福祉施設",
    "capacity": 0,
    "openDays": [],
    "openDaysNote": ""
  },
  {
    "id": "1472200474",
    "name": "介護老人福祉施設　藤沢特別養護老人ホーム",
    "kana": "カイゴロウジンフクシシセツ　フジサワトクベツヨウゴロウジンホーム",
    "address": "神奈川県藤沢市鵠沼１５５９番地",
    "lat": 35.3405421,
    "lng": 139.4797036,
    "tel": "0466-22-2346",
    "url": "http://www.kyouseikai.com",
    "pref": "神奈川県",
    "city": "藤沢市",
    "category": "tokuyou",
    "serviceType": "介護老人福祉施設",
    "capacity": 80,
    "openDays": [],
    "openDaysNote": ""
  },
  {
    "id": "1472203726",
    "name": "藤沢愛光園",
    "kana": "フジサワアイコウエン",
    "address": "神奈川県藤沢市大庭5526-2",
    "lat": 35.3669378,
    "lng": 139.4482504,
    "tel": "0466-86-9090",
    "url": "http://www.seirei.or.jp/welfare/aikouen/index.html",
    "pref": "神奈川県",
    "city": "藤沢市",
    "category": "tokuyou",
    "serviceType": "介護老人福祉施設",
    "capacity": 0,
    "openDays": [],
    "openDaysNote": ""
  },
  {
    "id": "1472204013",
    "name": "藤沢富士白苑",
    "kana": "フジサワフジシロエン",
    "address": "神奈川県藤沢市長後2722-1",
    "lat": 35.4231946,
    "lng": 139.4511022,
    "tel": "0466-45-3815",
    "url": "https://www.fujishiroen.or.jp",
    "pref": "神奈川県",
    "city": "藤沢市",
    "category": "tokuyou",
    "serviceType": "介護老人福祉施設",
    "capacity": 140,
    "openDays": [],
    "openDaysNote": ""
  },
  {
    "id": "1472205895",
    "name": "特別養護老人ホーム　かつらはら",
    "kana": "トクベツヨウゴロウジンホームカツラハラ",
    "address": "神奈川県藤沢市葛原255-1",
    "lat": 35.4092044732859,
    "lng": 139.423995920255,
    "tel": "0466-20-5175",
    "url": "http://www.chitokukai.jp/katsurahara.htm",
    "pref": "神奈川県",
    "city": "藤沢市",
    "category": "tokuyou",
    "serviceType": "介護老人福祉施設",
    "capacity": 80,
    "openDays": [],
    "openDaysNote": ""
  },
  {
    "id": "1472206000",
    "name": "特別養護老人ホーム　カメリア藤沢ＳＳＴ",
    "kana": "トクベツヨウゴロウジンホーム　カメリアフジサワエスエスティー",
    "address": "神奈川県藤沢市辻堂元町6-17-2",
    "lat": 35.3371677942286,
    "lng": 139.463440593254,
    "tel": "0466-30-0890",
    "url": "http://fujisawa.camellia-kai.com/",
    "pref": "神奈川県",
    "city": "藤沢市",
    "category": "tokuyou",
    "serviceType": "介護老人福祉施設",
    "capacity": 0,
    "openDays": [],
    "openDaysNote": ""
  },
  {
    "id": "1472201704",
    "name": "特別養護老人ホーム　かりん",
    "kana": "トクベツヨウゴロウジンホーム　カリン",
    "address": "神奈川県藤沢市城南1-22-7",
    "lat": 35.3477761,
    "lng": 139.4424895,
    "tel": "0466-36-8101",
    "url": "https://www.eijyukai-karin.com/",
    "pref": "神奈川県",
    "city": "藤沢市",
    "category": "tokuyou",
    "serviceType": "介護老人福祉施設",
    "capacity": 98,
    "openDays": [],
    "openDaysNote": ""
  },
  {
    "id": "1472206547",
    "name": "特別養護老人ホーム　ラポール藤沢",
    "kana": "トクベツヨウゴロウジンホーム　ラポールフジサワ",
    "address": "神奈川県藤沢市善行1丁目12番地の9",
    "lat": 35.362556,
    "lng": 139.470536,
    "tel": "0466-83-4165",
    "url": "https://www.rapport.or.jp/facility_jonan/",
    "pref": "神奈川県",
    "city": "藤沢市",
    "category": "tokuyou",
    "serviceType": "介護老人福祉施設",
    "capacity": 100,
    "openDays": [],
    "openDaysNote": ""
  },
  {
    "id": "1472206745",
    "name": "特別養護老人ホーム　村岡ホーム",
    "kana": "トクベツヨウゴロウジンホーム　ムラオカホーム",
    "address": "神奈川県藤沢市渡内3-8-60",
    "lat": 35.3484393,
    "lng": 139.5091511,
    "tel": "0466-26-3339",
    "url": "https://www.kijyu.or.jp",
    "pref": "神奈川県",
    "city": "藤沢市",
    "category": "tokuyou",
    "serviceType": "介護老人福祉施設",
    "capacity": 0,
    "openDays": [],
    "openDaysNote": ""
  },
  {
    "id": "1472206265",
    "name": "特別養護老人ホームグランドヴィラ湘南台",
    "kana": "トクベツヨウゴロウジンホームグランドビィラショウナンダイ",
    "address": "神奈川県藤沢市菖蒲沢1221-1",
    "lat": 35.3990155564508,
    "lng": 139.443294239656,
    "tel": "0466-48-6006",
    "url": "https://enju.or.jp/",
    "pref": "神奈川県",
    "city": "藤沢市",
    "category": "tokuyou",
    "serviceType": "介護老人福祉施設",
    "capacity": 90,
    "openDays": [],
    "openDaysNote": ""
  },
  {
    "id": "1472200896",
    "name": "特別養護老人ホームみどりの園",
    "kana": "トクベツヨウゴロウジンホームミドリノソノ",
    "address": "神奈川県藤沢市小塚370-1",
    "lat": 35.3344292,
    "lng": 139.5055568,
    "tel": "0466-52-2511",
    "url": "https://midorinosono.or.jp/",
    "pref": "神奈川県",
    "city": "藤沢市",
    "category": "tokuyou",
    "serviceType": "介護老人福祉施設",
    "capacity": 100,
    "openDays": [],
    "openDaysNote": ""
  },
  {
    "id": "1472205937",
    "name": "特別養護老人ホーム関野記念鵠生園",
    "kana": "トクベツヨウゴロウジンホームセキノキネンコウセイエン",
    "address": "神奈川県藤沢市鵠沼石上2-5-3",
    "lat": 35.3343653,
    "lng": 139.4879389,
    "tel": "0466-55-2355",
    "url": "http://kouseien-fu.or.jp/sekino",
    "pref": "神奈川県",
    "city": "藤沢市",
    "category": "tokuyou",
    "serviceType": "介護老人福祉施設",
    "capacity": 0,
    "openDays": [],
    "openDaysNote": ""
  },
  {
    "id": "1472207107",
    "name": "特別養護老人ホーム結いの丘",
    "kana": "トクベツヨウゴロウジンホームユイノオカ",
    "address": "神奈川県藤沢市遠藤869番地4",
    "lat": 35.3759925,
    "lng": 139.4350132,
    "tel": "0466-52-7755",
    "url": "https://yuinooka.jp/",
    "pref": "神奈川県",
    "city": "藤沢市",
    "category": "tokuyou",
    "serviceType": "介護老人福祉施設",
    "capacity": 100,
    "openDays": [],
    "openDaysNote": ""
  },
  {
    "id": "1472200425",
    "name": "特別養護老人ホーム鵠生園",
    "kana": "トクベツヨウゴロウジンホームコウセイエン",
    "address": "神奈川県藤沢市片瀬海岸1-7-9",
    "lat": 35.3085287,
    "lng": 139.4875751,
    "tel": "0466-28-2662",
    "url": "http://www.kouseien-fu.or.jp",
    "pref": "神奈川県",
    "city": "藤沢市",
    "category": "tokuyou",
    "serviceType": "介護老人福祉施設",
    "capacity": 90,
    "openDays": [],
    "openDaysNote": ""
  },
  {
    "id": "1472200458",
    "name": "特別養護老人ホーム白鷺苑",
    "kana": "トクベツヨウゴロウジンホームシラサギエン",
    "address": "神奈川県藤沢市用田８２０",
    "lat": 35.4097949,
    "lng": 139.4180014,
    "tel": "0466-48-0896",
    "url": "http://issekikai.net",
    "pref": "神奈川県",
    "city": "藤沢市",
    "category": "tokuyou",
    "serviceType": "介護老人福祉施設",
    "capacity": 50,
    "openDays": [],
    "openDaysNote": ""
  },
  {
    "id": "1472207552",
    "name": "特別養護老人ホーム睦愛園",
    "kana": "トクベツヨウゴロウジンホームムツアイエン",
    "address": "神奈川県藤沢市亀井野2087番1",
    "lat": 35.3773818,
    "lng": 139.4747673,
    "tel": "0466-82-7317",
    "url": "http://www.fujisawa-mutsuaien.com",
    "pref": "神奈川県",
    "city": "藤沢市",
    "category": "tokuyou",
    "serviceType": "介護老人福祉施設",
    "capacity": null,
    "openDays": [],
    "openDaysNote": ""
  },
  {
    "id": "1472200466",
    "name": "芭蕉苑　介護老人福祉施設",
    "kana": "バショウエンカイゴロウジンフクシシセツ",
    "address": "神奈川県藤沢市遠藤３５",
    "lat": 35.3813158,
    "lng": 139.4335924,
    "tel": "0466-87-1710",
    "url": "http://chikubukai.jp/fujisawa/",
    "pref": "神奈川県",
    "city": "藤沢市",
    "category": "tokuyou",
    "serviceType": "介護老人福祉施設",
    "capacity": 0,
    "openDays": [],
    "openDaysNote": ""
  },
  {
    "id": "1474300033",
    "name": "特別養護老人ホーム草の家",
    "kana": "トクベツヨウゴロウジンホームクサノイエ",
    "address": "神奈川県南足柄市班目４６０",
    "lat": 35.3428152387138,
    "lng": 139.103527053998,
    "tel": "0465-73-2556",
    "url": "http://www.kusanoie.com",
    "pref": "神奈川県",
    "city": "南足柄市",
    "category": "tokuyou",
    "serviceType": "介護老人福祉施設",
    "capacity": 0,
    "openDays": [],
    "openDaysNote": ""
  },
  {
    "id": "1474300702",
    "name": "特別養護老人ホーム草の家ひだまり",
    "kana": "トクベツヨウゴロウジンホームクサノイエヒダマリ",
    "address": "神奈川県南足柄市班目301-1",
    "lat": 35.3470874,
    "lng": 139.1044502,
    "tel": "0465-73-2622",
    "url": "https://kusanoie.com/?page_id=4842",
    "pref": "神奈川県",
    "city": "南足柄市",
    "category": "tokuyou",
    "serviceType": "介護老人福祉施設",
    "capacity": 40,
    "openDays": [],
    "openDaysNote": ""
  },
  {
    "id": "1474300363",
    "name": "特別養護老人ホーム草の家ユニット",
    "kana": "トクベツヨウゴロウジンホームクサノイエユニット",
    "address": "神奈川県南足柄市班目460",
    "lat": 35.3427892,
    "lng": 139.1033903,
    "tel": "0465-73-2556",
    "url": "http://www.kusanoie.com",
    "pref": "神奈川県",
    "city": "南足柄市",
    "category": "tokuyou",
    "serviceType": "介護老人福祉施設",
    "capacity": 0,
    "openDays": [],
    "openDaysNote": ""
  },
  {
    "id": "1471300085",
    "name": "メゾン・二宮",
    "kana": "メゾン・ニノミヤ",
    "address": "神奈川県中郡二宮町一色１４３５－１",
    "lat": 35.3161196674307,
    "lng": 139.244874999336,
    "tel": "0463-73-3373",
    "url": "http://www.ittokai.or.jp",
    "pref": "神奈川県",
    "city": "二宮町",
    "category": "tokuyou",
    "serviceType": "介護老人福祉施設",
    "capacity": 0,
    "openDays": [],
    "openDaysNote": ""
  },
  {
    "id": "1471500411",
    "name": "社会福祉法人そうあい　特別養護老人ホーム　なごみの郷",
    "kana": "シャカイフクシホウジンソウアイ　トクベツヨウゴロウジンホーム　ナゴミノサト",
    "address": "神奈川県足柄下郡箱根町仙石原977-23",
    "lat": 35.2698717,
    "lng": 139.0137078,
    "tel": "0460-84-0131",
    "url": "http://souai-welfare.mokuren.ne.jp/",
    "pref": "神奈川県",
    "city": "箱根町",
    "category": "tokuyou",
    "serviceType": "介護老人福祉施設",
    "capacity": 0,
    "openDays": [],
    "openDaysNote": ""
  },
  {
    "id": "1471501146",
    "name": "箱根老人ホーム　介護老人福祉施設",
    "kana": "ハコネロウジンホーム　カイゴロウジンフクシシセツ",
    "address": "神奈川県足柄下郡箱根町宮城野58",
    "lat": 35.2490426,
    "lng": 139.0554147,
    "tel": "0460-87-0052",
    "url": "https://gardenia.or.jp",
    "pref": "神奈川県",
    "city": "箱根町",
    "category": "tokuyou",
    "serviceType": "介護老人福祉施設",
    "capacity": null,
    "openDays": [],
    "openDaysNote": ""
  },
  {
    "id": "1472000239",
    "name": "ローズヒル",
    "kana": "ローズヒル",
    "address": "神奈川県平塚市土屋2198-7",
    "lat": 35.3463637,
    "lng": 139.2707638,
    "tel": "0463-58-6677",
    "url": "https://rosehill.or.jp/",
    "pref": "神奈川県",
    "city": "平塚市",
    "category": "tokuyou",
    "serviceType": "介護老人福祉施設",
    "capacity": 0,
    "openDays": [],
    "openDaysNote": ""
  },
  {
    "id": "1472003142",
    "name": "わしんち元気・平塚",
    "kana": "ワシンチゲンキ・ヒラツカ",
    "address": "神奈川県平塚市片岡833-10",
    "lat": 35.3581296005456,
    "lng": 139.299239876057,
    "tel": "0463-79-8660",
    "url": "https://www.washinchi.jp/",
    "pref": "神奈川県",
    "city": "平塚市",
    "category": "tokuyou",
    "serviceType": "介護老人福祉施設",
    "capacity": 0,
    "openDays": [],
    "openDaysNote": ""
  },
  {
    "id": "1472000320",
    "name": "介護老人福祉施設　サンレジデンス湘南",
    "kana": "カイゴロウジンフクシシセツ　サンレジデンスショウナン",
    "address": "神奈川県平塚市田村2-11-5",
    "lat": 35.3717317,
    "lng": 139.3585326,
    "tel": "0463-54-7007",
    "url": "http://www.keishin-kai.or.jp/",
    "pref": "神奈川県",
    "city": "平塚市",
    "category": "tokuyou",
    "serviceType": "介護老人福祉施設",
    "capacity": 0,
    "openDays": [],
    "openDaysNote": ""
  },
  {
    "id": "1472000312",
    "name": "介護老人福祉施設　平塚富士白苑",
    "kana": "カイゴロウジンフクシシセツ　ヒラツカフジシロエン",
    "address": "神奈川県平塚市唐ケ原１",
    "lat": 35.3141878,
    "lng": 139.3295205,
    "tel": "0463-61-1841",
    "url": "http://www.fujishiro-group.com",
    "pref": "神奈川県",
    "city": "平塚市",
    "category": "tokuyou",
    "serviceType": "介護老人福祉施設",
    "capacity": 0,
    "openDays": [],
    "openDaysNote": ""
  },
  {
    "id": "1472000262",
    "name": "高根台ホーム",
    "kana": "タカネダイホーム",
    "address": "神奈川県平塚市万田三丁目18番10号",
    "lat": 35.3240616,
    "lng": 139.3031168,
    "tel": "0463-31-4972",
    "url": "http://www.takanedaihome.or.jp/",
    "pref": "神奈川県",
    "city": "平塚市",
    "category": "tokuyou",
    "serviceType": "介護老人福祉施設",
    "capacity": 120,
    "openDays": [],
    "openDaysNote": ""
  },
  {
    "id": "1472000213",
    "name": "高齢者福祉総合施設　豊田敬愛ホーム",
    "kana": "コウレイシャフクシソウゴウシセツ　トヨダケイアイホーム",
    "address": "神奈川県平塚市南豊田85番1",
    "lat": 35.3551052,
    "lng": 139.3268392,
    "tel": "0463-36-0632",
    "url": "https://kanagawa-koureikyo.or.jp/toyoda/",
    "pref": "神奈川県",
    "city": "平塚市",
    "category": "tokuyou",
    "serviceType": "介護老人福祉施設",
    "capacity": 0,
    "openDays": [],
    "openDaysNote": ""
  },
  {
    "id": "1472004371",
    "name": "特別養護老人ホーム　あしたば",
    "kana": "トクベツヨウゴロウジンホーム　アシタバ",
    "address": "神奈川県平塚市真田2-7-21",
    "lat": 35.372442670646,
    "lng": 139.283799105557,
    "tel": "0463-63-3743",
    "url": "http://www.shofukai.or.jp",
    "pref": "神奈川県",
    "city": "平塚市",
    "category": "tokuyou",
    "serviceType": "介護老人福祉施設",
    "capacity": 104,
    "openDays": [],
    "openDaysNote": ""
  },
  {
    "id": "1472003514",
    "name": "特別養護老人ホーム　カメリア桜ヶ丘",
    "kana": "トクベツヨウゴロウジンホーム　カメリアサクラガオカ",
    "address": "神奈川県平塚市桜ヶ丘5番26号",
    "lat": 35.3300759714018,
    "lng": 139.32535224841,
    "tel": "0463-36-5911",
    "url": "http://www.camellia-kai.com/",
    "pref": "神奈川県",
    "city": "平塚市",
    "category": "tokuyou",
    "serviceType": "介護老人福祉施設",
    "capacity": 120,
    "openDays": [],
    "openDaysNote": ""
  },
  {
    "id": "1472001278",
    "name": "特別養護老人ホーム　れんげの郷",
    "kana": "トクベツヨウゴロウジンホーム　レンゲノサト",
    "address": "神奈川県平塚市公所705-1",
    "lat": 35.3464365,
    "lng": 139.3051135,
    "tel": "0463-50-3465",
    "url": "https://www.rengenosato.com/",
    "pref": "神奈川県",
    "city": "平塚市",
    "category": "tokuyou",
    "serviceType": "介護老人福祉施設",
    "capacity": 0,
    "openDays": [],
    "openDaysNote": ""
  },
  {
    "id": "1472004280",
    "name": "特別養護老人ホーム　ローズヒル東八幡",
    "kana": "トクベツヨウゴロウジンホーム　ローズヒルヒガシヤワタ",
    "address": "神奈川県平塚市東八幡4-19-14",
    "lat": 35.3504894,
    "lng": 139.3592499,
    "tel": "0463-75-8710",
    "url": "https://www.rosehill.or.jp/",
    "pref": "神奈川県",
    "city": "平塚市",
    "category": "tokuyou",
    "serviceType": "介護老人福祉施設",
    "capacity": 96,
    "openDays": [],
    "openDaysNote": ""
  },
  {
    "id": "1472004751",
    "name": "特別養護老人ホーム　輝煌の郷",
    "kana": "トクベツヨウゴロウジンホーム　キコウノサト",
    "address": "神奈川県平塚市菫平１６－１０特別養護老人ホーム輝煌の郷 特別養護老人ホーム輝煌の郷",
    "lat": 35.3181186730639,
    "lng": 139.341556819049,
    "tel": "0463-20-9805",
    "url": "https://asukafukushikai.com",
    "pref": "神奈川県",
    "city": "平塚市",
    "category": "tokuyou",
    "serviceType": "介護老人福祉施設",
    "capacity": 120,
    "openDays": [],
    "openDaysNote": ""
  },
  {
    "id": "1472001914",
    "name": "特別養護老人ホーム　陽だまりの丘",
    "kana": "トクベツヨウゴロウジンホーム　ヒダマリノオカ",
    "address": "神奈川県平塚市岡崎4015-1",
    "lat": 35.3712943316891,
    "lng": 139.310429744489,
    "tel": "0463-59-6633",
    "url": "https://www.hidamarino-oka.com/",
    "pref": "神奈川県",
    "city": "平塚市",
    "category": "tokuyou",
    "serviceType": "介護老人福祉施設",
    "capacity": 70,
    "openDays": [],
    "openDaysNote": ""
  },
  {
    "id": "1472001880",
    "name": "特別養護老人ホームふじの郷",
    "kana": "トクベツヨウゴロウジンホームフジノサト",
    "address": "神奈川県平塚市大島190番地",
    "lat": 35.375778,
    "lng": 139.338071,
    "tel": "0463-26-3130",
    "url": "https://fujinosato-home.jp",
    "pref": "神奈川県",
    "city": "平塚市",
    "category": "tokuyou",
    "serviceType": "介護老人福祉施設",
    "capacity": 0,
    "openDays": [],
    "openDaysNote": ""
  },
  {
    "id": "1472000221",
    "name": "平塚特別養護老人ホーム",
    "kana": "ヒラツカトクベツヨウゴロウジンホーム",
    "address": "神奈川県平塚市御殿２－１７－４２",
    "lat": 35.344748,
    "lng": 139.3266948,
    "tel": "0463-35-3440",
    "url": "http://www.shinseikai-roujin-kanagawa.jp/",
    "pref": "神奈川県",
    "city": "平塚市",
    "category": "tokuyou",
    "serviceType": "介護老人福祉施設",
    "capacity": 67,
    "openDays": [],
    "openDaysNote": ""
  },
  {
    "id": "1471100014",
    "name": "介護老人福祉施設　葉山清寿苑",
    "kana": "カイゴロウジンフクシシセツ　ハヤマセイジュエン",
    "address": "神奈川県三浦郡葉山町上山口１６６９",
    "lat": 35.2631534,
    "lng": 139.6023674,
    "tel": "046-878-8900",
    "url": "http://www.hakuou.or.jp",
    "pref": "神奈川県",
    "city": "葉山町",
    "category": "tokuyou",
    "serviceType": "介護老人福祉施設",
    "capacity": 0,
    "openDays": [],
    "openDaysNote": ""
  },
  {
    "id": "1471100204",
    "name": "特別養護老人ホーム　葉山グリーンヒル",
    "kana": "トクベツヨウゴロウジンホームハヤマグリーンヒル",
    "address": "神奈川県三浦郡葉山町一色2448-6",
    "lat": 35.2683667,
    "lng": 139.5708559,
    "tel": "046-877-1116",
    "url": "https://yokosuka-greenhil.jp/pages/30/",
    "pref": "神奈川県",
    "city": "葉山町",
    "category": "tokuyou",
    "serviceType": "介護老人福祉施設",
    "capacity": 0,
    "openDays": [],
    "openDaysNote": ""
  }
]