[
  {
    "id": "1870800073",
    "name": "あわら市金津雲雀ヶ丘寮介護老人福祉施設",
    "kana": "アワラシカナヅヒバリガオカリョウカイゴロウジンフクシシセツ",
    "address": "あわら市春宮三丁目28-21",
    "lat": 36.2199603,
    "lng": 136.2275308,
    "tel": "0776-73-0144",
    "url": "http://www.awara-hibari.jp/index.htm",
    "pref": "福井県",
    "city": "あわら市",
    "category": "tokuyou",
    "serviceType": "介護老人福祉施設",
    "capacity": 40,
    "openDays": [],
    "openDaysNote": ""
  },
  {
    "id": "1870800297",
    "name": "あわら市金津雲雀ヶ丘寮介護老人福祉施設",
    "kana": "アワラシカナヅヒバリガオカリョウカイゴロウジンフクシシセツ",
    "address": "あわら市春宮3丁目28-21",
    "lat": 36.2199603,
    "lng": 136.2275308,
    "tel": "0776-73-0144",
    "url": "http://www.awara-hibari.jp/",
    "pref": "福井県",
    "city": "あわら市",
    "category": "tokuyou",
    "serviceType": "介護老人福祉施設",
    "capacity": 40,
    "openDays": [],
    "openDaysNote": ""
  },
  {
    "id": "1870800016",
    "name": "特別養護老人ホーム　芦原メロン苑　（介護老人福祉施設）",
    "kana": "トクベツヨウゴロウジンホーム　アワラメロンエン　（カイゴロウジンフクシシセツ）",
    "address": "福井県あわら市井江葭50-18",
    "lat": 36.2403604,
    "lng": 136.218481,
    "tel": "0776-78-7880",
    "url": "http://www.meron-en.or.jp/",
    "pref": "福井県",
    "city": "あわら市",
    "category": "tokuyou",
    "serviceType": "介護老人福祉施設",
    "capacity": 60,
    "openDays": [],
    "openDaysNote": ""
  },
  {
    "id": "1872300031",
    "name": "楊梅苑",
    "kana": "ヨウバイエン",
    "address": "福井県大飯郡おおい町野尻２８－３７",
    "lat": 35.4571065,
    "lng": 135.6107707,
    "tel": "0770-77-1011",
    "url": "http://www.yu-aikai.or.jp/",
    "pref": "福井県",
    "city": "おおい町",
    "category": "tokuyou",
    "serviceType": "介護老人福祉施設",
    "capacity": 0,
    "openDays": [],
    "openDaysNote": ""
  },
  {
    "id": "1871600142",
    "name": "アニス松岡",
    "kana": "アニスマツオカ",
    "address": "福井県吉田郡永平寺町松岡椚第３１号７番地１",
    "lat": 36.0951092147096,
    "lng": 136.297427079762,
    "tel": "0776-61-0725",
    "url": "http://www.taiyo-kai.jp/",
    "pref": "福井県",
    "city": "永平寺町",
    "category": "tokuyou",
    "serviceType": "介護老人福祉施設",
    "capacity": 0,
    "openDays": [],
    "openDaysNote": ""
  },
  {
    "id": "1871600282",
    "name": "ひかり苑",
    "kana": "ヒカリエン",
    "address": "福井県吉田郡永平寺町山王7-30",
    "lat": 36.0800933,
    "lng": 136.3959853,
    "tel": "0776-64-3500",
    "url": "http://www.hikarigroup.jp/hikarien/",
    "pref": "福井県",
    "city": "永平寺町",
    "category": "tokuyou",
    "serviceType": "介護老人福祉施設",
    "capacity": 30,
    "openDays": [],
    "openDaysNote": ""
  },
  {
    "id": "1871600035",
    "name": "ひかり苑",
    "kana": "ヒカリエン",
    "address": "福井県吉田郡永平寺町山王7-30",
    "lat": 36.0800933,
    "lng": 136.3959853,
    "tel": "0776-64-3500",
    "url": "http://www.hikarigroup.jp/hikarien/",
    "pref": "福井県",
    "city": "永平寺町",
    "category": "tokuyou",
    "serviceType": "介護老人福祉施設",
    "capacity": 50,
    "openDays": [],
    "openDaysNote": ""
  },
  {
    "id": "1871600050",
    "name": "永平寺ハウス",
    "kana": "エイヘイジハウス",
    "address": "吉田郡永平寺町けやき台813-1",
    "lat": 36.0768645,
    "lng": 136.3174986,
    "tel": "0776-63-4373",
    "url": "https://www.fukusenkai.jp/",
    "pref": "福井県",
    "city": "永平寺町",
    "category": "tokuyou",
    "serviceType": "介護老人福祉施設",
    "capacity": 80,
    "openDays": [],
    "openDaysNote": ""
  },
  {
    "id": "1870300017",
    "name": "水仙園",
    "kana": "スイセンエン",
    "address": "越前市萱谷町４－９－１",
    "lat": 35.8787034,
    "lng": 136.23272,
    "tel": "0778-27-2155",
    "url": "http://www.suisenen.jp",
    "pref": "福井県",
    "city": "越前市",
    "category": "tokuyou",
    "serviceType": "介護老人福祉施設",
    "capacity": 0,
    "openDays": [],
    "openDaysNote": ""
  },
  {
    "id": "1870300835",
    "name": "第２水仙園",
    "kana": "ダイニスイセンエン",
    "address": "福井県越前市萱谷町４－９－１",
    "lat": 35.8787034,
    "lng": 136.23272,
    "tel": "0778-27-2155",
    "url": "http://www.suisenen.jp",
    "pref": "福井県",
    "city": "越前市",
    "category": "tokuyou",
    "serviceType": "介護老人福祉施設",
    "capacity": null,
    "openDays": [],
    "openDaysNote": ""
  },
  {
    "id": "1870300124",
    "name": "第２和上苑",
    "kana": "ダイニワジョウエン",
    "address": "福井県越前市白崎町第34号2番地の１",
    "lat": 35.8644917,
    "lng": 136.145103,
    "tel": "0778-25-6400",
    "url": "http://www.wakatake.ne.jp",
    "pref": "福井県",
    "city": "越前市",
    "category": "tokuyou",
    "serviceType": "介護老人福祉施設",
    "capacity": 0,
    "openDays": [],
    "openDaysNote": ""
  },
  {
    "id": "1870300728",
    "name": "第３和上苑",
    "kana": "ダイサンワジョウエン",
    "address": "福井県越前市高木町12-7-1",
    "lat": 35.9282074,
    "lng": 136.1904939,
    "tel": "0778-23-0700",
    "url": "http://www.wakatake.ne.jp/",
    "pref": "福井県",
    "city": "越前市",
    "category": "tokuyou",
    "serviceType": "介護老人福祉施設",
    "capacity": 0,
    "openDays": [],
    "openDaysNote": ""
  },
  {
    "id": "1870300439",
    "name": "特別養護老人ホーム　メゾンいまだて",
    "kana": "トクベツヨウゴロウジンホーム　メゾンイマダテ",
    "address": "福井県越前市東樫尾町８番３８号",
    "lat": 35.9382156,
    "lng": 136.2829452,
    "tel": "0778-43-1800",
    "url": "http://www.mezon-f.com/",
    "pref": "福井県",
    "city": "越前市",
    "category": "tokuyou",
    "serviceType": "介護老人福祉施設",
    "capacity": 60,
    "openDays": [],
    "openDaysNote": ""
  },
  {
    "id": "1872000235",
    "name": "シルバーハイツ宮崎",
    "kana": "シルバーハイツミヤザキ",
    "address": "福井県丹生郡越前町小曽原75-35",
    "lat": 35.9284175,
    "lng": 136.0664896,
    "tel": "0778-32-3838",
    "url": "http://www.silver-h-miyazaki.jp/",
    "pref": "福井県",
    "city": "越前町",
    "category": "tokuyou",
    "serviceType": "介護老人福祉施設",
    "capacity": 50,
    "openDays": [],
    "openDaysNote": ""
  },
  {
    "id": "1872000011",
    "name": "ユニット型指定介護老人福祉施設　第三光が丘ハウス",
    "kana": "ユニットガタシテイカイゴロウジンフクシシセツ　ダイサンヒカリガオカハウス",
    "address": "福井県丹生郡越前町朝日22字７-１",
    "lat": 35.9709529,
    "lng": 136.119688,
    "tel": "0778-34-1220",
    "url": "http://www.kodoen.or.jp",
    "pref": "福井県",
    "city": "越前町",
    "category": "tokuyou",
    "serviceType": "介護老人福祉施設",
    "capacity": 0,
    "openDays": [],
    "openDaysNote": ""
  },
  {
    "id": "1872000029",
    "name": "特別養護老人ホーム　やすらぎ荘",
    "kana": "トクベツヨウゴロウジンホーム　ヤスラギソウ",
    "address": "福井県丹生郡越前町織田１０２－８１",
    "lat": 35.9582827103743,
    "lng": 136.051497765546,
    "tel": "0778-36-1170",
    "url": "http://ota-yasuragikai.com",
    "pref": "福井県",
    "city": "越前町",
    "category": "tokuyou",
    "serviceType": "介護老人福祉施設",
    "capacity": 0,
    "openDays": [],
    "openDaysNote": ""
  },
  {
    "id": "1872000052",
    "name": "特別養護老人ホーム　海楽園",
    "kana": "トクベツヨウゴロウジンホーム　カイラクエン",
    "address": "福井県丹生郡越前町米ノ46-1-1",
    "lat": 35.8918365,
    "lng": 135.996106,
    "tel": "0778-39-1800",
    "url": "http://echizen-kairakuen.jp",
    "pref": "福井県",
    "city": "越前町",
    "category": "tokuyou",
    "serviceType": "介護老人福祉施設",
    "capacity": 50,
    "openDays": [],
    "openDaysNote": ""
  },
  {
    "id": "1872000573",
    "name": "特別養護老人ホーム　丹生ケアセンターひまわり荘",
    "kana": "トクベツヨウゴロウジンホーム　ニュウケアセンターヒマワリソウ",
    "address": "福井県丹生郡越前町四ツ杉3-10",
    "lat": 35.9607264,
    "lng": 136.0355446,
    "tel": "0778-36-2170",
    "url": "www.sekishin-himawari.or.jp",
    "pref": "福井県",
    "city": "越前町",
    "category": "tokuyou",
    "serviceType": "介護老人福祉施設",
    "capacity": null,
    "openDays": [],
    "openDaysNote": ""
  },
  {
    "id": "1872300098",
    "name": "高浜けいあいの里",
    "kana": "タカハマケイアイノサト",
    "address": "福井県大飯郡高浜町和田168－22",
    "lat": 35.4874894,
    "lng": 135.5824721,
    "tel": "0770-71-1022",
    "url": "http://www.yukokai.or.jp",
    "pref": "福井県",
    "city": "高浜町",
    "category": "tokuyou",
    "serviceType": "介護老人福祉施設",
    "capacity": 0,
    "openDays": [],
    "openDaysNote": ""
  },
  {
    "id": "1871700967",
    "name": "介護老人福祉施設　長寿園（ユニット型）",
    "kana": "カイゴロウジンフクシシセツ　チョウジュエン（ユニットガタ）",
    "address": "福井県坂井市丸岡町八ケ郷２２－４",
    "lat": 36.1606079,
    "lng": 136.2786754,
    "tel": "0776-66-6734",
    "url": "http://www.choujuen.com/",
    "pref": "福井県",
    "city": "坂井市",
    "category": "tokuyou",
    "serviceType": "介護老人福祉施設",
    "capacity": 0,
    "openDays": [],
    "openDaysNote": ""
  },
  {
    "id": "1871700090",
    "name": "介護老人福祉施設　豊楽園",
    "kana": "カイゴロウジンフクシシセツ　ホウラクエン",
    "address": "福井県坂井市坂井町下関42-2",
    "lat": 36.1909970977286,
    "lng": 136.227779026845,
    "tel": "0776-72-2630",
    "url": "https://s-fukushi.or.jp/hourakuen/",
    "pref": "福井県",
    "city": "坂井市",
    "category": "tokuyou",
    "serviceType": "介護老人福祉施設",
    "capacity": 80,
    "openDays": [],
    "openDaysNote": ""
  },
  {
    "id": "1871700108",
    "name": "特別養護老人ホーム　ガーデンハイツ春江",
    "kana": "トクベツヨウゴロウジンホーム　ガーデンハイツハルエ",
    "address": "福井県坂井市春江町針原４８－２８－１",
    "lat": 36.1286039,
    "lng": 136.2073841,
    "tel": "0776-51-6233",
    "url": "http://fj-g.jp/",
    "pref": "福井県",
    "city": "坂井市",
    "category": "tokuyou",
    "serviceType": "介護老人福祉施設",
    "capacity": 0,
    "openDays": [],
    "openDaysNote": ""
  },
  {
    "id": "1871700934",
    "name": "特別養護老人ホーム　ガーデンハイツ春江",
    "kana": "トクベツヨウゴロウジンホーム　ガーデンハイツハルエ",
    "address": "福井県坂井市春江町針原48-28-1",
    "lat": 36.1286039,
    "lng": 136.2073841,
    "tel": "0776-51-6233",
    "url": "http://fj-g.jp/",
    "pref": "福井県",
    "city": "坂井市",
    "category": "tokuyou",
    "serviceType": "介護老人福祉施設",
    "capacity": 0,
    "openDays": [],
    "openDaysNote": ""
  },
  {
    "id": "1871700132",
    "name": "特別養護老人ホーム白楽荘",
    "kana": "トクベツヨウゴロウジンホームハクラクソウ",
    "address": "福井県坂井市三国町梶49-18",
    "lat": 36.2464304528272,
    "lng": 136.155039375394,
    "tel": "0776-82-1282",
    "url": "http://www.hakurakuso.com",
    "pref": "福井県",
    "city": "坂井市",
    "category": "tokuyou",
    "serviceType": "介護老人福祉施設",
    "capacity": 0,
    "openDays": [],
    "openDaysNote": ""
  },
  {
    "id": "1870700166",
    "name": "エレガントセニールガーデン",
    "kana": "エレガントセニールガーデン",
    "address": "福井県鯖江市吉江町31-7-1",
    "lat": 35.986754,
    "lng": 136.168302,
    "tel": "0778-53-2772",
    "url": "",
    "pref": "福井県",
    "city": "鯖江市",
    "category": "tokuyou",
    "serviceType": "介護老人福祉施設",
    "capacity": 0,
    "openDays": [],
    "openDaysNote": ""
  },
  {
    "id": "1870700034",
    "name": "五岳園",
    "kana": "ゴガクエン",
    "address": "福井県鯖江市漆原町20－8",
    "lat": 35.9385881,
    "lng": 136.1455202,
    "tel": "0778-62-2220",
    "url": "https://www.gogakuen.com/",
    "pref": "福井県",
    "city": "鯖江市",
    "category": "tokuyou",
    "serviceType": "介護老人福祉施設",
    "capacity": 0,
    "openDays": [],
    "openDaysNote": ""
  },
  {
    "id": "1870700463",
    "name": "特別養護老人ホームことぶき荘",
    "kana": "トクベツヨウゴロウジンホームコトブキソウ",
    "address": "福井県鯖江市大野町3-1",
    "lat": 35.9780763,
    "lng": 136.2283956,
    "tel": "0778-51-7780",
    "url": "http://www.touyoukai.or.jp",
    "pref": "福井県",
    "city": "鯖江市",
    "category": "tokuyou",
    "serviceType": "介護老人福祉施設",
    "capacity": 0,
    "openDays": [],
    "openDaysNote": ""
  },
  {
    "id": "1870700067",
    "name": "特別養護老人ホームことぶき荘",
    "kana": "トクベツヨウゴロウジンホームコトブキソウ",
    "address": "福井県鯖江市大野町3-1",
    "lat": 35.9780763,
    "lng": 136.2283956,
    "tel": "0778-51-7780",
    "url": "http://www.touyoukai.or.jp",
    "pref": "福井県",
    "city": "鯖江市",
    "category": "tokuyou",
    "serviceType": "介護老人福祉施設",
    "capacity": 0,
    "openDays": [],
    "openDaysNote": ""
  },
  {
    "id": "1872400187",
    "name": "松寿苑（ユニット型）",
    "kana": "ショウジュエン（ユニットガタ）",
    "address": "福井県三方上中郡若狭町井ノ口32-6-1",
    "lat": 35.4644832570096,
    "lng": 135.853764995354,
    "tel": "0770-62-0100",
    "url": "http://shojukai.jp/",
    "pref": "福井県",
    "city": "若狭町",
    "category": "tokuyou",
    "serviceType": "介護老人福祉施設",
    "capacity": 0,
    "openDays": [],
    "openDaysNote": ""
  },
  {
    "id": "1872400047",
    "name": "松寿苑（従来型）",
    "kana": "ショウジュエン（ジュウライガタ）",
    "address": "福井県三方上中郡若狭町井ノ口32-6-1",
    "lat": 35.4645313180428,
    "lng": 135.853925927895,
    "tel": "0770-62-0100",
    "url": "http://shojukai.jp/",
    "pref": "福井県",
    "city": "若狭町",
    "category": "tokuyou",
    "serviceType": "介護老人福祉施設",
    "capacity": 0,
    "openDays": [],
    "openDaysNote": ""
  },
  {
    "id": "1870600200",
    "name": "シルバーケア九頭竜",
    "kana": "シルバーケアクズリュウ",
    "address": "福井県勝山市平泉寺町岩ヶ野第42号61番地",
    "lat": 36.0133012,
    "lng": 136.5467409,
    "tel": "0779－87－3003",
    "url": "https://kuzuryuworkshop.com/",
    "pref": "福井県",
    "city": "勝山市",
    "category": "tokuyou",
    "serviceType": "介護老人福祉施設",
    "capacity": 75,
    "openDays": [],
    "openDaysNote": ""
  },
  {
    "id": "1870600184",
    "name": "特別養護老人ホーム　さつき苑（ユニット型）",
    "kana": "トクベツヨウゴロウジンホーム　サツキエン（ユニットガタ）",
    "address": "福井県勝山市片瀬第１５号２２番地",
    "lat": 36.0487165,
    "lng": 136.5215714,
    "tel": "0779-87-7711",
    "url": "http://www.satsuki.or.jp/",
    "pref": "福井県",
    "city": "勝山市",
    "category": "tokuyou",
    "serviceType": "介護老人福祉施設",
    "capacity": 0,
    "openDays": [],
    "openDaysNote": ""
  },
  {
    "id": "1870600010",
    "name": "特別養護老人ホーム　さつき苑（従来型）",
    "kana": "トクベツヨウゴロウジンホーム　サツキエン",
    "address": "福井県勝山市片瀬第１５号２２番地",
    "lat": 36.0487165,
    "lng": 136.5215714,
    "tel": "0779-87-7711",
    "url": "http://www.satsuki.or.jp/",
    "pref": "福井県",
    "city": "勝山市",
    "category": "tokuyou",
    "serviceType": "介護老人福祉施設",
    "capacity": 0,
    "openDays": [],
    "openDaysNote": ""
  },
  {
    "id": "1870600028",
    "name": "特別養護老人ホームさくら荘",
    "kana": "トクベツヨウゴロウジンホームサクラソウ",
    "address": "福井県勝山市北谷町中尾第13号16番地",
    "lat": 36.0988371295166,
    "lng": 136.543334740476,
    "tel": "0779-83-1331",
    "url": "http://k-sakurasou.jp/",
    "pref": "福井県",
    "city": "勝山市",
    "category": "tokuyou",
    "serviceType": "介護老人福祉施設",
    "capacity": 0,
    "openDays": [],
    "openDaysNote": ""
  },
  {
    "id": "1870400155",
    "name": "特別養護老人ホーム　もみじの里",
    "kana": "トクベツヨウゴロウジンホーム　モミジノサト",
    "address": "福井県小浜市東勢11号3番",
    "lat": 35.482683,
    "lng": 135.7204101,
    "tel": "0770-52-0084",
    "url": "http://www.momijist.jp/",
    "pref": "福井県",
    "city": "小浜市",
    "category": "tokuyou",
    "serviceType": "介護老人福祉施設",
    "capacity": null,
    "openDays": [],
    "openDaysNote": ""
  },
  {
    "id": "1870400049",
    "name": "特別養護老人ホーム　若狭ハイツ",
    "kana": "トクベツヨウゴロウジンホーム　ワカサハイツ",
    "address": "小浜市阿納尻第５９号９番地の１",
    "lat": 35.5296067595256,
    "lng": 135.762870264418,
    "tel": "0770-53-2940",
    "url": "http://wakasa-fukushikai.com",
    "pref": "福井県",
    "city": "小浜市",
    "category": "tokuyou",
    "serviceType": "介護老人福祉施設",
    "capacity": null,
    "openDays": [],
    "openDaysNote": ""
  },
  {
    "id": "1870400122",
    "name": "特別養護老人ホームひまわり荘",
    "kana": "トクベツヨウゴロウジンホームヒマワリソウ",
    "address": "福井県小浜市加茂2-52特別養護老人ホームひまわり荘 特別養護老人ホームひまわり荘",
    "lat": 35.4924896,
    "lng": 135.8215993,
    "tel": "0770-57-2120",
    "url": "http://www.sekishin-himawari.or.jp/",
    "pref": "福井県",
    "city": "小浜市",
    "category": "tokuyou",
    "serviceType": "介護老人福祉施設",
    "capacity": 0,
    "openDays": [],
    "openDaysNote": ""
  },
  {
    "id": "1870500467",
    "name": "介護老人福祉施設　ビハーラ大野",
    "kana": "カイゴロウジンフクシシセツ　ビハーラオオノ",
    "address": "牛ヶ原154-1-1",
    "lat": 35.9938373,
    "lng": 136.4659242,
    "tel": "0779-66-1850",
    "url": "http://www.fuku-koumyouji.jp/",
    "pref": "福井県",
    "city": "大野市",
    "category": "tokuyou",
    "serviceType": "介護老人福祉施設",
    "capacity": 0,
    "openDays": [],
    "openDaysNote": ""
  },
  {
    "id": "1870500376",
    "name": "特別養護老人ホーム　大野和光園",
    "kana": "トクベツヨウゴロウジンホーム　オオノワコウエン",
    "address": "福井県大野市篠座７９号１１番地",
    "lat": 35.9652479063401,
    "lng": 136.50069843373,
    "tel": "0779-66-2551",
    "url": "http://www.ono-wakouen.jp/",
    "pref": "福井県",
    "city": "大野市",
    "category": "tokuyou",
    "serviceType": "介護老人福祉施設",
    "capacity": 0,
    "openDays": [],
    "openDaysNote": ""
  },
  {
    "id": "1870500038",
    "name": "特別養護老人ホーム大野和光園",
    "kana": "トクベツヨウゴロウジンホームオオノワコウエン",
    "address": "福井県大野市篠座７９号１１番地",
    "lat": 35.9648959041428,
    "lng": 136.50087792209,
    "tel": "0779-66-2551",
    "url": "http://www.ono-wakouen.jp",
    "pref": "福井県",
    "city": "大野市",
    "category": "tokuyou",
    "serviceType": "介護老人福祉施設",
    "capacity": 0,
    "openDays": [],
    "openDaysNote": ""
  },
  {
    "id": "1870500020",
    "name": "福井県済生会聖和園",
    "kana": "フクイケンサイセイカイセイワエン",
    "address": "福井県大野市蕨生158-35",
    "lat": 35.9819682,
    "lng": 136.5469602,
    "tel": "0779-66-3307",
    "url": "http://www.saiseikai-seiwaen.jp/",
    "pref": "福井県",
    "city": "大野市",
    "category": "tokuyou",
    "serviceType": "介護老人福祉施設",
    "capacity": null,
    "openDays": [],
    "openDaysNote": ""
  },
  {
    "id": "1871800072",
    "name": "池田町幸寿苑",
    "kana": "イケダチョウコウジュエン",
    "address": "福井県今立郡池田町常安２０－５",
    "lat": 35.8776908,
    "lng": 136.3439936,
    "tel": "0778-44-6110",
    "url": "http://www.kenrakukai.jp/",
    "pref": "福井県",
    "city": "池田町",
    "category": "tokuyou",
    "serviceType": "介護老人福祉施設",
    "capacity": 0,
    "openDays": [],
    "openDaysNote": ""
  },
  {
    "id": "1870200092",
    "name": "常磐荘",
    "kana": "トキワソウ",
    "address": "福井県敦賀市金山５０号１９番地の１",
    "lat": 35.6218083902231,
    "lng": 136.030468683333,
    "tel": "0770-25-6960",
    "url": "http://www.tokiwaso.jp/",
    "pref": "福井県",
    "city": "敦賀市",
    "category": "tokuyou",
    "serviceType": "介護老人福祉施設",
    "capacity": 80,
    "openDays": [],
    "openDaysNote": ""
  },
  {
    "id": "1870200316",
    "name": "第2渓山荘ぽっぽ",
    "kana": "ダイニケイザンソウポッポ",
    "address": "福井県敦賀市鉄輪町1丁目２－５７",
    "lat": 35.6430525072265,
    "lng": 136.073949125131,
    "tel": "0770-21-1515",
    "url": "https://kjinkai.jp/facility/poppo",
    "pref": "福井県",
    "city": "敦賀市",
    "category": "tokuyou",
    "serviceType": "介護老人福祉施設",
    "capacity": 0,
    "openDays": [],
    "openDaysNote": ""
  },
  {
    "id": "1870200043",
    "name": "特別養護老人ホーム　　眞盛苑",
    "kana": "トクベツヨウゴロウジンホウム　シンセイエン",
    "address": "福井県敦賀市莇生野90号3番",
    "lat": 35.6274017,
    "lng": 136.0438869,
    "tel": "0770-21-6161",
    "url": "http://www.jishoukai.jp",
    "pref": "福井県",
    "city": "敦賀市",
    "category": "tokuyou",
    "serviceType": "介護老人福祉施設",
    "capacity": null,
    "openDays": [],
    "openDaysNote": ""
  },
  {
    "id": "1870200431",
    "name": "特別養護老人ホーム　　眞盛苑",
    "kana": "トクベツヨウゴロウジンホウム　シンセイエン",
    "address": "福井県敦賀市莇生野90号3番",
    "lat": 35.6274017,
    "lng": 136.0438869,
    "tel": "0770-21-6161",
    "url": "http://www.jishoukai.jp",
    "pref": "福井県",
    "city": "敦賀市",
    "category": "tokuyou",
    "serviceType": "介護老人福祉施設",
    "capacity": null,
    "openDays": [],
    "openDaysNote": ""
  },
  {
    "id": "1870200019",
    "name": "特別養護老人ホーム　渓山荘",
    "kana": "トクベツヨウゴロウジンホーム　ケイザンソウ",
    "address": "福井県敦賀市中８１－１－５",
    "lat": 35.6389014,
    "lng": 136.0878538,
    "tel": "0770-24-2288",
    "url": "http://www.keizansou.or.jp",
    "pref": "福井県",
    "city": "敦賀市",
    "category": "tokuyou",
    "serviceType": "介護老人福祉施設",
    "capacity": 0,
    "openDays": [],
    "openDaysNote": ""
  },
  {
    "id": "1871900096",
    "name": "ほのぼの苑",
    "kana": "ホノボノエン",
    "address": "福井県南条郡南越前町鋳物師5-10-1",
    "lat": 35.8416771,
    "lng": 136.1975982,
    "tel": "0778-47-2078",
    "url": "http://www.honobono-en.com/",
    "pref": "福井県",
    "city": "南越前町",
    "category": "tokuyou",
    "serviceType": "介護老人福祉施設",
    "capacity": 0,
    "openDays": [],
    "openDaysNote": ""
  },
  {
    "id": "1872100035",
    "name": "特別養護老人ホーム　湖岳の郷",
    "kana": "トクベツヨウゴロウジンホーム　コガクノサト",
    "address": "福井県三方郡美浜町金山2-3-27",
    "lat": 35.5964555,
    "lng": 135.9128059,
    "tel": "0770-32-2082",
    "url": "https://www.kogakunosato.jp/",
    "pref": "福井県",
    "city": "美浜町",
    "category": "tokuyou",
    "serviceType": "介護老人福祉施設",
    "capacity": 0,
    "openDays": [],
    "openDaysNote": ""
  },
  {
    "id": "1870101803",
    "name": "HOMETOWNコスモス",
    "kana": "ホームタウンコスモス",
    "address": "福井県福井市帆谷町1字外山33",
    "lat": 36.005964,
    "lng": 136.233934,
    "tel": "0776-38-1159",
    "url": "http://www.ht-cosmos.or.jp/",
    "pref": "福井県",
    "city": "福井市",
    "category": "tokuyou",
    "serviceType": "介護老人福祉施設",
    "capacity": null,
    "openDays": [],
    "openDaysNote": ""
  },
  {
    "id": "1870101639",
    "name": "こしの渚苑",
    "kana": "コシノナギサエン",
    "address": "福井県福井市蒲生町1-90-1",
    "lat": 36.0382524,
    "lng": 136.0111946,
    "tel": "0776-89-2110",
    "url": "http://www.koshinonagisaen.com/",
    "pref": "福井県",
    "city": "福井市",
    "category": "tokuyou",
    "serviceType": "介護老人福祉施設",
    "capacity": 30,
    "openDays": [],
    "openDaysNote": ""
  },
  {
    "id": "1870102603",
    "name": "こしの渚苑（ユニット型）",
    "kana": "コシノナギサエン（ユニットガタ）",
    "address": "福井市蒲生町1-90-1こしの渚苑 こしの渚苑",
    "lat": 36.0382524,
    "lng": 136.0111946,
    "tel": "0776-89-2110",
    "url": "http://www.koshinonagisaen.com/",
    "pref": "福井県",
    "city": "福井市",
    "category": "tokuyou",
    "serviceType": "介護老人福祉施設",
    "capacity": 20,
    "openDays": [],
    "openDaysNote": ""
  },
  {
    "id": "1870101597",
    "name": "すみれ荘",
    "kana": "スミレソウ",
    "address": "福井市島寺町８３－１",
    "lat": 36.0174078,
    "lng": 136.1423865,
    "tel": "0776-98-5550",
    "url": "www.s-shinseikai.jp",
    "pref": "福井県",
    "city": "福井市",
    "category": "tokuyou",
    "serviceType": "介護老人福祉施設",
    "capacity": 80,
    "openDays": [],
    "openDaysNote": ""
  },
  {
    "id": "1870100045",
    "name": "たんぽぽ苑",
    "kana": "タンポポエン",
    "address": "福井市石盛３丁目３０１番地",
    "lat": 36.1185882291354,
    "lng": 136.236739300112,
    "tel": "0776-56-0992",
    "url": "https://www.tanpopoen-senjukai.com",
    "pref": "福井県",
    "city": "福井市",
    "category": "tokuyou",
    "serviceType": "介護老人福祉施設",
    "capacity": 0,
    "openDays": [],
    "openDaysNote": ""
  },
  {
    "id": "1870101811",
    "name": "モアヤング　こもれびホーム",
    "kana": "モアヤング　コモレビホーム",
    "address": "福井県福井市和田中町東沖田30番地の１",
    "lat": 36.0507884548907,
    "lng": 136.257405691285,
    "tel": "0776-28-3787",
    "url": "https://www.moreyoung.jp",
    "pref": "福井県",
    "city": "福井市",
    "category": "tokuyou",
    "serviceType": "介護老人福祉施設",
    "capacity": 0,
    "openDays": [],
    "openDaysNote": ""
  },
  {
    "id": "1870102686",
    "name": "愛全園（ユニット型）",
    "kana": "アイゼンエン(ユニットガタ）",
    "address": "福井市丸山町40-7",
    "lat": 36.0776558,
    "lng": 136.2514637,
    "tel": "0776-53-5411",
    "url": "http://www.asuwafukushikai..jp/aizenen/",
    "pref": "福井県",
    "city": "福井市",
    "category": "tokuyou",
    "serviceType": "介護老人福祉施設",
    "capacity": 0,
    "openDays": [],
    "openDaysNote": ""
  },
  {
    "id": "1870100060",
    "name": "愛全園（従来型）",
    "kana": "アイゼンエン（ジュウライガタ）",
    "address": "福井県福井市丸山町40-7",
    "lat": 36.0776558,
    "lng": 136.2514637,
    "tel": "0776-53-5411",
    "url": "http://www.asuwafukushikai.jp/aizenen/",
    "pref": "福井県",
    "city": "福井市",
    "category": "tokuyou",
    "serviceType": "介護老人福祉施設",
    "capacity": 30,
    "openDays": [],
    "openDaysNote": ""
  },
  {
    "id": "1870100169",
    "name": "介護老人福祉施設　文珠苑",
    "kana": "カイゴロウジンフクシシセツ　モンジュエン",
    "address": "福井県福井市北山町第35号5番地の１",
    "lat": 36.0016067,
    "lng": 136.2508631,
    "tel": "0776-41-7500",
    "url": "http://www.monjuen.com",
    "pref": "福井県",
    "city": "福井市",
    "category": "tokuyou",
    "serviceType": "介護老人福祉施設",
    "capacity": 90,
    "openDays": [],
    "openDaysNote": ""
  },
  {
    "id": "1870100441",
    "name": "山翠苑",
    "kana": "サンスイエン",
    "address": "福井市堅達町２４－１",
    "lat": 36.0749736,
    "lng": 136.2711513,
    "tel": "0776-53-2586",
    "url": "http://www.sansuien.jp/",
    "pref": "福井県",
    "city": "福井市",
    "category": "tokuyou",
    "serviceType": "介護老人福祉施設",
    "capacity": 80,
    "openDays": [],
    "openDaysNote": ""
  },
  {
    "id": "1870100466",
    "name": "新田塚ハウス",
    "kana": "ニッタヅカハウス",
    "address": "福井県福井市江上町55-5",
    "lat": 36.131077529479,
    "lng": 136.164076483548,
    "tel": "0776-59-1800",
    "url": "http://www.f-gh.jp/house/",
    "pref": "福井県",
    "city": "福井市",
    "category": "tokuyou",
    "serviceType": "介護老人福祉施設",
    "capacity": 0,
    "openDays": [],
    "openDaysNote": ""
  },
  {
    "id": "1870100052",
    "name": "足羽利生苑",
    "kana": "アスワリショウエン",
    "address": "福井県福井市栂野町20-7",
    "lat": 36.0388432,
    "lng": 136.2580151,
    "tel": "0776-41-3121",
    "url": "http://www.asuwafukushikai.jp/",
    "pref": "福井県",
    "city": "福井市",
    "category": "tokuyou",
    "serviceType": "介護老人福祉施設",
    "capacity": 59,
    "openDays": [],
    "openDaysNote": ""
  },
  {
    "id": "1870100227",
    "name": "特別養護老人ホーム　あさむつ苑",
    "kana": "トクベツヨウゴロウジンホーム　アサムツエン",
    "address": "福井市引目町第21号9番地の2",
    "lat": 36.022397,
    "lng": 136.1974224,
    "tel": "0776-38-9280",
    "url": "http://www.asamutuen.jp/",
    "pref": "福井県",
    "city": "福井市",
    "category": "tokuyou",
    "serviceType": "介護老人福祉施設",
    "capacity": 70,
    "openDays": [],
    "openDaysNote": ""
  },
  {
    "id": "1870102884",
    "name": "特別養護老人ホーム　たぶのき",
    "kana": "トクベツヨウゴロウジンホーム　タブノキ",
    "address": "大願寺3丁目3-6",
    "lat": 36.0816900975666,
    "lng": 136.228150689549,
    "tel": "0776-27-4140",
    "url": "http://fukui-youi.com/",
    "pref": "福井県",
    "city": "福井市",
    "category": "tokuyou",
    "serviceType": "介護老人福祉施設",
    "capacity": null,
    "openDays": [],
    "openDaysNote": ""
  },
  {
    "id": "1870100391",
    "name": "特別養護老人ホーム　愛寿苑",
    "kana": "トクベツヨウゴロウジンホーム　アイジュエン",
    "address": "福井市若杉2丁目601",
    "lat": 36.0552318,
    "lng": 136.1908581,
    "tel": "0776-34-5100",
    "url": "http://www.aijuen.com/",
    "pref": "福井県",
    "city": "福井市",
    "category": "tokuyou",
    "serviceType": "介護老人福祉施設",
    "capacity": 80,
    "openDays": [],
    "openDaysNote": ""
  },
  {
    "id": "1870100185",
    "name": "特別養護老人ホーム　高雄苑",
    "kana": "トクベツヨウゴロウジンホーム　タカオエン",
    "address": "福井県福井市本堂町５１字３３番地",
    "lat": 36.0564834,
    "lng": 136.1266844,
    "tel": "0776-37-0116",
    "url": "http://www.takaoen.jp",
    "pref": "福井県",
    "city": "福井市",
    "category": "tokuyou",
    "serviceType": "介護老人福祉施設",
    "capacity": 0,
    "openDays": [],
    "openDaysNote": ""
  },
  {
    "id": "1870100177",
    "name": "特別養護老人ホーム　藤島園",
    "kana": "トクベツヨウゴロウジンホーム　フジシマエン",
    "address": "福井市高木中央3-1701",
    "lat": 36.0924394,
    "lng": 136.2396814,
    "tel": "0776-52-1166",
    "url": "http://www.fujishimaen.or.jp/",
    "pref": "福井県",
    "city": "福井市",
    "category": "tokuyou",
    "serviceType": "介護老人福祉施設",
    "capacity": 105,
    "openDays": [],
    "openDaysNote": ""
  },
  {
    "id": "1870101563",
    "name": "特別養護老人ホーム　美山貴寿苑",
    "kana": "トクベツヨウゴロウジンホーム　ミヤマキジュエン",
    "address": "福井市市波町３１－２",
    "lat": 36.0162412,
    "lng": 136.330821,
    "tel": "0776-96-4150",
    "url": "https://miyamakijuen.jp/",
    "pref": "福井県",
    "city": "福井市",
    "category": "tokuyou",
    "serviceType": "介護老人福祉施設",
    "capacity": 50,
    "openDays": [],
    "openDaysNote": ""
  },
  {
    "id": "1870100409",
    "name": "特別養護老人ホームあさくら苑",
    "kana": "トクベツヨウゴロウジンホームアサクラエン",
    "address": "福井市下六条町18-32",
    "lat": 36.0351768,
    "lng": 136.2293781,
    "tel": "0776-41-8400",
    "url": "http://www.asakuraen.jp",
    "pref": "福井県",
    "city": "福井市",
    "category": "tokuyou",
    "serviceType": "介護老人福祉施設",
    "capacity": 0,
    "openDays": [],
    "openDaysNote": ""
  },
  {
    "id": "1870100037",
    "name": "特別養護老人ホーム宝珠苑",
    "kana": "トクベツヨウゴロウジンホームホウジュエン",
    "address": "福井市内山梨子町2-3-1",
    "lat": 36.1346799437502,
    "lng": 136.157338213492,
    "tel": "0776-83-1373",
    "url": "http://www.houjuen.org/",
    "pref": "福井県",
    "city": "福井市",
    "category": "tokuyou",
    "serviceType": "介護老人福祉施設",
    "capacity": 80,
    "openDays": [],
    "openDaysNote": ""
  },
  {
    "id": "1870100250",
    "name": "悠和園",
    "kana": "ユウワエン",
    "address": "福井市免鳥町22-74",
    "lat": 36.1309826,
    "lng": 136.074891,
    "tel": "0776-87-2161",
    "url": "http://www.yuwaen.jp",
    "pref": "福井県",
    "city": "福井市",
    "category": "tokuyou",
    "serviceType": "介護老人福祉施設",
    "capacity": 0,
    "openDays": [],
    "openDaysNote": ""
  }
]