[
  {
    "id": "4077500033",
    "name": "特別養護老人ホーム　えびね荘",
    "kana": "トクベツヨウゴ　ロウジンホーム　エビネソウ",
    "address": "福岡県うきは市浮羽町古川707-3",
    "lat": 33.3512864,
    "lng": 130.7947145,
    "tel": "0943-77-7610",
    "url": "http://ebine.jp",
    "pref": "福岡県",
    "city": "うきは市",
    "category": "tokuyou",
    "serviceType": "介護老人福祉施設",
    "capacity": 0,
    "openDays": [],
    "openDaysNote": ""
  },
  {
    "id": "4077300533",
    "name": "特別養護老人ホーム　ひじり園うきは",
    "kana": "トクベツヨウゴロウジンホーム　ヒジリエンウキハ",
    "address": "福岡県うきは市吉井町富永１７４４－１",
    "lat": 33.3418478798597,
    "lng": 130.734474101158,
    "tel": "０９４３－７６－９２２２",
    "url": "hijirikai.com",
    "pref": "福岡県",
    "city": "うきは市",
    "category": "tokuyou",
    "serviceType": "介護老人福祉施設",
    "capacity": null,
    "openDays": [],
    "openDaysNote": ""
  },
  {
    "id": "4077300038",
    "name": "特別養護老人ホーム　水月吉井",
    "kana": "トクベツヨウゴロウジンホーム　スイゲツヨシイ",
    "address": "福岡県うきは市吉井町新治176-1",
    "lat": 33.3484192,
    "lng": 130.7601029,
    "tel": "0943-76-5366",
    "url": "http://www.tachiarai-kouseien.jp/",
    "pref": "福岡県",
    "city": "うきは市",
    "category": "tokuyou",
    "serviceType": "介護老人福祉施設",
    "capacity": 50,
    "openDays": [],
    "openDaysNote": ""
  },
  {
    "id": "4070000387",
    "name": "特別養護老人ホ－ム聖家族の家",
    "kana": "トクベツヨウゴロウジンホームセイカゾクノイエ",
    "address": "福岡県京都郡みやこ町豊津566番地の2",
    "lat": 33.6773116,
    "lng": 130.9713307,
    "tel": "0930-33-2218",
    "url": "http://www.seikazoku.jp/",
    "pref": "福岡県",
    "city": "みやこ町",
    "category": "tokuyou",
    "serviceType": "介護老人福祉施設",
    "capacity": null,
    "openDays": [],
    "openDaysNote": ""
  },
  {
    "id": "4070000643",
    "name": "特別養護老人ホーム　勝山苑",
    "kana": "トクベツヨウゴロウジンホーム　カツヤマエン",
    "address": "福岡県京都郡みやこ町勝山大久保3224-1",
    "lat": 33.6897153,
    "lng": 130.9286397,
    "tel": "0930-32-4775",
    "url": "",
    "pref": "福岡県",
    "city": "みやこ町",
    "category": "tokuyou",
    "serviceType": "介護老人福祉施設",
    "capacity": 50,
    "openDays": [],
    "openDaysNote": ""
  },
  {
    "id": "4070000247",
    "name": "特別養護老人ホーム犀川園",
    "kana": "トクベツヨウゴロウジンホームサイガワエン",
    "address": "福岡県京都郡みやこ町犀川谷口759番地",
    "lat": 33.6598101,
    "lng": 130.9296042,
    "tel": "0930-42-3160",
    "url": "http://saigawaen.jp/",
    "pref": "福岡県",
    "city": "みやこ町",
    "category": "tokuyou",
    "serviceType": "介護老人福祉施設",
    "capacity": 0,
    "openDays": [],
    "openDaysNote": ""
  },
  {
    "id": "4078700673",
    "name": "特別養護老人ホーム　常照苑くすのき通り",
    "kana": "トクベツヨウゴロウジンホーム　ジョウショウエン　クスノキドオリ",
    "address": "福岡県みやま市高田町上楠田1237",
    "lat": 33.0933732,
    "lng": 130.4802075,
    "tel": "0944-22-2350",
    "url": "http://www.kourinkai1237.org",
    "pref": "福岡県",
    "city": "みやま市",
    "category": "tokuyou",
    "serviceType": "介護老人福祉施設",
    "capacity": 30,
    "openDays": [],
    "openDaysNote": ""
  },
  {
    "id": "4079100048",
    "name": "特別養護老人ホーム　常照苑サンシャイン",
    "kana": "トクベツヨウゴロウジンホーム　ジョウショウエンサンシャイン",
    "address": "福岡県みやま市高田町濃施377-1",
    "lat": 33.0995751,
    "lng": 130.4584769,
    "tel": "0944-22-6539",
    "url": "http://www.kourinnkai1237.org",
    "pref": "福岡県",
    "city": "みやま市",
    "category": "tokuyou",
    "serviceType": "介護老人福祉施設",
    "capacity": 40,
    "openDays": [],
    "openDaysNote": ""
  },
  {
    "id": "4078700624",
    "name": "特別養護老人ホーム　第二竹里館",
    "kana": "トクベツヨウゴロウジンホーム　ダイチチクリカン",
    "address": "福岡県みやま市瀬高町高柳256-1",
    "lat": 33.1492088,
    "lng": 130.4629741,
    "tel": "0944-62-7001",
    "url": "http://www.myclinic.ne.jp/yamauchi-kcp/pc/free.html",
    "pref": "福岡県",
    "city": "みやま市",
    "category": "tokuyou",
    "serviceType": "介護老人福祉施設",
    "capacity": 40,
    "openDays": [],
    "openDaysNote": ""
  },
  {
    "id": "4079000024",
    "name": "特別養護老人ホーム　竹里館",
    "kana": "トクベツヨウゴロウジンホーム　チクリカン",
    "address": "福岡県みやま市山川町原町83-1",
    "lat": 33.1172963,
    "lng": 130.5283981,
    "tel": "0944-67-3141",
    "url": "https://www.ykta.jp/chikurikan",
    "pref": "福岡県",
    "city": "みやま市",
    "category": "tokuyou",
    "serviceType": "介護老人福祉施設",
    "capacity": 0,
    "openDays": [],
    "openDaysNote": ""
  },
  {
    "id": "4078700061",
    "name": "特別養護老人ホーム　冨寿園",
    "kana": "トクベツヨウゴロウジンホウム　フジュエン",
    "address": "福岡県みやま市瀬高町松田481",
    "lat": 33.1424013,
    "lng": 130.4851696,
    "tel": "0944-63-2200",
    "url": "",
    "pref": "福岡県",
    "city": "みやま市",
    "category": "tokuyou",
    "serviceType": "介護老人福祉施設",
    "capacity": 0,
    "openDays": [],
    "openDaysNote": ""
  },
  {
    "id": "4078700665",
    "name": "特別養護老人ホーム　冨寿園テラス",
    "kana": "トクベツヨウゴロウジンホウム　フジュエン　テラス",
    "address": "福岡県みやま市瀬高町松田481",
    "lat": 33.1424013,
    "lng": 130.4851696,
    "tel": "0944-63-2200",
    "url": "",
    "pref": "福岡県",
    "city": "みやま市",
    "category": "tokuyou",
    "serviceType": "介護老人福祉施設",
    "capacity": 0,
    "openDays": [],
    "openDaysNote": ""
  },
  {
    "id": "4074900269",
    "name": "特別養護老人ホーム　ソレイユ芦屋",
    "kana": "トクベツヨウゴロウジンホーム　ソレイユアシヤ",
    "address": "福岡県遠賀郡芦屋町大字山鹿122番1",
    "lat": 33.8981661947433,
    "lng": 130.67460971786,
    "tel": "093-221-1500",
    "url": "http://www.soreiyugroup.or.jp",
    "pref": "福岡県",
    "city": "芦屋町",
    "category": "tokuyou",
    "serviceType": "介護老人福祉施設",
    "capacity": 0,
    "openDays": [],
    "openDaysNote": ""
  },
  {
    "id": "4074900061",
    "name": "特別養護老人ホーム　まつかぜ荘",
    "kana": "トクベツヨウゴロウジンホーム　マツカゼソウ",
    "address": "福岡県遠賀郡芦屋町緑ヶ丘2-2",
    "lat": 33.8868015,
    "lng": 130.6672289,
    "tel": "093-222-0765",
    "url": "",
    "pref": "福岡県",
    "city": "芦屋町",
    "category": "tokuyou",
    "serviceType": "介護老人福祉施設",
    "capacity": 0,
    "openDays": [],
    "openDaysNote": ""
  },
  {
    "id": "4075400533",
    "name": "特別養護老人ホームジュエル鞍手",
    "kana": "トクベツヨウゴロウジンホームジュエルクラテ",
    "address": "福岡県鞍手郡鞍手町大字古門４１９０－１",
    "lat": 33.8154265387707,
    "lng": 130.66746440105,
    "tel": "0949-52-7161",
    "url": "",
    "pref": "福岡県",
    "city": "鞍手町",
    "category": "tokuyou",
    "serviceType": "介護老人福祉施設",
    "capacity": 60,
    "openDays": [],
    "openDaysNote": ""
  },
  {
    "id": "4075400079",
    "name": "特別養護老人ホームやすらぎ園",
    "kana": "トクベツヨウゴロウジンホームヤスラギエン",
    "address": "福岡県鞍手郡鞍手町木月1826番地1",
    "lat": 33.7999940239154,
    "lng": 130.676723825162,
    "tel": "0949-42-6883",
    "url": "http://www.yasuragi-en.or.jp",
    "pref": "福岡県",
    "city": "鞍手町",
    "category": "tokuyou",
    "serviceType": "介護老人福祉施設",
    "capacity": 100,
    "openDays": [],
    "openDaysNote": ""
  },
  {
    "id": "4073800668",
    "name": "ユニット型特別養護老人ホーム同行園",
    "kana": "ユニットガタトクベツヨウゴロウジンホーム　ドウコウエン",
    "address": "福岡県糟屋郡宇美町貴船１丁目2番３号",
    "lat": 33.5657455,
    "lng": 130.5125552,
    "tel": "092-933-4811",
    "url": "http://www.dohogroup.jp",
    "pref": "福岡県",
    "city": "宇美町",
    "category": "tokuyou",
    "serviceType": "介護老人福祉施設",
    "capacity": 0,
    "openDays": [],
    "openDaysNote": ""
  },
  {
    "id": "4073800072",
    "name": "特別養護老人ホーム　同行園",
    "kana": "トクベツヨウゴロウジンホーム　ドウコウエン",
    "address": "福岡県糟屋郡宇美町貴船1丁目2番3号",
    "lat": 33.5657079339331,
    "lng": 130.512658603908,
    "tel": "092-933-4811",
    "url": "http://www.dohogroup.jp",
    "pref": "福岡県",
    "city": "宇美町",
    "category": "tokuyou",
    "serviceType": "介護老人福祉施設",
    "capacity": 0,
    "openDays": [],
    "openDaysNote": ""
  },
  {
    "id": "4075200537",
    "name": "特別養護老人ホーム　ソレイユ遠賀",
    "kana": "トクベツヨウゴロウジンホーム　ソレイユオンガ",
    "address": "福岡県遠賀郡遠賀町大字鬼津640番1",
    "lat": 33.8688151,
    "lng": 130.6575883,
    "tel": "093-291-2010",
    "url": "http://www.soreiyugroup.or.ip",
    "pref": "福岡県",
    "city": "遠賀町",
    "category": "tokuyou",
    "serviceType": "介護老人福祉施設",
    "capacity": 60,
    "openDays": [],
    "openDaysNote": ""
  },
  {
    "id": "4075200107",
    "name": "特別養護老人ホーム　遠賀園",
    "kana": "トクベツヨウゴロウジンホームオンガエン",
    "address": "福岡県遠賀郡遠賀町浅木三丁目18-1",
    "lat": 33.8256312,
    "lng": 130.6672052,
    "tel": "093-293-5522",
    "url": "http://ongaen.net/",
    "pref": "福岡県",
    "city": "遠賀町",
    "category": "tokuyou",
    "serviceType": "介護老人福祉施設",
    "capacity": 50,
    "openDays": [],
    "openDaysNote": ""
  },
  {
    "id": "4075100489",
    "name": "指定介護老人福祉施設　あゆみの里",
    "kana": "シテイカイゴロウジンフクシシセツ　アユミノサト",
    "address": "福岡県遠賀郡岡垣町鍋田2丁目1-6",
    "lat": 33.8455755,
    "lng": 130.6326302,
    "tel": "093-281-2223",
    "url": "www.tsutsumikai-ayumi.com",
    "pref": "福岡県",
    "city": "岡垣町",
    "category": "tokuyou",
    "serviceType": "介護老人福祉施設",
    "capacity": 0,
    "openDays": [],
    "openDaysNote": ""
  },
  {
    "id": "4075100901",
    "name": "特別養護老人ホーム　スマイル・岡垣",
    "kana": "トクベツヨウゴロウジンホーム　スマイル・オカガキ",
    "address": "福岡県遠賀郡岡垣町大字内浦155番2",
    "lat": 33.8740062426794,
    "lng": 130.575584367459,
    "tel": "093-281-2525",
    "url": "www.smile-2525.jp",
    "pref": "福岡県",
    "city": "岡垣町",
    "category": "tokuyou",
    "serviceType": "介護老人福祉施設",
    "capacity": 80,
    "openDays": [],
    "openDaysNote": ""
  },
  {
    "id": "4075100109",
    "name": "特別養護老人ホーム　恵の家",
    "kana": "トクベツヨウゴロウジンホーム　メグミノイエ",
    "address": "福岡県遠賀郡岡垣町大字高倉578－1",
    "lat": 33.8488832,
    "lng": 130.604952,
    "tel": "093-282-0021",
    "url": "https://nihonsyouisya.jp/",
    "pref": "福岡県",
    "city": "岡垣町",
    "category": "tokuyou",
    "serviceType": "介護老人福祉施設",
    "capacity": 0,
    "openDays": [],
    "openDaysNote": ""
  },
  {
    "id": "4072100037",
    "name": "特別養護老人ホーム　　　　　　たちばな苑",
    "kana": "トクベツヨウゴロウジンホーム　　タチバナエン",
    "address": "福岡県嘉麻市上山田818番地18",
    "lat": 33.5646922,
    "lng": 130.7709636,
    "tel": "0948-52-1477",
    "url": "",
    "pref": "福岡県",
    "city": "嘉麻市",
    "category": "tokuyou",
    "serviceType": "介護老人福祉施設",
    "capacity": 0,
    "openDays": [],
    "openDaysNote": ""
  },
  {
    "id": "4075800237",
    "name": "特別養護老人ホーム　第二稲穂園",
    "kana": "トクベツヨウゴロウジンホーム　ダイニイナホエン",
    "address": "福岡県嘉麻市山野2373番地145",
    "lat": 33.6011147,
    "lng": 130.70682,
    "tel": "0948-43-1801",
    "url": "http://daini-inaho.jp",
    "pref": "福岡県",
    "city": "嘉麻市",
    "category": "tokuyou",
    "serviceType": "介護老人福祉施設",
    "capacity": 0,
    "openDays": [],
    "openDaysNote": ""
  },
  {
    "id": "4075900045",
    "name": "特別養護老人ホーム　筑豊園",
    "kana": "トクベツヨウゴロウジンホーム　チクホウエン",
    "address": "福岡県嘉麻市平山548番地",
    "lat": 33.5574203365518,
    "lng": 130.695503773016,
    "tel": "0948-62-5020",
    "url": "https://www.chikuhouen5020.jp",
    "pref": "福岡県",
    "city": "嘉麻市",
    "category": "tokuyou",
    "serviceType": "介護老人福祉施設",
    "capacity": 50,
    "openDays": [],
    "openDaysNote": ""
  },
  {
    "id": "4076000035",
    "name": "特別養護老人ホームひまわり園",
    "kana": "トクベツヨウゴロウジンホームヒマワリエン",
    "address": "福岡県嘉麻市馬見６４番地２",
    "lat": 33.5301257,
    "lng": 130.7541191,
    "tel": "0948-57-3456",
    "url": "http://www.himawarikai.net/",
    "pref": "福岡県",
    "city": "嘉麻市",
    "category": "tokuyou",
    "serviceType": "介護老人福祉施設",
    "capacity": 100,
    "openDays": [],
    "openDaysNote": ""
  },
  {
    "id": "4075800070",
    "name": "特別養護老人ホーム松寿園",
    "kana": "トクベツヨウゴロウジンホームショウジュエン",
    "address": "福岡県嘉麻市漆生２３３８番地１",
    "lat": 33.5900492,
    "lng": 130.7088923,
    "tel": "0948-42-1408",
    "url": "http://www.shoujyuen.jp/",
    "pref": "福岡県",
    "city": "嘉麻市",
    "category": "tokuyou",
    "serviceType": "介護老人福祉施設",
    "capacity": 100,
    "openDays": [],
    "openDaysNote": ""
  },
  {
    "id": "4078000488",
    "name": "社会福祉法人　光和苑　特別養護老人ホーム　あじさい",
    "kana": "シャカイフクシホウジンコウワエントクベツヨウゴロウジンホームアジサイ",
    "address": "福岡県京都郡苅田町大字稲光968-1特別養護老人ホームあじさい 特別養護老人ホームあじさい",
    "lat": 33.7539801,
    "lng": 130.9410164,
    "tel": "0930-26-5225",
    "url": "",
    "pref": "福岡県",
    "city": "苅田町",
    "category": "tokuyou",
    "serviceType": "介護老人福祉施設",
    "capacity": 0,
    "openDays": [],
    "openDaysNote": ""
  },
  {
    "id": "4070000171",
    "name": "特別養護老人ホーム白川園",
    "kana": "トクベツヨウゴロウジンホームシラカワエン",
    "address": "福岡県京都郡苅田町与原1585-3特別養護老人ホーム白川園 特別養護老人ホーム白川園",
    "lat": 33.7550937919876,
    "lng": 130.983131265082,
    "tel": "0930-23-7117",
    "url": "http://shirakawaen.group/",
    "pref": "福岡県",
    "city": "苅田町",
    "category": "tokuyou",
    "serviceType": "介護老人福祉施設",
    "capacity": 50,
    "openDays": [],
    "openDaysNote": ""
  },
  {
    "id": "4078800184",
    "name": "特別養護老人ホームさくら苑",
    "kana": "トクベツヨウゴロウジンホームサクラエン",
    "address": "福岡県築上郡吉富町大字別府655番地1",
    "lat": 33.5991315982315,
    "lng": 131.157892541525,
    "tel": "0979-22-0203",
    "url": "http://hatsuhanakai.jp",
    "pref": "福岡県",
    "city": "吉富町",
    "category": "tokuyou",
    "serviceType": "介護老人福祉施設",
    "capacity": 50,
    "openDays": [],
    "openDaysNote": ""
  },
  {
    "id": "4070000528",
    "name": "特別養護老人ホーム吉富鳳寿園",
    "kana": "トクベツヨウゴロウジンホーム　ヨシトミホウジュエン",
    "address": "福岡県築上郡吉富町大字幸子803番地1",
    "lat": 33.5937017,
    "lng": 131.164449,
    "tel": "0979-23-6111",
    "url": "http://ryokufu-k.jp/",
    "pref": "福岡県",
    "city": "吉富町",
    "category": "tokuyou",
    "serviceType": "介護老人福祉施設",
    "capacity": 0,
    "openDays": [],
    "openDaysNote": ""
  },
  {
    "id": "4074300114",
    "name": "ユニット型特別養護老人ホーム　レイクウッド久山つむぐ",
    "kana": "ユニットガタトクベツヨウゴロウジンホーム　レイクウッドヒサヤマツムグ",
    "address": "福岡県糟屋郡久山町大字猪野字池ノ浦1610-43レイクウッド久山つむぐ レイクウッド久山つむぐ",
    "lat": 33.6777893503972,
    "lng": 130.499148407457,
    "tel": "092-976-2170",
    "url": "https://www.lakewoodhisayama.com",
    "pref": "福岡県",
    "city": "久山町",
    "category": "tokuyou",
    "serviceType": "介護老人福祉施設",
    "capacity": 0,
    "openDays": [],
    "openDaysNote": ""
  },
  {
    "id": "4074300064",
    "name": "特別養護老人ホーム　レイクウッド久山",
    "kana": "トクベツヨウゴロウジンホーム　レイクウッドヒサヤマ",
    "address": "福岡県糟屋郡久山町大字猪野字池ノ浦1610-40",
    "lat": 33.6468086,
    "lng": 130.4998336,
    "tel": "092-976-2941",
    "url": "http://www.lakewoodhisayama.com/",
    "pref": "福岡県",
    "city": "久山町",
    "category": "tokuyou",
    "serviceType": "介護老人福祉施設",
    "capacity": 50,
    "openDays": [],
    "openDaysNote": ""
  },
  {
    "id": "4077400101",
    "name": "特別養護老人ホーム　ひじり園",
    "kana": "トクベツヨウゴロウジンホーム　ヒジリエン",
    "address": "福岡県久留米市田主丸町石垣1291-6",
    "lat": 33.3265335,
    "lng": 130.7065267,
    "tel": "0943-73-3050",
    "url": "http://hijirikai.com",
    "pref": "福岡県",
    "city": "久留米市",
    "category": "tokuyou",
    "serviceType": "介護老人福祉施設",
    "capacity": 0,
    "openDays": [],
    "openDaysNote": ""
  },
  {
    "id": "4071600367",
    "name": "特別養護老人ホーム　光寿苑",
    "kana": "トクベツヨウゴロウジンホーム　コウジュエン",
    "address": "久留米市宮ノ陣町大杜467-1",
    "lat": 33.3370801,
    "lng": 130.5455427,
    "tel": "0942-30-8888",
    "url": "www.kojyuen.net/",
    "pref": "福岡県",
    "city": "久留米市",
    "category": "tokuyou",
    "serviceType": "介護老人福祉施設",
    "capacity": 50,
    "openDays": [],
    "openDaysNote": ""
  },
  {
    "id": "4071600490",
    "name": "特別養護老人ホーム　唐孔雀園",
    "kana": "トクベツヨウゴロウジンホーム　カラクジャクエン",
    "address": "福岡県久留米市青峰三丁目12番1号",
    "lat": 33.2813212,
    "lng": 130.5562924,
    "tel": "0942-43-5614",
    "url": "http://keifukukai.jp/index.html",
    "pref": "福岡県",
    "city": "久留米市",
    "category": "tokuyou",
    "serviceType": "介護老人福祉施設",
    "capacity": null,
    "openDays": [],
    "openDaysNote": ""
  },
  {
    "id": "4077600015",
    "name": "特別養護老人ホーム　宝生園",
    "kana": "トクベツヨウゴロウジンホーム　ホウセイエン",
    "address": "福岡県久留米市北野町鳥巣字浜36番地1特別養護老人ホーム宝生園 特別養護老人ホーム宝生園",
    "lat": 33.3347313027908,
    "lng": 130.584481908629,
    "tel": "0942-78-3000",
    "url": "http://www.houseien.net/",
    "pref": "福岡県",
    "city": "久留米市",
    "category": "tokuyou",
    "serviceType": "介護老人福祉施設",
    "capacity": 0,
    "openDays": [],
    "openDaysNote": ""
  },
  {
    "id": "4077800045",
    "name": "特別養護老人ホームふれあいの園",
    "kana": "トクベツヨウゴロウジンホームフレアイノソノ",
    "address": "福岡県久留米市城島町上青木165番地",
    "lat": 33.2437385428587,
    "lng": 130.410663436107,
    "tel": "0942-62-5115",
    "url": "www.fureainosono.com",
    "pref": "福岡県",
    "city": "久留米市",
    "category": "tokuyou",
    "serviceType": "介護老人福祉施設",
    "capacity": 0,
    "openDays": [],
    "openDaysNote": ""
  },
  {
    "id": "4071602538",
    "name": "特別養護老人ホームみづま敬和苑",
    "kana": "トクベツヨウゴロウジンホームミヅマケイワエン",
    "address": "福岡県久留米市三潴町西牟田6128－1",
    "lat": 33.2432652,
    "lng": 130.4828935,
    "tel": "0942-51-6666",
    "url": "http://keiwaen.com.",
    "pref": "福岡県",
    "city": "久留米市",
    "category": "tokuyou",
    "serviceType": "介護老人福祉施設",
    "capacity": 40,
    "openDays": [],
    "openDaysNote": ""
  },
  {
    "id": "4071601886",
    "name": "特別養護老人ホーム紅葉樹",
    "kana": "トクベツヨウゴロウジンホームコウヨウジュ",
    "address": "福岡県久留米市山本町豊田1567-1",
    "lat": 33.3089688,
    "lng": 130.5934226,
    "tel": "0942-41-4666",
    "url": "http://www.hazenomikai.or.jp",
    "pref": "福岡県",
    "city": "久留米市",
    "category": "tokuyou",
    "serviceType": "介護老人福祉施設",
    "capacity": 80,
    "openDays": [],
    "openDaysNote": ""
  },
  {
    "id": "4071600268",
    "name": "特別養護老人ホーム山翠園",
    "kana": "トクベツヨウゴロウジンホーム　サンスイエン",
    "address": "福岡県久留米市山本町耳納２００５番地",
    "lat": 33.3118692,
    "lng": 130.6137679,
    "tel": "0942-47-4768",
    "url": "https://sansuien-kurume.net",
    "pref": "福岡県",
    "city": "久留米市",
    "category": "tokuyou",
    "serviceType": "介護老人福祉施設",
    "capacity": 0,
    "openDays": [],
    "openDaysNote": ""
  },
  {
    "id": "4071600631",
    "name": "特別養護老人ホーム長生園",
    "kana": "トクベツヨウゴロウジンホームチョウセイエン",
    "address": "福岡県久留米市荒木町下荒木１２５０－２",
    "lat": 33.2671323,
    "lng": 130.4807183,
    "tel": "0942-64-4002",
    "url": "http://www.k-tyouseien.com",
    "pref": "福岡県",
    "city": "久留米市",
    "category": "tokuyou",
    "serviceType": "介護老人福祉施設",
    "capacity": 0,
    "openDays": [],
    "openDaysNote": ""
  },
  {
    "id": "4075500993",
    "name": "ユニット型特別養護老人ホーム　照陽園",
    "kana": "ユニットガタ　トクベツヨウゴロウジンホーム　ショウヨウエン",
    "address": "福岡県宮若市磯光2159-1",
    "lat": 33.7008198,
    "lng": 130.6703827,
    "tel": "0949-32-9482",
    "url": "http://shoyoennet.g3.xrea.com/",
    "pref": "福岡県",
    "city": "宮若市",
    "category": "tokuyou",
    "serviceType": "介護老人福祉施設",
    "capacity": 30,
    "openDays": [],
    "openDaysNote": ""
  },
  {
    "id": "4075500969",
    "name": "特別養護老人ホーム　　和（のどか）",
    "kana": "トクベツヨウゴロウジンホーム　　ノドカ",
    "address": "福岡県宮若市磯光1294-1",
    "lat": 33.7124060295337,
    "lng": 130.68662589381,
    "tel": "0949-34-3030",
    "url": "https://nodoka1201.com",
    "pref": "福岡県",
    "city": "宮若市",
    "category": "tokuyou",
    "serviceType": "介護老人福祉施設",
    "capacity": 80,
    "openDays": [],
    "openDaysNote": ""
  },
  {
    "id": "4075600041",
    "name": "特別養護老人ホーム　わきたの里",
    "kana": "トクベツヨウゴロウジンホーム　ワキタノサト",
    "address": "福岡県宮若市脇田８０５番地",
    "lat": 33.6959187,
    "lng": 130.5813341,
    "tel": "0949-54-1081",
    "url": "wakitanosato.jp",
    "pref": "福岡県",
    "city": "宮若市",
    "category": "tokuyou",
    "serviceType": "介護老人福祉施設",
    "capacity": 50,
    "openDays": [],
    "openDaysNote": ""
  },
  {
    "id": "4075500050",
    "name": "特別養護老人ホーム　照陽園",
    "kana": "トクベツヨウゴロウジンホーム　ショウヨウエン",
    "address": "福岡県宮若市磯光2159-1",
    "lat": 33.7008198,
    "lng": 130.6703827,
    "tel": "0949-32-9482",
    "url": "http://shoyoennet.g3.xrea.com/",
    "pref": "福岡県",
    "city": "宮若市",
    "category": "tokuyou",
    "serviceType": "介護老人福祉施設",
    "capacity": 50,
    "openDays": [],
    "openDaysNote": ""
  },
  {
    "id": "4075700056",
    "name": "特別養護老人ホーム　明日香園",
    "kana": "トクベツヨウゴロウジンホーム　アスカエン",
    "address": "福岡県嘉穂郡桂川町大字土師4502-1",
    "lat": 33.564093,
    "lng": 130.674799,
    "tel": "0948-65-5500",
    "url": "http://www.asukaen.or.jp/",
    "pref": "福岡県",
    "city": "桂川町",
    "category": "tokuyou",
    "serviceType": "介護老人福祉施設",
    "capacity": 0,
    "openDays": [],
    "openDaysNote": ""
  },
  {
    "id": "4075700460",
    "name": "特別養護老人ホーム薫風の苑",
    "kana": "トクベツヨウゴロウジンホームクンプウノソノ",
    "address": "福岡県嘉穂郡桂川町大字吉隈字ヲベ田13番96",
    "lat": 33.5916553,
    "lng": 130.6930389,
    "tel": "0948-65-4141",
    "url": "tikuzenfukusikai@r6.dion.ne.jp",
    "pref": "福岡県",
    "city": "桂川町",
    "category": "tokuyou",
    "serviceType": "介護老人福祉施設",
    "capacity": null,
    "openDays": [],
    "openDaysNote": ""
  },
  {
    "id": "4075700072",
    "name": "特別養護老人ホーム第二白藤の苑",
    "kana": "トクベツヨウゴロウジンホームダイニシラフジノソノ",
    "address": "福岡県嘉穂郡桂川町大字吉隈字ヲベ田13番96",
    "lat": 33.5853954630882,
    "lng": 130.697231998161,
    "tel": "0948-65-4141",
    "url": "https://chikuzen-fukushi.jp/",
    "pref": "福岡県",
    "city": "桂川町",
    "category": "tokuyou",
    "serviceType": "介護老人福祉施設",
    "capacity": 0,
    "openDays": [],
    "openDaysNote": ""
  },
  {
    "id": "4073600118",
    "name": "特別養護老人ホームみどり苑",
    "kana": "トクベツヨウゴロウジンホームミドリエン",
    "address": "福岡県古賀市新原８４０番地",
    "lat": 33.7236872,
    "lng": 130.4805004,
    "tel": "092-942-6000",
    "url": "https://www.kitakyu-hp.or.jp/keiaikai/",
    "pref": "福岡県",
    "city": "古賀市",
    "category": "tokuyou",
    "serviceType": "介護老人福祉施設",
    "capacity": 50,
    "openDays": [],
    "openDaysNote": ""
  },
  {
    "id": "4073600803",
    "name": "特別養護老人ホームみどり苑ユニット棟",
    "kana": "トクベツヨウゴロウジンホームミドリエンユニットトウ",
    "address": "古賀市新原840",
    "lat": 33.7236872,
    "lng": 130.4805004,
    "tel": "092-942-6000",
    "url": "www.kitakyu-hp.or.jp/keiaikai/",
    "pref": "福岡県",
    "city": "古賀市",
    "category": "tokuyou",
    "serviceType": "介護老人福祉施設",
    "capacity": 0,
    "openDays": [],
    "openDaysNote": ""
  },
  {
    "id": "4078400324",
    "name": "ユニット型特別養護老人ホーム彌栄苑",
    "kana": "ユニットガタトクベツヨウゴロウジンホームイヤサカエン",
    "address": "福岡県八女郡広川町大字新代１４３２－１４",
    "lat": 33.2528019,
    "lng": 130.5435857,
    "tel": "０９４３－２４－８８００",
    "url": "https://www.iyasakaen.com/",
    "pref": "福岡県",
    "city": "広川町",
    "category": "tokuyou",
    "serviceType": "介護老人福祉施設",
    "capacity": 30,
    "openDays": [],
    "openDaysNote": ""
  },
  {
    "id": "4078400019",
    "name": "若久シニアビレッジ",
    "kana": "ワカヒサシニアビレッジ",
    "address": "福岡県八女郡広川町大字新代１３８９－８",
    "lat": 33.2601371,
    "lng": 130.5403273,
    "tel": "0943-32-2121",
    "url": "http//www.kyueikai.jp/pages/67/",
    "pref": "福岡県",
    "city": "広川町",
    "category": "tokuyou",
    "serviceType": "介護老人福祉施設",
    "capacity": 150,
    "openDays": [],
    "openDaysNote": ""
  },
  {
    "id": "4078400357",
    "name": "特別養護老人ホーム　ゆめ広川",
    "kana": "トクベツヨウゴロウジンホーム　ユメヒロカワ",
    "address": "福岡県八女郡広川町大字広川2567-1",
    "lat": 33.2368440427158,
    "lng": 130.524250253073,
    "tel": "0942-53-3008",
    "url": "hhtp://www.yumehirokawa.com/",
    "pref": "福岡県",
    "city": "広川町",
    "category": "tokuyou",
    "serviceType": "介護老人福祉施設",
    "capacity": 0,
    "openDays": [],
    "openDaysNote": ""
  },
  {
    "id": "4078400050",
    "name": "特別養護老人ホーム　彌栄苑",
    "kana": "トクベツヨウゴロウジンホーム　イヤサカエン",
    "address": "福岡県八女郡広川町大字新代１４３２－１",
    "lat": 33.252763,
    "lng": 130.544044,
    "tel": "0943-32-4384",
    "url": "http://www.iyasakaen.com/",
    "pref": "福岡県",
    "city": "広川町",
    "category": "tokuyou",
    "serviceType": "介護老人福祉施設",
    "capacity": 0,
    "openDays": [],
    "openDaysNote": ""
  },
  {
    "id": "4072601612",
    "name": "ユニット型特別養護老人ホームみやこの苑",
    "kana": "ユニットガタトクベツヨウゴロウジンホームミヤコノソノ",
    "address": "福岡県行橋市大字二塚５８４番地ユニット型特別養護老人ホームみやこの苑 ユニット型特別養護老人ホームみやこの苑",
    "lat": 33.7282054,
    "lng": 130.9370707,
    "tel": "０９３０－２２－００８０",
    "url": "http://miyako-no-sono.or.jp/",
    "pref": "福岡県",
    "city": "行橋市",
    "category": "tokuyou",
    "serviceType": "介護老人福祉施設",
    "capacity": 50,
    "openDays": [],
    "openDaysNote": ""
  },
  {
    "id": "4072600051",
    "name": "特別養護老人ホーム　石並園",
    "kana": "トクベツヨウゴロウジンホーム　イシナミエン",
    "address": "福岡県行橋市大字稲童字塚原３９２７番地",
    "lat": 33.7287727,
    "lng": 130.982967,
    "tel": "0930-22-4844",
    "url": "http://ishinami-en.jp/",
    "pref": "福岡県",
    "city": "行橋市",
    "category": "tokuyou",
    "serviceType": "介護老人福祉施設",
    "capacity": 0,
    "openDays": [],
    "openDaysNote": ""
  },
  {
    "id": "4072600242",
    "name": "特別養護老人ホームみやこの苑",
    "kana": "トクベツヨウゴロウジンホーム　ミヤコノソノ",
    "address": "福岡県行橋市大字二塚584番地",
    "lat": 33.7282054,
    "lng": 130.9370707,
    "tel": "0930-22-0231",
    "url": "http://sbnsl.wp-x.jp/",
    "pref": "福岡県",
    "city": "行橋市",
    "category": "tokuyou",
    "serviceType": "介護老人福祉施設",
    "capacity": 0,
    "openDays": [],
    "openDaysNote": ""
  },
  {
    "id": "4079200038",
    "name": "特別養護老人ホーム　望岳園",
    "kana": "トクベツヨウゴロジンホーム　ボウガクエン",
    "address": "福岡県田川郡香春町大字鏡山433",
    "lat": 33.6806814,
    "lng": 130.8543682,
    "tel": "0947-32-6138",
    "url": "http://bougakukai.main.jp/",
    "pref": "福岡県",
    "city": "香春町",
    "category": "tokuyou",
    "serviceType": "介護老人福祉施設",
    "capacity": 100,
    "openDays": [],
    "openDaysNote": ""
  },
  {
    "id": "4079200566",
    "name": "特別養護老人ホーム香春公和苑",
    "kana": "トクベツヨウゴロウジンホーム　カワラコウワエン",
    "address": "福岡県田川郡香春町大字中津原字百畝1113番12",
    "lat": 33.6581590376469,
    "lng": 130.838471078275,
    "tel": "0947-32-5555",
    "url": "http://syunoukai.com",
    "pref": "福岡県",
    "city": "香春町",
    "category": "tokuyou",
    "serviceType": "介護老人福祉施設",
    "capacity": 0,
    "openDays": [],
    "openDaysNote": ""
  },
  {
    "id": "4074000656",
    "name": "特別養護老人ホーム　こころ",
    "kana": "トクベツヨウゴロウジンホーム　ココロ",
    "address": "福岡県糟屋郡志免町別府西3-3-10",
    "lat": 33.600457,
    "lng": 130.4568559,
    "tel": "092-935-5560",
    "url": "http://www.eikoh.or.jp/kokoro/",
    "pref": "福岡県",
    "city": "志免町",
    "category": "tokuyou",
    "serviceType": "介護老人福祉施設",
    "capacity": 0,
    "openDays": [],
    "openDaysNote": ""
  },
  {
    "id": "4074000136",
    "name": "日本赤十字社福岡県支部　特別養護老人ホームやすらぎの郷",
    "kana": "ニッポンセキジュウジシャフクオカケンシブトクベツヨウゴロウジンホームヤスラギノサト",
    "address": "福岡県粕屋郡志免町大字吉原600番地",
    "lat": 33.5720781,
    "lng": 130.4891511,
    "tel": "092-936-2022",
    "url": "http://yasuraginosato.org/cgi-bin/index.cgi",
    "pref": "福岡県",
    "city": "志免町",
    "category": "tokuyou",
    "serviceType": "介護老人福祉施設",
    "capacity": 100,
    "openDays": [],
    "openDaysNote": ""
  },
  {
    "id": "4079500361",
    "name": "特別養護老人ホーム　サンハイム豊寿園",
    "kana": "トクベツヨウゴロウジンホーム　サンハイムホウジュエン",
    "address": "1704番地",
    "lat": 57.7648253,
    "lng": 13.1156649,
    "tel": "0947-26-2288",
    "url": "http://www3.ocn.jp/~houjuen",
    "pref": "福岡県",
    "city": "糸田町",
    "category": "tokuyou",
    "serviceType": "介護老人福祉施設",
    "capacity": 30,
    "openDays": [],
    "openDaysNote": ""
  },
  {
    "id": "4079500031",
    "name": "特別養護老人ホーム　豊寿園",
    "kana": "トクベツヨウゴロウジンホーム　ホウジュエン",
    "address": "福岡県田川郡糸田町1704番地",
    "lat": 33.6549384423034,
    "lng": 130.775133701822,
    "tel": "0947-26-2288",
    "url": "http://www3.ocn.jp/^houjuen",
    "pref": "福岡県",
    "city": "糸田町",
    "category": "tokuyou",
    "serviceType": "介護老人福祉施設",
    "capacity": 50,
    "openDays": [],
    "openDaysNote": ""
  },
  {
    "id": "4079500023",
    "name": "特別養護老人ホーム長寿園",
    "kana": "トクベツヨウゴロウジンホームチョウジュエン",
    "address": "福岡県田川郡糸田町4154-2",
    "lat": 33.648225,
    "lng": 130.7616838,
    "tel": "0947-22-0326",
    "url": "http://www5.ocn.ne.jp/^choju/",
    "pref": "福岡県",
    "city": "糸田町",
    "category": "tokuyou",
    "serviceType": "介護老人福祉施設",
    "capacity": 120,
    "openDays": [],
    "openDaysNote": ""
  },
  {
    "id": "4073500078",
    "name": "特別養護老人ホーム　マイネスハウス",
    "kana": "トクベツヨウゴロウジンホーム　マイネスハウス",
    "address": "福岡県糸島市高上１７１番地",
    "lat": 33.5246063,
    "lng": 130.2303826,
    "tel": "092-329-1500",
    "url": "http://www.m-h.jp",
    "pref": "福岡県",
    "city": "糸島市",
    "category": "tokuyou",
    "serviceType": "介護老人福祉施設",
    "capacity": 0,
    "openDays": [],
    "openDaysNote": ""
  },
  {
    "id": "4073500128",
    "name": "特別養護老人ホーム　富の里",
    "kana": "トクベツヨウゴロウジンホーム　トミノサト",
    "address": "福岡県糸島市富508-4",
    "lat": 33.5397313141487,
    "lng": 130.209751778574,
    "tel": "092-324-1200",
    "url": "http://www.jiaikai-fuk.or.jp/",
    "pref": "福岡県",
    "city": "糸島市",
    "category": "tokuyou",
    "serviceType": "介護老人福祉施設",
    "capacity": 50,
    "openDays": [],
    "openDaysNote": ""
  },
  {
    "id": "4077200063",
    "name": "特別養護老人ホーム志摩園",
    "kana": "トクベツヨウゴロウジンホームシマエン",
    "address": "福岡県糸島市志摩久家２５２７番地の２",
    "lat": 33.5650783,
    "lng": 130.1366879,
    "tel": "092-328-2121",
    "url": "http://www.shimaen.or.jp",
    "pref": "福岡県",
    "city": "糸島市",
    "category": "tokuyou",
    "serviceType": "介護老人福祉施設",
    "capacity": 130,
    "openDays": [],
    "openDaysNote": ""
  },
  {
    "id": "4077100040",
    "name": "特別養護老人ホーム仙寿苑",
    "kana": "トクベツヨウゴロウジンホームセンジュエン",
    "address": "福岡県糸島市二丈深江２２９１番地１",
    "lat": 33.5100685,
    "lng": 130.1322922,
    "tel": "092-325-2310",
    "url": "nijoufukusikai.com",
    "pref": "福岡県",
    "city": "糸島市",
    "category": "tokuyou",
    "serviceType": "介護老人福祉施設",
    "capacity": 50,
    "openDays": [],
    "openDaysNote": ""
  },
  {
    "id": "4073900062",
    "name": "特別養護老人ホーム　篠栗荘",
    "kana": "ササグリソウ",
    "address": "福岡県糟屋郡篠栗町津波黒450-1",
    "lat": 33.6330408,
    "lng": 130.5115715,
    "tel": "092-947-3480",
    "url": "http://sasaguri.fk-sinaikai.or.jp",
    "pref": "福岡県",
    "city": "篠栗町",
    "category": "tokuyou",
    "serviceType": "介護老人福祉施設",
    "capacity": 50,
    "openDays": [],
    "openDaysNote": ""
  },
  {
    "id": "4073900336",
    "name": "特別養護老人ホームつくも苑",
    "kana": "トクベツヨウゴロウジンホームツクモエン",
    "address": "福岡県糟屋郡篠栗町大字金出３２２６番地",
    "lat": 33.6392240631344,
    "lng": 130.551684788669,
    "tel": "092-948-0993",
    "url": "https://tsukumo-kai.jp/",
    "pref": "福岡県",
    "city": "篠栗町",
    "category": "tokuyou",
    "serviceType": "介護老人福祉施設",
    "capacity": 80,
    "openDays": [],
    "openDaysNote": ""
  },
  {
    "id": "4073301261",
    "name": "ユニット型　特別養護老人ホームあかま",
    "kana": "ユニットガタ　トクベツヨウゴロウジンホームアカマ",
    "address": "福岡県宗像市田久3丁目11番1号",
    "lat": 33.8033876,
    "lng": 130.5753241,
    "tel": "0940-38-9000",
    "url": "http://kyujyufukusikai.jp",
    "pref": "福岡県",
    "city": "宗像市",
    "category": "tokuyou",
    "serviceType": "介護老人福祉施設",
    "capacity": 0,
    "openDays": [],
    "openDaysNote": ""
  },
  {
    "id": "4074700024",
    "name": "特別養護老人ホーム　ケアポート玄海",
    "kana": "トクベツヨウゴロウジンホーム　ケアポートゲンカイ",
    "address": "福岡県宗像市神湊１１８番地２",
    "lat": 33.8457115233869,
    "lng": 130.491076400223,
    "tel": "0940-62-4312",
    "url": "http://www.aso-group.co.jp/genkai/",
    "pref": "福岡県",
    "city": "宗像市",
    "category": "tokuyou",
    "serviceType": "介護老人福祉施設",
    "capacity": 50,
    "openDays": [],
    "openDaysNote": ""
  },
  {
    "id": "4073301477",
    "name": "特別養護老人ホーム　ケアポート玄海ユニット棟",
    "kana": "トクベツヨウゴロウジンホーム　ケアポートゲンカイユニットトウ",
    "address": "福岡県宗像市神湊１１８番地２",
    "lat": 33.8456714250852,
    "lng": 130.49105503789,
    "tel": "0940-62-4402",
    "url": "http://www.aso-group.co.jp/genkai/",
    "pref": "福岡県",
    "city": "宗像市",
    "category": "tokuyou",
    "serviceType": "介護老人福祉施設",
    "capacity": 30,
    "openDays": [],
    "openDaysNote": ""
  },
  {
    "id": "4073301642",
    "name": "特別養護老人ホーム　みどり苑宗像",
    "kana": "トクベツヨウゴロウジンホーム　ミドリエンムナカタ",
    "address": "福岡県宗像市河東1072-1",
    "lat": 33.8191052354363,
    "lng": 130.540724909973,
    "tel": "0940-32-8720",
    "url": "http://www.kitakyu-hp.or.jp/keiaikai/",
    "pref": "福岡県",
    "city": "宗像市",
    "category": "tokuyou",
    "serviceType": "介護老人福祉施設",
    "capacity": null,
    "openDays": [],
    "openDaysNote": ""
  },
  {
    "id": "4073300560",
    "name": "特別養護老人ホーム　むなかた",
    "kana": "トクベツヨウゴロウジンホーム　ムナカタ",
    "address": "福岡県宗像市用山４７１－５",
    "lat": 33.8032867,
    "lng": 130.5089628,
    "tel": "0940-38-3910",
    "url": "http://kitatikuzen.net",
    "pref": "福岡県",
    "city": "宗像市",
    "category": "tokuyou",
    "serviceType": "介護老人福祉施設",
    "capacity": 50,
    "openDays": [],
    "openDaysNote": ""
  },
  {
    "id": "4073300131",
    "name": "特別養護老人ホーム　宗像わかば苑",
    "kana": "トクベツヨウゴロウジンホウムムナカタワカバエン",
    "address": "福岡県宗像市大井2065番地1",
    "lat": 33.7930608143311,
    "lng": 130.513523093918,
    "tel": "0940-37-0150",
    "url": "munakata@hikari-fukushi.com",
    "pref": "福岡県",
    "city": "宗像市",
    "category": "tokuyou",
    "serviceType": "介護老人福祉施設",
    "capacity": 0,
    "openDays": [],
    "openDaysNote": ""
  },
  {
    "id": "4073300370",
    "name": "特別養護老人ホームあかま",
    "kana": "トクベツヨウゴロウジンホームアカマ",
    "address": "福岡県宗像市田久３丁目１１番１号",
    "lat": 33.8033876,
    "lng": 130.5753241,
    "tel": "0940-38-9000",
    "url": "http://kyujyufukusikai.jp/",
    "pref": "福岡県",
    "city": "宗像市",
    "category": "tokuyou",
    "serviceType": "介護老人福祉施設",
    "capacity": 0,
    "openDays": [],
    "openDaysNote": ""
  },
  {
    "id": "4073301600",
    "name": "特別養護老人ホーム城山之荘",
    "kana": "トクベツヨウゴロウジンホームジョウヤマノショウ",
    "address": "福岡県宗像市石丸一丁目3番1号",
    "lat": 33.8044828636533,
    "lng": 130.594295038762,
    "tel": "0940－36-9004",
    "url": "http://www.sizukanoumi.org/",
    "pref": "福岡県",
    "city": "宗像市",
    "category": "tokuyou",
    "serviceType": "介護老人福祉施設",
    "capacity": 60,
    "openDays": [],
    "openDaysNote": ""
  },
  {
    "id": "4073100168",
    "name": "特別養護老人ホーム　かすがの郷",
    "kana": "トクベツヨウゴロウジンホーム　カスガノサト",
    "address": "福岡県春日市塚原台3丁目129番",
    "lat": 33.5090758,
    "lng": 130.4667726,
    "tel": "092-595-6060",
    "url": "http://www.otogane.or.jp/kasuga/",
    "pref": "福岡県",
    "city": "春日市",
    "category": "tokuyou",
    "serviceType": "介護老人福祉施設",
    "capacity": 100,
    "openDays": [],
    "openDaysNote": ""
  },
  {
    "id": "4073101612",
    "name": "特別養護老人ホーム　グレイシャス春日",
    "kana": "トクベツヨウゴロウジンホームグレイシャスカスガ",
    "address": "星見ヶ丘2丁目55-1",
    "lat": 33.5042520179356,
    "lng": 130.457479536771,
    "tel": "092-586-9411",
    "url": "https://asukafukushikai.com/",
    "pref": "福岡県",
    "city": "春日市",
    "category": "tokuyou",
    "serviceType": "介護老人福祉施設",
    "capacity": 0,
    "openDays": [],
    "openDaysNote": ""
  },
  {
    "id": "4072900089",
    "name": "特別養護老人ホーム　三沢長生園",
    "kana": "トクベツヨウゴロウジンホーム　ミツサワチョウセイエン",
    "address": "福岡県小郡市三沢字881-1",
    "lat": 33.4202771580418,
    "lng": 130.54483587368,
    "tel": "0942-75-0347",
    "url": "http://www.chouseikai.jp/",
    "pref": "福岡県",
    "city": "小郡市",
    "category": "tokuyou",
    "serviceType": "介護老人福祉施設",
    "capacity": 70,
    "openDays": [],
    "openDaysNote": ""
  },
  {
    "id": "4072900170",
    "name": "特別養護老人ホーム　青寿苑",
    "kana": "トクベツヨウゴロウジンホーム　セイジュエン",
    "address": "福岡県小郡市井上５３１番地",
    "lat": 33.4054538,
    "lng": 130.5775082,
    "tel": "0942-72-8121",
    "url": "http://www.seilukai-ogori.com",
    "pref": "福岡県",
    "city": "小郡市",
    "category": "tokuyou",
    "serviceType": "介護老人福祉施設",
    "capacity": 0,
    "openDays": [],
    "openDaysNote": ""
  },
  {
    "id": "4072900618",
    "name": "特別養護老人ホームユニット型三沢長生園",
    "kana": "トクベツヨウゴロウジンホームユニットガタミツサワチョウセイエン",
    "address": "福岡県小郡市三沢881-1",
    "lat": 33.4201786545803,
    "lng": 130.544905611114,
    "tel": "0942-75-0347",
    "url": "http://www.chouseikai.jp/",
    "pref": "福岡県",
    "city": "小郡市",
    "category": "tokuyou",
    "serviceType": "介護老人福祉施設",
    "capacity": 30,
    "openDays": [],
    "openDaysNote": ""
  },
  {
    "id": "4072900626",
    "name": "特別養護老人ホーム青寿苑ユニット型",
    "kana": "トクベツヨウゴロウジンホームセイジュエンユニットガタ",
    "address": "福岡県小郡市井上531番地",
    "lat": 33.4054538,
    "lng": 130.5775082,
    "tel": "0942-72-8121",
    "url": "http://www.seijukai-ogori.com",
    "pref": "福岡県",
    "city": "小郡市",
    "category": "tokuyou",
    "serviceType": "介護老人福祉施設",
    "capacity": 0,
    "openDays": [],
    "openDaysNote": ""
  },
  {
    "id": "4075300071",
    "name": "特別養護老人ホーム　新多園",
    "kana": "トクベツヨウゴロウジンホーム　ニイダエン",
    "address": "福岡県鞍手郡小竹町大字新多上日177-8",
    "lat": 33.6924997,
    "lng": 130.7127713,
    "tel": "0949-62-7570",
    "url": "http://niidaen.jp/",
    "pref": "福岡県",
    "city": "小竹町",
    "category": "tokuyou",
    "serviceType": "介護老人福祉施設",
    "capacity": 50,
    "openDays": [],
    "openDaysNote": ""
  },
  {
    "id": "4078900299",
    "name": "特別養護老人ホーム　たいへい苑",
    "kana": "トクベツヨウゴロウジンホーム　　タイヘイエン",
    "address": "福岡県築上郡上毛町大字西友枝1938番地1",
    "lat": 33.541991,
    "lng": 131.1302466,
    "tel": "0979-72-4177",
    "url": "taiheien@kei-ai-kai.com",
    "pref": "福岡県",
    "city": "上毛町",
    "category": "tokuyou",
    "serviceType": "介護老人福祉施設",
    "capacity": 50,
    "openDays": [],
    "openDaysNote": ""
  },
  {
    "id": "4078900307",
    "name": "特別養護老人ホーム　たいへい苑　ほほえみ館",
    "kana": "トクベツヨウゴロウジンホームタイヘイエン　ホホエミカン",
    "address": "福岡県築上郡上毛町大字東下１５７７番地1",
    "lat": 33.553407,
    "lng": 131.154142,
    "tel": "0979-64-7875",
    "url": "http//www.kei-ai-kai.com/",
    "pref": "福岡県",
    "city": "上毛町",
    "category": "tokuyou",
    "serviceType": "介護老人福祉施設",
    "capacity": 0,
    "openDays": [],
    "openDaysNote": ""
  },
  {
    "id": "4070000627",
    "name": "特別養護老人ホーム　安雲拓心苑",
    "kana": "トクベツヨウゴロウジンホーム　アクモタクシンエン",
    "address": "福岡県築上郡上毛町大字安雲585－4",
    "lat": 33.5734576,
    "lng": 131.1437313,
    "tel": "0979-72-3331",
    "url": "https://minori-kai.or.jp/",
    "pref": "福岡県",
    "city": "上毛町",
    "category": "tokuyou",
    "serviceType": "介護老人福祉施設",
    "capacity": 0,
    "openDays": [],
    "openDaysNote": ""
  },
  {
    "id": "4074200462",
    "name": "介護老人福祉施設　ムネしんぐう",
    "kana": "カイゴロウジンフクシシセツ　ムネシングウ",
    "address": "福岡県糟屋郡新宮町立花口2176-185",
    "lat": 33.6780299681577,
    "lng": 130.483196965854,
    "tel": "092-963-2331",
    "url": "http://port041.oops.jp/34078_revef/",
    "pref": "福岡県",
    "city": "新宮町",
    "category": "tokuyou",
    "serviceType": "介護老人福祉施設",
    "capacity": 40,
    "openDays": [],
    "openDaysNote": ""
  },
  {
    "id": "4074200041",
    "name": "特別養護老人ホーム　新宮偕同園",
    "kana": "トクベツヨウゴロウジンホーム　シングウカイドウエン",
    "address": "福岡県糟屋郡新宮町大字上府545番地1",
    "lat": 33.7049577,
    "lng": 130.4574185,
    "tel": "092-962-3450",
    "url": "www.kaidoen.com",
    "pref": "福岡県",
    "city": "新宮町",
    "category": "tokuyou",
    "serviceType": "介護老人福祉施設",
    "capacity": 50,
    "openDays": [],
    "openDaysNote": ""
  },
  {
    "id": "4074100043",
    "name": "特別養護老人ホーム　恵昭園",
    "kana": "トクベツヨウゴロウジンホーム　ケイショウエン",
    "address": "福岡県糟屋郡須恵町大字上須恵112-3",
    "lat": 33.5893298279602,
    "lng": 130.522646230688,
    "tel": "092-933-1600",
    "url": "http://www.keitokukai.jp/facility/keisyou.php",
    "pref": "福岡県",
    "city": "須恵町",
    "category": "tokuyou",
    "serviceType": "介護老人福祉施設",
    "capacity": 0,
    "openDays": [],
    "openDaysNote": ""
  },
  {
    "id": "4075000101",
    "name": "特別養護老人ホーム　水卷松快園　彩光",
    "kana": "トクベツヨウゴロウジンホーム　ミズマキショウカイエン　サイコウ",
    "address": "福岡県遠賀郡水巻町吉田南二丁目9番1号",
    "lat": 33.8366196,
    "lng": 130.7099096,
    "tel": "093-201-8800",
    "url": "http://www.shokaien.com",
    "pref": "福岡県",
    "city": "水巻町",
    "category": "tokuyou",
    "serviceType": "介護老人福祉施設",
    "capacity": 80,
    "openDays": [],
    "openDaysNote": ""
  },
  {
    "id": "4075000598",
    "name": "特別養護老人ホーム　水卷松快園(ユニット型)",
    "kana": "トクベツヨウゴロウジンホーム　ミズマキショウカイエン（ユニットガタ）",
    "address": "福岡県遠賀郡水巻町吉田南二丁目9番1号",
    "lat": 33.836714,
    "lng": 130.710179,
    "tel": "093-201-8800",
    "url": "http://www.shokaien.com",
    "pref": "福岡県",
    "city": "水巻町",
    "category": "tokuyou",
    "serviceType": "介護老人福祉施設",
    "capacity": 0,
    "openDays": [],
    "openDaysNote": ""
  },
  {
    "id": "4070000049",
    "name": "指定介護老人福祉施設　青楽園",
    "kana": "シテイカイゴロウジンフクシシセツ　セイラクエン",
    "address": "福岡県田川郡赤村大字内田2233-1",
    "lat": 33.6376783,
    "lng": 130.8606105,
    "tel": "0947-62-3388",
    "url": "http://www.hatsueikai.or.jp",
    "pref": "福岡県",
    "city": "赤村",
    "category": "tokuyou",
    "serviceType": "介護老人福祉施設",
    "capacity": 0,
    "openDays": [],
    "openDaysNote": ""
  },
  {
    "id": "4077800243",
    "name": "社会福祉法人　特別養護老人ホーム　サミック",
    "kana": "シャカイフクシホウジン　トクベツヨウゴロウジンホーム　サミック",
    "address": "福岡県田川郡赤村大字赤4538番地2",
    "lat": 33.6097773880569,
    "lng": 130.86928576709,
    "tel": "0947-48-9200",
    "url": "https://summick.or.jp/",
    "pref": "福岡県",
    "city": "赤村",
    "category": "tokuyou",
    "serviceType": "介護老人福祉施設",
    "capacity": 50,
    "openDays": [],
    "openDaysNote": ""
  },
  {
    "id": "4079600880",
    "name": "特別養護老人ホーム　ライフ",
    "kana": "トクベツヨウゴロウジンホーム　ライフ",
    "address": "田川郡川崎町大字田原201番地4",
    "lat": 33.6038701,
    "lng": 130.8251858,
    "tel": "0947-73-9003",
    "url": "http://www.yakokai.com/",
    "pref": "福岡県",
    "city": "川崎町",
    "category": "tokuyou",
    "serviceType": "介護老人福祉施設",
    "capacity": 0,
    "openDays": [],
    "openDaysNote": ""
  },
  {
    "id": "4079600104",
    "name": "特別養護老人ホーム　恵愛園",
    "kana": "トクベツヨウゴロウジンホーム　ケイアイエン",
    "address": "福岡県田川郡川崎町大字川崎3205-1",
    "lat": 33.5831299,
    "lng": 130.8076379,
    "tel": "0947-72-7077",
    "url": "http://keishinkai.org/",
    "pref": "福岡県",
    "city": "川崎町",
    "category": "tokuyou",
    "serviceType": "介護老人福祉施設",
    "capacity": 0,
    "openDays": [],
    "openDaysNote": ""
  },
  {
    "id": "4079600948",
    "name": "特別養護老人ホーム第二恵愛園",
    "kana": "トクベツヨウゴロウジンホームダイニケイアイエン",
    "address": "福岡県田川郡川崎町大字川崎3205-1",
    "lat": 33.5831299,
    "lng": 130.8076379,
    "tel": "0947-72-7077",
    "url": "http://keishinkai.org/",
    "pref": "福岡県",
    "city": "川崎町",
    "category": "tokuyou",
    "serviceType": "介護老人福祉施設",
    "capacity": 0,
    "openDays": [],
    "openDaysNote": ""
  },
  {
    "id": "4073401152",
    "name": "ユニット型特別養護老人ホーム同朋園",
    "kana": "ユニットガタトクベツヨウゴロウジンホームドウホウエン",
    "address": "福岡県大宰府市大字向佐野515番地",
    "lat": 33.5122922594252,
    "lng": 130.498801946588,
    "tel": "092-922-6188",
    "url": "http://dohogroup.jp/",
    "pref": "福岡県",
    "city": "太宰府市",
    "category": "tokuyou",
    "serviceType": "介護老人福祉施設",
    "capacity": 120,
    "openDays": [],
    "openDaysNote": ""
  },
  {
    "id": "4073400162",
    "name": "特別養護老人ホーム　サンケア太宰府",
    "kana": "トクベツヨウゴロウジンホーム　サンケアダザイフ",
    "address": "福岡県太宰府市高雄3丁目４２２７－２６７",
    "lat": 33.5025919,
    "lng": 130.5461995,
    "tel": "092-922-8833",
    "url": "http://baikou.or.jp/",
    "pref": "福岡県",
    "city": "太宰府市",
    "category": "tokuyou",
    "serviceType": "介護老人福祉施設",
    "capacity": null,
    "openDays": [],
    "openDaysNote": ""
  },
  {
    "id": "4073401160",
    "name": "特別養護老人ホーム　サンケア太宰府ユニット",
    "kana": "トクベツヨウゴロウジンホーム　サンケアダザイフユニット",
    "address": "福岡県太宰府市高雄3丁目４２２７－３６",
    "lat": 33.5003033,
    "lng": 130.5466995,
    "tel": "092-922-8833",
    "url": "http://baikou.or.jp/",
    "pref": "福岡県",
    "city": "太宰府市",
    "category": "tokuyou",
    "serviceType": "介護老人福祉施設",
    "capacity": null,
    "openDays": [],
    "openDaysNote": ""
  },
  {
    "id": "4073401368",
    "name": "特別養護老人ホーム　ムネだざいふ",
    "kana": "トクベツヨウゴロウジンホーム　ムネダザイフ",
    "address": "福岡県太宰府市内山492-5",
    "lat": 33.5287083,
    "lng": 130.5495826,
    "tel": "092-918-3005",
    "url": "mune.dazaifu-reve@sage.ocn.ne.jp",
    "pref": "福岡県",
    "city": "太宰府市",
    "category": "tokuyou",
    "serviceType": "介護老人福祉施設",
    "capacity": 0,
    "openDays": [],
    "openDaysNote": ""
  },
  {
    "id": "4073400105",
    "name": "特別養護老人ホーム同朋園",
    "kana": "トクベツヨウゴロウジンホームドウホウエン",
    "address": "福岡県太宰府市大字向佐野515番地",
    "lat": 33.5122738874368,
    "lng": 130.498803209506,
    "tel": "092-922-6188",
    "url": "http://www.dohogroup.jp/",
    "pref": "福岡県",
    "city": "太宰府市",
    "category": "tokuyou",
    "serviceType": "介護老人福祉施設",
    "capacity": 40,
    "openDays": [],
    "openDaysNote": ""
  },
  {
    "id": "4072500012",
    "name": "特別養護老人ホーム　永寿園",
    "kana": "トクベツヨウゴロウジンホームエイジュエン",
    "address": "福岡県大川市大字鐘ヶ江7-1",
    "lat": 33.2320473,
    "lng": 130.376417,
    "tel": "0944-88-0810",
    "url": "http://www.eijunosato.com",
    "pref": "福岡県",
    "city": "大川市",
    "category": "tokuyou",
    "serviceType": "介護老人福祉施設",
    "capacity": 0,
    "openDays": [],
    "openDaysNote": ""
  },
  {
    "id": "4072500707",
    "name": "特別養護老人ホーム　木もれ日苑",
    "kana": "トクベツヨウゴロウジンホーム　コモレビエン",
    "address": "福岡県大川市中木室934番地",
    "lat": 33.2111385131659,
    "lng": 130.419849043192,
    "tel": "0944-85-8001",
    "url": "http://komorebien.kouhoukai.org",
    "pref": "福岡県",
    "city": "大川市",
    "category": "tokuyou",
    "serviceType": "介護老人福祉施設",
    "capacity": 0,
    "openDays": [],
    "openDaysNote": ""
  },
  {
    "id": "4072500152",
    "name": "特別養護老人ホーム大川荘",
    "kana": "トクベツヨウゴロウジンホームオオカワソウ",
    "address": "福岡県大川市大字大野島字笹の下８５７番１",
    "lat": 33.2065943,
    "lng": 130.3839576,
    "tel": "0944-89-2500",
    "url": "http://care-net.biz/40/ookawakakureikai/",
    "pref": "福岡県",
    "city": "大川市",
    "category": "tokuyou",
    "serviceType": "介護老人福祉施設",
    "capacity": 50,
    "openDays": [],
    "openDaysNote": ""
  },
  {
    "id": "4077700070",
    "name": "特別養護老人ホーム　聖母園",
    "kana": "トクベツヨウゴロウジンホーム　セイボエン",
    "address": "福岡県三井郡大刀洗町上高橋1173番地1",
    "lat": 33.371991,
    "lng": 130.5975595,
    "tel": "0942-77-0084",
    "url": "https://www.kibou-no-oka.org",
    "pref": "福岡県",
    "city": "大刀洗町",
    "category": "tokuyou",
    "serviceType": "介護老人福祉施設",
    "capacity": 0,
    "openDays": [],
    "openDaysNote": ""
  },
  {
    "id": "4077700294",
    "name": "特別養護老人ホーム　大刀洗昌普久苑",
    "kana": "トクベツヨウゴロウジンホーム　タチアライショウフクエン",
    "address": "福岡県三井郡大刀洗町大字本郷３２７９",
    "lat": 33.3896597,
    "lng": 130.6262571,
    "tel": "０９４２−７７−６５６０",
    "url": "http://shofukuen.com",
    "pref": "福岡県",
    "city": "大刀洗町",
    "category": "tokuyou",
    "serviceType": "介護老人福祉施設",
    "capacity": 0,
    "openDays": [],
    "openDaysNote": ""
  },
  {
    "id": "4077700039",
    "name": "特別養護老人ホーム大刀洗幸生苑",
    "kana": "トクベツヨウゴロウジンホーム　タチアライコウセイエン",
    "address": "福岡県三井郡大刀洗町大字高樋１２４５番地の1",
    "lat": 33.3882199,
    "lng": 130.6007897,
    "tel": "0942-77-0877",
    "url": "http://tachiarai-kouseien.jp/",
    "pref": "福岡県",
    "city": "大刀洗町",
    "category": "tokuyou",
    "serviceType": "介護老人福祉施設",
    "capacity": 0,
    "openDays": [],
    "openDaysNote": ""
  },
  {
    "id": "4079900355",
    "name": "特別養護老人ホーム　グッドライフ",
    "kana": "トクベツヨウゴロウジンホーム　グッドライフ",
    "address": "福岡県田川郡大任町大字今任原3486-3",
    "lat": 33.6429578,
    "lng": 130.8440391,
    "tel": "0947-63-3368",
    "url": "tokuyou_goodlife@rhythm.ocn.ne.jp",
    "pref": "福岡県",
    "city": "大任町",
    "category": "tokuyou",
    "serviceType": "介護老人福祉施設",
    "capacity": 50,
    "openDays": [],
    "openDaysNote": ""
  },
  {
    "id": "4079900397",
    "name": "特別養護老人ホーム　よろこび",
    "kana": "トクベツヨウゴロウジンホーム　ヨロコビ",
    "address": "福岡県田川郡大任町大字大行事4126",
    "lat": 33.6137039509072,
    "lng": 130.846957225114,
    "tel": "0947-47-8655",
    "url": "yorokobi-home.com.",
    "pref": "福岡県",
    "city": "大任町",
    "category": "tokuyou",
    "serviceType": "介護老人福祉施設",
    "capacity": null,
    "openDays": [],
    "openDaysNote": ""
  },
  {
    "id": "4079900017",
    "name": "特別養護老人ホーム愛寿園",
    "kana": "トクベツヨウゴロウジンホームアイジュエン",
    "address": "福岡県田川郡大任町大字今任原３４０１番地",
    "lat": 33.6364142,
    "lng": 130.8466197,
    "tel": "0947-63-4001",
    "url": "aijuen2006@yahoo.co.jp",
    "pref": "福岡県",
    "city": "大任町",
    "category": "tokuyou",
    "serviceType": "介護老人福祉施設",
    "capacity": 0,
    "openDays": [],
    "openDaysNote": ""
  },
  {
    "id": "4071500641",
    "name": "介護老人福祉施設　こもれび",
    "kana": "カイゴロウジンフクシシセツ　　コモレビ",
    "address": "福岡県大牟田市中町１丁目４－１",
    "lat": 33.0406166,
    "lng": 130.4436434,
    "tel": "0944-55-5066",
    "url": "http://www.s-soreiyu.com/",
    "pref": "福岡県",
    "city": "大牟田市",
    "category": "tokuyou",
    "serviceType": "介護老人福祉施設",
    "capacity": 70,
    "openDays": [],
    "openDaysNote": ""
  },
  {
    "id": "4071501938",
    "name": "介護老人福祉施設サンホリデー",
    "kana": "カイゴロウジンフクシシセツ　サンホリデー",
    "address": "福岡県大牟田市岬2860-2",
    "lat": 33.0684381,
    "lng": 130.4373671,
    "tel": "0944-43-5077",
    "url": "https://sunholiday.jp/",
    "pref": "福岡県",
    "city": "大牟田市",
    "category": "tokuyou",
    "serviceType": "介護老人福祉施設",
    "capacity": 50,
    "openDays": [],
    "openDaysNote": ""
  },
  {
    "id": "4071501276",
    "name": "介護老人福祉施設美さと",
    "kana": "カイゴロウジンフクシシセツミサト",
    "address": "福岡県大牟田市南船津町1丁目10番地",
    "lat": 33.008661,
    "lng": 130.4357913,
    "tel": "0944-57-3310",
    "url": "http://www.kenkougroup.or.jp/",
    "pref": "福岡県",
    "city": "大牟田市",
    "category": "tokuyou",
    "serviceType": "介護老人福祉施設",
    "capacity": 50,
    "openDays": [],
    "openDaysNote": ""
  },
  {
    "id": "4071500633",
    "name": "特別養護老人ホーム　サンフレンズ",
    "kana": "トクベツヨウゴロウジンホーム　サンフレンズ",
    "address": "福岡県大牟田市沖田町510番地",
    "lat": 33.0117361,
    "lng": 130.4490822,
    "tel": "0944-43-1223",
    "url": "http://www.sunfriends.net/",
    "pref": "福岡県",
    "city": "大牟田市",
    "category": "tokuyou",
    "serviceType": "介護老人福祉施設",
    "capacity": 0,
    "openDays": [],
    "openDaysNote": ""
  },
  {
    "id": "4071503108",
    "name": "特別養護老人ホーム　サンフレンズ（個室ユニット）",
    "kana": "トクベツヨウゴロウジンホーム　サンフレンズ（コシツユニット）",
    "address": "福岡県大牟田市沖田町510番地西別館　南別館 西別館　南別館",
    "lat": 33.0117361,
    "lng": 130.4490822,
    "tel": "0944-43-1223",
    "url": "http://www.sunfriends.net/",
    "pref": "福岡県",
    "city": "大牟田市",
    "category": "tokuyou",
    "serviceType": "介護老人福祉施設",
    "capacity": null,
    "openDays": [],
    "openDaysNote": ""
  },
  {
    "id": "4071500625",
    "name": "特別養護老人ホーム　サン久福木",
    "kana": "トクベツヨウゴロウジンホーム　サンクブキ",
    "address": "福岡県大牟田市大字久福木894番地",
    "lat": 33.0559018,
    "lng": 130.4907618,
    "tel": "0944-55-2011",
    "url": "http://www.genkokai.or.jp",
    "pref": "福岡県",
    "city": "大牟田市",
    "category": "tokuyou",
    "serviceType": "介護老人福祉施設",
    "capacity": 96,
    "openDays": [],
    "openDaysNote": ""
  },
  {
    "id": "4071502225",
    "name": "特別養護老人ホーム　昌普久苑",
    "kana": "トクベツヨウゴロウジンホーム　ショウフクエン",
    "address": "福岡県大牟田市上白川町２丁目３１－３",
    "lat": 33.044336,
    "lng": 130.4652919,
    "tel": "0944-57-7378",
    "url": "https://omuta-shoufukuen.com/",
    "pref": "福岡県",
    "city": "大牟田市",
    "category": "tokuyou",
    "serviceType": "介護老人福祉施設",
    "capacity": 40,
    "openDays": [],
    "openDaysNote": ""
  },
  {
    "id": "4071503009",
    "name": "特別養護老人ホームすぎの木",
    "kana": "トクベツヨウゴロウジンホームスギノキ",
    "address": "大字甘木44番地1",
    "lat": 33.0602981,
    "lng": 130.4652548,
    "tel": "0944-58-1112",
    "url": "http://sugi-no-ki.jp",
    "pref": "福岡県",
    "city": "大牟田市",
    "category": "tokuyou",
    "serviceType": "介護老人福祉施設",
    "capacity": 50,
    "openDays": [],
    "openDaysNote": ""
  },
  {
    "id": "4071500526",
    "name": "特別養護老人ホーム延寿苑",
    "kana": "トクベツヨウゴロウジンホームエンジュエン",
    "address": "福岡県大牟田市大字今山4345－1",
    "lat": 33.027724,
    "lng": 130.4857911,
    "tel": "0944-51-2942",
    "url": "enjuen1@lime.ocn.ne.jp",
    "pref": "福岡県",
    "city": "大牟田市",
    "category": "tokuyou",
    "serviceType": "介護老人福祉施設",
    "capacity": 50,
    "openDays": [],
    "openDaysNote": ""
  },
  {
    "id": "4071500476",
    "name": "特別養護老人ホーム天光園",
    "kana": "トクベツヨウゴロウジンホームテンコウエン",
    "address": "福岡県大牟田市大字倉永693番地",
    "lat": 33.0822546,
    "lng": 130.4759473,
    "tel": "0944-58-2835",
    "url": "http：//www.tenkouen.com",
    "pref": "福岡県",
    "city": "大牟田市",
    "category": "tokuyou",
    "serviceType": "介護老人福祉施設",
    "capacity": 0,
    "openDays": [],
    "openDaysNote": ""
  },
  {
    "id": "4077900118",
    "name": "特別養護老人ホーム　いちご",
    "kana": "トクベツヨウゴロウジンホーム　イチゴ",
    "address": "福岡県三潴郡大木町大字大角1133番地1",
    "lat": 33.2241532,
    "lng": 130.4456434,
    "tel": "0944-33-0015",
    "url": "https://www.ichigo.or.jp",
    "pref": "福岡県",
    "city": "大木町",
    "category": "tokuyou",
    "serviceType": "介護老人福祉施設",
    "capacity": 50,
    "openDays": [],
    "openDaysNote": ""
  },
  {
    "id": "4077900035",
    "name": "特別養護老人ホーム　山ノ井荘",
    "kana": "トクベツヨウゴロウジンホーム　ヤマノイソウ",
    "address": "福岡県三潴郡大木町大字笹渕３９番地の１",
    "lat": 33.2393321,
    "lng": 130.4517845,
    "tel": "0944-33-0061",
    "url": "https://care-net.biz/40/yamanoikai/",
    "pref": "福岡県",
    "city": "大木町",
    "category": "tokuyou",
    "serviceType": "介護老人福祉施設",
    "capacity": 50,
    "openDays": [],
    "openDaysNote": ""
  },
  {
    "id": "4073200034",
    "name": "特別養護老人ホーム　悠生園",
    "kana": "トクベツヨウゴロウジンホーム　ユウセイエン",
    "address": "福岡県大野城市中２丁目５番５号",
    "lat": 33.5515942,
    "lng": 130.4830322,
    "tel": "092-504-1000",
    "url": "http://www.yuseikai.jp",
    "pref": "福岡県",
    "city": "大野城市",
    "category": "tokuyou",
    "serviceType": "介護老人福祉施設",
    "capacity": 180,
    "openDays": [],
    "openDaysNote": ""
  },
  {
    "id": "4073201461",
    "name": "特別養護老人ホームはなつくし",
    "kana": "トクベツヨウゴロウジンホームハナツクシ",
    "address": "福岡県大野城市乙金三丁目18番１０号",
    "lat": 33.5419317,
    "lng": 130.4973976,
    "tel": "092-580-8080",
    "url": "http://www.hanatsukushi.or.jp/",
    "pref": "福岡県",
    "city": "大野城市",
    "category": "tokuyou",
    "serviceType": "介護老人福祉施設",
    "capacity": 0,
    "openDays": [],
    "openDaysNote": ""
  },
  {
    "id": "4079800415",
    "name": "ナーシングホームあかり",
    "kana": "ナーシングホーム　アカリ",
    "address": "福岡県築上郡築上町大字築城165番地１",
    "lat": 33.6701162,
    "lng": 131.0353835,
    "tel": "0930-31-7216",
    "url": "http://www.wakasugikai.com/",
    "pref": "福岡県",
    "city": "築上町",
    "category": "tokuyou",
    "serviceType": "介護老人福祉施設",
    "capacity": 50,
    "openDays": [],
    "openDaysNote": ""
  },
  {
    "id": "4070000593",
    "name": "特別養護老人ホ－ム誠松園",
    "kana": "トクベツヨウゴロウジンホ-ムセイショウエン",
    "address": "福岡県築上郡築上町大字安武990番地",
    "lat": 33.6594279,
    "lng": 131.0064364,
    "tel": "0930-52-3151",
    "url": "http://seisyoen.jp/",
    "pref": "福岡県",
    "city": "築上町",
    "category": "tokuyou",
    "serviceType": "介護老人福祉施設",
    "capacity": 50,
    "openDays": [],
    "openDaysNote": ""
  },
  {
    "id": "4070000445",
    "name": "特別養護老人ホーム愛翠苑",
    "kana": "トクベツヨウゴロウジンホームアイスイエン",
    "address": "福岡県築上郡築上町大字上ノ河内１０４８番地",
    "lat": 33.6297159,
    "lng": 131.0761336,
    "tel": "0930-56-5331",
    "url": "http://wakasugikai.com/",
    "pref": "福岡県",
    "city": "築上町",
    "category": "tokuyou",
    "serviceType": "介護老人福祉施設",
    "capacity": null,
    "openDays": [],
    "openDaysNote": ""
  },
  {
    "id": "4072400692",
    "name": "特別養護老人ホーム　ちくご船小屋",
    "kana": "トクベツヨウゴロウジンホーム　チクゴフナゴヤ",
    "address": "福岡県筑後市大字志121番2特別養護老人ホームちくご船小屋 特別養護老人ホームちくご船小屋",
    "lat": 33.185336,
    "lng": 130.4980769,
    "tel": "0942-52-5505",
    "url": "https://youzankai.jp",
    "pref": "福岡県",
    "city": "筑後市",
    "category": "tokuyou",
    "serviceType": "介護老人福祉施設",
    "capacity": 80,
    "openDays": [],
    "openDaysNote": ""
  },
  {
    "id": "4072400114",
    "name": "特別養護老人ホーム　桜の丘",
    "kana": "トクベツヨウゴロウジンホーム　サクラノオカ",
    "address": "福岡県筑後市西牟田6365-8",
    "lat": 33.2419851,
    "lng": 130.4989894,
    "tel": "0942-53-7747",
    "url": "http://www.sakuraen.biz",
    "pref": "福岡県",
    "city": "筑後市",
    "category": "tokuyou",
    "serviceType": "介護老人福祉施設",
    "capacity": 0,
    "openDays": [],
    "openDaysNote": ""
  },
  {
    "id": "4072400080",
    "name": "特別養護老人ホーム　芳樹園",
    "kana": "トクベツヨウゴロウジンホーム　ホウジュエン",
    "address": "筑後市大字鶴田555番地1",
    "lat": 33.1925271,
    "lng": 130.5051874,
    "tel": "0942-52-7145",
    "url": "http://kourinfukushi.or.jp/",
    "pref": "福岡県",
    "city": "筑後市",
    "category": "tokuyou",
    "serviceType": "介護老人福祉施設",
    "capacity": 125,
    "openDays": [],
    "openDaysNote": ""
  },
  {
    "id": "4073000202",
    "name": "特別養護老人ホーム　ちくしの荘",
    "kana": "トクベツヨウゴロウジンホーム　チクシノソウ",
    "address": "福岡県筑紫野市原田462番地",
    "lat": 33.4521243,
    "lng": 130.5412651,
    "tel": "092-926-2811",
    "url": "http://homan.or.jp/chikushino/index.html",
    "pref": "福岡県",
    "city": "筑紫野市",
    "category": "tokuyou",
    "serviceType": "介護老人福祉施設",
    "capacity": 50,
    "openDays": [],
    "openDaysNote": ""
  },
  {
    "id": "4073000467",
    "name": "特別養護老人ホーム　天拝の園",
    "kana": "トクベツヨウゴロウジンホーム　テンパイノソノ",
    "address": "福岡県筑紫野市立明寺６１８－１",
    "lat": 33.4806939,
    "lng": 130.5304372,
    "tel": "092-918-5800",
    "url": "http://www.tenpainosono.or.jp/",
    "pref": "福岡県",
    "city": "筑紫野市",
    "category": "tokuyou",
    "serviceType": "介護老人福祉施設",
    "capacity": 0,
    "openDays": [],
    "openDaysNote": ""
  },
  {
    "id": "4073001325",
    "name": "特別養護老人ホームたんたん",
    "kana": "トクベツヨウゴロウジンホームタンタン",
    "address": "福岡県筑紫野市美咲1023番地2",
    "lat": 33.4622039971608,
    "lng": 130.560925273003,
    "tel": "092-926-1001",
    "url": "http://www.tantan.life",
    "pref": "福岡県",
    "city": "筑紫野市",
    "category": "tokuyou",
    "serviceType": "介護老人福祉施設",
    "capacity": 0,
    "openDays": [],
    "openDaysNote": ""
  },
  {
    "id": "4073000301",
    "name": "特別養護老人ホームむさし苑",
    "kana": "トクベツヨウゴロウジンホームムサシエン",
    "address": "福岡県筑紫野市湯町二丁目9番2号",
    "lat": 33.4906318,
    "lng": 130.5159712,
    "tel": "092-925-4711",
    "url": "http://www.musashien.com/",
    "pref": "福岡県",
    "city": "筑紫野市",
    "category": "tokuyou",
    "serviceType": "介護老人福祉施設",
    "capacity": 0,
    "openDays": [],
    "openDaysNote": ""
  },
  {
    "id": "4076700113",
    "name": "社会福祉法人朝倉社会事業協会　特別養護老人ホーム朝倉苑",
    "kana": "シャカイフクシホウジンアサクラシャカイジギョウキョウカイ　トクベツヨウゴロウジンホームアサクラエン",
    "address": "福岡県朝倉郡筑前町原地蔵２２２６－３",
    "lat": 33.4110905,
    "lng": 130.616127,
    "tel": "0946-22-2881",
    "url": "http://www.asakuraen.or.jp/",
    "pref": "福岡県",
    "city": "筑前町",
    "category": "tokuyou",
    "serviceType": "介護老人福祉施設",
    "capacity": 0,
    "openDays": [],
    "openDaysNote": ""
  },
  {
    "id": "4076700337",
    "name": "社会福祉法人朝倉社会事業協会　特別養護老人ホーム美和の里",
    "kana": "シャカイフクシホウジンアサクラシャカイジギョウキョウカイ　トクベツヨウゴロウジンホームミワノサト",
    "address": "福岡県朝倉郡筑前町原地蔵2227-5",
    "lat": 33.4107128270285,
    "lng": 130.61531570423,
    "tel": "0946-24-8002",
    "url": "http://www.asakuraen.or.jp/",
    "pref": "福岡県",
    "city": "筑前町",
    "category": "tokuyou",
    "serviceType": "介護老人福祉施設",
    "capacity": 0,
    "openDays": [],
    "openDaysNote": ""
  },
  {
    "id": "4076800038",
    "name": "特別養護老人ホーム　朝老園",
    "kana": "トクベツヨウゴロウジンホーム　チョウロウエン",
    "address": "福岡県朝倉郡筑前町朝日586番地",
    "lat": 33.4746528,
    "lng": 130.5693461,
    "tel": "092-926-1171",
    "url": "http://www.chourouen.or.jp",
    "pref": "福岡県",
    "city": "筑前町",
    "category": "tokuyou",
    "serviceType": "介護老人福祉施設",
    "capacity": 120,
    "openDays": [],
    "openDaysNote": ""
  },
  {
    "id": "4076700386",
    "name": "特別養護老人ホーム　朝老園ひさみつ",
    "kana": "トクベツヨウゴロウジンホーム　チョウロウエンヒサミツ",
    "address": "福岡県朝倉郡筑前町久光1380番地1特別養護老人ホーム　朝老園ひさみつ 特別養護老人ホーム　朝老園ひさみつ",
    "lat": 33.437827,
    "lng": 130.6299332,
    "tel": "0946-21-5050",
    "url": "http://www.chourouen.or.jp",
    "pref": "福岡県",
    "city": "筑前町",
    "category": "tokuyou",
    "serviceType": "介護老人福祉施設",
    "capacity": 30,
    "openDays": [],
    "openDaysNote": ""
  },
  {
    "id": "4072801212",
    "name": "特別養護老人ホーム　垣生の里",
    "kana": "トクベツヨウゴロウジンホーム　ハブノサト",
    "address": "福岡県中間市大字上底井野787-1",
    "lat": 33.8125814636917,
    "lng": 130.695146552779,
    "tel": "093-243-5515",
    "url": "http://habunosato.jp/habunosato.html",
    "pref": "福岡県",
    "city": "中間市",
    "category": "tokuyou",
    "serviceType": "介護老人福祉施設",
    "capacity": 70,
    "openDays": [],
    "openDaysNote": ""
  },
  {
    "id": "4072800115",
    "name": "特別養護老人ホーム　智美園",
    "kana": "トクベツヨウゴロウジンホーム　トモミエン",
    "address": "福岡県中間市通谷６丁目７－１",
    "lat": 33.816556,
    "lng": 130.7422212,
    "tel": "093-244-6841",
    "url": "http://www.tomomien.com/",
    "pref": "福岡県",
    "city": "中間市",
    "category": "tokuyou",
    "serviceType": "介護老人福祉施設",
    "capacity": 0,
    "openDays": [],
    "openDaysNote": ""
  },
  {
    "id": "4072800669",
    "name": "特別養護老人ホーム第2智美園",
    "kana": "トクベツヨウゴロウジンホームダイニトモミエン",
    "address": "福岡県中間市大字垣2017番地3",
    "lat": 33.823652038655,
    "lng": 130.698354607857,
    "tel": "093-243-4567",
    "url": "https://www.tomomien.com",
    "pref": "福岡県",
    "city": "中間市",
    "category": "tokuyou",
    "serviceType": "介護老人福祉施設",
    "capacity": 0,
    "openDays": [],
    "openDaysNote": ""
  },
  {
    "id": "4072200100",
    "name": "介護老人福祉施設　甘木愛光園",
    "kana": "カイゴロウジンフクシシセツ　アマギアイコウエン",
    "address": "福岡県朝倉市山見４２９",
    "lat": 33.4507747,
    "lng": 130.7078241,
    "tel": "0946-25-1558",
    "url": "http://jusenkai.com/",
    "pref": "福岡県",
    "city": "朝倉市",
    "category": "tokuyou",
    "serviceType": "介護老人福祉施設",
    "capacity": 0,
    "openDays": [],
    "openDaysNote": ""
  },
  {
    "id": "4076600040",
    "name": "介護老人福祉施設いしずえ荘",
    "kana": "カイゴロウジンフクシシセツイシズエソウ",
    "address": "福岡県朝倉市三奈木2466-1",
    "lat": 33.3997935,
    "lng": 130.7037451,
    "tel": "0946-21-3200",
    "url": "http://www.keiaikai.net/",
    "pref": "福岡県",
    "city": "朝倉市",
    "category": "tokuyou",
    "serviceType": "介護老人福祉施設",
    "capacity": 100,
    "openDays": [],
    "openDaysNote": ""
  },
  {
    "id": "4072200134",
    "name": "特別養護老人ホーム　きらく荘",
    "kana": "トクベツヨウゴロウジンホーム　キラクソウ",
    "address": "福岡県朝倉市城８５９番地",
    "lat": 33.4140038,
    "lng": 130.7182824,
    "tel": "0946-21-1833",
    "url": "http://www.kirakuso.jp",
    "pref": "福岡県",
    "city": "朝倉市",
    "category": "tokuyou",
    "serviceType": "介護老人福祉施設",
    "capacity": 0,
    "openDays": [],
    "openDaysNote": ""
  },
  {
    "id": "4076500042",
    "name": "特別養護老人ホーム　日迎の園",
    "kana": "トクベツヨウゴロウジンホーム　ヒムカノソノ",
    "address": "福岡県朝倉市杷木志波92-1",
    "lat": 33.355226,
    "lng": 130.7779668,
    "tel": "0946-62-0007",
    "url": "http://keiaikai.net/",
    "pref": "福岡県",
    "city": "朝倉市",
    "category": "tokuyou",
    "serviceType": "介護老人福祉施設",
    "capacity": 50,
    "openDays": [],
    "openDaysNote": ""
  },
  {
    "id": "4072200787",
    "name": "特別養護老人ホーム　夢花館",
    "kana": "トクベツヨウゴロウジンホーム　ユメハナカン",
    "address": "福岡県朝倉市城859番地",
    "lat": 33.4140038,
    "lng": 130.7182824,
    "tel": "0946-23-8061",
    "url": "http://www.kirakuso.jp",
    "pref": "福岡県",
    "city": "朝倉市",
    "category": "tokuyou",
    "serviceType": "介護老人福祉施設",
    "capacity": 0,
    "openDays": [],
    "openDaysNote": ""
  },
  {
    "id": "4071702015",
    "name": "特別養護老人ホーム　ソレイユ湯野原",
    "kana": "トクベツヨウゴロウジンホーム　ソレイユユノハラ",
    "address": "福岡県直方市湯野原二丁目15-1",
    "lat": 33.76811618515,
    "lng": 130.752022139987,
    "tel": "0949-26-3652",
    "url": "www.soreiyugroup.or.jp",
    "pref": "福岡県",
    "city": "直方市",
    "category": "tokuyou",
    "serviceType": "介護老人福祉施設",
    "capacity": null,
    "openDays": [],
    "openDaysNote": ""
  },
  {
    "id": "4071700225",
    "name": "特別養護老人ホーム　愛和園",
    "kana": "トクベツヨウゴロウジンホーム　アイワエン",
    "address": "福岡県直方市大字中泉1182-25",
    "lat": 33.7155481,
    "lng": 130.7371774,
    "tel": "0949-28-1038",
    "url": "",
    "pref": "福岡県",
    "city": "直方市",
    "category": "tokuyou",
    "serviceType": "介護老人福祉施設",
    "capacity": 50,
    "openDays": [],
    "openDaysNote": ""
  },
  {
    "id": "4071701892",
    "name": "特別養護老人ホーム　植木ひかり苑",
    "kana": "トクベツヨウゴロウジンホーム　ウエキヒカリエン",
    "address": "福岡県直方市大字植木1932-5",
    "lat": 33.7824591,
    "lng": 130.6987977,
    "tel": "0949-22-8552",
    "url": "http://suzunonekai.jp/",
    "pref": "福岡県",
    "city": "直方市",
    "category": "tokuyou",
    "serviceType": "介護老人福祉施設",
    "capacity": 50,
    "openDays": [],
    "openDaysNote": ""
  },
  {
    "id": "4071702254",
    "name": "特別養護老人ホームすみれそうのおがた",
    "kana": "トクベツヨウゴロウジンホームスミレソウノオガタ",
    "address": "福岡県直方市大字上境2027番1",
    "lat": 33.7272507,
    "lng": 130.7533969,
    "tel": "0949-25-8723",
    "url": "https://hanabusakai.jp/",
    "pref": "福岡県",
    "city": "直方市",
    "category": "tokuyou",
    "serviceType": "介護老人福祉施設",
    "capacity": null,
    "openDays": [],
    "openDaysNote": ""
  },
  {
    "id": "4071702445",
    "name": "特別養護老人ホーム愛和園・ユニット",
    "kana": "トクベツヨウゴロウジンホーム　アイワエン　ユニット",
    "address": "福岡県直方市大字中泉１１８２番地２５",
    "lat": 33.7157359,
    "lng": 130.7373001,
    "tel": "0949-28-1028",
    "url": "aiwan-i@royal.ocn.ne.jp",
    "pref": "福岡県",
    "city": "直方市",
    "category": "tokuyou",
    "serviceType": "介護老人福祉施設",
    "capacity": 0,
    "openDays": [],
    "openDaysNote": ""
  },
  {
    "id": "4071701132",
    "name": "特別養護老人ホーム長光園",
    "kana": "トクベツヨウゴロウジンホームチョウコウエン",
    "address": "福岡県直方市大字頓野２５９番地の５３",
    "lat": 33.7530192,
    "lng": 130.7652904,
    "tel": "0949-26-3625",
    "url": "http://www.seikou-kai.net/",
    "pref": "福岡県",
    "city": "直方市",
    "category": "tokuyou",
    "serviceType": "介護老人福祉施設",
    "capacity": 80,
    "openDays": [],
    "openDaysNote": ""
  },
  {
    "id": "4079300010",
    "name": "介護老人福祉施設　添寿園",
    "kana": "カイゴロウジンフクシシセツ　テンジュエン",
    "address": "福岡県田川郡添田町大字庄１１１３－２",
    "lat": 33.57684,
    "lng": 130.8525961,
    "tel": "0947-82-2122",
    "url": "http://www.tenjyu-kai.com/",
    "pref": "福岡県",
    "city": "添田町",
    "category": "tokuyou",
    "serviceType": "介護老人福祉施設",
    "capacity": 50,
    "openDays": [],
    "openDaysNote": ""
  },
  {
    "id": "4079300408",
    "name": "社会福祉法人　特別養護老人ホームそえだ",
    "kana": "シャカイフクシホウジンコウワエントクベツヨウゴロウジンホームソエダ",
    "address": "福岡県田川郡添田町大字添田1148-3",
    "lat": 33.5674873,
    "lng": 130.8534767,
    "tel": "0947-82-4112",
    "url": "tokuyou-soeda@cap.bbiq.jp",
    "pref": "福岡県",
    "city": "添田町",
    "category": "tokuyou",
    "serviceType": "介護老人福祉施設",
    "capacity": null,
    "openDays": [],
    "openDaysNote": ""
  },
  {
    "id": "4071902342",
    "name": "ユニット型介護老人福祉施設　春のおとずれ",
    "kana": "ユニットガタカイゴロウジンフクシシセツ　ハルノオトズレ",
    "address": "福岡県田川市大字伊加利２０４７－３",
    "lat": 33.6216108333777,
    "lng": 130.826421440614,
    "tel": "0947-42-0368",
    "url": "http://otozure1.boo.jp",
    "pref": "福岡県",
    "city": "田川市",
    "category": "tokuyou",
    "serviceType": "介護老人福祉施設",
    "capacity": 0,
    "openDays": [],
    "openDaysNote": ""
  },
  {
    "id": "4071900189",
    "name": "特別養護老人ホーム　ことぶき園",
    "kana": "トクベツヨウゴロウジンホーム　コトブキエン",
    "address": "福岡県田川市大字伊田431-1",
    "lat": 33.6433849,
    "lng": 130.814466,
    "tel": "0947-45-4141",
    "url": "http://www.tagawafukushikai.com/",
    "pref": "福岡県",
    "city": "田川市",
    "category": "tokuyou",
    "serviceType": "介護老人福祉施設",
    "capacity": 0,
    "openDays": [],
    "openDaysNote": ""
  },
  {
    "id": "4071900395",
    "name": "特別養護老人ホームむつみ園",
    "kana": "トクベツヨウゴロウジンホームムツミエン",
    "address": "田川市大字大字弓削田2838番地49特別養護老人ホーム　むつみ園 特別養護老人ホーム　むつみ園",
    "lat": 33.6334161160612,
    "lng": 130.773394765435,
    "tel": "0947-44-3644",
    "url": "http://fukuoka-mutsumien.com/",
    "pref": "福岡県",
    "city": "田川市",
    "category": "tokuyou",
    "serviceType": "介護老人福祉施設",
    "capacity": 50,
    "openDays": [],
    "openDaysNote": ""
  },
  {
    "id": "4071900171",
    "name": "特別養護老人ホーム寿楽園",
    "kana": "トクベツヨウゴロウジンホームジュラクエン",
    "address": "福岡県田川市大字伊加利2091-8",
    "lat": 33.6173991961853,
    "lng": 130.833657477137,
    "tel": "0947-45-7702",
    "url": "http://jyurakuen.or.jp/",
    "pref": "福岡県",
    "city": "田川市",
    "category": "tokuyou",
    "serviceType": "介護老人福祉施設",
    "capacity": 0,
    "openDays": [],
    "openDaysNote": ""
  },
  {
    "id": "4076900036",
    "name": "特別養護老人ホーム　清和園",
    "kana": "トクベツヨウゴロウジンホーム　セイワエン",
    "address": "福岡県朝倉郡東峰村大字小石原708番地13",
    "lat": 33.4711139,
    "lng": 130.8324964,
    "tel": "0946-74-2453",
    "url": "http://seiwaen-care.jp",
    "pref": "福岡県",
    "city": "東峰村",
    "category": "tokuyou",
    "serviceType": "介護老人福祉施設",
    "capacity": 50,
    "openDays": [],
    "openDaysNote": ""
  },
  {
    "id": "4077000026",
    "name": "特別養護老人ホーム　宝珠の郷",
    "kana": "トクベツヨウゴロウジンホーム　ホウシュノサト",
    "address": "福岡県朝倉郡東峰村大字福井９４２－１",
    "lat": 33.3803188,
    "lng": 130.8787399,
    "tel": "0946-72-9811",
    "url": "https://www.e-housyu.jp/",
    "pref": "福岡県",
    "city": "東峰村",
    "category": "tokuyou",
    "serviceType": "介護老人福祉施設",
    "capacity": 0,
    "openDays": [],
    "openDaysNote": ""
  },
  {
    "id": "4073700074",
    "name": "ねむのき",
    "kana": "ネムノキ",
    "address": "福岡県那珂川市下梶原2丁目6番3号",
    "lat": 33.4997286,
    "lng": 130.4393694,
    "tel": "092-952-1122",
    "url": "http://www.nakafuku.jp",
    "pref": "福岡県",
    "city": "那珂川市",
    "category": "tokuyou",
    "serviceType": "介護老人福祉施設",
    "capacity": 0,
    "openDays": [],
    "openDaysNote": ""
  },
  {
    "id": "4073700934",
    "name": "特別養護老人ホーム　凪の郷",
    "kana": "トクベツヨウゴロウジンホーム　ナギノサト",
    "address": "大字山田１１１５番地１",
    "lat": 33.4888143033439,
    "lng": 130.415042606082,
    "tel": "092-408-9653",
    "url": "https://www.naginosato.jp/",
    "pref": "福岡県",
    "city": "那珂川市",
    "category": "tokuyou",
    "serviceType": "介護老人福祉施設",
    "capacity": 0,
    "openDays": [],
    "openDaysNote": ""
  },
  {
    "id": "4074400534",
    "name": "ユニット型特別養護老人ホーム緑の里",
    "kana": "ユニットガタトクベツヨウゴロウジンホームミドリノサト",
    "address": "福岡県粕屋郡粕屋町酒殿三丁目22番1号",
    "lat": 33.5990084836477,
    "lng": 130.48619647399,
    "tel": "092-939-3711",
    "url": "http://www.mikatsukai.or.jp/about/index.html",
    "pref": "福岡県",
    "city": "粕屋町",
    "category": "tokuyou",
    "serviceType": "介護老人福祉施設",
    "capacity": 0,
    "openDays": [],
    "openDaysNote": ""
  },
  {
    "id": "4074400682",
    "name": "特別養護老人ホームグッドライフ粕屋",
    "kana": "トクベツヨウゴロウジンホームグッドライフカスヤ",
    "address": "戸原東２丁目11-12グッドライフ粕屋 グッドライフ粕屋",
    "lat": 33.6220384709614,
    "lng": 130.476149261377,
    "tel": "092-410-7886",
    "url": "https://good-life.or.jp",
    "pref": "福岡県",
    "city": "粕屋町",
    "category": "tokuyou",
    "serviceType": "介護老人福祉施設",
    "capacity": 0,
    "openDays": [],
    "openDaysNote": ""
  },
  {
    "id": "4074400138",
    "name": "特別養護老人ホーム緑の里",
    "kana": "トクベツヨウゴロウジンホームミドリノサト",
    "address": "福岡県糟屋郡粕屋町酒殿三丁目22番1号",
    "lat": 33.5988442,
    "lng": 130.4860561,
    "tel": "092-939-3711",
    "url": "http://www.mikatsukai.or.jp/",
    "pref": "福岡県",
    "city": "粕屋町",
    "category": "tokuyou",
    "serviceType": "介護老人福祉施設",
    "capacity": 50,
    "openDays": [],
    "openDaysNote": ""
  },
  {
    "id": "4072301304",
    "name": "ユニット型特別養護老人ホーム　ステイン八女の里",
    "kana": "ユニットガタトクベツヨウゴロウジンホーム　ステインヤメノサト",
    "address": "福岡県八女市柳島８６３番地",
    "lat": 33.2156677269025,
    "lng": 130.6069489705,
    "tel": "０９４３－２２－２２００",
    "url": "http://www.yame-sato.com",
    "pref": "福岡県",
    "city": "八女市",
    "category": "tokuyou",
    "serviceType": "介護老人福祉施設",
    "capacity": 40,
    "openDays": [],
    "openDaysNote": ""
  },
  {
    "id": "4078200039",
    "name": "特別養護老人ホーム　光陽の郷",
    "kana": "トクベツヨウゴロウジンホーム　コウヨウノサト",
    "address": "福岡県八女市上陽町北川内2818番地の1",
    "lat": 33.2329222919961,
    "lng": 130.648004611202,
    "tel": "0943-54-3006",
    "url": "https://www.kouyounosato.com/kouyounosato/",
    "pref": "福岡県",
    "city": "八女市",
    "category": "tokuyou",
    "serviceType": "介護老人福祉施設",
    "capacity": 50,
    "openDays": [],
    "openDaysNote": ""
  },
  {
    "id": "4078600014",
    "name": "特別養護老人ホーム　星寿園",
    "kana": "トクベツヨウゴロウジンホーム　セイジュエン",
    "address": "福岡県八女市星野村２４００－１",
    "lat": 33.257644632195,
    "lng": 130.712132316383,
    "tel": "0943-52-2235",
    "url": "http://seijyuen.jp/",
    "pref": "福岡県",
    "city": "八女市",
    "category": "tokuyou",
    "serviceType": "介護老人福祉施設",
    "capacity": null,
    "openDays": [],
    "openDaysNote": ""
  },
  {
    "id": "4072301213",
    "name": "特別養護老人ホーム　第二光陽の郷",
    "kana": "トクベツヨウゴロウジンホーム　ダイニコウヨウノサト",
    "address": "福岡県八女市鵜池414番地",
    "lat": 33.2080926786266,
    "lng": 130.522588692282,
    "tel": "0943-25-2222",
    "url": "",
    "pref": "福岡県",
    "city": "八女市",
    "category": "tokuyou",
    "serviceType": "介護老人福祉施設",
    "capacity": 0,
    "openDays": [],
    "openDaysNote": ""
  },
  {
    "id": "4072300116",
    "name": "特別養護老人ホーム　八女の里",
    "kana": "トクベツヨウゴロウジンホーム　ヤメノサト",
    "address": "福岡県八女市柳島863番地",
    "lat": 33.2159011,
    "lng": 130.6072762,
    "tel": "0943-22-2200",
    "url": "http://www.yame-sato.com/",
    "pref": "福岡県",
    "city": "八女市",
    "category": "tokuyou",
    "serviceType": "介護老人福祉施設",
    "capacity": 50,
    "openDays": [],
    "openDaysNote": ""
  },
  {
    "id": "4078100056",
    "name": "特別養護老人ホーム桜の里",
    "kana": "トクベツヨウゴロウジンホームサクラノサト",
    "address": "福岡県八女市黒木町木屋２，８３０番地",
    "lat": 33.20855480975,
    "lng": 130.700809411037,
    "tel": "0943-42-4800",
    "url": "https://kurokifukushi.com",
    "pref": "福岡県",
    "city": "八女市",
    "category": "tokuyou",
    "serviceType": "介護老人福祉施設",
    "capacity": 50,
    "openDays": [],
    "openDaysNote": ""
  },
  {
    "id": "4078300052",
    "name": "特別養護老人ホーム梅花園",
    "kana": "トクベツヨウゴロウジンホームバイカエン",
    "address": "福岡県八女市立花町下辺春5460番地1",
    "lat": 33.1948485504528,
    "lng": 130.61282536328,
    "tel": "0943-37-1611",
    "url": "http://www.baikaen.jp",
    "pref": "福岡県",
    "city": "八女市",
    "category": "tokuyou",
    "serviceType": "介護老人福祉施設",
    "capacity": 0,
    "openDays": [],
    "openDaysNote": ""
  },
  {
    "id": "4072300942",
    "name": "八女市特別養護老人ホームゆいのもり",
    "kana": "ヤメシトクベツヨウゴロウジンホームユイノモリ",
    "address": "福岡県八女市矢部村矢部４０５８番地１",
    "lat": 33.1447307,
    "lng": 130.8285447,
    "tel": "0943-47-3125",
    "url": "yamesyakyo.jp/",
    "pref": "福岡県",
    "city": "八女市",
    "category": "tokuyou",
    "serviceType": "介護老人福祉施設",
    "capacity": 30,
    "openDays": [],
    "openDaysNote": ""
  },
  {
    "id": "4077800326",
    "name": "社会福祉法人　特別養護老人ホーム　サミック飯塚",
    "kana": "シャカイフクシホウジン　トクベツヨウゴロウジンホーム　サミックイイヅカ",
    "address": "福岡県飯塚市太郎丸712番地1",
    "lat": 33.6047062,
    "lng": 130.6689434,
    "tel": "0948-43-9462",
    "url": "https://summick.or.jp/iizuka/",
    "pref": "福岡県",
    "city": "飯塚市",
    "category": "tokuyou",
    "serviceType": "介護老人福祉施設",
    "capacity": 50,
    "openDays": [],
    "openDaysNote": ""
  },
  {
    "id": "4071803078",
    "name": "第二いずみ苑(ユニット）",
    "kana": "ダイニイズミエン（ユニット）",
    "address": "福岡県飯塚市庄司2003番地4",
    "lat": 33.6730160247516,
    "lng": 130.661414384131,
    "tel": "0948-23-5778",
    "url": "http://www.izumifukusikai.com/",
    "pref": "福岡県",
    "city": "飯塚市",
    "category": "tokuyou",
    "serviceType": "介護老人福祉施設",
    "capacity": 40,
    "openDays": [],
    "openDaysNote": ""
  },
  {
    "id": "4076400045",
    "name": "特別養護老人ホーム　かいた苑",
    "kana": "トクベツヨウゴロウジンホーム　カイタエン",
    "address": "福岡県飯塚市勢田２５９３番地６５",
    "lat": 33.7037573,
    "lng": 130.7270759,
    "tel": "0948-92-5211",
    "url": "",
    "pref": "福岡県",
    "city": "飯塚市",
    "category": "tokuyou",
    "serviceType": "介護老人福祉施設",
    "capacity": 0,
    "openDays": [],
    "openDaysNote": ""
  },
  {
    "id": "4071801528",
    "name": "特別養護老人ホーム　くぬぎ苑",
    "kana": "トクベツヨウゴロウジンホーム　クヌギエン",
    "address": "福岡県飯塚市相田１１４－１",
    "lat": 33.6570109,
    "lng": 130.6617802,
    "tel": "0948-24-8000",
    "url": "http://kunugien.com/",
    "pref": "福岡県",
    "city": "飯塚市",
    "category": "tokuyou",
    "serviceType": "介護老人福祉施設",
    "capacity": 70,
    "openDays": [],
    "openDaysNote": ""
  },
  {
    "id": "4076200015",
    "name": "特別養護老人ホーム　つばき苑",
    "kana": "トクベツヨウゴロウジンホーム　ツバキエン",
    "address": "福岡県飯塚市椿623番地8",
    "lat": 33.6190342,
    "lng": 130.6521266,
    "tel": "0948-23-2121",
    "url": "http://tbk-en.jp",
    "pref": "福岡県",
    "city": "飯塚市",
    "category": "tokuyou",
    "serviceType": "介護老人福祉施設",
    "capacity": 0,
    "openDays": [],
    "openDaysNote": ""
  },
  {
    "id": "4076300070",
    "name": "特別養護老人ホーム　はくりゅう園",
    "kana": "トクベツヨウゴロウジンホーム　ハクリュウエン",
    "address": "福岡県飯塚市綱分192番地1",
    "lat": 33.6279891921153,
    "lng": 130.737222499506,
    "tel": "0948-82-2420",
    "url": "http://www.hakuryuen.net/",
    "pref": "福岡県",
    "city": "飯塚市",
    "category": "tokuyou",
    "serviceType": "介護老人福祉施設",
    "capacity": 0,
    "openDays": [],
    "openDaysNote": ""
  },
  {
    "id": "4071800223",
    "name": "特別養護老人ホーム　第二いずみ苑",
    "kana": "トクベツヨウゴロウジンホーム　ダイニイズミエン",
    "address": "福岡県飯塚市庄司2003番地4",
    "lat": 33.6730128562368,
    "lng": 130.661398678621,
    "tel": "0948-23-5778",
    "url": "http://www.izumifukushikai.com/",
    "pref": "福岡県",
    "city": "飯塚市",
    "category": "tokuyou",
    "serviceType": "介護老人福祉施設",
    "capacity": 58,
    "openDays": [],
    "openDaysNote": ""
  },
  {
    "id": "4071803458",
    "name": "特別養護老人ホーム　筑穂桜の園",
    "kana": "トクベツヨウゴロウジンホーム　チクホサクラノソノ",
    "address": "福岡県飯塚市長尾1428番地1",
    "lat": 33.5728473,
    "lng": 130.6430372,
    "tel": "0948‐72‐3120",
    "url": "http://www.iizuka-shakyo.net",
    "pref": "福岡県",
    "city": "飯塚市",
    "category": "tokuyou",
    "serviceType": "介護老人福祉施設",
    "capacity": 30,
    "openDays": [],
    "openDaysNote": ""
  },
  {
    "id": "4071802021",
    "name": "特別養護老人ホーム　天空の杜",
    "kana": "トクベツヨウゴロウジンホーム　テンクウノモリ",
    "address": "福岡県飯塚市平恒181-1",
    "lat": 33.611422,
    "lng": 130.6866828,
    "tel": "0948-26-1165",
    "url": "http://www.9-10.jp",
    "pref": "福岡県",
    "city": "飯塚市",
    "category": "tokuyou",
    "serviceType": "介護老人福祉施設",
    "capacity": 0,
    "openDays": [],
    "openDaysNote": ""
  },
  {
    "id": "4076200098",
    "name": "特別養護老人ホーム　天寿園",
    "kana": "トクベツヨウゴロウジンホーム　テンジュエン",
    "address": "福岡県飯塚市高田167番地",
    "lat": 33.5955504,
    "lng": 130.6389813,
    "tel": "0948-25-3456",
    "url": "",
    "pref": "福岡県",
    "city": "飯塚市",
    "category": "tokuyou",
    "serviceType": "介護老人福祉施設",
    "capacity": 50,
    "openDays": [],
    "openDaysNote": ""
  },
  {
    "id": "4071800348",
    "name": "特別養護老人ホームいいづか",
    "kana": "トクベツヨウゴロウジンホームイイヅカ",
    "address": "福岡県飯塚市花瀬157番地1",
    "lat": 33.6422154,
    "lng": 130.6592503,
    "tel": "0948-29-5850",
    "url": "http://iihokai.com",
    "pref": "福岡県",
    "city": "飯塚市",
    "category": "tokuyou",
    "serviceType": "介護老人福祉施設",
    "capacity": 50,
    "openDays": [],
    "openDaysNote": ""
  },
  {
    "id": "4076300146",
    "name": "特別養護老人ホーム多田の里",
    "kana": "トクベツヨウゴロウジンホームタダノサト",
    "address": "福岡県飯塚市多田309番地11",
    "lat": 33.6439695,
    "lng": 130.7419974,
    "tel": "0948-20-4031",
    "url": "http://tadanosato.jp/",
    "pref": "福岡県",
    "city": "飯塚市",
    "category": "tokuyou",
    "serviceType": "介護老人福祉施設",
    "capacity": 40,
    "openDays": [],
    "openDaysNote": ""
  },
  {
    "id": "4071803276",
    "name": "特別養護老人ホーム多田の里愛夢",
    "kana": "トクベツヨウゴロウジンホームタダノサトアイム",
    "address": "福岡県飯塚市多田309番地11",
    "lat": 33.6439695,
    "lng": 130.7419974,
    "tel": "0948-20-4031",
    "url": "http://tadanosato.jp/",
    "pref": "福岡県",
    "city": "飯塚市",
    "category": "tokuyou",
    "serviceType": "介護老人福祉施設",
    "capacity": 30,
    "openDays": [],
    "openDaysNote": ""
  },
  {
    "id": "4071800330",
    "name": "特別養護老人ホーム太陽の郷",
    "kana": "トクベツヨウゴロウジンホームタイヨウノサト",
    "address": "福岡県飯塚市下三緒６９０番地",
    "lat": 33.6328812,
    "lng": 130.7012611,
    "tel": "0948-25-7789",
    "url": "http://taiyonosato.jp/",
    "pref": "福岡県",
    "city": "飯塚市",
    "category": "tokuyou",
    "serviceType": "介護老人福祉施設",
    "capacity": 0,
    "openDays": [],
    "openDaysNote": ""
  },
  {
    "id": "4076100033",
    "name": "特別養護老人ホーム本陣園",
    "kana": "トクベツヨウゴロウジンホームホンジンエン",
    "address": "福岡県飯塚市長尾884番地1",
    "lat": 33.5752080880048,
    "lng": 130.644047633157,
    "tel": "0948-72-3777",
    "url": "https://care-net.biz/40/honjinen/",
    "pref": "福岡県",
    "city": "飯塚市",
    "category": "tokuyou",
    "serviceType": "介護老人福祉施設",
    "capacity": 50,
    "openDays": [],
    "openDaysNote": ""
  },
  {
    "id": "4071302485",
    "name": "ケアタウン茶山特別養護老人ホーム",
    "kana": "ケアタウンチャヤマトクベツヨウゴロウジンホーム",
    "address": "福岡県福岡市城南区茶山3丁目9番1号",
    "lat": 33.560835,
    "lng": 130.365194,
    "tel": "092-834-2217",
    "url": "https://chayama.fukusiminsei.or.jp/",
    "pref": "福岡県",
    "city": "福岡市城南区",
    "category": "tokuyou",
    "serviceType": "介護老人福祉施設",
    "capacity": 0,
    "openDays": [],
    "openDaysNote": ""
  },
  {
    "id": "4071300224",
    "name": "社会福祉法人　油山福祉の里",
    "kana": "シャカイフクシホウジン　アブラヤマフクシノサト",
    "address": "福岡市城南区大字東油山字黒の原４９９番地１６",
    "lat": 33.5282932210049,
    "lng": 130.37610256539,
    "tel": "092-861-8788",
    "url": "http://www.fukusikai.or.jp",
    "pref": "福岡県",
    "city": "福岡市城南区",
    "category": "tokuyou",
    "serviceType": "介護老人福祉施設",
    "capacity": 50,
    "openDays": [],
    "openDaysNote": ""
  },
  {
    "id": "4071300802",
    "name": "特別養護老人ホーム　白熊園",
    "kana": "トクベツヨウゴロウジンホーム　シロクマエン",
    "address": "福岡市城南区別府7-5-45",
    "lat": 33.5692147,
    "lng": 130.3682406,
    "tel": "092-831-8562",
    "url": "http://www.hakuyuu.or.jp/",
    "pref": "福岡県",
    "city": "福岡市城南区",
    "category": "tokuyou",
    "serviceType": "介護老人福祉施設",
    "capacity": 0,
    "openDays": [],
    "openDaysNote": ""
  },
  {
    "id": "4071300216",
    "name": "特別養護老人ホーム　油山緑寿園",
    "kana": "トクベツヨウゴロウジンホーム　アブラヤマリョクジュエン",
    "address": "福岡市城南区南片江4-14-1",
    "lat": 33.5359716,
    "lng": 130.3748554,
    "tel": "092-861-3111",
    "url": "http://www.jyounan-fk.com/",
    "pref": "福岡県",
    "city": "福岡市城南区",
    "category": "tokuyou",
    "serviceType": "介護老人福祉施設",
    "capacity": 100,
    "openDays": [],
    "openDaysNote": ""
  },
  {
    "id": "4071302394",
    "name": "特別養護老人ホーム城南の杜",
    "kana": "トクベツヨウゴロウジンホーム　ジョウナンノモリ",
    "address": "福岡県福岡市城南区梅林３丁目１０番８号",
    "lat": 33.5478613,
    "lng": 130.3564923,
    "tel": "092-407-6372",
    "url": "http://www.keishinkai-s.or.jp",
    "pref": "福岡県",
    "city": "福岡市城南区",
    "category": "tokuyou",
    "serviceType": "介護老人福祉施設",
    "capacity": 0,
    "openDays": [],
    "openDaysNote": ""
  },
  {
    "id": "4071300232",
    "name": "特別養護老人ホーム飛鳥",
    "kana": "トクベツヨウゴロウジンホームアスカ",
    "address": "福岡市城南区鳥飼6丁目2番16号",
    "lat": 33.5756307,
    "lng": 130.3685015,
    "tel": "092-841-6701",
    "url": "http://www.torikai.org",
    "pref": "福岡県",
    "city": "福岡市城南区",
    "category": "tokuyou",
    "serviceType": "介護老人福祉施設",
    "capacity": 50,
    "openDays": [],
    "openDaysNote": ""
  },
  {
    "id": "4071202131",
    "name": "ウエストヒル創生園",
    "kana": "ウエストヒル　ソウセイエン",
    "address": "福岡県福岡市西区西の丘２丁目１番１号",
    "lat": 33.5686479,
    "lng": 130.2964433,
    "tel": "092-881-8310",
    "url": "http://www.souseikai.or.jp",
    "pref": "福岡県",
    "city": "福岡市西区",
    "category": "tokuyou",
    "serviceType": "介護老人福祉施設",
    "capacity": 0,
    "openDays": [],
    "openDaysNote": ""
  },
  {
    "id": "4071201083",
    "name": "介護老人福祉施設　リハモール福岡",
    "kana": "カイゴロウジンフクシシセツ　リハモールフクオカ",
    "address": "福岡市西区野方七丁目780番1",
    "lat": 33.5577989,
    "lng": 130.3039179,
    "tel": "092-812-3811",
    "url": "http://reha-mall.jp",
    "pref": "福岡県",
    "city": "福岡市西区",
    "category": "tokuyou",
    "serviceType": "介護老人福祉施設",
    "capacity": 72,
    "openDays": [],
    "openDaysNote": ""
  },
  {
    "id": "4071202883",
    "name": "介護老人福祉施設下山門",
    "kana": "カイゴロウジンフクシシセツシモヤマト",
    "address": "福岡市西区下山門４丁目６－１",
    "lat": 33.5794501895284,
    "lng": 130.308127946621,
    "tel": "092-891-5501",
    "url": "https://itofukushikai.com/",
    "pref": "福岡県",
    "city": "福岡市西区",
    "category": "tokuyou",
    "serviceType": "介護老人福祉施設",
    "capacity": 100,
    "openDays": [],
    "openDaysNote": ""
  },
  {
    "id": "4071202677",
    "name": "特別養護老人ホーム　あおい",
    "kana": "トクベツヨウゴロウジンホーム　アオイ",
    "address": "福岡県福岡市西区室見が丘2丁目22番1号",
    "lat": 33.5211214,
    "lng": 130.3206675,
    "tel": "092－812－5111",
    "url": "http://www.fukushi.-aoi.jp/",
    "pref": "福岡県",
    "city": "福岡市西区",
    "category": "tokuyou",
    "serviceType": "介護老人福祉施設",
    "capacity": 0,
    "openDays": [],
    "openDaysNote": ""
  },
  {
    "id": "4071203527",
    "name": "特別養護老人ホーム　いと楽し",
    "kana": "トクベツヨウゴロウジンホーム　イトタノシ",
    "address": "福岡県福岡市西区徳永北1-52地域複合福祉センター　いと楽し 地域複合福祉センター　いと楽し",
    "lat": 33.5761916545172,
    "lng": 130.258712263091,
    "tel": "092-802-0701",
    "url": "https://ito.fukuwel.or.jp",
    "pref": "福岡県",
    "city": "福岡市西区",
    "category": "tokuyou",
    "serviceType": "介護老人福祉施設",
    "capacity": 50,
    "openDays": [],
    "openDaysNote": ""
  },
  {
    "id": "4071203063",
    "name": "特別養護老人ホーム　ディグニティ内浜",
    "kana": "トクベツヨウゴロウジンホームディグニティウチハマ",
    "address": "福岡県福岡市西区内浜２－９－２３",
    "lat": 33.5835193,
    "lng": 130.3155525,
    "tel": "０９２－８９１－５１１８",
    "url": "https://asukafukushikai.com/",
    "pref": "福岡県",
    "city": "福岡市西区",
    "category": "tokuyou",
    "serviceType": "介護老人福祉施設",
    "capacity": 0,
    "openDays": [],
    "openDaysNote": ""
  },
  {
    "id": "4071201059",
    "name": "特別養護老人ホーム　マナハウス",
    "kana": "トクベツヨウゴロウジンホーム　マナハウス",
    "address": "福岡市西区戸切3丁目20番8号",
    "lat": 33.5523773,
    "lng": 130.3136728,
    "tel": "092-811-5528",
    "url": "http://www.sawara-fukushikai.org/manahouse/",
    "pref": "福岡県",
    "city": "福岡市西区",
    "category": "tokuyou",
    "serviceType": "介護老人福祉施設",
    "capacity": 69,
    "openDays": [],
    "openDaysNote": ""
  },
  {
    "id": "4071200325",
    "name": "特別養護老人ホーム　愛信園",
    "kana": "トクベツヨウゴロウジンホーム　アイシンエン",
    "address": "福岡県福岡市西区吉武297番地",
    "lat": 33.5355868,
    "lng": 130.3120595,
    "tel": "092-812-3362",
    "url": "http://www.aishinen.jp/",
    "pref": "福岡県",
    "city": "福岡市西区",
    "category": "tokuyou",
    "serviceType": "介護老人福祉施設",
    "capacity": 100,
    "openDays": [],
    "openDaysNote": ""
  },
  {
    "id": "4071200358",
    "name": "特別養護老人ホーム　七樹苑",
    "kana": "トクベツヨウゴロウジンホーム　ナナジュエン",
    "address": "福岡県福岡市西区今宿上ノ原１６番地の１",
    "lat": 33.5668142,
    "lng": 130.2838915,
    "tel": "092-807-3720",
    "url": "http://www.fujinomikai.com/",
    "pref": "福岡県",
    "city": "福岡市西区",
    "category": "tokuyou",
    "serviceType": "介護老人福祉施設",
    "capacity": 71,
    "openDays": [],
    "openDaysNote": ""
  },
  {
    "id": "4071200317",
    "name": "特別養護老人ホーム　寿生苑",
    "kana": "トクベツヨウゴロウジンホーム　ジュセイエン",
    "address": "福岡市西区田尻東3丁目2705-1",
    "lat": 33.5896662,
    "lng": 130.2594284,
    "tel": "092-806-8822",
    "url": "http://www.imayamakai.or.jp/",
    "pref": "福岡県",
    "city": "福岡市西区",
    "category": "tokuyou",
    "serviceType": "介護老人福祉施設",
    "capacity": 80,
    "openDays": [],
    "openDaysNote": ""
  },
  {
    "id": "4071201604",
    "name": "特別養護老人ホーム　能古清和園",
    "kana": "トクベツヨウゴロウジンホーム　ノコセイワエン",
    "address": "福岡市西区能古７７７番地１",
    "lat": 33.6090333,
    "lng": 130.3065695,
    "tel": "092-891-8778",
    "url": "https://seiwaen-care.jp",
    "pref": "福岡県",
    "city": "福岡市西区",
    "category": "tokuyou",
    "serviceType": "介護老人福祉施設",
    "capacity": 80,
    "openDays": [],
    "openDaysNote": ""
  },
  {
    "id": "4071200309",
    "name": "特別養護老人ホーム　歴史の里",
    "kana": "トクベツヨウゴロウジンホーム　レキシノサト",
    "address": "福岡市西区徳永397番地の46",
    "lat": 33.5661769,
    "lng": 130.2617818,
    "tel": "092-806-8111",
    "url": "https://rekishinosato.jp",
    "pref": "福岡県",
    "city": "福岡市西区",
    "category": "tokuyou",
    "serviceType": "介護老人福祉施設",
    "capacity": 50,
    "openDays": [],
    "openDaysNote": ""
  },
  {
    "id": "4071203220",
    "name": "特別養護老人ホームなの国",
    "kana": "トクベツヨウゴロウジンホームナノクニ",
    "address": "福岡県西区拾六町団地2番18号特別養護老人ホームなの国 特別養護老人ホームなの国",
    "lat": 33.5659401,
    "lng": 130.3077173,
    "tel": "092-892-3201",
    "url": "http://www.keitokukai.jp/",
    "pref": "福岡県",
    "city": "福岡市西区",
    "category": "tokuyou",
    "serviceType": "介護老人福祉施設",
    "capacity": 80,
    "openDays": [],
    "openDaysNote": ""
  },
  {
    "id": "4071203105",
    "name": "特別養護老人ホーム初花",
    "kana": "トクベツヨウゴロウジンホーム　ハツハナ",
    "address": "福岡県福岡市西区姪浜駅南４丁目１８番８号",
    "lat": 33.5790447,
    "lng": 130.3300237,
    "tel": "092-881-0093",
    "url": "http://www.fcs.or.jp/",
    "pref": "福岡県",
    "city": "福岡市西区",
    "category": "tokuyou",
    "serviceType": "介護老人福祉施設",
    "capacity": 49,
    "openDays": [],
    "openDaysNote": ""
  },
  {
    "id": "4071200333",
    "name": "特別養護老人ホーム松生園",
    "kana": "トクベツヨウゴロウジンホームショウセイエン",
    "address": "福岡市西区今宿青木1093-22",
    "lat": 33.5768692,
    "lng": 130.2911769,
    "tel": "092-885-2945",
    "url": "http://www.shoseien.jp/",
    "pref": "福岡県",
    "city": "福岡市西区",
    "category": "tokuyou",
    "serviceType": "介護老人福祉施設",
    "capacity": 0,
    "openDays": [],
    "openDaysNote": ""
  },
  {
    "id": "4071200291",
    "name": "日本赤十字社福岡県支部特別養護老人ホーム大寿園",
    "kana": "ニッポンセキジュウジシャフクオカケンシブトクベツヨウゴロウジンホームタイジュエン",
    "address": "福岡市西区今津520",
    "lat": 33.6013805,
    "lng": 130.2724601,
    "tel": "092-806-6100",
    "url": "http://www.taijuen.jrc.or.jp/taijuen",
    "pref": "福岡県",
    "city": "福岡市西区",
    "category": "tokuyou",
    "serviceType": "介護老人福祉施設",
    "capacity": 150,
    "openDays": [],
    "openDaysNote": ""
  },
  {
    "id": "4071404133",
    "name": "さわらふれあいの里",
    "kana": "サワラフレアイノサト",
    "address": "福岡県福岡市早良区早良1丁目5番33号さわらふれあいの里 さわらふれあいの里",
    "lat": 33.5067539119922,
    "lng": 130.337726755295,
    "tel": "092-872-4011",
    "url": "http://fureaino-sato.net/",
    "pref": "福岡県",
    "city": "福岡市早良区",
    "category": "tokuyou",
    "serviceType": "介護老人福祉施設",
    "capacity": 70,
    "openDays": [],
    "openDaysNote": ""
  },
  {
    "id": "4071402012",
    "name": "ライフケアしかた",
    "kana": "ライフケアシカタ",
    "address": "福岡県福岡市早良区四箇６丁目１２番４１号",
    "lat": 33.530243,
    "lng": 130.3310943,
    "tel": "092-811-6661",
    "url": "http://www.o-lifecare.com",
    "pref": "福岡県",
    "city": "福岡市早良区",
    "category": "tokuyou",
    "serviceType": "介護老人福祉施設",
    "capacity": 0,
    "openDays": [],
    "openDaysNote": ""
  },
  {
    "id": "4071401600",
    "name": "介護老人福祉施設　けやき",
    "kana": "カイゴロウジンフクシシセツ　ケヤキ",
    "address": "福岡市早良区荒江3丁目20番1号",
    "lat": 33.570256,
    "lng": 130.3513475,
    "tel": "092-822-0571",
    "url": "https://seiwakai-care.jp/",
    "pref": "福岡県",
    "city": "福岡市早良区",
    "category": "tokuyou",
    "serviceType": "介護老人福祉施設",
    "capacity": 0,
    "openDays": [],
    "openDaysNote": ""
  },
  {
    "id": "4071404166",
    "name": "介護老人福祉施設高取",
    "kana": "カイゴロウジンフクシシセツタカトリ",
    "address": "福岡県福岡市早良区昭代2-14-11",
    "lat": 33.5754583,
    "lng": 130.3529722,
    "tel": "092-852-8862",
    "url": "https://itofukushikai.com/guide/takatori/",
    "pref": "福岡県",
    "city": "福岡市早良区",
    "category": "tokuyou",
    "serviceType": "介護老人福祉施設",
    "capacity": 100,
    "openDays": [],
    "openDaysNote": ""
  },
  {
    "id": "4071401162",
    "name": "特別養護老人ホーム　あおぞら",
    "kana": "トクベツヨウゴロウジンホーム　アオゾラ",
    "address": "福岡県福岡市早良区城西2丁目6番27号特別養護老人ホーム　あおぞら 特別養護老人ホーム　あおぞら",
    "lat": 33.5781081,
    "lng": 130.362127,
    "tel": "092-844-1118",
    "url": "https://shafukuarata.net/",
    "pref": "福岡県",
    "city": "福岡市早良区",
    "category": "tokuyou",
    "serviceType": "介護老人福祉施設",
    "capacity": 0,
    "openDays": [],
    "openDaysNote": ""
  },
  {
    "id": "4071403713",
    "name": "特別養護老人ホーム　ラ・ポール有田",
    "kana": "トクベツヨウゴロウジンホーム　ラ・ポールアリタ",
    "address": "福岡県福岡市早良区有田7丁目2－4",
    "lat": 33.5641376,
    "lng": 130.329899,
    "tel": "092－852－8111",
    "url": "http://www.a-mizuhokai.jp",
    "pref": "福岡県",
    "city": "福岡市早良区",
    "category": "tokuyou",
    "serviceType": "介護老人福祉施設",
    "capacity": 100,
    "openDays": [],
    "openDaysNote": ""
  },
  {
    "id": "4071400511",
    "name": "特別養護老人ホーム　香楠荘",
    "kana": "トクベツヨウゴロウジンホーム　コウナンソウ",
    "address": "福岡市早良区東入部2-16-17",
    "lat": 33.5172527,
    "lng": 130.3360972,
    "tel": "092-803-2080",
    "url": "https://www.kounansou.jp",
    "pref": "福岡県",
    "city": "福岡市早良区",
    "category": "tokuyou",
    "serviceType": "介護老人福祉施設",
    "capacity": 37,
    "openDays": [],
    "openDaysNote": ""
  },
  {
    "id": "4071404208",
    "name": "特別養護老人ホーム　次郎丸の里",
    "kana": "トクベツヨウゴロウジンホーム　ジロウマルノサト",
    "address": "次郎丸4丁目7-8",
    "lat": 33.5493360187766,
    "lng": 130.330172223107,
    "tel": "092-407-8378",
    "url": "http://www.jiroumarunosato.com/",
    "pref": "福岡県",
    "city": "福岡市早良区",
    "category": "tokuyou",
    "serviceType": "介護老人福祉施設",
    "capacity": 54,
    "openDays": [],
    "openDaysNote": ""
  },
  {
    "id": "4071404000",
    "name": "特別養護老人ホームサンシャインセンター",
    "kana": "トクベツヨウゴロウジンホーム　サンシャインセンター",
    "address": "干隈６丁目１０番２０号特別養護老人ホーム　サンシャインセンター 特別養護老人ホーム　サンシャインセンター",
    "lat": 33.5488981457118,
    "lng": 130.346540031877,
    "tel": "092-874-0045",
    "url": "http://sunshine-plaza.or.jp/sun_center",
    "pref": "福岡県",
    "city": "福岡市早良区",
    "category": "tokuyou",
    "serviceType": "介護老人福祉施設",
    "capacity": 70,
    "openDays": [],
    "openDaysNote": ""
  },
  {
    "id": "4071401329",
    "name": "特別養護老人ホームサンシャインプラザ",
    "kana": "トクベツヨウゴロウジホーム　サンシャインプラザ",
    "address": "福岡市早良区田村2丁目15番2号",
    "lat": 33.5461973,
    "lng": 130.3323271,
    "tel": "092-801-0417",
    "url": "http//sunshine-plaza.or.jp/sun_plaza/",
    "pref": "福岡県",
    "city": "福岡市早良区",
    "category": "tokuyou",
    "serviceType": "介護老人福祉施設",
    "capacity": 100,
    "openDays": [],
    "openDaysNote": ""
  },
  {
    "id": "4071400255",
    "name": "特別養護老人ホームたちばな",
    "kana": "トクベツヨウゴロウジンホームタチバナ",
    "address": "福岡市早良区干隈4丁目18-10",
    "lat": 33.5546633,
    "lng": 130.345565,
    "tel": "092-873-7283",
    "url": "http://www.seiwakai-muta-hp.or.jp/welfare/",
    "pref": "福岡県",
    "city": "福岡市早良区",
    "category": "tokuyou",
    "serviceType": "介護老人福祉施設",
    "capacity": 46,
    "openDays": [],
    "openDaysNote": ""
  },
  {
    "id": "4071400230",
    "name": "特別養護老人ホーム恵風苑",
    "kana": "トクベツヨウゴロウジンホームケイフウエン",
    "address": "福岡市早良区内野７丁目２５－１０",
    "lat": 33.4937243,
    "lng": 130.3437362,
    "tel": "092-804-0500",
    "url": "http://www.keifuuen.ne.jp",
    "pref": "福岡県",
    "city": "福岡市早良区",
    "category": "tokuyou",
    "serviceType": "介護老人福祉施設",
    "capacity": 100,
    "openDays": [],
    "openDaysNote": ""
  },
  {
    "id": "4071000378",
    "name": "介護老人福祉施設　ライフケア大手門",
    "kana": "カイゴロウジンフクシシセツ　ライフケアオオテモン",
    "address": "福岡市中央区大手門2丁目5番15号",
    "lat": 33.5918993799074,
    "lng": 130.383307485844,
    "tel": "092-726-6333",
    "url": "http://www.o-lifecare.com",
    "pref": "福岡県",
    "city": "福岡市中央区",
    "category": "tokuyou",
    "serviceType": "介護老人福祉施設",
    "capacity": 0,
    "openDays": [],
    "openDaysNote": ""
  },
  {
    "id": "4071000618",
    "name": "特別養護老人ホームはなみずき園",
    "kana": "トクベツヨウゴロウジンホームハナミズキエン",
    "address": "福岡市中央区鳥飼二丁目４番８号",
    "lat": 33.5835716,
    "lng": 130.3707734,
    "tel": "092-739-3910",
    "url": "",
    "pref": "福岡県",
    "city": "福岡市中央区",
    "category": "tokuyou",
    "serviceType": "介護老人福祉施設",
    "capacity": 0,
    "openDays": [],
    "openDaysNote": ""
  },
  {
    "id": "4071001749",
    "name": "特別養護老人ホーム梅光園",
    "kana": "トクベツヨウゴロウジンホームバイコウエン",
    "address": "福岡県福岡市中央区梅光園３－４－１",
    "lat": 33.5686983,
    "lng": 130.3764954,
    "tel": "092-737-3223",
    "url": "http://www.tenjyukai.com",
    "pref": "福岡県",
    "city": "福岡市中央区",
    "category": "tokuyou",
    "serviceType": "介護老人福祉施設",
    "capacity": 0,
    "openDays": [],
    "openDaysNote": ""
  },
  {
    "id": "4071002929",
    "name": "特別養護老人ホーム煌奏館",
    "kana": "トクベツヨウゴロウジンホームコウソウカン",
    "address": "福岡県福岡市中央区清川2丁目17番17号",
    "lat": 33.5783397280819,
    "lng": 130.410067320007,
    "tel": "092-534-8511",
    "url": "https://asukafukushikai.com",
    "pref": "福岡県",
    "city": "福岡市中央区",
    "category": "tokuyou",
    "serviceType": "介護老人福祉施設",
    "capacity": 0,
    "openDays": [],
    "openDaysNote": ""
  },
  {
    "id": "4070802824",
    "name": "アイランドシティ照葉",
    "kana": "アイランドシティテリハ",
    "address": "福岡市東区香椎照葉３－４－３",
    "lat": 33.6605775,
    "lng": 130.4215916,
    "tel": "092-663-8500",
    "url": "https://itofukushikai.com/",
    "pref": "福岡県",
    "city": "福岡市東区",
    "category": "tokuyou",
    "serviceType": "介護老人福祉施設",
    "capacity": 0,
    "openDays": [],
    "openDaysNote": ""
  },
  {
    "id": "4070800240",
    "name": "介護老人福祉施設　奈多創生園",
    "kana": "カイゴロウジンフクシシセツ　ナタソウセイエン",
    "address": "福岡市東区雁の巣1丁目7番25号",
    "lat": 33.6876447595693,
    "lng": 130.408475205557,
    "tel": "092-607-1111",
    "url": "http://www.souseikai.or.jp",
    "pref": "福岡県",
    "city": "福岡市東区",
    "category": "tokuyou",
    "serviceType": "介護老人福祉施設",
    "capacity": 0,
    "openDays": [],
    "openDaysNote": ""
  },
  {
    "id": "4070800257",
    "name": "光薫寺ビハーラ",
    "kana": "コウクンジビハーラ",
    "address": "福岡市東区蒲田5丁目7番1号",
    "lat": 33.6446892,
    "lng": 130.4929456,
    "tel": "092-691-8111",
    "url": "http://kokun-fukushikai.com",
    "pref": "福岡県",
    "city": "福岡市東区",
    "category": "tokuyou",
    "serviceType": "介護老人福祉施設",
    "capacity": null,
    "openDays": [],
    "openDaysNote": ""
  },
  {
    "id": "4070803947",
    "name": "光薫寺ビハーラ",
    "kana": "コウクンジビハーラ",
    "address": "福岡県福岡市東区蒲田5丁目7番1号",
    "lat": 33.6446892,
    "lng": 130.4929456,
    "tel": "092-691-8111",
    "url": "http://kokun-fukushikai.com",
    "pref": "福岡県",
    "city": "福岡市東区",
    "category": "tokuyou",
    "serviceType": "介護老人福祉施設",
    "capacity": null,
    "openDays": [],
    "openDaysNote": ""
  },
  {
    "id": "4070802717",
    "name": "西戸崎創生園",
    "kana": "サイトザキソウセイエン",
    "address": "福岡県福岡市東区西戸崎５丁目２２－１",
    "lat": 33.6497367,
    "lng": 130.348915,
    "tel": "092-605-2121",
    "url": "http://www.souseikai.or.jp",
    "pref": "福岡県",
    "city": "福岡市東区",
    "category": "tokuyou",
    "serviceType": "介護老人福祉施設",
    "capacity": 80,
    "openDays": [],
    "openDaysNote": ""
  },
  {
    "id": "4070800265",
    "name": "特別養護老人ホーム　サンシャイン",
    "kana": "トクベツヨウゴロウジンホーム　サンシャイン",
    "address": "福岡市東区原田１丁目４１番１号",
    "lat": 33.6165358,
    "lng": 130.4380149,
    "tel": "092-623-6525",
    "url": "http://www.sunshine.or.jp",
    "pref": "福岡県",
    "city": "福岡市東区",
    "category": "tokuyou",
    "serviceType": "介護老人福祉施設",
    "capacity": 0,
    "openDays": [],
    "openDaysNote": ""
  },
  {
    "id": "4070803079",
    "name": "特別養護老人ホーム　シエル名島",
    "kana": "トクベツヨウゴロウジンホーム　　シエルナジマ",
    "address": "福岡市東区名島3丁目52番5号",
    "lat": 33.6436549,
    "lng": 130.4333697,
    "tel": "092-673-1800",
    "url": "http://www.kouwakai-ciel.jp",
    "pref": "福岡県",
    "city": "福岡市東区",
    "category": "tokuyou",
    "serviceType": "介護老人福祉施設",
    "capacity": 100,
    "openDays": [],
    "openDaysNote": ""
  },
  {
    "id": "4070802964",
    "name": "特別養護老人ホーム　聖家族の家若宮",
    "kana": "トクベツヨウゴロウジンホーム　セイカゾクノイエワカミヤ",
    "address": "福岡県福岡市東区若宮5丁目21-11",
    "lat": 33.645255,
    "lng": 130.4429218,
    "tel": "092-672-3110",
    "url": "http://seikazoku.jp",
    "pref": "福岡県",
    "city": "福岡市東区",
    "category": "tokuyou",
    "serviceType": "介護老人福祉施設",
    "capacity": 0,
    "openDays": [],
    "openDaysNote": ""
  },
  {
    "id": "4070801420",
    "name": "特別養護老人ホームいきいき八田",
    "kana": "トクベツヨウゴロウジンホームイキイキハッタ",
    "address": "福岡県福岡市東区八田１丁目4番15号",
    "lat": 33.6340388471912,
    "lng": 130.456681009123,
    "tel": "092-691-5089",
    "url": "http://chidorifukushi.jp",
    "pref": "福岡県",
    "city": "福岡市東区",
    "category": "tokuyou",
    "serviceType": "介護老人福祉施設",
    "capacity": 63,
    "openDays": [],
    "openDaysNote": ""
  },
  {
    "id": "4070801354",
    "name": "特別養護老人ホームさんすまいる唐原",
    "kana": "トクベツヨウゴロウジンホームサンスマイルトウノハル",
    "address": "福岡県福岡市東区唐原７－１５－５１",
    "lat": 33.6757878,
    "lng": 130.4488754,
    "tel": "092-682-2228",
    "url": "http://sunsmile.or.jp",
    "pref": "福岡県",
    "city": "福岡市東区",
    "category": "tokuyou",
    "serviceType": "介護老人福祉施設",
    "capacity": 0,
    "openDays": [],
    "openDaysNote": ""
  },
  {
    "id": "4070803483",
    "name": "特別養護老人ホームすこやか",
    "kana": "トクベツヨウゴロウジンホームスコヤカ",
    "address": "福岡県福岡市東区下原４丁目１８番２５号",
    "lat": 33.6756935,
    "lng": 130.4541806,
    "tel": "092-674-2111",
    "url": "http://www.hanabusa.or.jp/",
    "pref": "福岡県",
    "city": "福岡市東区",
    "category": "tokuyou",
    "serviceType": "介護老人福祉施設",
    "capacity": 0,
    "openDays": [],
    "openDaysNote": ""
  },
  {
    "id": "4070801016",
    "name": "特別養護老人ホームなごみの里",
    "kana": "トクベツヨウゴロウジンホームナゴミノサト",
    "address": "福岡市東区名子3丁目23番50号",
    "lat": 33.6420753,
    "lng": 130.471481,
    "tel": "092-691-8411",
    "url": "www.tatara-fukushikai.com",
    "pref": "福岡県",
    "city": "福岡市東区",
    "category": "tokuyou",
    "serviceType": "介護老人福祉施設",
    "capacity": 0,
    "openDays": [],
    "openDaysNote": ""
  },
  {
    "id": "4071103107",
    "name": "おおはし徳巣",
    "kana": "オオハシトクソウ",
    "address": "福岡市南区大橋団地５－１",
    "lat": 33.5568976,
    "lng": 130.4316059,
    "tel": "092-557-8117",
    "url": "",
    "pref": "福岡県",
    "city": "福岡市南区",
    "category": "tokuyou",
    "serviceType": "介護老人福祉施設",
    "capacity": 0,
    "openDays": [],
    "openDaysNote": ""
  },
  {
    "id": "4071100244",
    "name": "社会福祉法人福岡白百合会　花畑ホームアイナリーケア",
    "kana": "シャカイフクシホウジンフクオカシラユリカイハナハタホームアイナリーケア",
    "address": "福岡県福岡市南区大平寺2丁目37-18",
    "lat": 33.5290177676088,
    "lng": 130.390564564895,
    "tel": "092-566-3221",
    "url": "http:/fukuokashirayurikai.com/hanahata/",
    "pref": "福岡県",
    "city": "福岡市南区",
    "category": "tokuyou",
    "serviceType": "介護老人福祉施設",
    "capacity": 110,
    "openDays": [],
    "openDaysNote": ""
  },
  {
    "id": "4071100269",
    "name": "第２花畑ホームアイナリーケア",
    "kana": "ダイニハナハタホーム　アイナリーケア",
    "address": "福岡県福岡市南区柏原715-13",
    "lat": 33.5132567,
    "lng": 130.3837917,
    "tel": "092-565-4002",
    "url": "http://fukuokashirayurikai.com/dai2hanahata/",
    "pref": "福岡県",
    "city": "福岡市南区",
    "category": "tokuyou",
    "serviceType": "介護老人福祉施設",
    "capacity": 80,
    "openDays": [],
    "openDaysNote": ""
  },
  {
    "id": "4071100699",
    "name": "特別養護老人ホーム　シティケア　長住",
    "kana": "トクベツヨウゴロウジンホーム　シティケア　ナガズミ",
    "address": "福岡市南区長住3丁目7番1号",
    "lat": 33.5524729,
    "lng": 130.3936394,
    "tel": "092-554-0294",
    "url": "http://citycare.jp",
    "pref": "福岡県",
    "city": "福岡市南区",
    "category": "tokuyou",
    "serviceType": "介護老人福祉施設",
    "capacity": 0,
    "openDays": [],
    "openDaysNote": ""
  },
  {
    "id": "4071104170",
    "name": "特別養護老人ホーム　ムーンシャドウ",
    "kana": "トクベツヨウゴロウジンホーム　ムーンシャドウ",
    "address": "柳瀬一丁目15-1１１番２ １１番２",
    "lat": 33.5356419,
    "lng": 130.4354365,
    "tel": "092-558-2033",
    "url": "https://www.tokuwa.net/moon",
    "pref": "福岡県",
    "city": "福岡市南区",
    "category": "tokuyou",
    "serviceType": "介護老人福祉施設",
    "capacity": 0,
    "openDays": [],
    "openDaysNote": ""
  },
  {
    "id": "4071103966",
    "name": "特別養護老人ホーム　ライフケア柏原",
    "kana": "トクベツヨウゴロウジンホーム　ライフケアカシハラ",
    "address": "福岡市南区柏原４丁目２９番地５号",
    "lat": 33.5242923,
    "lng": 130.3970736,
    "tel": "０９２－５６７－７２００",
    "url": "http://www.o-lifecare.com",
    "pref": "福岡県",
    "city": "福岡市南区",
    "category": "tokuyou",
    "serviceType": "介護老人福祉施設",
    "capacity": 0,
    "openDays": [],
    "openDaysNote": ""
  },
  {
    "id": "4071100251",
    "name": "特別養護老人ホーム　花の季苑",
    "kana": "トクベツヨウゴロウジンホーム　ハナノキエン",
    "address": "福岡県福岡市南区和田4-16-1",
    "lat": 33.5489011,
    "lng": 130.4214985,
    "tel": "092-512-0668",
    "url": "http://tokuwa.net",
    "pref": "福岡県",
    "city": "福岡市南区",
    "category": "tokuyou",
    "serviceType": "介護老人福祉施設",
    "capacity": 50,
    "openDays": [],
    "openDaysNote": ""
  },
  {
    "id": "4071105151",
    "name": "特別養護老人ホーム　回生園弐番館",
    "kana": "トクベツヨウゴロウジンホーム　カイセイエンニバンカン",
    "address": "福岡県福岡市南区的場２丁目３番６号特別養護老人ホーム回生園弐番館 特別養護老人ホーム回生園弐番館",
    "lat": 33.5400913,
    "lng": 130.4335644,
    "tel": "（092）573-1717",
    "url": "http://care-net.biz/40/seishinkai/",
    "pref": "福岡県",
    "city": "福岡市南区",
    "category": "tokuyou",
    "serviceType": "介護老人福祉施設",
    "capacity": 0,
    "openDays": [],
    "openDaysNote": ""
  },
  {
    "id": "4071105474",
    "name": "特別養護老人ホーム　光の丘",
    "kana": "トクベツヨウゴロウジンホーム　ヒカリノオカ",
    "address": "福岡県福岡市南区若久団地9番1号",
    "lat": 33.5537705889075,
    "lng": 130.419533374205,
    "tel": "092-984-0012",
    "url": "",
    "pref": "福岡県",
    "city": "福岡市南区",
    "category": "tokuyou",
    "serviceType": "介護老人福祉施設",
    "capacity": null,
    "openDays": [],
    "openDaysNote": ""
  },
  {
    "id": "4071105854",
    "name": "特別養護老人ホーム　市崎の杜",
    "kana": "トクベツヨウゴロウジンホーム　イチザキノモリ",
    "address": "福岡県福岡市南区市崎１丁目１５－１１",
    "lat": 33.5713541,
    "lng": 130.4036479,
    "tel": "０９２－５２１－１２５０",
    "url": "http://www.nanokakai.jp",
    "pref": "福岡県",
    "city": "福岡市南区",
    "category": "tokuyou",
    "serviceType": "介護老人福祉施設",
    "capacity": 0,
    "openDays": [],
    "openDaysNote": ""
  },
  {
    "id": "4071101994",
    "name": "特別養護老人ホーム　鹿助荘",
    "kana": "トクベツヨウゴロウジンホーム　ロクスケソウ",
    "address": "福岡県福岡市南区西長住2丁目1-57",
    "lat": 33.5508286,
    "lng": 130.3921035,
    "tel": "092-511-6711",
    "url": "http://www.nagao.or.jp",
    "pref": "福岡県",
    "city": "福岡市南区",
    "category": "tokuyou",
    "serviceType": "介護老人福祉施設",
    "capacity": 0,
    "openDays": [],
    "openDaysNote": ""
  },
  {
    "id": "4071100202",
    "name": "特別養護老人ホーム　松月園",
    "kana": "トクベツヨウゴロウジンホーム　マツヅキエン",
    "address": "福岡市南区老司5-12-4",
    "lat": 33.528706,
    "lng": 130.4179576,
    "tel": "092-565-6838",
    "url": "http://www.matudukien.com/",
    "pref": "福岡県",
    "city": "福岡市南区",
    "category": "tokuyou",
    "serviceType": "介護老人福祉施設",
    "capacity": 30,
    "openDays": [],
    "openDaysNote": ""
  },
  {
    "id": "4071100087",
    "name": "特別養護老人ホーム回生園",
    "kana": "トクベツヨウゴロウジンホームカイセイエン",
    "address": "福岡市南区的場２丁目３番３号",
    "lat": 33.5436714262003,
    "lng": 130.431861339377,
    "tel": "092-573-2705",
    "url": "http://care-net.biz/40/seishinkai/",
    "pref": "福岡県",
    "city": "福岡市南区",
    "category": "tokuyou",
    "serviceType": "介護老人福祉施設",
    "capacity": 50,
    "openDays": [],
    "openDaysNote": ""
  },
  {
    "id": "4070903150",
    "name": "アットホーム諸岡",
    "kana": "アットホームモロオカ",
    "address": "福岡市博多区諸岡2-13-32",
    "lat": 33.558448,
    "lng": 130.4521127,
    "tel": "092-588-5885",
    "url": "http://www.keiaien.org/",
    "pref": "福岡県",
    "city": "福岡市博多区",
    "category": "tokuyou",
    "serviceType": "介護老人福祉施設",
    "capacity": 0,
    "openDays": [],
    "openDaysNote": ""
  },
  {
    "id": "4070901782",
    "name": "アットホーム博多の森",
    "kana": "アットホームハカタノモリ",
    "address": "福岡県福岡市博多区大字下月隈73番１",
    "lat": 33.5808097,
    "lng": 130.4660223,
    "tel": "092-623-6236",
    "url": "http//www.keiaien.org/",
    "pref": "福岡県",
    "city": "福岡市博多区",
    "category": "tokuyou",
    "serviceType": "介護老人福祉施設",
    "capacity": 0,
    "openDays": [],
    "openDaysNote": ""
  },
  {
    "id": "4070903762",
    "name": "アットホーム福岡",
    "kana": "アットホームフクオカ",
    "address": "福岡県福岡市博多区千代1丁目1番55号複合型高齢者福祉施設　アットホーム福岡 複合型高齢者福祉施設　アットホーム福岡",
    "lat": 33.6016644883278,
    "lng": 130.42140371786,
    "tel": "092-631-1007",
    "url": "http://www.keiaien.org/",
    "pref": "福岡県",
    "city": "福岡市博多区",
    "category": "tokuyou",
    "serviceType": "介護老人福祉施設",
    "capacity": 100,
    "openDays": [],
    "openDaysNote": ""
  },
  {
    "id": "4070901584",
    "name": "シティケア博多",
    "kana": "シティケアハカタ",
    "address": "福岡市博多区博多駅前4-22-2",
    "lat": 33.5847972,
    "lng": 130.4185671,
    "tel": "092-452-2294",
    "url": "http://www.citycare.jp",
    "pref": "福岡県",
    "city": "福岡市博多区",
    "category": "tokuyou",
    "serviceType": "介護老人福祉施設",
    "capacity": 0,
    "openDays": [],
    "openDaysNote": ""
  },
  {
    "id": "4070900396",
    "name": "月隈愛心の丘",
    "kana": "ツキグマアイシンノオカ",
    "address": "福岡市博多区月隈６丁目１６番１１号",
    "lat": 33.5714886,
    "lng": 130.4668197,
    "tel": "092-503-9000",
    "url": "http://www.aishinnooka.com",
    "pref": "福岡県",
    "city": "福岡市博多区",
    "category": "tokuyou",
    "serviceType": "介護老人福祉施設",
    "capacity": 0,
    "openDays": [],
    "openDaysNote": ""
  },
  {
    "id": "4070904620",
    "name": "特別養護老人ホーム　マザーハート",
    "kana": "トクベツヨウゴロウジンホーム　マザーハート",
    "address": "福岡市博多区東光2-8-23",
    "lat": 33.5945281764285,
    "lng": 130.426898882202,
    "tel": "092-441-3630",
    "url": "kojyukai.or.jp",
    "pref": "福岡県",
    "city": "福岡市博多区",
    "category": "tokuyou",
    "serviceType": "介護老人福祉施設",
    "capacity": 48,
    "openDays": [],
    "openDaysNote": ""
  },
  {
    "id": "4070904307",
    "name": "特別養護老人ホーム　りんごの丘",
    "kana": "トクベツヨウゴロウジンホーム　リンゴノオカ",
    "address": "福岡県福岡市博多区光丘町1-2-41",
    "lat": 33.539859,
    "lng": 130.4650672,
    "tel": "092-502-7901",
    "url": "http://www.shafuku-soyokaze.com",
    "pref": "福岡県",
    "city": "福岡市博多区",
    "category": "tokuyou",
    "serviceType": "介護老人福祉施設",
    "capacity": 0,
    "openDays": [],
    "openDaysNote": ""
  },
  {
    "id": "4070900388",
    "name": "特別養護老人ホーム　博多さくら園",
    "kana": "トクベツヨウゴロウジンホーム　ハカタサクラエン",
    "address": "福岡市博多区古門戸町４番２３号",
    "lat": 33.5980706,
    "lng": 130.404704,
    "tel": "092-262-5700",
    "url": "http:/hakata-sakuraen.jp/",
    "pref": "福岡県",
    "city": "福岡市博多区",
    "category": "tokuyou",
    "serviceType": "介護老人福祉施設",
    "capacity": 0,
    "openDays": [],
    "openDaysNote": ""
  },
  {
    "id": "4070900370",
    "name": "特別養護老人ホーム　洸寿園",
    "kana": "トクベツヨウゴロウジンホーム　コウジュエン",
    "address": "福岡市博多区金の隈三丁目２４番５５号",
    "lat": 33.5558964,
    "lng": 130.4801991,
    "tel": "092-503-1085",
    "url": "http://www.seifu-kai.jp",
    "pref": "福岡県",
    "city": "福岡市博多区",
    "category": "tokuyou",
    "serviceType": "介護老人福祉施設",
    "capacity": 100,
    "openDays": [],
    "openDaysNote": ""
  },
  {
    "id": "4070902087",
    "name": "特別養護老人ホーム　薔薇の樹苑",
    "kana": "トクベツヨウゴロウジンホウム　バラノキエン",
    "address": "福岡市博多区元町2丁目1番7号",
    "lat": 33.5420309,
    "lng": 130.4627646,
    "tel": "092-571-6500",
    "url": "http://tokuwa.net",
    "pref": "福岡県",
    "city": "福岡市博多区",
    "category": "tokuyou",
    "serviceType": "介護老人福祉施設",
    "capacity": 70,
    "openDays": [],
    "openDaysNote": ""
  },
  {
    "id": "4070904885",
    "name": "特別養護老人ホームケアイン博多",
    "kana": "トクベツヨウゴロウジンホームケアインハカタ",
    "address": "福岡県福岡市博多区東那珂一丁目８番８号",
    "lat": 33.577330623018,
    "lng": 130.439125072353,
    "tel": "092-452-0005",
    "url": "https://kouryokukai-fukuoka.jimdofree.com/",
    "pref": "福岡県",
    "city": "福岡市博多区",
    "category": "tokuyou",
    "serviceType": "介護老人福祉施設",
    "capacity": null,
    "openDays": [],
    "openDaysNote": ""
  },
  {
    "id": "4079400778",
    "name": "ユニットケア慶寿園",
    "kana": "ユニットケア慶寿園",
    "address": "福岡県田川郡福智町上野3175番地3",
    "lat": 33.7202318,
    "lng": 130.7782816,
    "tel": "0947-28-5686",
    "url": "ｈｔｔｐ：//ｋｅｉｊｕｅｎ-ｆｕｋｕｃｈｉ.ｏｒｇ/",
    "pref": "福岡県",
    "city": "福智町",
    "category": "tokuyou",
    "serviceType": "介護老人福祉施設",
    "capacity": 0,
    "openDays": [],
    "openDaysNote": ""
  },
  {
    "id": "4079400901",
    "name": "特別養護老人ホーム　いなほ",
    "kana": "トクベツヨウゴロウジンホーム　イナホ",
    "address": "福岡県田川郡福智町伊方4138",
    "lat": 33.7059817,
    "lng": 130.8222221,
    "tel": "0947-23-2747",
    "url": "https://seihoukai-hukushi.com",
    "pref": "福岡県",
    "city": "福智町",
    "category": "tokuyou",
    "serviceType": "介護老人福祉施設",
    "capacity": 0,
    "openDays": [],
    "openDaysNote": ""
  },
  {
    "id": "4079400026",
    "name": "特別養護老人ホーム　第二長寿園",
    "kana": "トクベツヨウゴロウジンホーム　ダイニチョウジュエン",
    "address": "福岡県田川郡福智町金田1257-2-1",
    "lat": 33.6826469,
    "lng": 130.7713579,
    "tel": "0947-22-4080",
    "url": "https://daini-choujuen.jp/",
    "pref": "福岡県",
    "city": "福智町",
    "category": "tokuyou",
    "serviceType": "介護老人福祉施設",
    "capacity": 0,
    "openDays": [],
    "openDaysNote": ""
  },
  {
    "id": "4079800050",
    "name": "特別養護老人ホーム　方信園",
    "kana": "トクベツヨウゴロウジンホーム　ホウシンエン",
    "address": "福岡県田川郡福智町伊方２６１１－１",
    "lat": 33.6759764,
    "lng": 130.803249,
    "tel": "0947-22-4933",
    "url": "https://www.fukujukai-chikuho.com",
    "pref": "福岡県",
    "city": "福智町",
    "category": "tokuyou",
    "serviceType": "介護老人福祉施設",
    "capacity": 100,
    "openDays": [],
    "openDaysNote": ""
  },
  {
    "id": "4079700052",
    "name": "特別養護老人ホーム慶寿園",
    "kana": "トクベツヨウゴロウジンホームケイジュエン",
    "address": "福岡県田川郡福智町上野3175番地3",
    "lat": 33.7202318,
    "lng": 130.7782816,
    "tel": "0947-28-5689",
    "url": "ｈｔｔｐ：//ｋｅｉｊｕｅｎ-ｆｕｋｕｃｈｉ.ｏｒｇ/",
    "pref": "福岡県",
    "city": "福智町",
    "category": "tokuyou",
    "serviceType": "介護老人福祉施設",
    "capacity": 50,
    "openDays": [],
    "openDaysNote": ""
  },
  {
    "id": "4079800043",
    "name": "特別養護老人ホーム福智園",
    "kana": "トクベツヨウゴロウジンホームフクチエン",
    "address": "福岡県田川郡福智町弁城4193番地28",
    "lat": 33.696993,
    "lng": 130.7801538,
    "tel": "0947-22-1434",
    "url": "http://www.fukuchikai.jp",
    "pref": "福岡県",
    "city": "福智町",
    "category": "tokuyou",
    "serviceType": "介護老人福祉施設",
    "capacity": 100,
    "openDays": [],
    "openDaysNote": ""
  },
  {
    "id": "4074500952",
    "name": "ユニット型介護老人福祉施設さくら",
    "kana": "ユニットガタカイゴロウジンフクシシセツサクラ",
    "address": "福岡県福津市上西郷734-3",
    "lat": 33.7581782,
    "lng": 130.5106971,
    "tel": "0940-43-5561",
    "url": "http://www.kenjien.com/",
    "pref": "福岡県",
    "city": "福津市",
    "category": "tokuyou",
    "serviceType": "介護老人福祉施設",
    "capacity": 0,
    "openDays": [],
    "openDaysNote": ""
  },
  {
    "id": "4074500978",
    "name": "特別養護老人ホーム　第二津屋崎園",
    "kana": "トクベツヨウゴロウジンホーム　ダイニツヤザキエン",
    "address": "福岡県福津市奴山1174番地",
    "lat": 33.8200036,
    "lng": 130.4911917,
    "tel": "0940-34-5511",
    "url": "http:www.kitatikuzen.net.",
    "pref": "福岡県",
    "city": "福津市",
    "category": "tokuyou",
    "serviceType": "介護老人福祉施設",
    "capacity": null,
    "openDays": [],
    "openDaysNote": ""
  },
  {
    "id": "4074500143",
    "name": "特別養護老人ホーム筑前顕慈園",
    "kana": "トクベツヨウゴロウジンホームチクゼンケンジエン",
    "address": "福岡県福津市上西郷734-3",
    "lat": 33.7581615,
    "lng": 130.5107137,
    "tel": "0940-43-5561",
    "url": "http://www.kenjien.com/",
    "pref": "福岡県",
    "city": "福津市",
    "category": "tokuyou",
    "serviceType": "介護老人福祉施設",
    "capacity": 0,
    "openDays": [],
    "openDaysNote": ""
  },
  {
    "id": "4074600067",
    "name": "特別養護老人ホーム津屋崎園",
    "kana": "トクベツヨウゴロウジンホーム　ツヤザキエン",
    "address": "福岡県福津市奴山１１７４番地",
    "lat": 33.8200036,
    "lng": 130.4911917,
    "tel": "0940-52-3545",
    "url": "http://www.kitatikuzen.net./pri/index.html",
    "pref": "福岡県",
    "city": "福津市",
    "category": "tokuyou",
    "serviceType": "介護老人福祉施設",
    "capacity": 54,
    "openDays": [],
    "openDaysNote": ""
  },
  {
    "id": "4072700075",
    "name": "指定介護老人福祉施設　豊前サンビレッヂ",
    "kana": "シテイカイゴロウジンフクシシセツ　ブゼンサンビレッヂ",
    "address": "福岡県豊前市大字下川底170",
    "lat": 33.5549897,
    "lng": 131.0919086,
    "tel": "0979-88-3121",
    "url": "https://www.fukuoka-houseikai.or.jp",
    "pref": "福岡県",
    "city": "豊前市",
    "category": "tokuyou",
    "serviceType": "介護老人福祉施設",
    "capacity": 50,
    "openDays": [],
    "openDaysNote": ""
  },
  {
    "id": "4072700091",
    "name": "特別養護老人ホーム　亀保の里",
    "kana": "トクベツヨウゴロウジンホーム　キボウノサト",
    "address": "福岡県豊前市大字鬼木63番地1",
    "lat": 33.5774117752861,
    "lng": 131.128464985181,
    "tel": "0979-82-3344",
    "url": "http://www.kibounosato.jp",
    "pref": "福岡県",
    "city": "豊前市",
    "category": "tokuyou",
    "serviceType": "介護老人福祉施設",
    "capacity": 80,
    "openDays": [],
    "openDaysNote": ""
  },
  {
    "id": "4070300175",
    "name": "介護老人福祉施設　やすらぎの郷牧山",
    "kana": "カイゴロウジンフクシシセツ　ヤスラギノサトマキヤマ",
    "address": "福岡県　北九州市　戸畑区　新川町３番３３号",
    "lat": 33.8916244,
    "lng": 130.8219895,
    "tel": "093-883-3133",
    "url": "http://www.iwakifukushikai.jp",
    "pref": "福岡県",
    "city": "北九州市戸畑区",
    "category": "tokuyou",
    "serviceType": "介護老人福祉施設",
    "capacity": 78,
    "openDays": [],
    "openDaysNote": ""
  },
  {
    "id": "4070300860",
    "name": "特別養護老人ホームさわみ園",
    "kana": "トクベツヨウゴロウジンホームサワミエン",
    "address": "福岡県北九州市戸畑区沢見二丁目5番2号",
    "lat": 33.8960574,
    "lng": 130.8388462,
    "tel": "093-881-2066",
    "url": "http://www.seikou-kai.net/",
    "pref": "福岡県",
    "city": "北九州市戸畑区",
    "category": "tokuyou",
    "serviceType": "介護老人福祉施設",
    "capacity": 0,
    "openDays": [],
    "openDaysNote": ""
  },
  {
    "id": "4070300753",
    "name": "特別養護老人ホームとばた",
    "kana": "トクベツヨウゴロウジンホームトバタ",
    "address": "福岡県北九州市戸畑区千防一丁目1番6号高齢者複合施設　ふれあいの里とばた 高齢者複合施設　ふれあいの里とばた",
    "lat": 33.8936826,
    "lng": 130.8303609,
    "tel": "093-873-5115",
    "url": "https://www.fureainosato-tobata.jp/",
    "pref": "福岡県",
    "city": "北九州市戸畑区",
    "category": "tokuyou",
    "serviceType": "介護老人福祉施設",
    "capacity": 0,
    "openDays": [],
    "openDaysNote": ""
  },
  {
    "id": "4070300126",
    "name": "特別養護老人ホーム戸畑大谷園",
    "kana": "トクベツヨウゴロウジンホームトバタオオタニエン",
    "address": "北九州市戸畑区西大谷１丁目６番22号",
    "lat": 33.8802755,
    "lng": 130.8262006,
    "tel": "093-883-0622",
    "url": "http://www.tobata-minsei.or.jp/Ohtani%20Home%20Page/home.htm",
    "pref": "福岡県",
    "city": "北九州市戸畑区",
    "category": "tokuyou",
    "serviceType": "介護老人福祉施設",
    "capacity": 70,
    "openDays": [],
    "openDaysNote": ""
  },
  {
    "id": "4070200334",
    "name": "介護老人福祉施設　あじさい",
    "kana": "カイゴロウジンフクシシセツ　アジサイ",
    "address": "北九州市若松区西畑町９番７３号",
    "lat": 33.910441,
    "lng": 130.7921585,
    "tel": "093-752-3777",
    "url": "https://e-ajisai.com",
    "pref": "福岡県",
    "city": "北九州市若松区",
    "category": "tokuyou",
    "serviceType": "介護老人福祉施設",
    "capacity": 0,
    "openDays": [],
    "openDaysNote": ""
  },
  {
    "id": "4070201514",
    "name": "特別養護老人ホーム　あますみ園",
    "kana": "トクベツヨウゴロウジンホーム　アマスミエン",
    "address": "福岡県北九州市若松区大字大鳥居64-1",
    "lat": 33.9013722352508,
    "lng": 130.702368480187,
    "tel": "093-741-1001",
    "url": "",
    "pref": "福岡県",
    "city": "北九州市若松区",
    "category": "tokuyou",
    "serviceType": "介護老人福祉施設",
    "capacity": 0,
    "openDays": [],
    "openDaysNote": ""
  },
  {
    "id": "4070201118",
    "name": "特別養護老人ホーム　ケアイン西天神",
    "kana": "トクベツヨウゴロウジンホーム　ケアインニシテンジン",
    "address": "福岡県北九州市若松区西天神町4番33号",
    "lat": 33.8895009,
    "lng": 130.7621394,
    "tel": "093-701-0170",
    "url": "https://kouryokukai.jp/",
    "pref": "福岡県",
    "city": "北九州市若松区",
    "category": "tokuyou",
    "serviceType": "介護老人福祉施設",
    "capacity": 0,
    "openDays": [],
    "openDaysNote": ""
  },
  {
    "id": "4070201886",
    "name": "特別養護老人ホーム　ケアイン大鳥居",
    "kana": "トクベツヨウゴロウジンホーム　ケアインオオトリイ",
    "address": "福岡県北九州市若松区大字大鳥居64-1",
    "lat": 33.9013483242219,
    "lng": 130.702379155484,
    "tel": "093-741-1001",
    "url": "https://kouryokukai-fukuoka.jimdofree.com/",
    "pref": "福岡県",
    "city": "北九州市若松区",
    "category": "tokuyou",
    "serviceType": "介護老人福祉施設",
    "capacity": 0,
    "openDays": [],
    "openDaysNote": ""
  },
  {
    "id": "4070200292",
    "name": "特別養護老人ホーム　ひびき荘",
    "kana": "トクベツヨウゴロウジンホーム　ヒビキソウ",
    "address": "北九州市若松区大字安屋3310-3",
    "lat": 33.9358334,
    "lng": 130.7008182,
    "tel": "093-741-0055",
    "url": "http://www.hibiki.or.jp",
    "pref": "福岡県",
    "city": "北九州市若松区",
    "category": "tokuyou",
    "serviceType": "介護老人福祉施設",
    "capacity": 0,
    "openDays": [],
    "openDaysNote": ""
  },
  {
    "id": "4070200177",
    "name": "特別養護老人ホーム　ライフポート若松",
    "kana": "トクベツヨウゴロウジンホーム　ライフポートワカマツ",
    "address": "北九州市若松区藤ノ木２丁目１番２２号",
    "lat": 33.89279,
    "lng": 130.7812654,
    "tel": "093-752-5370",
    "url": "http://www.lifeport.or.jp",
    "pref": "福岡県",
    "city": "北九州市若松区",
    "category": "tokuyou",
    "serviceType": "介護老人福祉施設",
    "capacity": 0,
    "openDays": [],
    "openDaysNote": ""
  },
  {
    "id": "4070201464",
    "name": "特別養護老人ホーム　花乃路",
    "kana": "トクベツヨウゴロウジンホーム　ハナノジ",
    "address": "北九州市若松区大字乙丸1651番12",
    "lat": 33.9107962,
    "lng": 130.6801881,
    "tel": "093-742-1188",
    "url": "http://www.kiyoukai.or.jp/",
    "pref": "福岡県",
    "city": "北九州市若松区",
    "category": "tokuyou",
    "serviceType": "介護老人福祉施設",
    "capacity": 100,
    "openDays": [],
    "openDaysNote": ""
  },
  {
    "id": "4070201753",
    "name": "特別養護老人ホームあやめ苑",
    "kana": "トクベツヨウゴロウジンホームアヤメエン",
    "address": "中畑町10番16号",
    "lat": 33.9112018,
    "lng": 130.7846008,
    "tel": "093-752-1100",
    "url": "www.kiyoukai.or.jp/",
    "pref": "福岡県",
    "city": "北九州市若松区",
    "category": "tokuyou",
    "serviceType": "介護老人福祉施設",
    "capacity": 100,
    "openDays": [],
    "openDaysNote": ""
  },
  {
    "id": "4070500295",
    "name": "介護老人福祉施設　双葉苑",
    "kana": "カイゴロウジンフクシシセツ　フタバエン",
    "address": "福岡県北九州市小倉南区長行東3丁目13番17号",
    "lat": 33.8173114,
    "lng": 130.8578441,
    "tel": "093-451-5865",
    "url": "http://www.futaba-kai.or.jp",
    "pref": "福岡県",
    "city": "北九州市小倉南区",
    "category": "tokuyou",
    "serviceType": "介護老人福祉施設",
    "capacity": 0,
    "openDays": [],
    "openDaysNote": ""
  },
  {
    "id": "4070500436",
    "name": "好日苑",
    "kana": "コウジツエン",
    "address": "北九州市小倉南区曽根新田北3丁目2-1",
    "lat": 33.8224794,
    "lng": 130.9536862,
    "tel": "093-474-2288",
    "url": "http://www.koujitsuen.com/",
    "pref": "福岡県",
    "city": "北九州市小倉南区",
    "category": "tokuyou",
    "serviceType": "介護老人福祉施設",
    "capacity": 0,
    "openDays": [],
    "openDaysNote": ""
  },
  {
    "id": "4070502812",
    "name": "特別養護老人ホーム　おきなの杜",
    "kana": "トクベツヨウゴロウジンホーム　オキナノモリ",
    "address": "福岡県北九州市小倉南区大字長野455番地の35",
    "lat": 33.8195314,
    "lng": 130.9158806,
    "tel": "093-471-1030",
    "url": "http://care-netbiz/40/okinanomori/",
    "pref": "福岡県",
    "city": "北九州市小倉南区",
    "category": "tokuyou",
    "serviceType": "介護老人福祉施設",
    "capacity": 0,
    "openDays": [],
    "openDaysNote": ""
  },
  {
    "id": "4070503208",
    "name": "特別養護老人ホーム　こくらの郷",
    "kana": "トクベツヨウゴロウジンホーム　コクラノサト",
    "address": "北九州市小倉南区高野４丁目１２－１１",
    "lat": 33.8336898,
    "lng": 130.8501526,
    "tel": "093-453-1100",
    "url": "http://www.shoujukai.or.jp",
    "pref": "福岡県",
    "city": "北九州市小倉南区",
    "category": "tokuyou",
    "serviceType": "介護老人福祉施設",
    "capacity": 0,
    "openDays": [],
    "openDaysNote": ""
  },
  {
    "id": "4070504974",
    "name": "特別養護老人ホーム　ひまわり",
    "kana": "トクベツヨウゴロウジンホーム　ヒマワリ",
    "address": "福岡県北九州市小倉南区曽根北町４番３１号",
    "lat": 33.8365043506557,
    "lng": 130.941019870639,
    "tel": "093-474-0100",
    "url": "http://hasshinkai.com",
    "pref": "福岡県",
    "city": "北九州市小倉南区",
    "category": "tokuyou",
    "serviceType": "介護老人福祉施設",
    "capacity": 100,
    "openDays": [],
    "openDaysNote": ""
  },
  {
    "id": "4070503984",
    "name": "特別養護老人ホーム　宏和苑",
    "kana": "トクベツヨウゴロウジンホーム　コウワエン",
    "address": "守恒本町２丁目１９番２号",
    "lat": 33.8336601843342,
    "lng": 130.87132108753,
    "tel": "093-961-5008",
    "url": "http://keiwa-kai.net/",
    "pref": "福岡県",
    "city": "北九州市小倉南区",
    "category": "tokuyou",
    "serviceType": "介護老人福祉施設",
    "capacity": 100,
    "openDays": [],
    "openDaysNote": ""
  },
  {
    "id": "4070500410",
    "name": "特別養護老人ホーム　春吉園",
    "kana": "トクベツヨウゴロウジンホーム　ハルヨシエン",
    "address": "福岡県北九州市小倉南区大字春吉463-1",
    "lat": 33.7880226,
    "lng": 130.8458544,
    "tel": "093-452-1351",
    "url": "http://www.haruyoshi-en.jp",
    "pref": "福岡県",
    "city": "北九州市小倉南区",
    "category": "tokuyou",
    "serviceType": "介護老人福祉施設",
    "capacity": 50,
    "openDays": [],
    "openDaysNote": ""
  },
  {
    "id": "4070500139",
    "name": "特別養護老人ホーム　美咲ヶ丘",
    "kana": "トクベツヨウゴロウジンホーム　ミサキガオカ",
    "address": "福岡県北九州市小倉南区大字新道寺１０８５－１",
    "lat": 33.7927697,
    "lng": 130.8666304,
    "tel": "093-453-1222",
    "url": "https://www.misakigaoka.com/",
    "pref": "福岡県",
    "city": "北九州市小倉南区",
    "category": "tokuyou",
    "serviceType": "介護老人福祉施設",
    "capacity": 0,
    "openDays": [],
    "openDaysNote": ""
  },
  {
    "id": "4070500402",
    "name": "特別養護老人ホームあだち園",
    "kana": "トクベツヨウゴロウジンホームアダチエン",
    "address": "北九州市小倉南区沼緑町二丁目9-1",
    "lat": 33.8492893,
    "lng": 130.9284092,
    "tel": "093-471-5111",
    "url": "https://www.kitaq-houwakai.com",
    "pref": "福岡県",
    "city": "北九州市小倉南区",
    "category": "tokuyou",
    "serviceType": "介護老人福祉施設",
    "capacity": 108,
    "openDays": [],
    "openDaysNote": ""
  },
  {
    "id": "4070500428",
    "name": "特別養護老人ホーム舞ヶ丘明静苑",
    "kana": "トクベツヨウゴロウジンホーム　マイガオカメイセイエン",
    "address": "福岡県北九州市小倉南区横代380-2",
    "lat": 33.8255885,
    "lng": 130.8985103,
    "tel": "093-962-5050",
    "url": "http://www.meiseien.com",
    "pref": "福岡県",
    "city": "北九州市小倉南区",
    "category": "tokuyou",
    "serviceType": "介護老人福祉施設",
    "capacity": 70,
    "openDays": [],
    "openDaysNote": ""
  },
  {
    "id": "4070400405",
    "name": "介護老人福祉施設　シルバー・サン・ホーム",
    "kana": "カイゴロウジンフクシシセツ　シルバー・サン・ホーム",
    "address": "北九州市小倉北区大手町17-15",
    "lat": 33.8738075,
    "lng": 130.8700973,
    "tel": "093-582-0100",
    "url": "http://www.silversunhome.or.jp/",
    "pref": "福岡県",
    "city": "北九州市小倉北区",
    "category": "tokuyou",
    "serviceType": "介護老人福祉施設",
    "capacity": 88,
    "openDays": [],
    "openDaysNote": ""
  },
  {
    "id": "4070400439",
    "name": "介護老人福祉施設　足原のぞみ苑",
    "kana": "カイゴロウジンフクシシセツ　アシハラノゾミエン",
    "address": "北九州市小倉北区熊本三丁目１２－９",
    "lat": 33.8668057,
    "lng": 130.8952928,
    "tel": "093-952-8341",
    "url": "http://www.nozomi-en.jp",
    "pref": "福岡県",
    "city": "北九州市小倉北区",
    "category": "tokuyou",
    "serviceType": "介護老人福祉施設",
    "capacity": 80,
    "openDays": [],
    "openDaysNote": ""
  },
  {
    "id": "4070401544",
    "name": "特別養護老人ホーム　かざはな園",
    "kana": "トクベツヨウゴロウジンホーム　カザハナエン",
    "address": "北九州市小倉北区江南町2番20号",
    "lat": 33.8757657,
    "lng": 130.882152,
    "tel": "093-951-4165",
    "url": "https://kazahanakai.com/",
    "pref": "福岡県",
    "city": "北九州市小倉北区",
    "category": "tokuyou",
    "serviceType": "介護老人福祉施設",
    "capacity": 70,
    "openDays": [],
    "openDaysNote": ""
  },
  {
    "id": "4070404795",
    "name": "特別養護老人ホーム　ソレイユ浅野",
    "kana": "トクベツヨウゴロウジンホーム　ソレイユアサノ",
    "address": "福岡県北九州市小倉北区浅野3丁目1番25号",
    "lat": 33.8911747631363,
    "lng": 130.88270083268,
    "tel": "093-533-6633",
    "url": "www.soreiyugroup.or.jp",
    "pref": "福岡県",
    "city": "北九州市小倉北区",
    "category": "tokuyou",
    "serviceType": "介護老人福祉施設",
    "capacity": 100,
    "openDays": [],
    "openDaysNote": ""
  },
  {
    "id": "4070403037",
    "name": "特別養護老人ホーム　ソレイユ中井",
    "kana": "トクベツヨウゴロウジンホームソレイユ　ナカイ",
    "address": "福岡県北九州市小倉北区中井一丁目7番14号",
    "lat": 33.8935106,
    "lng": 130.8534672,
    "tel": "093-562-2000",
    "url": "http://www.soreiyugroup.or.jp",
    "pref": "福岡県",
    "city": "北九州市小倉北区",
    "category": "tokuyou",
    "serviceType": "介護老人福祉施設",
    "capacity": 0,
    "openDays": [],
    "openDaysNote": ""
  },
  {
    "id": "4070401254",
    "name": "特別養護老人ホーム　ハートフル片野",
    "kana": "トクベツヨウゴロウジンホーム　ハートフルカタノ",
    "address": "福岡県北九州市小倉北区片野3丁目13番15号",
    "lat": 33.8663666,
    "lng": 130.8814607,
    "tel": "093-952-1855",
    "url": "http://www.heartful-katano.jp/",
    "pref": "福岡県",
    "city": "北九州市小倉北区",
    "category": "tokuyou",
    "serviceType": "介護老人福祉施設",
    "capacity": 0,
    "openDays": [],
    "openDaysNote": ""
  },
  {
    "id": "4070400421",
    "name": "特別養護老人ホーム　ヘルシーハイム",
    "kana": "トクベツヨウゴロウジンホーム　ヘルシーハイム",
    "address": "福岡県北九州市小倉北区南丘1丁目7-24",
    "lat": 33.8522267,
    "lng": 130.8712006,
    "tel": "093-591-2434",
    "url": "http://www.healthyhaim.or.jp",
    "pref": "福岡県",
    "city": "北九州市小倉北区",
    "category": "tokuyou",
    "serviceType": "介護老人福祉施設",
    "capacity": 70,
    "openDays": [],
    "openDaysNote": ""
  },
  {
    "id": "4070403854",
    "name": "特別養護老人ホーム　ゆーとぴあ宇佐町",
    "kana": "トクベツヨウゴロウジンホーム　ユートピアウサマチ",
    "address": "福岡県北九州市小倉北区宇佐町2丁目5-1",
    "lat": 33.8748298,
    "lng": 130.8936233,
    "tel": "093-511-8100",
    "url": "http://www.shinsetsu.net/sawayakakai/utopia/index.html",
    "pref": "福岡県",
    "city": "北九州市小倉北区",
    "category": "tokuyou",
    "serviceType": "介護老人福祉施設",
    "capacity": 100,
    "openDays": [],
    "openDaysNote": ""
  },
  {
    "id": "4070400561",
    "name": "特別養護老人ホーム　愛香苑",
    "kana": "トクベツヨウゴロウジンホーム　アイコウエン",
    "address": "福岡県北九州市小倉北区鋳物師町9番21号",
    "lat": 33.8899501,
    "lng": 130.8655109,
    "tel": "093-571-7000",
    "url": "http://www.aikoukai-kitakyushu.com/",
    "pref": "福岡県",
    "city": "北九州市小倉北区",
    "category": "tokuyou",
    "serviceType": "介護老人福祉施設",
    "capacity": 54,
    "openDays": [],
    "openDaysNote": ""
  },
  {
    "id": "4070404787",
    "name": "特別養護老人ホーム　新栄きよみずの杜",
    "kana": "トクベツヨウゴロウジンホーム　シンエイキヨミズノモリ",
    "address": "福岡県北九州市小倉北区弁天町６番１３号特別養護老人ホーム　新栄きよみずの杜 特別養護老人ホーム　新栄きよみずの杜",
    "lat": 33.8703905583044,
    "lng": 130.863054750926,
    "tel": "０９３－５７１－５５０１",
    "url": "http://www.shin-eikai.com/kiyomizu/",
    "pref": "福岡県",
    "city": "北九州市小倉北区",
    "category": "tokuyou",
    "serviceType": "介護老人福祉施設",
    "capacity": 0,
    "openDays": [],
    "openDaysNote": ""
  },
  {
    "id": "4070400413",
    "name": "特別養護老人ホーム　北九州シティホーム",
    "kana": "トクベツヨウゴロウジンホーム　キタキュウシュウシティホーム",
    "address": "福岡県北九州市小倉北区萩崎町１番３２号",
    "lat": 33.8740547,
    "lng": 130.8838686,
    "tel": "093-952-1188",
    "url": "http://www.kaorukai.jp",
    "pref": "福岡県",
    "city": "北九州市小倉北区",
    "category": "tokuyou",
    "serviceType": "介護老人福祉施設",
    "capacity": 79,
    "openDays": [],
    "openDaysNote": ""
  },
  {
    "id": "4070405313",
    "name": "特別養護老人ホームひだまりテラス",
    "kana": "トクベツヨウゴロウジンホームヒダマリテラス",
    "address": "北九州市小倉北区東篠崎三丁目2番28号",
    "lat": 33.868099410778,
    "lng": 130.871951566865,
    "tel": "093-922-0222",
    "url": "http://www.senrikai.or.jp",
    "pref": "福岡県",
    "city": "北九州市小倉北区",
    "category": "tokuyou",
    "serviceType": "介護老人福祉施設",
    "capacity": 0,
    "openDays": [],
    "openDaysNote": ""
  },
  {
    "id": "4070700473",
    "name": "サンライズ北九州",
    "kana": "サンライズキタキュウシュウ",
    "address": "北九州市八幡西区塔野三丁目１６番１号",
    "lat": 33.8226496,
    "lng": 130.73428,
    "tel": "093-612-5320",
    "url": "http://www.sunrise-k.com",
    "pref": "福岡県",
    "city": "北九州市八幡西区",
    "category": "tokuyou",
    "serviceType": "介護老人福祉施設",
    "capacity": 0,
    "openDays": [],
    "openDaysNote": ""
  },
  {
    "id": "4070706371",
    "name": "銀杏庵　穴生倶楽部",
    "kana": "イチョウアン　アノオクラブ",
    "address": "福岡県北九州市八幡西区鉄王2-2-36",
    "lat": 33.8482313254829,
    "lng": 130.750766496295,
    "tel": "093-631-2100",
    "url": "http://www.moyai.or.jp/",
    "pref": "福岡県",
    "city": "北九州市八幡西区",
    "category": "tokuyou",
    "serviceType": "介護老人福祉施設",
    "capacity": 0,
    "openDays": [],
    "openDaysNote": ""
  },
  {
    "id": "4070706546",
    "name": "特別養護老人ホーム　グランヴィラ大平",
    "kana": "トクベツヨウゴロウジンホーム　グランヴィラオオヒラ",
    "address": "福岡県北九州市八幡西区船越三丁目1番13号",
    "lat": 33.817434213354,
    "lng": 130.745756014803,
    "tel": "093-614-2103",
    "url": "https://www.jojinkai.com/gv_ohira/",
    "pref": "福岡県",
    "city": "北九州市八幡西区",
    "category": "tokuyou",
    "serviceType": "介護老人福祉施設",
    "capacity": 100,
    "openDays": [],
    "openDaysNote": ""
  },
  {
    "id": "4070700465",
    "name": "特別養護老人ホーム　サン・グリーンホーム",
    "kana": "トクベツヨウゴロウジンホーム　サン・グリーンホーム",
    "address": "福岡県北九州市八幡西区大字則松103番地",
    "lat": 33.8525377,
    "lng": 130.7288991,
    "tel": "093-602-5011",
    "url": "http://kitakyu-fukushi.or.jp",
    "pref": "福岡県",
    "city": "北九州市八幡西区",
    "category": "tokuyou",
    "serviceType": "介護老人福祉施設",
    "capacity": 0,
    "openDays": [],
    "openDaysNote": ""
  },
  {
    "id": "4070707932",
    "name": "特別養護老人ホーム　サングリーンアネモス",
    "kana": "トクベツヨウゴロウジンホーム　サングリーンアネモス",
    "address": "福岡県北九州市八幡西区大字則松103番地",
    "lat": 33.852577,
    "lng": 130.7289122,
    "tel": "093-602-5011",
    "url": "http://kitakyu-fukushi.or.jp",
    "pref": "福岡県",
    "city": "北九州市八幡西区",
    "category": "tokuyou",
    "serviceType": "介護老人福祉施設",
    "capacity": null,
    "openDays": [],
    "openDaysNote": ""
  },
  {
    "id": "4070704665",
    "name": "特別養護老人ホーム　なごみのさと",
    "kana": "トクベツヨウゴロウジンホーム　ナゴミノサト",
    "address": "福岡県北九州市八幡西区大字木屋瀬590-1",
    "lat": 33.7846123,
    "lng": 130.7201152,
    "tel": "093-618-7816",
    "url": "www.nagomino-sato.jp",
    "pref": "福岡県",
    "city": "北九州市八幡西区",
    "category": "tokuyou",
    "serviceType": "介護老人福祉施設",
    "capacity": 0,
    "openDays": [],
    "openDaysNote": ""
  },
  {
    "id": "4070706835",
    "name": "特別養護老人ホーム　なごみの郷",
    "kana": "トクベツヨウゴロウジンホーム　ナゴミノサト",
    "address": "福岡県北九州市八幡西区楠橋３８３７－１",
    "lat": 33.7850314026147,
    "lng": 130.719948903041,
    "tel": "093-618-7531",
    "url": "www.nagomino-sato.jp",
    "pref": "福岡県",
    "city": "北九州市八幡西区",
    "category": "tokuyou",
    "serviceType": "介護老人福祉施設",
    "capacity": 0,
    "openDays": [],
    "openDaysNote": ""
  },
  {
    "id": "4070703394",
    "name": "特別養護老人ホーム　ふじの木園",
    "kana": "トクベツヨウゴロウジンホーム　フジノキエン",
    "address": "福岡県北九州市八幡西区椋枝2丁目11-20",
    "lat": 33.80884,
    "lng": 130.7322584,
    "tel": "093-619-1171",
    "url": "http://fujinokien.or.jp/",
    "pref": "福岡県",
    "city": "北九州市八幡西区",
    "category": "tokuyou",
    "serviceType": "介護老人福祉施設",
    "capacity": 0,
    "openDays": [],
    "openDaysNote": ""
  },
  {
    "id": "4070700499",
    "name": "特別養護老人ホーム　もみじ苑",
    "kana": "トクベツヨウゴロウジンホーム　モミジエン",
    "address": "福岡県北九州市八幡西区藤原四丁目１５－３３",
    "lat": 33.88112,
    "lng": 130.7101052,
    "tel": "093-601-7760",
    "url": "www.honjyoukai.com",
    "pref": "福岡県",
    "city": "北九州市八幡西区",
    "category": "tokuyou",
    "serviceType": "介護老人福祉施設",
    "capacity": 74,
    "openDays": [],
    "openDaysNote": ""
  },
  {
    "id": "4070701067",
    "name": "特別養護老人ホーム　第三善興園",
    "kana": "トクベツヨウゴロウジンホーム　ダイサンゼンコウエン",
    "address": "北九州市八幡西区大字小嶺721番地1",
    "lat": 33.8142747764706,
    "lng": 130.758298921912,
    "tel": "093-614-6555",
    "url": "https://www.zenkokai.or.jp",
    "pref": "福岡県",
    "city": "北九州市八幡西区",
    "category": "tokuyou",
    "serviceType": "介護老人福祉施設",
    "capacity": 120,
    "openDays": [],
    "openDaysNote": ""
  },
  {
    "id": "4070700119",
    "name": "特別養護老人ホーム　倫尚園",
    "kana": "トクベツヨウゴロウジンホーム　リンショウエン",
    "address": "北九州市八幡西区馬場山東一丁目３番２２号",
    "lat": 33.7975386,
    "lng": 130.7495766,
    "tel": "093-617-5773",
    "url": "http://rinsyoukai.or.jp",
    "pref": "福岡県",
    "city": "北九州市八幡西区",
    "category": "tokuyou",
    "serviceType": "介護老人福祉施設",
    "capacity": null,
    "openDays": [],
    "openDaysNote": ""
  },
  {
    "id": "4070700481",
    "name": "特別養護老人ホーム聖ヨゼフの園",
    "kana": "トクベツヨウゴロウジンホームセイヨゼフノソノ",
    "address": "北九州市八幡西区青山二丁目1-1",
    "lat": 33.8595682,
    "lng": 130.7534355,
    "tel": "093-631-6311",
    "url": "http://www.st-joseph.or.jp",
    "pref": "福岡県",
    "city": "北九州市八幡西区",
    "category": "tokuyou",
    "serviceType": "介護老人福祉施設",
    "capacity": 0,
    "openDays": [],
    "openDaysNote": ""
  },
  {
    "id": "4070708138",
    "name": "特別養護老人ホーム第二わかば",
    "kana": "トクベツヨウゴロウジンホームダイニワカバ",
    "address": "福岡県北九州市八幡西区香月中央一丁目3番1号",
    "lat": 33.8047105,
    "lng": 130.7357164,
    "tel": "093-617-2600",
    "url": "https://kenbikai.org/",
    "pref": "福岡県",
    "city": "北九州市八幡西区",
    "category": "tokuyou",
    "serviceType": "介護老人福祉施設",
    "capacity": null,
    "openDays": [],
    "openDaysNote": ""
  },
  {
    "id": "4070705415",
    "name": "特別養護老人ホーム杜の家",
    "kana": "トクベツヨウゴロウジンホームモリノイエ",
    "address": "福岡県北九州市八幡西区大字畑696-12",
    "lat": 33.7997627683727,
    "lng": 130.75670508532,
    "tel": "093-616-7130",
    "url": "http://www.mukauno-sato.com",
    "pref": "福岡県",
    "city": "北九州市八幡西区",
    "category": "tokuyou",
    "serviceType": "介護老人福祉施設",
    "capacity": 100,
    "openDays": [],
    "openDaysNote": ""
  },
  {
    "id": "4070701315",
    "name": "特別養護老人ホーム風の家",
    "kana": "トクベツヨウゴロウジンホームカゼノイエ",
    "address": "北九州市八幡西区大字本城３３７８番地の１",
    "lat": 33.8921751,
    "lng": 130.7269336,
    "tel": "093-695-7000",
    "url": "http://www.kunnpuukai.or.jp",
    "pref": "福岡県",
    "city": "北九州市八幡西区",
    "category": "tokuyou",
    "serviceType": "介護老人福祉施設",
    "capacity": 140,
    "openDays": [],
    "openDaysNote": ""
  },
  {
    "id": "4070600053",
    "name": "特別養護老人ホーム　花の王善興園",
    "kana": "トクベツヨウゴロウジンホーム　ハナノオウゼンコウエン",
    "address": "北九州市八幡東区花尾町2番14号",
    "lat": 33.8549866490267,
    "lng": 130.787345115205,
    "tel": "093-661-0077",
    "url": "http://zenkokai.or.jp",
    "pref": "福岡県",
    "city": "北九州市八幡東区",
    "category": "tokuyou",
    "serviceType": "介護老人福祉施設",
    "capacity": 0,
    "openDays": [],
    "openDaysNote": ""
  },
  {
    "id": "4070600160",
    "name": "特別養護老人ホーム　誠光園",
    "kana": "トクベツヨウゴロウジンホーム　セイコウエン",
    "address": "藤見町3番１号",
    "lat": 33.8697736,
    "lng": 130.8229123,
    "tel": "093-663-2030",
    "url": "http://www.seikou-kai.net/",
    "pref": "福岡県",
    "city": "北九州市八幡東区",
    "category": "tokuyou",
    "serviceType": "介護老人福祉施設",
    "capacity": 0,
    "openDays": [],
    "openDaysNote": ""
  },
  {
    "id": "4070600079",
    "name": "特別養護老人ホーム　大蔵園",
    "kana": "トクベツヨウゴロウジンホーム　オオクラエン",
    "address": "福岡県北九州市八幡東区大蔵3丁目2番1号",
    "lat": 33.8560501685906,
    "lng": 130.816607226984,
    "tel": "093-652-6492",
    "url": "http://n-sato.com/",
    "pref": "福岡県",
    "city": "北九州市八幡東区",
    "category": "tokuyou",
    "serviceType": "介護老人福祉施設",
    "capacity": 70,
    "openDays": [],
    "openDaysNote": ""
  },
  {
    "id": "4070102894",
    "name": "すみれそう",
    "kana": "スミレソウ",
    "address": "福岡県北九州市門司区風師4丁目12-31",
    "lat": 33.9296588,
    "lng": 130.9452033,
    "tel": "933314301",
    "url": "https://hanabusakai.jp/",
    "pref": "福岡県",
    "city": "北九州市門司区",
    "category": "tokuyou",
    "serviceType": "介護老人福祉施設",
    "capacity": 0,
    "openDays": [],
    "openDaysNote": ""
  },
  {
    "id": "4070102555",
    "name": "特別養護老人ホーム　サポートセンター門司",
    "kana": "トクベツヨウゴロウジンホーム　サポートセンターモジ",
    "address": "北九州市門司区松原１丁目３番８号",
    "lat": 33.9008589,
    "lng": 130.9245976,
    "tel": "093-382-1117",
    "url": "http://www.hibiki.or.jp/",
    "pref": "福岡県",
    "city": "北九州市門司区",
    "category": "tokuyou",
    "serviceType": "介護老人福祉施設",
    "capacity": 0,
    "openDays": [],
    "openDaysNote": ""
  },
  {
    "id": "4070100120",
    "name": "特別養護老人ホーム　松和園",
    "kana": "トクベツヨウゴロウジンホーム　　ショウワエン",
    "address": "北九州市門司区大字畑３３５番地",
    "lat": 33.8864473,
    "lng": 130.9732243,
    "tel": "093-481-5161",
    "url": "http://www.showaen.or.jp",
    "pref": "福岡県",
    "city": "北九州市門司区",
    "category": "tokuyou",
    "serviceType": "介護老人福祉施設",
    "capacity": 74,
    "openDays": [],
    "openDaysNote": ""
  },
  {
    "id": "4070102381",
    "name": "特別養護老人ホーム　松和園（ユニット）",
    "kana": "トクベツヨウゴロウジンホーム　ショウワエン（ユニット）",
    "address": "北九州市門司区大字畑335番地",
    "lat": 33.8864473,
    "lng": 130.9732243,
    "tel": "093-481-5161",
    "url": "http://www.showaen.or.jp",
    "pref": "福岡県",
    "city": "北九州市門司区",
    "category": "tokuyou",
    "serviceType": "介護老人福祉施設",
    "capacity": 30,
    "openDays": [],
    "openDaysNote": ""
  },
  {
    "id": "4070100161",
    "name": "特別養護老人ホーム　清松園",
    "kana": "トクベツヨウゴロウジンホーム　セイショウエン",
    "address": "北九州市門司区大字畑１９６０番地",
    "lat": 33.8761013,
    "lng": 130.9737718,
    "tel": "093-481-2465",
    "url": "http://www.seishoen.jp/",
    "pref": "福岡県",
    "city": "北九州市門司区",
    "category": "tokuyou",
    "serviceType": "介護老人福祉施設",
    "capacity": 0,
    "openDays": [],
    "openDaysNote": ""
  },
  {
    "id": "4070102787",
    "name": "特別養護老人ホーム　陽光園ユニット",
    "kana": "トクベツヨウゴロウジンホームヨウコウエンユニット",
    "address": "福岡県北九州市門司区大字田野浦1024番地6",
    "lat": 33.9609726902181,
    "lng": 130.998846517722,
    "tel": "093-331-3181",
    "url": "http://www.youkouen-moji.jp/",
    "pref": "福岡県",
    "city": "北九州市門司区",
    "category": "tokuyou",
    "serviceType": "介護老人福祉施設",
    "capacity": 0,
    "openDays": [],
    "openDaysNote": ""
  },
  {
    "id": "4070100146",
    "name": "特別養護老人ホーム陽光園",
    "kana": "トクベツヨウゴロウジンホームヨウコウエン",
    "address": "福岡県北九州市門司区大字田野浦1024番地6",
    "lat": 33.960643,
    "lng": 130.9987262,
    "tel": "093-331-3181",
    "url": "http://www.youkouen-moji.jp/",
    "pref": "福岡県",
    "city": "北九州市門司区",
    "category": "tokuyou",
    "serviceType": "介護老人福祉施設",
    "capacity": 0,
    "openDays": [],
    "openDaysNote": ""
  },
  {
    "id": "4070100179",
    "name": "日本赤十字社福岡県支部特別養護老人ホーム豊寿園",
    "kana": "ニッポンセキジュウジシャフクオカケンシブトクベツヨウゴロウジンホームホウジュエン",
    "address": "福岡県北九州市門司区大字畑1808-5",
    "lat": 33.8769429,
    "lng": 130.9722274,
    "tel": "093-481-1121",
    "url": "http://nissekihoujuen.jp/",
    "pref": "福岡県",
    "city": "北九州市門司区",
    "category": "tokuyou",
    "serviceType": "介護老人福祉施設",
    "capacity": 100,
    "openDays": [],
    "openDaysNote": ""
  },
  {
    "id": "4070100153",
    "name": "北九州市立特別養護老人ホームかざし園",
    "kana": "キタキュウシュウシリツトクベツヨウゴロウジンホームカザシエン",
    "address": "福岡県北九州市門司区南本町３－３",
    "lat": 33.9157851,
    "lng": 130.9413096,
    "tel": "093-391-5080",
    "url": "https://kazasien.com",
    "pref": "福岡県",
    "city": "北九州市門司区",
    "category": "tokuyou",
    "serviceType": "介護老人福祉施設",
    "capacity": 0,
    "openDays": [],
    "openDaysNote": ""
  },
  {
    "id": "4078800069",
    "name": "特別養護老人ホ－ム　敬和苑",
    "kana": "トクベツヨウゴロウジンホ-ムケイワエン",
    "address": "福岡県柳川市大和町栄２２０番地の２",
    "lat": 33.1341485,
    "lng": 130.4287072,
    "tel": "0944-76-5555",
    "url": "http://www.keiwaen.com/",
    "pref": "福岡県",
    "city": "柳川市",
    "category": "tokuyou",
    "serviceType": "介護老人福祉施設",
    "capacity": 0,
    "openDays": [],
    "openDaysNote": ""
  },
  {
    "id": "4078900042",
    "name": "特別養護老人ホーム　ありあけ園",
    "kana": "トクベツヨウゴロウジンホーム　アリアケエン",
    "address": "柳川市三橋町五拾町547番地",
    "lat": 33.1557055657913,
    "lng": 130.458311687764,
    "tel": "0944-63-3321",
    "url": "http://ariakeen.or.jp",
    "pref": "福岡県",
    "city": "柳川市",
    "category": "tokuyou",
    "serviceType": "介護老人福祉施設",
    "capacity": 0,
    "openDays": [],
    "openDaysNote": ""
  },
  {
    "id": "4078900190",
    "name": "特別養護老人ホーム　エルンテハイム",
    "kana": "トクベツヨウゴロウジンホーム　エルンテハイム",
    "address": "福岡県柳川市三橋町蒲船津１９４－２",
    "lat": 33.1627784,
    "lng": 130.4260482,
    "tel": "0944-74-8655",
    "url": "http://ernteheim.shafuku.com",
    "pref": "福岡県",
    "city": "柳川市",
    "category": "tokuyou",
    "serviceType": "介護老人福祉施設",
    "capacity": 50,
    "openDays": [],
    "openDaysNote": ""
  },
  {
    "id": "4072000153",
    "name": "特別養護老人ホーム　ふるさとホーム",
    "kana": "トクベツヨウゴロウジンホーム　フルサトホーム",
    "address": "福岡県柳川市東蒲池564-1",
    "lat": 33.185892284194,
    "lng": 130.409638296295,
    "tel": "0944-72-7624",
    "url": "https://www.gakuseikai.or.jp/service/furusatohome/",
    "pref": "福岡県",
    "city": "柳川市",
    "category": "tokuyou",
    "serviceType": "介護老人福祉施設",
    "capacity": 0,
    "openDays": [],
    "openDaysNote": ""
  },
  {
    "id": "4072000526",
    "name": "特別養護老人ホーム　よのもと",
    "kana": "トクベツヨウゴロウジンホーム　ヨノモト",
    "address": "福岡県柳川市東蒲池５２１－１",
    "lat": 33.1863699,
    "lng": 130.4122021,
    "tel": "0944-75-6777",
    "url": "",
    "pref": "福岡県",
    "city": "柳川市",
    "category": "tokuyou",
    "serviceType": "介護老人福祉施設",
    "capacity": 60,
    "openDays": [],
    "openDaysNote": ""
  },
  {
    "id": "4072000187",
    "name": "特別養護老人ホーム　第二おやさと",
    "kana": "トクベツヨウゴロウジンホーム　ダイニオヤサト",
    "address": "柳川市東蒲池225",
    "lat": 33.1865763973539,
    "lng": 130.412700377246,
    "tel": "0944-75-1888",
    "url": "gakuseikai.or.jp/",
    "pref": "福岡県",
    "city": "柳川市",
    "category": "tokuyou",
    "serviceType": "介護老人福祉施設",
    "capacity": 0,
    "openDays": [],
    "openDaysNote": ""
  },
  {
    "id": "4072000567",
    "name": "特別養護老人ホーム　第二敬和苑",
    "kana": "トクベツヨウゴロウジンホーム　ダイニケイワエン",
    "address": "福岡県柳川市大和町塩塚　1378",
    "lat": 33.1363874,
    "lng": 130.4349985,
    "tel": "0944-75-7788",
    "url": "http://www.keiwaen.or.jp",
    "pref": "福岡県",
    "city": "柳川市",
    "category": "tokuyou",
    "serviceType": "介護老人福祉施設",
    "capacity": 50,
    "openDays": [],
    "openDaysNote": ""
  }
]