[
  {
    "id": "770402097",
    "name": "介護老人福祉施設望洋荘",
    "kana": "カイゴロウジンフクシシセツボウヨウソウ",
    "address": "福島県いわき市平豊間字合磯３９番地",
    "lat": 36.9786917,
    "lng": 140.9616188,
    "tel": "0246-55-7373",
    "url": "http:/rinsaku-fukushikai.com/",
    "pref": "福島県",
    "city": "いわき市",
    "category": "tokuyou",
    "serviceType": "介護老人福祉施設",
    "capacity": 85,
    "openDays": [],
    "openDaysNote": ""
  },
  {
    "id": "770400414",
    "name": "幸寿苑",
    "kana": "コウジュエン",
    "address": "福島県いわき市平上平窪字原田１３番地の１",
    "lat": 37.1005847,
    "lng": 140.8738727,
    "tel": "0246-22-8100",
    "url": "http://www.kojuen.com",
    "pref": "福島県",
    "city": "いわき市",
    "category": "tokuyou",
    "serviceType": "介護老人福祉施設",
    "capacity": 80,
    "openDays": [],
    "openDaysNote": ""
  },
  {
    "id": "770400877",
    "name": "特別養護老人ホーム　　かしま荘",
    "kana": "トウベツヨウゴロウジンホーム　　カシマソウ",
    "address": "福島県いわき市鹿島町下蔵持字中沢目24",
    "lat": 36.992466,
    "lng": 140.9106137,
    "tel": "0246-58-8271",
    "url": "kashimasou.jp",
    "pref": "福島県",
    "city": "いわき市",
    "category": "tokuyou",
    "serviceType": "介護老人福祉施設",
    "capacity": 0,
    "openDays": [],
    "openDaysNote": ""
  },
  {
    "id": "773200175",
    "name": "特別養護老人ホーム　オンフール双葉",
    "kana": "トクベツヨウゴロウジンホーム　オンフールフタバ",
    "address": "福島県いわき市平荒田目字中田40福島県いわき市平荒田目字中田40 福島県いわき市平荒田目字中田40",
    "lat": 37.0542616915749,
    "lng": 140.949427572353,
    "tel": "0246-38-4401",
    "url": "http://honfleur-futaba.or.jp/",
    "pref": "福島県",
    "city": "いわき市",
    "category": "tokuyou",
    "serviceType": "介護老人福祉施設",
    "capacity": 0,
    "openDays": [],
    "openDaysNote": ""
  },
  {
    "id": "770407534",
    "name": "特別養護老人ホーム　サニーポート小名浜",
    "kana": "トクベツヨウゴロウジンホームサニーポートオナハマ",
    "address": "福島県いわき市小名浜字神成塚１３３番地の１",
    "lat": 36.9515156,
    "lng": 140.884052,
    "tel": "0246-92-3321",
    "url": "http://sunny-port.net/",
    "pref": "福島県",
    "city": "いわき市",
    "category": "tokuyou",
    "serviceType": "介護老人福祉施設",
    "capacity": 80,
    "openDays": [],
    "openDaysNote": ""
  },
  {
    "id": "770402758",
    "name": "特別養護老人ホーム　はなまる共和国",
    "kana": "トクベツヨウゴロウジンホーム　ハナマルキョウワコク",
    "address": "福島県いわき市平上荒川字林作207番5",
    "lat": 37.0242338,
    "lng": 140.8790495,
    "tel": "0246-46-1870",
    "url": "http://a-hanamaru.jp/",
    "pref": "福島県",
    "city": "いわき市",
    "category": "tokuyou",
    "serviceType": "介護老人福祉施設",
    "capacity": 80,
    "openDays": [],
    "openDaysNote": ""
  },
  {
    "id": "770404200",
    "name": "特別養護老人ホーム　パライソごしき",
    "kana": "トクベツヨウゴロウジンホーム　パライソゴシキ",
    "address": "福島県いわき市鹿島町久保字仲田10の1",
    "lat": 36.9914587,
    "lng": 140.9080952,
    "tel": "0246-58-1888",
    "url": "http://www.paraisogoshiki.com/",
    "pref": "福島県",
    "city": "いわき市",
    "category": "tokuyou",
    "serviceType": "介護老人福祉施設",
    "capacity": 0,
    "openDays": [],
    "openDaysNote": ""
  },
  {
    "id": "770400935",
    "name": "特別養護老人ホーム　ひまわり荘",
    "kana": "トクベツヨウゴロウジンホーム　ヒマワリソウ",
    "address": "福島県いわき市平上片寄字上ノ内193",
    "lat": 37.0804717,
    "lng": 140.9151853,
    "tel": "0246-34-1711",
    "url": "https://fksyouhei.wixsite.com/syouheikou",
    "pref": "福島県",
    "city": "いわき市",
    "category": "tokuyou",
    "serviceType": "介護老人福祉施設",
    "capacity": 0,
    "openDays": [],
    "openDaysNote": ""
  },
  {
    "id": "770400885",
    "name": "特別養護老人ホーム　楽寿荘",
    "kana": "トクベツヨウゴロウジンホーム　ラクジュソウ",
    "address": "福島県いわき市四倉町上仁井田字横川67",
    "lat": 37.0908697,
    "lng": 140.979061,
    "tel": "0246-32-6381",
    "url": "http://www.rakujukai.com/",
    "pref": "福島県",
    "city": "いわき市",
    "category": "tokuyou",
    "serviceType": "介護老人福祉施設",
    "capacity": 0,
    "openDays": [],
    "openDaysNote": ""
  },
  {
    "id": "770400893",
    "name": "特別養護老人ホーム　高砂荘",
    "kana": "トクベツヨウゴロウジンホーム　タカサゴソウ",
    "address": "福島県いわき市遠野町上遠野字沢繋16番地の17",
    "lat": 37.0058156,
    "lng": 140.7833282,
    "tel": "0246-89-3288",
    "url": "http://jin-ai-kai.jp",
    "pref": "福島県",
    "city": "いわき市",
    "category": "tokuyou",
    "serviceType": "介護老人福祉施設",
    "capacity": 0,
    "openDays": [],
    "openDaysNote": ""
  },
  {
    "id": "770405892",
    "name": "特別養護老人ホーム　寿限無",
    "kana": "トクベツヨウゴロウジンホーム　ジュゲム",
    "address": "いわき市泉町本谷字大田23-1",
    "lat": 36.9674237163276,
    "lng": 140.872048009098,
    "tel": "0246-76-0808",
    "url": "http://aoikai-iwaki.com",
    "pref": "福島県",
    "city": "いわき市",
    "category": "tokuyou",
    "serviceType": "介護老人福祉施設",
    "capacity": 80,
    "openDays": [],
    "openDaysNote": ""
  },
  {
    "id": "770400927",
    "name": "特別養護老人ホーム　翠祥園",
    "kana": "トクベツヨウゴロウジンホーム　スイショウエン",
    "address": "福島県いわき市久之浜町末続字深谷３３－１",
    "lat": 37.1667593,
    "lng": 140.9995147,
    "tel": "0246-82-2877",
    "url": "http://suisyoen.jp/",
    "pref": "福島県",
    "city": "いわき市",
    "category": "tokuyou",
    "serviceType": "介護老人福祉施設",
    "capacity": 0,
    "openDays": [],
    "openDaysNote": ""
  },
  {
    "id": "770401537",
    "name": "特別養護老人ホーム　聖徳荘",
    "kana": "トクベツヨウゴロウジンホーム　セイトクソウ",
    "address": "福島県いわき市内郷宮町金坂184番地の3",
    "lat": 37.0439655,
    "lng": 140.8462473,
    "tel": "0246-45-2830",
    "url": "http://seitokuso.jp/",
    "pref": "福島県",
    "city": "いわき市",
    "category": "tokuyou",
    "serviceType": "介護老人福祉施設",
    "capacity": 0,
    "openDays": [],
    "openDaysNote": ""
  },
  {
    "id": "770400869",
    "name": "特別養護老人ホームいわさき荘",
    "kana": "トクベツヨウゴロウジンホームイワサキソウ",
    "address": "福島県いわき市常磐上湯長谷町上ノ台８８－１",
    "lat": 37.0035059,
    "lng": 140.8384886,
    "tel": "0246-44-5660",
    "url": "http://iwasakisou.jp",
    "pref": "福島県",
    "city": "いわき市",
    "category": "tokuyou",
    "serviceType": "介護老人福祉施設",
    "capacity": 0,
    "openDays": [],
    "openDaysNote": ""
  },
  {
    "id": "770400901",
    "name": "特別養護老人ホームせいざん荘",
    "kana": "トクベツヨウゴロウジンホームセイザンソウ",
    "address": "福島県いわき市植田町堂ノ作49番地の12",
    "lat": 36.9305692,
    "lng": 140.7916419,
    "tel": "0246-63-0033",
    "url": "http://www.iwaki-aiseikai.jp/",
    "pref": "福島県",
    "city": "いわき市",
    "category": "tokuyou",
    "serviceType": "介護老人福祉施設",
    "capacity": 75,
    "openDays": [],
    "openDaysNote": ""
  },
  {
    "id": "773200621",
    "name": "特別養護老人ホームせんだん",
    "kana": "トクベツヨウゴロウジンホームセンダン",
    "address": "福島県いわき市錦町江栗馬場9番地1",
    "lat": 36.9100678,
    "lng": 140.7769939,
    "tel": "0246-88-8040",
    "url": "https://futaba-fukushikai.or.jp",
    "pref": "福島県",
    "city": "いわき市",
    "category": "tokuyou",
    "serviceType": "介護老人福祉施設",
    "capacity": 50,
    "openDays": [],
    "openDaysNote": ""
  },
  {
    "id": "770400943",
    "name": "特別養護老人ホームハートフルなこそ",
    "kana": "トクベツヨウゴロウジンホームハートフルナコソ",
    "address": "福島県いわき市勿来町白米長沢8番",
    "lat": 36.8961627463357,
    "lng": 140.741540031338,
    "tel": "0246-65-2100",
    "url": "http://www.heartful-nakoso.or.jp/",
    "pref": "福島県",
    "city": "いわき市",
    "category": "tokuyou",
    "serviceType": "介護老人福祉施設",
    "capacity": 80,
    "openDays": [],
    "openDaysNote": ""
  },
  {
    "id": "770400919",
    "name": "特別養護老人ホーム亀齢荘",
    "kana": "トクベツヨウゴロウジンホームキレイソウ",
    "address": "福島県いわき市平山崎字熊ノ宮３０番地",
    "lat": 37.056976,
    "lng": 140.9400528,
    "tel": "0246-34-7080",
    "url": "http://www.kireisou.com",
    "pref": "福島県",
    "city": "いわき市",
    "category": "tokuyou",
    "serviceType": "介護老人福祉施設",
    "capacity": 0,
    "openDays": [],
    "openDaysNote": ""
  },
  {
    "id": "771300605",
    "name": "ハッピー愛ランドほばら",
    "kana": "ハッピーアイランドホバラ",
    "address": "伊達市保原町字泉町１－１",
    "lat": 37.8249942712074,
    "lng": 140.546940035582,
    "tel": "024-573-0811",
    "url": "https://www.happyisland.org/",
    "pref": "福島県",
    "city": "伊達市",
    "category": "tokuyou",
    "serviceType": "介護老人福祉施設",
    "capacity": 80,
    "openDays": [],
    "openDaysNote": ""
  },
  {
    "id": "772001061",
    "name": "社会福祉法人慈仁会　特別養護老人ホーム星風苑",
    "kana": "シャカイフクシホウジンジジンカイ　トクベツヨウゴロウジンホームセイフウエン",
    "address": "福島県伊達市月舘町御代田字月崎山１番７",
    "lat": 37.7523104,
    "lng": 140.6031041,
    "tel": "024-573-3581",
    "url": "https://jijinkai-seifuen.jp",
    "pref": "福島県",
    "city": "伊達市",
    "category": "tokuyou",
    "serviceType": "介護老人福祉施設",
    "capacity": 0,
    "openDays": [],
    "openDaysNote": ""
  },
  {
    "id": "772000949",
    "name": "特別養護老人ホーム　ファミーユ",
    "kana": "トクベツヨウゴロウジンホーム　ファミーユ",
    "address": "福島県伊達市保原町上保原字遍照原8-8",
    "lat": 37.8050115,
    "lng": 140.5336356,
    "tel": "024-575-2300",
    "url": "http://www.tokushinkai.care/",
    "pref": "福島県",
    "city": "伊達市",
    "category": "tokuyou",
    "serviceType": "介護老人福祉施設",
    "capacity": 80,
    "openDays": [],
    "openDaysNote": ""
  },
  {
    "id": "772000626",
    "name": "特別養護老人ホーム　梁川ホーム",
    "kana": "トクベツヨウゴロウジンホーム　ヤナガワホーム",
    "address": "福島県伊達市梁川町字東土橋６５番地１",
    "lat": 37.8466254,
    "lng": 140.5931436,
    "tel": "024-577-6111",
    "url": "https://www.shintatsu.jp",
    "pref": "福島県",
    "city": "伊達市",
    "category": "tokuyou",
    "serviceType": "介護老人福祉施設",
    "capacity": 0,
    "openDays": [],
    "openDaysNote": ""
  },
  {
    "id": "771300886",
    "name": "特別養護老人ホームだて　緑風園",
    "kana": "トクベツヨウゴロウジンホーム　ダテリョクフウエン",
    "address": "福島県伊達市馬場口36-1",
    "lat": 37.8232667113069,
    "lng": 140.501126131738,
    "tel": "024-563-6077",
    "url": "https://date.ryokuhuen.com/",
    "pref": "福島県",
    "city": "伊達市",
    "category": "tokuyou",
    "serviceType": "介護老人福祉施設",
    "capacity": 80,
    "openDays": [],
    "openDaysNote": ""
  },
  {
    "id": "771300571",
    "name": "特別養護老人ホームラスール伊達",
    "kana": "トクベツヨウゴロウジンホームラスールダテ",
    "address": "福島県伊達市梁川町字東塩野川56-1",
    "lat": 37.8641965633027,
    "lng": 140.607916607935,
    "tel": "024-527-1255",
    "url": "https://ameblo.jp/l-date/",
    "pref": "福島県",
    "city": "伊達市",
    "category": "tokuyou",
    "serviceType": "介護老人福祉施設",
    "capacity": null,
    "openDays": [],
    "openDaysNote": ""
  },
  {
    "id": "772000618",
    "name": "特別養護老人ホーム伊達すりかみ荘",
    "kana": "トクベツヨウゴロウジンホームダテスリカミソウ",
    "address": "福島県伊達市一本松64番地",
    "lat": 37.8135318,
    "lng": 140.4919554,
    "tel": "024-584-2370",
    "url": "http://surikamisou.jp/",
    "pref": "福島県",
    "city": "伊達市",
    "category": "tokuyou",
    "serviceType": "介護老人福祉施設",
    "capacity": 0,
    "openDays": [],
    "openDaysNote": ""
  },
  {
    "id": "771300381",
    "name": "特別養護老人ホーム孝の郷",
    "kana": "トクベツヨウゴロウジンホームコウノサト",
    "address": "福島県伊達市霊山町掛田字明正寺２１－１",
    "lat": 37.7777242,
    "lng": 140.591793,
    "tel": "024-586-1540",
    "url": "http://www.tokushinkai.care/kounosato/index.php",
    "pref": "福島県",
    "city": "伊達市",
    "category": "tokuyou",
    "serviceType": "介護老人福祉施設",
    "capacity": 0,
    "openDays": [],
    "openDaysNote": ""
  },
  {
    "id": "772300323",
    "name": "社会福祉法人南会津会　特別養護老人ホーム下郷ホーム",
    "kana": "シャカイフクシホウジンミナミアイヅカイトクベツヨウゴロウジンホームシモゴウホーム",
    "address": "福島県南会津郡下郷町大字沢田字若林甲1572番地",
    "lat": 37.2487223,
    "lng": 139.8659014,
    "tel": "0241-67-2047",
    "url": "http://minamiaidukai.or.jp/",
    "pref": "福島県",
    "city": "下郷町",
    "category": "tokuyou",
    "serviceType": "介護老人福祉施設",
    "capacity": 56,
    "openDays": [],
    "openDaysNote": ""
  },
  {
    "id": "772300695",
    "name": "特別養護老人ホームレジデンスふじの郷",
    "kana": "トクベツヨウゴロウジンホームレジデンスフジノサト",
    "address": "福島県南会津郡下郷町大字塩生字前原５０２－１",
    "lat": 37.2526746,
    "lng": 139.8675123,
    "tel": "０２４１－６９－１２３４",
    "url": "https://www.meichifukushikai.jp",
    "pref": "福島県",
    "city": "下郷町",
    "category": "tokuyou",
    "serviceType": "介護老人福祉施設",
    "capacity": 0,
    "openDays": [],
    "openDaysNote": ""
  },
  {
    "id": "772600557",
    "name": "特別養護老人ホームラスール坂下",
    "kana": "トクベツヨウゴロウジンホームラスールバンゲ",
    "address": "福島県河沼郡会津坂下町上口488-1",
    "lat": 37.5648029,
    "lng": 139.8274141,
    "tel": "0242-93-5755",
    "url": "http://koseikai-star.com",
    "pref": "福島県",
    "city": "会津坂下町",
    "category": "tokuyou",
    "serviceType": "介護老人福祉施設",
    "capacity": 0,
    "openDays": [],
    "openDaysNote": ""
  },
  {
    "id": "772600193",
    "name": "特別養護老人ホーム会津寿楽荘",
    "kana": "トクベツヨウゴロウジンホーム　アイヅジュラクソウ",
    "address": "福島県河沼郡会津坂下町大字塔寺字北原６４５",
    "lat": 37.57832,
    "lng": 139.8001636,
    "tel": "0242-83-0185",
    "url": "http://www.magokoro-egao-anshin.com",
    "pref": "福島県",
    "city": "会津坂下町",
    "category": "tokuyou",
    "serviceType": "介護老人福祉施設",
    "capacity": 0,
    "openDays": [],
    "openDaysNote": ""
  },
  {
    "id": "770200426",
    "name": "芦ノ牧ホーム",
    "kana": "アシノマキホーム",
    "address": "福島県会津若松市大戸町大字芦牧字壇ノ下845番地",
    "lat": 37.365281,
    "lng": 139.910823,
    "tel": "0242-92-3171",
    "url": "http://ashinomaki-home.jp/",
    "pref": "福島県",
    "city": "会津若松市",
    "category": "tokuyou",
    "serviceType": "介護老人福祉施設",
    "capacity": 80,
    "openDays": [],
    "openDaysNote": ""
  },
  {
    "id": "770201952",
    "name": "特別養護老人ホーム　気生苑",
    "kana": "トクベツヨウゴロウジンホーム　キショウエン",
    "address": "福島県会津若松市昭和町1番36号",
    "lat": 37.5040032375324,
    "lng": 139.933546950787,
    "tel": "0242-36-7033",
    "url": "http://kishoen.com",
    "pref": "福島県",
    "city": "会津若松市",
    "category": "tokuyou",
    "serviceType": "介護老人福祉施設",
    "capacity": 0,
    "openDays": [],
    "openDaysNote": ""
  },
  {
    "id": "770200350",
    "name": "特別養護老人ホーム　枝雪零苑",
    "kana": "トクベツヨウゴロウジンホーム　シズリエン",
    "address": "福島県会津若松市一箕町松長字下長原１５２番地",
    "lat": 37.5237439,
    "lng": 139.9533787,
    "tel": "0242-39-2777",
    "url": "http://onchifukushikai.com/",
    "pref": "福島県",
    "city": "会津若松市",
    "category": "tokuyou",
    "serviceType": "介護老人福祉施設",
    "capacity": 80,
    "openDays": [],
    "openDaysNote": ""
  },
  {
    "id": "770202216",
    "name": "特別養護老人ホーム　天生",
    "kana": "トクベツヨウゴロウジンホーム　テンショウ",
    "address": "福島県会津若松市一箕町松長６丁目１２番地の１",
    "lat": 37.5249992065847,
    "lng": 139.959680128311,
    "tel": "0242-37-2311",
    "url": "https://onchifukushikai.jp",
    "pref": "福島県",
    "city": "会津若松市",
    "category": "tokuyou",
    "serviceType": "介護老人福祉施設",
    "capacity": 0,
    "openDays": [],
    "openDaysNote": ""
  },
  {
    "id": "770200202",
    "name": "特別養護老人ホーム会津みどりホーム",
    "kana": "トクベツヨウゴロウジンホームアイヅミドリホーム",
    "address": "福島県会津若松市神指町大字北四合字伊丹堂55番地1",
    "lat": 37.524315,
    "lng": 139.8858963,
    "tel": "0242-22-6511",
    "url": "https://aizu-hakuaikai.jp/",
    "pref": "福島県",
    "city": "会津若松市",
    "category": "tokuyou",
    "serviceType": "介護老人福祉施設",
    "capacity": 100,
    "openDays": [],
    "openDaysNote": ""
  },
  {
    "id": "770201333",
    "name": "特別養護老人ホーム会津敬愛苑",
    "kana": "トクベツヨウゴロウジンホームアイヅケイアイエン",
    "address": "会津若松市北会津町東小松字南古川１番",
    "lat": 37.4725955,
    "lng": 139.89197,
    "tel": "0242-56-5822",
    "url": "https://senoukai.or.jp",
    "pref": "福島県",
    "city": "会津若松市",
    "category": "tokuyou",
    "serviceType": "介護老人福祉施設",
    "capacity": 0,
    "openDays": [],
    "openDaysNote": ""
  },
  {
    "id": "770200830",
    "name": "特別養護老人ホーム絆",
    "kana": "トクベツヨウゴロウジンホームキズナ",
    "address": "福島県会津若松市湊町大字共和字西田面180",
    "lat": 37.4682617,
    "lng": 140.0094014,
    "tel": "0242-96-1101",
    "url": "http://kizuna.aizu.or.jp/",
    "pref": "福島県",
    "city": "会津若松市",
    "category": "tokuyou",
    "serviceType": "介護老人福祉施設",
    "capacity": 0,
    "openDays": [],
    "openDaysNote": ""
  },
  {
    "id": "772700373",
    "name": "特別養護老人ホーム　ハーモニーハウス",
    "kana": "トクベツヨウゴロウジンホーム　ハーモニーハウス",
    "address": "福島県大沼郡会津美里町大石字下川原１番地１",
    "lat": 37.4414412,
    "lng": 139.9047476,
    "tel": "0242-57-1620",
    "url": "http://www.sin-ai.com/",
    "pref": "福島県",
    "city": "会津美里町",
    "category": "tokuyou",
    "serviceType": "介護老人福祉施設",
    "capacity": 80,
    "openDays": [],
    "openDaysNote": ""
  },
  {
    "id": "772700555",
    "name": "特別養護老人ホームリアンヴェール美里",
    "kana": "トクベツヨウゴロウジンホームリアンウ゛ェールミサト",
    "address": "福島県大沼郡会津美里町荻窪字上野１８６番１",
    "lat": 37.4509733,
    "lng": 139.8098033,
    "tel": "０２４２－５４－４７００",
    "url": "http://heiseikai.studio.site/",
    "pref": "福島県",
    "city": "会津美里町",
    "category": "tokuyou",
    "serviceType": "介護老人福祉施設",
    "capacity": 0,
    "openDays": [],
    "openDaysNote": ""
  },
  {
    "id": "772700241",
    "name": "特別養護老人ホーム宮川荘",
    "kana": "トクベツヨウゴロウジンホームミヤカワソウ",
    "address": "福島県大沼郡会津美里町字高田道上2969-1",
    "lat": 37.4675336,
    "lng": 139.8480548,
    "tel": "0242-54-6618",
    "url": "http://www.ht-net21.ne.jp/^senoukai/index.html",
    "pref": "福島県",
    "city": "会津美里町",
    "category": "tokuyou",
    "serviceType": "介護老人福祉施設",
    "capacity": 110,
    "openDays": [],
    "openDaysNote": ""
  },
  {
    "id": "772500377",
    "name": "特別養護老人ホーム　ハッピーランドやまと",
    "kana": "トクベツヨウゴロウジンホーム　ハッピーランドヤマト",
    "address": "福島県喜多方市山都町木幡字下村道下丁1537-1特別養護老人ホームハッピーランドやまと 特別養護老人ホームハッピーランドやまと",
    "lat": 37.6543683,
    "lng": 139.7754405,
    "tel": "0241-38-3008",
    "url": "http://www.tenshinkai.or.jp/yamato.htm",
    "pref": "福島県",
    "city": "喜多方市",
    "category": "tokuyou",
    "serviceType": "介護老人福祉施設",
    "capacity": 0,
    "openDays": [],
    "openDaysNote": ""
  },
  {
    "id": "770800282",
    "name": "特別養護老人ホーム　北原荘",
    "kana": "トクベツヨウゴロウジンホーム　キタハラソウ",
    "address": "喜多方市松山町村松字北原3656-11",
    "lat": 37.6827927,
    "lng": 139.8691051,
    "tel": "0241-24-4567",
    "url": "http://www.tenshinkai.or.jp",
    "pref": "福島県",
    "city": "喜多方市",
    "category": "tokuyou",
    "serviceType": "介護老人福祉施設",
    "capacity": 0,
    "openDays": [],
    "openDaysNote": ""
  },
  {
    "id": "770801025",
    "name": "特別養護老人ホームけいわ苑",
    "kana": "トクベツヨウゴロウジンホームケイワエン",
    "address": "福島県喜多方市塩川町字下前田21番地",
    "lat": 37.5991572359084,
    "lng": 139.888378922476,
    "tel": "0241-27-5311",
    "url": "https://keiwakai.net/",
    "pref": "福島県",
    "city": "喜多方市",
    "category": "tokuyou",
    "serviceType": "介護老人福祉施設",
    "capacity": 0,
    "openDays": [],
    "openDaysNote": ""
  },
  {
    "id": "770800241",
    "name": "特別養護老人ホームしょうぶ苑",
    "kana": "トクベツヨウゴロウジンホームショウブエン",
    "address": "福島県喜多方市岩月町大都字菖蒲沢3610番地1",
    "lat": 37.6906258,
    "lng": 139.8921137,
    "tel": "0241-23-0777",
    "url": "https://keiwakai.net/",
    "pref": "福島県",
    "city": "喜多方市",
    "category": "tokuyou",
    "serviceType": "介護老人福祉施設",
    "capacity": 0,
    "openDays": [],
    "openDaysNote": ""
  },
  {
    "id": "770800993",
    "name": "特別養護老人ホームしょうぶ苑",
    "kana": "トクベツヨウゴロウジンホームショウブエン",
    "address": "福島県喜多方市岩月町大都字菖蒲沢3610番地1",
    "lat": 37.6906203,
    "lng": 139.8921164,
    "tel": "0241-23-0777",
    "url": "https://keiwakai.net/",
    "pref": "福島県",
    "city": "喜多方市",
    "category": "tokuyou",
    "serviceType": "介護老人福祉施設",
    "capacity": 0,
    "openDays": [],
    "openDaysNote": ""
  },
  {
    "id": "770801009",
    "name": "特別養護老人ホームほほえみ",
    "kana": "トクベツヨウゴロウジンホームホホエミ",
    "address": "福島県喜多方市塩川町字藤の木１１番地１",
    "lat": 37.6009292,
    "lng": 139.8927254,
    "tel": "0241-23-6511",
    "url": "https://kosyokai.net/",
    "pref": "福島県",
    "city": "喜多方市",
    "category": "tokuyou",
    "serviceType": "介護老人福祉施設",
    "capacity": 110,
    "openDays": [],
    "openDaysNote": ""
  },
  {
    "id": "772200119",
    "name": "特別養護老人ホーム　　　鏡石ホーム",
    "kana": "トクベツヨウゴロウジンホーム　　カガミイシホーム",
    "address": "福島県岩瀬郡鏡石町鏡田かげ沼町１３９番地の１",
    "lat": 37.2684424,
    "lng": 140.3463242,
    "tel": "0248-62-2551",
    "url": "",
    "pref": "福島県",
    "city": "鏡石町",
    "category": "tokuyou",
    "serviceType": "介護老人福祉施設",
    "capacity": 0,
    "openDays": [],
    "openDaysNote": ""
  },
  {
    "id": "772200259",
    "name": "特別養護老人ホーム　牧場の朝",
    "kana": "トクベツヨウゴロウジンホーム　マキバノアサ",
    "address": "福島県岩瀬郡鏡石町桜町２２５番地１５",
    "lat": 37.2523389,
    "lng": 140.365015,
    "tel": "0248-94-2121",
    "url": "http://www.seijukai.org/",
    "pref": "福島県",
    "city": "鏡石町",
    "category": "tokuyou",
    "serviceType": "介護老人福祉施設",
    "capacity": 0,
    "openDays": [],
    "openDaysNote": ""
  },
  {
    "id": "773000310",
    "name": "特別養護老人ホームたまかわ荘",
    "kana": "トクベツヨウゴロウジンホームタマカワソウ",
    "address": "福島県石川郡玉川村大字中字入山59",
    "lat": 37.2160052,
    "lng": 140.4108381,
    "tel": "0247-57-4611",
    "url": "",
    "pref": "福島県",
    "city": "玉川村",
    "category": "tokuyou",
    "serviceType": "介護老人福祉施設",
    "capacity": 56,
    "openDays": [],
    "openDaysNote": ""
  },
  {
    "id": "772700092",
    "name": "特別養護老人ホーム　かねやまホーム",
    "kana": "トクベツヨウゴロウジンホーム　カネヤマホーム",
    "address": "福島県大沼郡金山町大字中川字沖根原1324番地",
    "lat": 37.4745462,
    "lng": 139.529466,
    "tel": "0241-55-3341",
    "url": "https://www.kaneyama-f.or.jp",
    "pref": "福島県",
    "city": "金山町",
    "category": "tokuyou",
    "serviceType": "介護老人福祉施設",
    "capacity": 0,
    "openDays": [],
    "openDaysNote": ""
  },
  {
    "id": "772000600",
    "name": "特別養護老人ホーム　あつかし荘",
    "kana": "トクベツヨウゴロウジンホーム　アツカシソウ",
    "address": "福島県伊達郡桑折町大字北半田字一本木前５－２",
    "lat": 37.8718068,
    "lng": 140.5391411,
    "tel": "024-585-5610",
    "url": "https://www.shintatsu.jp",
    "pref": "福島県",
    "city": "桑折町",
    "category": "tokuyou",
    "serviceType": "介護老人福祉施設",
    "capacity": 62,
    "openDays": [],
    "openDaysNote": ""
  },
  {
    "id": "772001020",
    "name": "特別養護老人ホームコクーン",
    "kana": "トクベツヨウゴロウジンホームコクーン",
    "address": "福島県伊達郡桑折町字桑島四　9-4",
    "lat": 37.844987,
    "lng": 140.5147802,
    "tel": "024-582-1181",
    "url": "http://www.cocoon.or.jp",
    "pref": "福島県",
    "city": "桑折町",
    "category": "tokuyou",
    "serviceType": "介護老人福祉施設",
    "capacity": null,
    "openDays": [],
    "openDaysNote": ""
  },
  {
    "id": "770300648",
    "name": "社会福祉法人愛星福祉会特別養護老人ホーム星ヶ丘ホーム",
    "kana": "シャカイフクシホウジンアイセイフクシカイトクベツヨウゴロウジンホームホシガオカホーム",
    "address": "福島県郡山市片平町字妙見舘１－１",
    "lat": 37.4355939,
    "lng": 140.3184586,
    "tel": "024-952-6412",
    "url": "http://www.isei.or.jp",
    "pref": "福島県",
    "city": "郡山市",
    "category": "tokuyou",
    "serviceType": "介護老人福祉施設",
    "capacity": null,
    "openDays": [],
    "openDaysNote": ""
  },
  {
    "id": "770305480",
    "name": "特別養護老人ホーム　イル・ヴィラージュ",
    "kana": "トクベツヨウゴロウジンホーム",
    "address": "福島県郡山市島1丁目19-1",
    "lat": 37.3992815,
    "lng": 140.3462184,
    "tel": "024-953--8370",
    "url": "http://www.ile-village.jp/",
    "pref": "福島県",
    "city": "郡山市",
    "category": "tokuyou",
    "serviceType": "介護老人福祉施設",
    "capacity": null,
    "openDays": [],
    "openDaysNote": ""
  },
  {
    "id": "770300747",
    "name": "特別養護老人ホーム　おおつき",
    "kana": "トクベツヨウゴロウジンホーム　オオツキ",
    "address": "福島県郡山市大槻町字西勝ノ木5番地の１",
    "lat": 37.3934809,
    "lng": 140.3062894,
    "tel": "024-962-3939",
    "url": "http://kuwano-fukushikai.jp",
    "pref": "福島県",
    "city": "郡山市",
    "category": "tokuyou",
    "serviceType": "介護老人福祉施設",
    "capacity": 80,
    "openDays": [],
    "openDaysNote": ""
  },
  {
    "id": "770301059",
    "name": "特別養護老人ホーム　スプリングガーデンあさか",
    "kana": "トクベツヨウゴロウジンホーム　スプリングガーデンアサカ",
    "address": "福島県郡山市安積町笹川字目光池西１０－１",
    "lat": 37.3498872,
    "lng": 140.3617218,
    "tel": "024-937-3737",
    "url": "http://www.jusendo.or.jp",
    "pref": "福島県",
    "city": "郡山市",
    "category": "tokuyou",
    "serviceType": "介護老人福祉施設",
    "capacity": 80,
    "openDays": [],
    "openDaysNote": ""
  },
  {
    "id": "770302792",
    "name": "特別養護老人ホーム　ハーモニーみどりヶ丘",
    "kana": "トクベツヨウゴロウジンホーム　ハーモニーミドリガオカ",
    "address": "福島県郡山市緑ヶ丘東六丁目２６番地２",
    "lat": 37.3853049,
    "lng": 140.4393528,
    "tel": "024-941-1182",
    "url": "http://sin-ai.com/",
    "pref": "福島県",
    "city": "郡山市",
    "category": "tokuyou",
    "serviceType": "介護老人福祉施設",
    "capacity": 0,
    "openDays": [],
    "openDaysNote": ""
  },
  {
    "id": "770303758",
    "name": "特別養護老人ホーム　下亀田紀行",
    "kana": "トクベツヨウゴロウジンホーム　シモカメダキコウ",
    "address": "福島県郡山市字下亀田３番地の１",
    "lat": 37.4110443,
    "lng": 140.3493677,
    "tel": "024-983-3785",
    "url": "http://www.aiai-fukushima.or.jp/",
    "pref": "福島県",
    "city": "郡山市",
    "category": "tokuyou",
    "serviceType": "介護老人福祉施設",
    "capacity": 60,
    "openDays": [],
    "openDaysNote": ""
  },
  {
    "id": "770302453",
    "name": "特別養護老人ホーム　光の森の丘",
    "kana": "トクベツヨウゴロウジンホーム　ヒカリノモリノオカ",
    "address": "福島県郡山市安原町字谷津１７１－１",
    "lat": 37.3960671,
    "lng": 140.4162401,
    "tel": "024-956-6800",
    "url": "https://hikarino-mori.jp",
    "pref": "福島県",
    "city": "郡山市",
    "category": "tokuyou",
    "serviceType": "介護老人福祉施設",
    "capacity": 60,
    "openDays": [],
    "openDaysNote": ""
  },
  {
    "id": "770303063",
    "name": "特別養護老人ホーム　笑風苑",
    "kana": "トクベツヨウゴロウジンホーム　ショウフウエン",
    "address": "福島県郡山市喜久田町前田沢字小室山５－４５",
    "lat": 37.4754455,
    "lng": 140.3423245,
    "tel": "024-959-2929",
    "url": "http://syoufuukai.or.jp/",
    "pref": "福島県",
    "city": "郡山市",
    "category": "tokuyou",
    "serviceType": "介護老人福祉施設",
    "capacity": 0,
    "openDays": [],
    "openDaysNote": ""
  },
  {
    "id": "770304749",
    "name": "特別養護老人ホーム　南東北グランプラス八山田",
    "kana": "トクベツヨウゴロウジンホーム　ミナミトウホクグランプラスヤツヤマダ",
    "address": "福島県郡山市富久山町八山田字土布池55-1",
    "lat": 37.425938014801,
    "lng": 140.384428198672,
    "tel": "024-954-8501",
    "url": "http://www.fukushi-yatsuyamada.com/",
    "pref": "福島県",
    "city": "郡山市",
    "category": "tokuyou",
    "serviceType": "介護老人福祉施設",
    "capacity": 0,
    "openDays": [],
    "openDaysNote": ""
  },
  {
    "id": "770300739",
    "name": "特別養護老人ホーム　南東北ロイヤルライフ館",
    "kana": "トクベツヨウゴロウジンホーム　ミナミトウホクロイヤルライフカン",
    "address": "福島県郡山市日和田町梅沢字丹波山3-2",
    "lat": 37.4575858,
    "lng": 140.4143299,
    "tel": "024-968-1010",
    "url": "http://www.kaigo-hiwada.com",
    "pref": "福島県",
    "city": "郡山市",
    "category": "tokuyou",
    "serviceType": "介護老人福祉施設",
    "capacity": 50,
    "openDays": [],
    "openDaysNote": ""
  },
  {
    "id": "770300457",
    "name": "特別養護老人ホームあたみホーム",
    "kana": "トクベツヨウゴロウジンホームアタミホーム",
    "address": "福島県郡山市熱海町玉川字阿曽沢1番地30",
    "lat": 37.48349,
    "lng": 140.2854379,
    "tel": "024-984-2766",
    "url": "http://www.ohta-fukushi.or.jp",
    "pref": "福島県",
    "city": "郡山市",
    "category": "tokuyou",
    "serviceType": "介護老人福祉施設",
    "capacity": 94,
    "openDays": [],
    "openDaysNote": ""
  },
  {
    "id": "770301679",
    "name": "特別養護老人ホームうねめの里",
    "kana": "トクベツヨウゴロウジンホームウネメノサト",
    "address": "福島県郡山市片平町字妙見舘１番地２",
    "lat": 37.4345773,
    "lng": 140.317506,
    "tel": "024-961-8633",
    "url": "http://www.koriyama-fukushikai.jp/",
    "pref": "福島県",
    "city": "郡山市",
    "category": "tokuyou",
    "serviceType": "介護老人福祉施設",
    "capacity": 70,
    "openDays": [],
    "openDaysNote": ""
  },
  {
    "id": "770300721",
    "name": "特別養護老人ホームカーサ・ミッレ",
    "kana": "トクベツヨウゴロウジンホームカーサ・ミッレ",
    "address": "福島県郡山市安積町笹川字西宿77",
    "lat": 37.3497128162511,
    "lng": 140.36363252314,
    "tel": "024-946-2818",
    "url": "http://asaka.or.jp/mille/",
    "pref": "福島県",
    "city": "郡山市",
    "category": "tokuyou",
    "serviceType": "介護老人福祉施設",
    "capacity": 100,
    "openDays": [],
    "openDaysNote": ""
  },
  {
    "id": "770303345",
    "name": "特別養護老人ホームさくら",
    "kana": "トクベツヨウゴロウジンホームサクラ",
    "address": "福島県郡山市田村町岩作字梅木平１２番地",
    "lat": 37.3197609,
    "lng": 140.4107022,
    "tel": "024-955-4271",
    "url": "http://fukushikai.sakura.ne.jp/",
    "pref": "福島県",
    "city": "郡山市",
    "category": "tokuyou",
    "serviceType": "介護老人福祉施設",
    "capacity": 60,
    "openDays": [],
    "openDaysNote": ""
  },
  {
    "id": "770302172",
    "name": "特別養護老人ホームみほた",
    "kana": "トクベツヨウゴロウジンホームミホタ",
    "address": "福島県郡山市三穂田町鍋山字前原250番地の2",
    "lat": 37.3387403385667,
    "lng": 140.281026041664,
    "tel": "024-964-0123",
    "url": "https://tarukawa-f.jp",
    "pref": "福島県",
    "city": "郡山市",
    "category": "tokuyou",
    "serviceType": "介護老人福祉施設",
    "capacity": 60,
    "openDays": [],
    "openDaysNote": ""
  },
  {
    "id": "770300432",
    "name": "特別養護老人ホーム玉川ホーム",
    "kana": "トクベツヨウゴロウジンホームタマガワホーム",
    "address": "福島県郡山市熱海町玉川字阿曽沢11番地1",
    "lat": 37.482779,
    "lng": 140.2863267,
    "tel": "024-984-3836",
    "url": "http://www.ohta-fukushi.or.jp",
    "pref": "福島県",
    "city": "郡山市",
    "category": "tokuyou",
    "serviceType": "介護老人福祉施設",
    "capacity": 150,
    "openDays": [],
    "openDaysNote": ""
  },
  {
    "id": "770305936",
    "name": "特別養護老人ホーム小春日和",
    "kana": "トクベツヨウゴロウジンホームコハルビヨリ",
    "address": "福島県郡山市安積町荒井字柴宮山55番5",
    "lat": 37.3757324387715,
    "lng": 140.340506738098,
    "tel": "024-926-0681",
    "url": "URLhttp://mutsukifukushikai.com/",
    "pref": "福島県",
    "city": "郡山市",
    "category": "tokuyou",
    "serviceType": "介護老人福祉施設",
    "capacity": 0,
    "openDays": [],
    "openDaysNote": ""
  },
  {
    "id": "773000393",
    "name": "特別養護老人ホームふるどの荘",
    "kana": "トクベツヨウゴロウジンホームフルドノソウ",
    "address": "福島県石川郡古殿町大字松川字林４－１",
    "lat": 37.0902089,
    "lng": 140.5513215,
    "tel": "0247-32-1180",
    "url": "http://ishikawafukushikai.jp/about",
    "pref": "福島県",
    "city": "古殿町",
    "category": "tokuyou",
    "serviceType": "介護老人福祉施設",
    "capacity": 50,
    "openDays": [],
    "openDaysNote": ""
  },
  {
    "id": "773200894",
    "name": "広野町特別養護老人ホーム花ぶさ苑",
    "kana": "ヒロノマチトクベツヨウゴロウジンホームハナブサエン",
    "address": "福島県双葉郡広野町下北迫字東町211-1",
    "lat": 37.219643866204,
    "lng": 141.006592310451,
    "tel": "0240-27-1755",
    "url": "htts://koubikai.jp",
    "pref": "福島県",
    "city": "広野町",
    "category": "tokuyou",
    "serviceType": "介護老人福祉施設",
    "capacity": 40,
    "openDays": [],
    "openDaysNote": ""
  },
  {
    "id": "772001418",
    "name": "特別養護老人ホーム「国見の里」",
    "kana": "トクベツヨウゴロウジンホーム　クニミノサト",
    "address": "福島県伊達郡国見町小坂南3番地",
    "lat": 37.8879071771827,
    "lng": 140.528162912689,
    "tel": "024－585－5161",
    "url": "kunimi-sato.or.jp",
    "pref": "福島県",
    "city": "国見町",
    "category": "tokuyou",
    "serviceType": "介護老人福祉施設",
    "capacity": 0,
    "openDays": [],
    "openDaysNote": ""
  },
  {
    "id": "773100128",
    "name": "特別養護老人ホームあぶくま荘",
    "kana": "トクベツヨウゴロウジンホームアブクマソウ",
    "address": "福島県田村郡三春町字六升蒔６８番地",
    "lat": 37.4468802,
    "lng": 140.4944958,
    "tel": "0247-62-6066",
    "url": "ss68@chive.ocn.ne.jp",
    "pref": "福島県",
    "city": "三春町",
    "category": "tokuyou",
    "serviceType": "介護老人福祉施設",
    "capacity": 50,
    "openDays": [],
    "openDaysNote": ""
  },
  {
    "id": "772700332",
    "name": "特別養護老人ホーム桐寿苑",
    "kana": "トクベツヨウゴロウジンホームトウジュエン",
    "address": "福島県大沼郡三島町大字宮下字坂ノ下６５９番地",
    "lat": 37.4736462,
    "lng": 139.6460129,
    "tel": "0241-48-5033",
    "url": "https;//www.mishima1.jp",
    "pref": "福島県",
    "city": "三島町",
    "category": "tokuyou",
    "serviceType": "介護老人福祉施設",
    "capacity": 0,
    "openDays": [],
    "openDaysNote": ""
  },
  {
    "id": "773100086",
    "name": "特別養護老人ホームこまち荘",
    "kana": "トクベツヨウゴロウジンホームコマチソウ",
    "address": "福島県田村郡小野町大字小野新町字美売57番地",
    "lat": 37.2924857,
    "lng": 140.6183834,
    "tel": "0247-72-4566",
    "url": "https://tamurafukushikai.com/",
    "pref": "福島県",
    "city": "小野町",
    "category": "tokuyou",
    "serviceType": "介護老人福祉施設",
    "capacity": 0,
    "openDays": [],
    "openDaysNote": ""
  },
  {
    "id": "772700431",
    "name": "特別養護老人ホーム　昭和ホーム",
    "kana": "トクベツヨウゴロウジンホーム　ショウワホーム",
    "address": "福島県大沼郡昭和村大字小中津川字石仏1930番地",
    "lat": 37.3314172,
    "lng": 139.6192982,
    "tel": "0241-58-1920",
    "url": "http://www.showa-home-fukushima.jp/",
    "pref": "福島県",
    "city": "昭和村",
    "category": "tokuyou",
    "serviceType": "介護老人福祉施設",
    "capacity": 30,
    "openDays": [],
    "openDaysNote": ""
  },
  {
    "id": "772700506",
    "name": "特別養護老人ホーム昭和ホーム（ユニット館）",
    "kana": "トクベツヨウゴロウジンホームショウワホーム（ユニットカン）",
    "address": "福島県大沼郡昭和村大字小中津川字石仏1930番地",
    "lat": 37.3314172,
    "lng": 139.6192982,
    "tel": "0241-58-1920",
    "url": "http:/www.showa-home-fukushima.jp/",
    "pref": "福島県",
    "city": "昭和村",
    "category": "tokuyou",
    "serviceType": "介護老人福祉施設",
    "capacity": null,
    "openDays": [],
    "openDaysNote": ""
  },
  {
    "id": "773300322",
    "name": "特別養護老人ホーム　なごみの里福田",
    "kana": "トクベツヨウゴロウジンホーム　ナゴミノサトフクダ",
    "address": "福島県相馬郡新地町大字福田字清水175番地",
    "lat": 37.8898438,
    "lng": 140.8983589,
    "tel": "0244-26-4550",
    "url": "http://shinchifukushikai.jp/",
    "pref": "福島県",
    "city": "新地町",
    "category": "tokuyou",
    "serviceType": "介護老人福祉施設",
    "capacity": null,
    "openDays": [],
    "openDaysNote": ""
  },
  {
    "id": "773300066",
    "name": "特別養護老人ホーム新地ホーム",
    "kana": "トクベツヨウゴロウジンホームシンチホーム",
    "address": "福島県相馬郡新地町小川字川向１８",
    "lat": 37.8637108,
    "lng": 140.9177502,
    "tel": "0244-62-5111",
    "url": "http://shinchifukushikai.jp/main/",
    "pref": "福島県",
    "city": "新地町",
    "category": "tokuyou",
    "serviceType": "介護老人福祉施設",
    "capacity": 0,
    "openDays": [],
    "openDaysNote": ""
  },
  {
    "id": "770700920",
    "name": "いわせ長寿苑",
    "kana": "イワセチョウジュエン",
    "address": "福島県須賀川市矢沢字明池158番地",
    "lat": 37.3146444,
    "lng": 140.2858728,
    "tel": "0248-65-2448",
    "url": "http://www.iwase.or.jp",
    "pref": "福島県",
    "city": "須賀川市",
    "category": "tokuyou",
    "serviceType": "介護老人福祉施設",
    "capacity": 90,
    "openDays": [],
    "openDaysNote": ""
  },
  {
    "id": "770700276",
    "name": "シオンの園",
    "kana": "シオンノソノ",
    "address": "福島県須賀川市下小山田字月夜田２０６",
    "lat": 37.2789634,
    "lng": 140.4379801,
    "tel": "0248-79-4646",
    "url": "www.fukuinkai.net/",
    "pref": "福島県",
    "city": "須賀川市",
    "category": "tokuyou",
    "serviceType": "介護老人福祉施設",
    "capacity": 0,
    "openDays": [],
    "openDaysNote": ""
  },
  {
    "id": "770700383",
    "name": "特別養護老人ホーム　エルピス",
    "kana": "トクベツヨウゴロウジンホーム　エルピス",
    "address": "福島県須賀川市和田字沓掛４８番１",
    "lat": 37.2673157,
    "lng": 140.3793998,
    "tel": "0248-76-6660",
    "url": "http://www.shahukutokushinkai.jp",
    "pref": "福島県",
    "city": "須賀川市",
    "category": "tokuyou",
    "serviceType": "介護老人福祉施設",
    "capacity": 90,
    "openDays": [],
    "openDaysNote": ""
  },
  {
    "id": "770701340",
    "name": "特別養護老人ホーム　エルピスユニット型",
    "kana": "トクベツヨウゴロウジンホーム　エルピスユニットガタ",
    "address": "福島県須賀川市和田字沓掛48番1",
    "lat": 37.2673157,
    "lng": 140.3793998,
    "tel": "0248-76-6660",
    "url": "tokushinkai.care",
    "pref": "福島県",
    "city": "須賀川市",
    "category": "tokuyou",
    "serviceType": "介護老人福祉施設",
    "capacity": 0,
    "openDays": [],
    "openDaysNote": ""
  },
  {
    "id": "770701506",
    "name": "特別養護老人ホーム　エルピス森宿",
    "kana": "トクベツヨウゴロウジンホーム　エルピスモリジュク",
    "address": "福島県須賀川市森宿字ウツロ田３８－１",
    "lat": 37.3092677,
    "lng": 140.3593247,
    "tel": "0248-94-2220",
    "url": "http://www.tokushinkai.care",
    "pref": "福島県",
    "city": "須賀川市",
    "category": "tokuyou",
    "serviceType": "介護老人福祉施設",
    "capacity": 0,
    "openDays": [],
    "openDaysNote": ""
  },
  {
    "id": "770700987",
    "name": "特別養護老人ホーム　ゆう遊館",
    "kana": "トクベツヨウゴロウジンホーム　ユウユウカン",
    "address": "福島県須賀川市滑川字関ノ上26番地１",
    "lat": 37.3251133,
    "lng": 140.3651609,
    "tel": "0248-94-8121",
    "url": "http://aishin-f.or.jp",
    "pref": "福島県",
    "city": "須賀川市",
    "category": "tokuyou",
    "serviceType": "介護老人福祉施設",
    "capacity": null,
    "openDays": [],
    "openDaysNote": ""
  },
  {
    "id": "772200093",
    "name": "特別養護老人ホーム　長沼ホーム",
    "kana": "トクベツヨウゴロウジンホーム　ナガヌマホーム",
    "address": "福島県須賀川市志茂字末津久保1-2",
    "lat": 37.2933405,
    "lng": 140.2473777,
    "tel": "0248-77-1001",
    "url": "/www.sw.iwasefukushi.jp/",
    "pref": "福島県",
    "city": "須賀川市",
    "category": "tokuyou",
    "serviceType": "介護老人福祉施設",
    "capacity": null,
    "openDays": [],
    "openDaysNote": ""
  },
  {
    "id": "770700227",
    "name": "特別養護老人ホーム愛寿園",
    "kana": "トクベツヨウゴロウジンホームアイジュエン",
    "address": "福島県須賀川市吉美根字土橋１２１番地",
    "lat": 37.3033114,
    "lng": 140.3436095,
    "tel": "0248-75-3378",
    "url": "https://sanaifukushikai.com",
    "pref": "福島県",
    "city": "須賀川市",
    "category": "tokuyou",
    "serviceType": "介護老人福祉施設",
    "capacity": 0,
    "openDays": [],
    "openDaysNote": ""
  },
  {
    "id": "772500278",
    "name": "特別養護老人ホームさゆりの園",
    "kana": "トクベツヨウゴロウジンホームサユリノソノ",
    "address": "福島県耶麻郡西会津町登世島字田畑乙２０４２－７１",
    "lat": 37.5970886,
    "lng": 139.6391949,
    "tel": "0241-45-2921",
    "url": "https：//nishiaizu-fukushi.jp/",
    "pref": "福島県",
    "city": "西会津町",
    "category": "tokuyou",
    "serviceType": "介護老人福祉施設",
    "capacity": 0,
    "openDays": [],
    "openDaysNote": ""
  },
  {
    "id": "772801122",
    "name": "特別養護老人ホーム　リアンヴェール西郷",
    "kana": "トクベツヨウゴロウジンホーム　リアンールェールニシゴウ",
    "address": "福島県西白河郡西郷村大字小田倉字小田倉原1-134",
    "lat": 37.1244803005252,
    "lng": 140.165263949599,
    "tel": "0248-21-7960",
    "url": "https://heiseikai.studio.site/",
    "pref": "福島県",
    "city": "西郷村",
    "category": "tokuyou",
    "serviceType": "介護老人福祉施設",
    "capacity": null,
    "openDays": [],
    "openDaysNote": ""
  },
  {
    "id": "772800363",
    "name": "福島県さつき荘",
    "kana": "フクシマケンサツキソウ",
    "address": "福島県西白河郡西郷村大字真船字芝原３４１－６",
    "lat": 37.1357397,
    "lng": 140.1216217,
    "tel": "0248-25-3102",
    "url": "http://www.fukushima-sj.jp/taiyo_satsuki/index.html",
    "pref": "福島県",
    "city": "西郷村",
    "category": "tokuyou",
    "serviceType": "介護老人福祉施設",
    "capacity": 0,
    "openDays": [],
    "openDaysNote": ""
  },
  {
    "id": "772800355",
    "name": "福島県やまぶき荘",
    "kana": "フクシマケン　ヤマブキソウ",
    "address": "福島県西白河郡西郷村大字小田倉字上上野原２－２",
    "lat": 37.1313583666553,
    "lng": 140.121756752812,
    "tel": "0248-25-2106",
    "url": "http//www.fukushima-sj.jp/yamabuki",
    "pref": "福島県",
    "city": "西郷村",
    "category": "tokuyou",
    "serviceType": "介護老人福祉施設",
    "capacity": 100,
    "openDays": [],
    "openDaysNote": ""
  },
  {
    "id": "773000237",
    "name": "特別養護老人ホーム「さくら荘」",
    "kana": "トクベツヨウゴロウジンホーム「サクラソウ」",
    "address": "福島県石川郡石川町大字南山形字中野沢５４",
    "lat": 37.1157561,
    "lng": 140.4689674,
    "tel": "0247-26-1100",
    "url": "",
    "pref": "福島県",
    "city": "石川町",
    "category": "tokuyou",
    "serviceType": "介護老人福祉施設",
    "capacity": 0,
    "openDays": [],
    "openDaysNote": ""
  },
  {
    "id": "773200845",
    "name": "特別養護老人ホームかわうち",
    "kana": "トクベツヨウゴロウジンホームカワウチ",
    "address": "福島県双葉郡川内村上川内字迎原78番地",
    "lat": 37.3542408,
    "lng": 140.7926546,
    "tel": "0240-38-3567",
    "url": "www.sennoufukushikai.net",
    "pref": "福島県",
    "city": "川内村",
    "category": "tokuyou",
    "serviceType": "介護老人福祉施設",
    "capacity": null,
    "openDays": [],
    "openDaysNote": ""
  },
  {
    "id": "772000774",
    "name": "特別養護老人ホーム　川俣ホーム",
    "kana": "トクベツヨウゴロウジンホーム　カワマタホーム",
    "address": "福島県伊達郡川俣町大字鶴沢字川端２－１",
    "lat": 37.6637164,
    "lng": 140.5957109,
    "tel": "024-565-2881",
    "url": "http://www.shintatsu.jp",
    "pref": "福島県",
    "city": "川俣町",
    "category": "tokuyou",
    "serviceType": "介護老人福祉施設",
    "capacity": 0,
    "openDays": [],
    "openDaysNote": ""
  },
  {
    "id": "772000998",
    "name": "特別養護老人ホーム南東北シルクロード館",
    "kana": "トクベツヨウゴロウジンホームミナミトウホクシルクロードカン",
    "address": "福島県伊達郡川俣町大字鶴沢字池ノ上30-1",
    "lat": 37.6644111,
    "lng": 140.574677,
    "tel": "024-538-0081",
    "url": "http://www..kaigo-kawamata.com/",
    "pref": "福島県",
    "city": "川俣町",
    "category": "tokuyou",
    "serviceType": "介護老人福祉施設",
    "capacity": null,
    "openDays": [],
    "openDaysNote": ""
  },
  {
    "id": "772800165",
    "name": "特別養護老人ホーム　ケアハウス泉崎",
    "kana": "トクベツヨウゴロウジンホーム　ケアハウスイズミザキ",
    "address": "福島県西白河郡泉崎村大字太田川字金山34番地",
    "lat": 37.1788672,
    "lng": 140.2656217,
    "tel": "0248-53-3450",
    "url": "https://www.carehouse-izumizaki.com",
    "pref": "福島県",
    "city": "泉崎村",
    "category": "tokuyou",
    "serviceType": "介護老人福祉施設",
    "capacity": 0,
    "openDays": [],
    "openDaysNote": ""
  },
  {
    "id": "773000187",
    "name": "特別養護老人ホームさぎそう",
    "kana": "トクベツヨウゴロウジンホームサギソウ",
    "address": "福島県石川郡浅川町大字浅川字背戸谷地１７７－６",
    "lat": 37.0797502,
    "lng": 140.4053575,
    "tel": "0247-36-1165",
    "url": "ishikawafukushikai.jp",
    "pref": "福島県",
    "city": "浅川町",
    "category": "tokuyou",
    "serviceType": "介護老人福祉施設",
    "capacity": 0,
    "openDays": [],
    "openDaysNote": ""
  },
  {
    "id": "770900108",
    "name": "特別養護老人ホーム相馬ホーム",
    "kana": "トクベツヨウゴロジンホームソウマホーム",
    "address": "福島県相馬市小泉字高池７１８番地",
    "lat": 37.8106087,
    "lng": 140.9173526,
    "tel": "0244-36-3344",
    "url": "https://www.soumafukushikai.com/",
    "pref": "福島県",
    "city": "相馬市",
    "category": "tokuyou",
    "serviceType": "介護老人福祉施設",
    "capacity": null,
    "openDays": [],
    "openDaysNote": ""
  },
  {
    "id": "770900595",
    "name": "特別養護老人ホーム相馬ホーム",
    "kana": "トクベツヨウゴロウジンホームソウマホーム",
    "address": "福島県相馬市小泉字高池７１８番地",
    "lat": 37.8106115,
    "lng": 140.9174054,
    "tel": "0244-33-3344",
    "url": "https://www.soumafukushikai.com/",
    "pref": "福島県",
    "city": "相馬市",
    "category": "tokuyou",
    "serviceType": "介護老人福祉施設",
    "capacity": null,
    "openDays": [],
    "openDaysNote": ""
  },
  {
    "id": "772100657",
    "name": "特別養護老人ホーム　陽だまりの里",
    "kana": "トクベツヨウゴロウジンホーム　ヒダマリノサト",
    "address": "福島県安達郡大玉村玉井字台9番地1",
    "lat": 37.5327644,
    "lng": 140.3705254,
    "tel": "0243-68-2115",
    "url": "http://www.f-hidamarinosato.jp",
    "pref": "福島県",
    "city": "大玉村",
    "category": "tokuyou",
    "serviceType": "介護老人福祉施設",
    "capacity": 70,
    "openDays": [],
    "openDaysNote": ""
  },
  {
    "id": "772300398",
    "name": "特別養護老人ホーム只見ホーム",
    "kana": "トクベツヨウゴロウジンホームタダミホーム",
    "address": "福島県南会津郡只見町大字長浜字久保田１番地",
    "lat": 37.3039067,
    "lng": 139.376495,
    "tel": "0241-84-7550",
    "url": "http://minamiaidukai.or.jp/",
    "pref": "福島県",
    "city": "只見町",
    "category": "tokuyou",
    "serviceType": "介護老人福祉施設",
    "capacity": 56,
    "openDays": [],
    "openDaysNote": ""
  },
  {
    "id": "772900429",
    "name": "特別養護老人ホームほたるの里",
    "kana": "トクベツヨウゴロウジンホームホタルノサト",
    "address": "福島県東白川郡棚倉町大字関口字豊郷103",
    "lat": 37.023937,
    "lng": 140.3937862,
    "tel": "0247-33-6050",
    "url": "http://www.utsumine.jp/",
    "pref": "福島県",
    "city": "棚倉町",
    "category": "tokuyou",
    "serviceType": "介護老人福祉施設",
    "capacity": 80,
    "openDays": [],
    "openDaysNote": ""
  },
  {
    "id": "772900080",
    "name": "特別養護老人ホーム寿恵園",
    "kana": "トクベツヨウゴロウジンホームジュケイエン",
    "address": "福島県東白川郡棚倉町大字棚倉字舘ヶ丘７９番地",
    "lat": 37.0222757,
    "lng": 140.3764239,
    "tel": "0247-33-6061",
    "url": "http://www.jyukeien.com/",
    "pref": "福島県",
    "city": "棚倉町",
    "category": "tokuyou",
    "serviceType": "介護老人福祉施設",
    "capacity": 80,
    "openDays": [],
    "openDaysNote": ""
  },
  {
    "id": "772800918",
    "name": "特別養護老人ホームひかりの里",
    "kana": "トクベツヨウゴロウジンホームヒカリノサト",
    "address": "福島県西白河郡中島村大字滑津字宿裏１０番地１",
    "lat": 37.1533367,
    "lng": 140.3614306,
    "tel": "0248-21-5988",
    "url": "fttp://www.so-we-cosmo.or.jp",
    "pref": "福島県",
    "city": "中島村",
    "category": "tokuyou",
    "serviceType": "介護老人福祉施設",
    "capacity": 80,
    "openDays": [],
    "openDaysNote": ""
  },
  {
    "id": "772500286",
    "name": "特別養護老人ホーム　いなわしろホーム",
    "kana": "トクベツヨウゴロウジンホーム　イナワシロホーム",
    "address": "福島県耶麻郡猪苗代町大字三郷字寺南7962番地1",
    "lat": 37.5633738,
    "lng": 140.1386344,
    "tel": "0242-66-4123",
    "url": "http://www.inawashiro-home.org/",
    "pref": "福島県",
    "city": "猪苗代町",
    "category": "tokuyou",
    "serviceType": "介護老人福祉施設",
    "capacity": 60,
    "openDays": [],
    "openDaysNote": ""
  },
  {
    "id": "772500435",
    "name": "特別養護老人ホーム　咲楽の里",
    "kana": "トクベツヨウゴロウジンホーム　サクラノサト",
    "address": "福島県耶麻郡猪苗代町字程塚2789番",
    "lat": 37.5715420112442,
    "lng": 140.116711154968,
    "tel": "0242-72-0557",
    "url": "http://www17.plala.or.jp/sakuranosato/",
    "pref": "福島県",
    "city": "猪苗代町",
    "category": "tokuyou",
    "serviceType": "介護老人福祉施設",
    "capacity": 90,
    "openDays": [],
    "openDaysNote": ""
  },
  {
    "id": "772200192",
    "name": "特別養護老人ホーム　天栄ホーム",
    "kana": "トクベツヨウゴロウジンホーム　テンエイホーム",
    "address": "福島県岩瀬郡天栄村大字飯豊字新田前21-1",
    "lat": 37.2458998,
    "lng": 140.2844038,
    "tel": "0248-93-1088",
    "url": "http://www.sw.iwasefukushi.jp",
    "pref": "福島県",
    "city": "天栄村",
    "category": "tokuyou",
    "serviceType": "介護老人福祉施設",
    "capacity": 0,
    "openDays": [],
    "openDaysNote": ""
  },
  {
    "id": "771100237",
    "name": "特別養護老人ホーム　ときわ荘",
    "kana": "トクベツヨウゴロウジンホーム　トキワソウ",
    "address": "福島県田村市常葉町常葉字長縄5番地1",
    "lat": 37.4359983,
    "lng": 140.6450191,
    "tel": "0247-77-4033",
    "url": "",
    "pref": "福島県",
    "city": "田村市",
    "category": "tokuyou",
    "serviceType": "介護老人福祉施設",
    "capacity": null,
    "openDays": [],
    "openDaysNote": ""
  },
  {
    "id": "771100401",
    "name": "特別養護老人ホーム　ハッピー愛ランドたむら",
    "kana": "トクベツヨウゴロウジンホーム　ハッピーアイランドタムラ",
    "address": "福島県田村市船引町椚山字池ノ辺1-1",
    "lat": 37.4091954,
    "lng": 140.5889553,
    "tel": "0247-61-5822",
    "url": "https://www.happyisland.org",
    "pref": "福島県",
    "city": "田村市",
    "category": "tokuyou",
    "serviceType": "介護老人福祉施設",
    "capacity": 0,
    "openDays": [],
    "openDaysNote": ""
  },
  {
    "id": "771100385",
    "name": "特別養護老人ホームさくらの里",
    "kana": "トクベツヨウゴロウジンホームサクラノサト",
    "address": "福島県田村市滝根町菅谷字大子堂153-25",
    "lat": 37.3537357105049,
    "lng": 140.647950300525,
    "tel": "0247-61-7550",
    "url": "https://www.keiseifukushikai.net/",
    "pref": "福島県",
    "city": "田村市",
    "category": "tokuyou",
    "serviceType": "介護老人福祉施設",
    "capacity": 98,
    "openDays": [],
    "openDaysNote": ""
  },
  {
    "id": "771100302",
    "name": "特別養護老人ホーム花音",
    "kana": "トクベツヨウゴロウジンホームカノン",
    "address": "福島県田村市船引町船引字下大平105番地1",
    "lat": 37.4463476953257,
    "lng": 140.570750648688,
    "tel": "0247-82-6888",
    "url": "https://sumire-fukushikai.or.jp/",
    "pref": "福島県",
    "city": "田村市",
    "category": "tokuyou",
    "serviceType": "介護老人福祉施設",
    "capacity": null,
    "openDays": [],
    "openDaysNote": ""
  },
  {
    "id": "773100284",
    "name": "特別養護老人ホーム船引こぶし荘",
    "kana": "トクベツヨウゴロウジンホームフネヒキコブシソウ",
    "address": "福島県田村市船引町船引字源次郎131",
    "lat": 37.4531484,
    "lng": 140.5819321,
    "tel": "0247-82-6644",
    "url": "",
    "pref": "福島県",
    "city": "田村市",
    "category": "tokuyou",
    "serviceType": "介護老人福祉施設",
    "capacity": 94,
    "openDays": [],
    "openDaysNote": ""
  },
  {
    "id": "773100144",
    "name": "特別養護老人ホーム都路まどか荘",
    "kana": "トクベツヨウゴロウジンホームミヤコジマドカソウ",
    "address": "福島県田村市都路町古道字寺下60番地都路まどか荘 都路まどか荘",
    "lat": 37.434145,
    "lng": 140.7914163,
    "tel": "0247-75-3133",
    "url": "https://tamurafukushikai.com",
    "pref": "福島県",
    "city": "田村市",
    "category": "tokuyou",
    "serviceType": "介護老人福祉施設",
    "capacity": 0,
    "openDays": [],
    "openDaysNote": ""
  },
  {
    "id": "773200522",
    "name": "リリー園",
    "kana": "リリーエン",
    "address": "福島県双葉郡楢葉町大字井出字上ノ原２８番地",
    "lat": 37.2717729,
    "lng": 141.0132101,
    "tel": "0240-25-1777",
    "url": "http://lily-en.com",
    "pref": "福島県",
    "city": "楢葉町",
    "category": "tokuyou",
    "serviceType": "介護老人福祉施設",
    "capacity": 0,
    "openDays": [],
    "openDaysNote": ""
  },
  {
    "id": "772300349",
    "name": "特別養護老人ホーム　南郷ホーム",
    "kana": "トクベツヨウゴロウジンホーム　ナンゴウホーム",
    "address": "福島県南会津郡南会津町片貝字中田97",
    "lat": 37.2740165,
    "lng": 139.5295933,
    "tel": "0241-73-2811",
    "url": "nan-home@atlas.plala.or.jp",
    "pref": "福島県",
    "city": "南会津町",
    "category": "tokuyou",
    "serviceType": "介護老人福祉施設",
    "capacity": 0,
    "openDays": [],
    "openDaysNote": ""
  },
  {
    "id": "772300653",
    "name": "特別養護老人ホーム　優雅",
    "kana": "トクベツヨウゴロウジンホーム　ユウガ",
    "address": "福島県南会津郡南会津町田島字北下原１１１番特別養護老人ホーム優雅 特別養護老人ホーム優雅",
    "lat": 37.2078332,
    "lng": 139.7880801,
    "tel": "0241-64-5110",
    "url": "http://www.ouzyukai.info",
    "pref": "福島県",
    "city": "南会津町",
    "category": "tokuyou",
    "serviceType": "介護老人福祉施設",
    "capacity": 0,
    "openDays": [],
    "openDaysNote": ""
  },
  {
    "id": "772300331",
    "name": "特別養護老人ホーム伊南ホーム",
    "kana": "トクベツヨウゴロウジンホームイナホーム",
    "address": "福島県南会津郡南会津町古町字太子堂１８６－１",
    "lat": 37.186105,
    "lng": 139.5273929,
    "tel": "0241-76-2900",
    "url": "minamiaidukai.or.jp",
    "pref": "福島県",
    "city": "南会津町",
    "category": "tokuyou",
    "serviceType": "介護老人福祉施設",
    "capacity": 0,
    "openDays": [],
    "openDaysNote": ""
  },
  {
    "id": "772300315",
    "name": "特別養護老人ホーム田島ホーム",
    "kana": "トクベツヨウゴロウジンホームタジマホーム",
    "address": "福島県南会津郡南会津町永田字風下３-１",
    "lat": 37.2046494,
    "lng": 139.7599974,
    "tel": "0241-63-1111",
    "url": "tajima-home@lion.ocn.ne.jp",
    "pref": "福島県",
    "city": "南会津町",
    "category": "tokuyou",
    "serviceType": "介護老人福祉施設",
    "capacity": 0,
    "openDays": [],
    "openDaysNote": ""
  },
  {
    "id": "771200227",
    "name": "特別養護老人ホーム　竹水園",
    "kana": "トクベツヨウゴロウジンホーム　チクスイエン",
    "address": "福島県南相馬市原町区長野字南原４１番",
    "lat": 37.6516871,
    "lng": 140.9425823,
    "tel": "0244-24-0228",
    "url": "https://tokurou-tikusui.wixsite.com/tikusui",
    "pref": "福島県",
    "city": "南相馬市",
    "category": "tokuyou",
    "serviceType": "介護老人福祉施設",
    "capacity": 100,
    "openDays": [],
    "openDaysNote": ""
  },
  {
    "id": "770600153",
    "name": "特別養護老人ホーム長寿荘",
    "kana": "トクベツヨウゴロウジンホームチョウジュソウ",
    "address": "福島県南相馬市原町区小川町４０９番地",
    "lat": 37.6486325,
    "lng": 140.9602752,
    "tel": "0244-24-1677",
    "url": "http://tyoujusou.jp/",
    "pref": "福島県",
    "city": "南相馬市",
    "category": "tokuyou",
    "serviceType": "介護老人福祉施設",
    "capacity": null,
    "openDays": [],
    "openDaysNote": ""
  },
  {
    "id": "771200607",
    "name": "特別養護老人ホーム梅の香",
    "kana": "トクベツヨウゴロウジンホームウメノカ",
    "address": "福島県南相馬市小高区小高字金谷前81番地",
    "lat": 37.56851,
    "lng": 140.9946616,
    "tel": "0244-44-1600",
    "url": "http://minamisomafukushikai.or.jp/",
    "pref": "福島県",
    "city": "南相馬市",
    "category": "tokuyou",
    "serviceType": "介護老人福祉施設",
    "capacity": 0,
    "openDays": [],
    "openDaysNote": ""
  },
  {
    "id": "770600120",
    "name": "特別養護老人ホーム福寿園",
    "kana": "トクベツヨウゴロウジンホームフクジュエン",
    "address": "福島県南相馬市原町区高見町２－７０",
    "lat": 37.6358122,
    "lng": 140.9849373,
    "tel": "0244-25-2811",
    "url": "http://minamisomafukushikai.or.jp",
    "pref": "福島県",
    "city": "南相馬市",
    "category": "tokuyou",
    "serviceType": "介護老人福祉施設",
    "capacity": 0,
    "openDays": [],
    "openDaysNote": ""
  },
  {
    "id": "771200474",
    "name": "特別養護老人ホーム万葉園",
    "kana": "トクベツヨウゴロウジンホームマンヨウエン",
    "address": "福島県南相馬市鹿島区西町三丁目３番地",
    "lat": 37.7093064,
    "lng": 140.960426,
    "tel": "0244-67-1551",
    "url": "http://minamisoma.ask-daiko.co.jp/",
    "pref": "福島県",
    "city": "南相馬市",
    "category": "tokuyou",
    "serviceType": "介護老人福祉施設",
    "capacity": 0,
    "openDays": [],
    "openDaysNote": ""
  },
  {
    "id": "773300181",
    "name": "特別養護老人ホーム万葉園",
    "kana": "トクベツヨウゴロウジンホームマンヨウエン",
    "address": "福島県南相馬市鹿島区西町三丁目3番地",
    "lat": 37.7093258,
    "lng": 140.9603427,
    "tel": "0244-67-1551",
    "url": "https://minamisoma.ask-daiko.co.jp/",
    "pref": "福島県",
    "city": "南相馬市",
    "category": "tokuyou",
    "serviceType": "介護老人福祉施設",
    "capacity": 50,
    "openDays": [],
    "openDaysNote": ""
  },
  {
    "id": "771000213",
    "name": "特別養護老人ホーム　うつくしの丘",
    "kana": "トクベツヨウゴロウジンホウム　ウツクシノオカ",
    "address": "福島県二本松市上葉木坂２番地3",
    "lat": 37.6172611,
    "lng": 140.3739053,
    "tel": "0243-61-1250",
    "url": "http://www.masu-med.or.jp/",
    "pref": "福島県",
    "city": "二本松市",
    "category": "tokuyou",
    "serviceType": "介護老人福祉施設",
    "capacity": 0,
    "openDays": [],
    "openDaysNote": ""
  },
  {
    "id": "771000437",
    "name": "特別養護老人ホーム　みどりの郷",
    "kana": "トクベツヨウゴロウジンホーム　ミドリノサト",
    "address": "福島県二本松市木幡字東和代65番１",
    "lat": 37.6289464,
    "lng": 140.5267481,
    "tel": "0243-66-2660",
    "url": "koseikai-star.com",
    "pref": "福島県",
    "city": "二本松市",
    "category": "tokuyou",
    "serviceType": "介護老人福祉施設",
    "capacity": 0,
    "openDays": [],
    "openDaysNote": ""
  },
  {
    "id": "771000569",
    "name": "特別養護老人ホーム　二本松いわしろ紀行",
    "kana": "トクベツヨウゴロウジンホーム　ニホンマツイワシロキコウ",
    "address": "福島県二本松市西勝田字杉内10番地特別養護老人ホーム　二本松いわしろ紀行 特別養護老人ホーム　二本松いわしろ紀行",
    "lat": 37.5598036,
    "lng": 140.5010898,
    "tel": "0243-24-5225",
    "url": "http://iwashiro.aiai-fukushima.or.jp/",
    "pref": "福島県",
    "city": "二本松市",
    "category": "tokuyou",
    "serviceType": "介護老人福祉施設",
    "capacity": 0,
    "openDays": [],
    "openDaysNote": ""
  },
  {
    "id": "771000106",
    "name": "特別養護老人ホーム安達ヶ原あだたら荘",
    "kana": "トクベツヨウゴロウジンホーム　アダチガハラ　アダタラソウ",
    "address": "福島県二本松市安達ヶ原一丁目２９１番地１",
    "lat": 37.5852918,
    "lng": 140.4593709,
    "tel": "0243-22-2500",
    "url": "http://www.adachifukushi.jp/",
    "pref": "福島県",
    "city": "二本松市",
    "category": "tokuyou",
    "serviceType": "介護老人福祉施設",
    "capacity": 84,
    "openDays": [],
    "openDaysNote": ""
  },
  {
    "id": "772100327",
    "name": "特別養護老人ホーム羽山荘",
    "kana": "トクベツヨウゴロウジンホウムハヤマソウ",
    "address": "福島県二本松市太田字荻ノ田３５番地１",
    "lat": 37.5896285,
    "lng": 140.5294525,
    "tel": "0243-47-3301",
    "url": "http://www.adachifukushi.jp/hayama/",
    "pref": "福島県",
    "city": "二本松市",
    "category": "tokuyou",
    "serviceType": "介護老人福祉施設",
    "capacity": 0,
    "openDays": [],
    "openDaysNote": ""
  },
  {
    "id": "770500114",
    "name": "特別養護老人ホーム　小峰苑",
    "kana": "トクベツヨウゴロウジンホーム　コミネエン",
    "address": "福島県白河市新夏梨1番地2",
    "lat": 37.0897947,
    "lng": 140.2275897,
    "tel": "0248-31-2222",
    "url": "http://care-net.biz/07/komineen/",
    "pref": "福島県",
    "city": "白河市",
    "category": "tokuyou",
    "serviceType": "介護老人福祉施設",
    "capacity": 0,
    "openDays": [],
    "openDaysNote": ""
  },
  {
    "id": "770501013",
    "name": "特別養護老人ホーム　小峰苑　ユニット型",
    "kana": "トクベツヨウゴロウジンホーム　コミネエン　ユニットガタ",
    "address": "福島県白河市新夏梨1-2",
    "lat": 37.0897947,
    "lng": 140.2275897,
    "tel": "0248-31-2222",
    "url": "http://care-net.biz/07/komineen/",
    "pref": "福島県",
    "city": "白河市",
    "category": "tokuyou",
    "serviceType": "介護老人福祉施設",
    "capacity": 0,
    "openDays": [],
    "openDaysNote": ""
  },
  {
    "id": "772800561",
    "name": "特別養護老人ホーム　大信「聖・虹の郷」",
    "kana": "トクベツヨウゴロウジンホーム　タイシン「セイ・ニジノサト」",
    "address": "福島県白河市大信増見字八幡山55-3",
    "lat": 37.2033346,
    "lng": 140.2407794,
    "tel": "0248-54-5550",
    "url": "https://sosei.org/",
    "pref": "福島県",
    "city": "白河市",
    "category": "tokuyou",
    "serviceType": "介護老人福祉施設",
    "capacity": 0,
    "openDays": [],
    "openDaysNote": ""
  },
  {
    "id": "770500866",
    "name": "特別養護老人ホーム　大信「聖・虹の郷」",
    "kana": "トクベツヨウゴロウジンホーム　タイシン「セイ・ニジノサト」",
    "address": "福島県白河市大信増見字八幡山55-3",
    "lat": 37.2033519,
    "lng": 140.240903,
    "tel": "0248-54-5550",
    "url": "https://sosei.org/",
    "pref": "福島県",
    "city": "白河市",
    "category": "tokuyou",
    "serviceType": "介護老人福祉施設",
    "capacity": 0,
    "openDays": [],
    "openDaysNote": ""
  },
  {
    "id": "770500320",
    "name": "特別養護老人ホームしらかわの里",
    "kana": "トクベツヨウゴロウジンホームシラカワノサト",
    "address": "福島県白河市萱根金ヶ入10番1",
    "lat": 37.1466883,
    "lng": 140.242495,
    "tel": "0248-23-4613",
    "url": "http://care-net.biz/07/s-sato",
    "pref": "福島県",
    "city": "白河市",
    "category": "tokuyou",
    "serviceType": "介護老人福祉施設",
    "capacity": 0,
    "openDays": [],
    "openDaysNote": ""
  },
  {
    "id": "770501484",
    "name": "特別養護老人ホームリアンヴェール新白河",
    "kana": "トクベツヨウゴロウジンホームリアンゔェールシンシラカワ",
    "address": "福島県白河市立石１８０番地１",
    "lat": 37.1285254,
    "lng": 140.1973587,
    "tel": "0248-22-2222",
    "url": "https://heiseikai.studio.site/",
    "pref": "福島県",
    "city": "白河市",
    "category": "tokuyou",
    "serviceType": "介護老人福祉施設",
    "capacity": null,
    "openDays": [],
    "openDaysNote": ""
  },
  {
    "id": "770501369",
    "name": "特別養護老人ホーム表郷「聖・オリーブの郷」",
    "kana": "トクベツヨウゴロウジンホームオモテゴウセイオリーブノサト",
    "address": "福島県白河市表郷堀之内字堀ノ内1-1",
    "lat": 37.0688403,
    "lng": 140.3195399,
    "tel": "0248-33-1111",
    "url": "https://sosei.org",
    "pref": "福島県",
    "city": "白河市",
    "category": "tokuyou",
    "serviceType": "介護老人福祉施設",
    "capacity": null,
    "openDays": [],
    "openDaysNote": ""
  },
  {
    "id": "772900320",
    "name": "特別養護老人ホーム藤井ハイムはなわ",
    "kana": "トクベツヨウゴロウジンホームフジイハイムハナワ",
    "address": "福島県東白川郡塙町大字伊香字中妻２４１番地１",
    "lat": 36.9401307,
    "lng": 140.4012272,
    "tel": "0247-44-0052",
    "url": "http://fujii-hospital.com",
    "pref": "福島県",
    "city": "塙町",
    "category": "tokuyou",
    "serviceType": "介護老人福祉施設",
    "capacity": 0,
    "openDays": [],
    "openDaysNote": ""
  },
  {
    "id": "773300124",
    "name": "特別養護老人ホームいいたてホーム",
    "kana": "トクベツヨウゴロウジンホームイイタテホーム",
    "address": "福島県相馬郡飯舘村伊丹沢字伊丹沢571",
    "lat": 37.678121,
    "lng": 140.7347142,
    "tel": "0244-42-1700",
    "url": "http://www.iitate-home.jp",
    "pref": "福島県",
    "city": "飯舘村",
    "category": "tokuyou",
    "serviceType": "介護老人福祉施設",
    "capacity": 0,
    "openDays": [],
    "openDaysNote": ""
  },
  {
    "id": "773200902",
    "name": "特別養護老人ホーム桜の園",
    "kana": "トクベツヨウゴロウジンホームサクラノソノ",
    "address": "福島県双葉郡富岡町大字本岡字王塚36",
    "lat": 37.3542677,
    "lng": 140.9958243,
    "tel": "0240-23-7839",
    "url": "https://www.koubikai.jp/introduction.html",
    "pref": "福島県",
    "city": "富岡町",
    "category": "tokuyou",
    "serviceType": "介護老人福祉施設",
    "capacity": 48,
    "openDays": [],
    "openDaysNote": ""
  },
  {
    "id": "770101756",
    "name": "すこやかの里特別養護老人ホーム",
    "kana": "スコヤカノサト　トクベツヨウゴロウジンホーム",
    "address": "福島県福島市沖高字中島１４番地の１",
    "lat": 37.8004678196766,
    "lng": 140.471263198148,
    "tel": "024-552-1377",
    "url": "http:www.sukoyakanosato.jp/",
    "pref": "福島県",
    "city": "福島市",
    "category": "tokuyou",
    "serviceType": "介護老人福祉施設",
    "capacity": 0,
    "openDays": [],
    "openDaysNote": ""
  },
  {
    "id": "770100469",
    "name": "ハッピー愛ランド",
    "kana": "ハッピーアイランド",
    "address": "福島県福島市南矢野目字才ノ後6－2",
    "lat": 37.788631,
    "lng": 140.4723302,
    "tel": "024-552-2466",
    "url": "http://www.happyisland.org",
    "pref": "福島県",
    "city": "福島市",
    "category": "tokuyou",
    "serviceType": "介護老人福祉施設",
    "capacity": 0,
    "openDays": [],
    "openDaysNote": ""
  },
  {
    "id": "770102747",
    "name": "まちなか宝生園",
    "kana": "マチナカホウショウエン",
    "address": "福島県福島市本町4番23号",
    "lat": 37.7523705,
    "lng": 140.465096,
    "tel": "024-521-1122",
    "url": "http://www.tahokai.jp",
    "pref": "福島県",
    "city": "福島市",
    "category": "tokuyou",
    "serviceType": "介護老人福祉施設",
    "capacity": 64,
    "openDays": [],
    "openDaysNote": ""
  },
  {
    "id": "770106193",
    "name": "特別養護老人ホーム　あお鳩の杜　福島北矢野目",
    "kana": "トクベツヨウゴロウジンホーム　アオバトノモリ　フクシマキタヤノメ",
    "address": "福島県福島市北矢野目字西田7-1",
    "lat": 37.7922589,
    "lng": 140.4664116,
    "tel": "024-573-6811",
    "url": "https://poppo-kai.or.jp",
    "pref": "福島県",
    "city": "福島市",
    "category": "tokuyou",
    "serviceType": "介護老人福祉施設",
    "capacity": 80,
    "openDays": [],
    "openDaysNote": ""
  },
  {
    "id": "770101608",
    "name": "特別養護老人ホーム　アリヴァーレ宝生園",
    "kana": "トクベツヨウゴロウジンホームアリウ゛ァーレホウショウエン",
    "address": "福島県福島市上名倉玉ノ木１９－４",
    "lat": 37.7248411,
    "lng": 140.3723209,
    "tel": "024-594-0061",
    "url": "http://www.tahokai.jp",
    "pref": "福島県",
    "city": "福島市",
    "category": "tokuyou",
    "serviceType": "介護老人福祉施設",
    "capacity": 0,
    "openDays": [],
    "openDaysNote": ""
  },
  {
    "id": "770105609",
    "name": "特別養護老人ホーム　いずみの郷",
    "kana": "トクベツヨウゴロウジンホーム　イズミノサト",
    "address": "福島県福島市泉字弐斗蒔17-1特別養護老人ホームいずみの郷 特別養護老人ホームいずみの郷",
    "lat": 37.774681,
    "lng": 140.4518303,
    "tel": "024-573-7555",
    "url": "http://www.nagomi-w.or.jp",
    "pref": "福島県",
    "city": "福島市",
    "category": "tokuyou",
    "serviceType": "介護老人福祉施設",
    "capacity": null,
    "openDays": [],
    "openDaysNote": ""
  },
  {
    "id": "770103687",
    "name": "特別養護老人ホーム　なごみの郷",
    "kana": "トクベツヨウゴロウジンホーム　ナゴミノサト",
    "address": "福島県福島市太平寺字町ノ内３０",
    "lat": 37.7322811,
    "lng": 140.4579945,
    "tel": "024-573-6161",
    "url": "http://www.nagomi-w.or.jp",
    "pref": "福島県",
    "city": "福島市",
    "category": "tokuyou",
    "serviceType": "介護老人福祉施設",
    "capacity": 0,
    "openDays": [],
    "openDaysNote": ""
  },
  {
    "id": "770104917",
    "name": "特別養護老人ホーム　ハッピー愛ランドおおもり",
    "kana": "トクベツヨウゴロウジンホーム　ハッピーアイランドオオモリ",
    "address": "福島県福島市大森字下原田45番1",
    "lat": 37.7254886089675,
    "lng": 140.444540365082,
    "tel": "024-563-3666",
    "url": "http://ｗｗｗ.happyisland.org",
    "pref": "福島県",
    "city": "福島市",
    "category": "tokuyou",
    "serviceType": "介護老人福祉施設",
    "capacity": null,
    "openDays": [],
    "openDaysNote": ""
  },
  {
    "id": "770102069",
    "name": "特別養護老人ホーム　はなしのぶ",
    "kana": "トクベツヨウゴロウジンホーム　ハナシノブ",
    "address": "福島県福島市平石字堰ノ上３番地",
    "lat": 37.7140081,
    "lng": 140.4467549,
    "tel": "024-544-0711",
    "url": "https://watari-fukushikai.jp/",
    "pref": "福島県",
    "city": "福島市",
    "category": "tokuyou",
    "serviceType": "介護老人福祉施設",
    "capacity": 0,
    "openDays": [],
    "openDaysNote": ""
  },
  {
    "id": "770101111",
    "name": "特別養護老人ホーム　ひまわり苑",
    "kana": "トクベツヨウゴロウジンホーム　ヒマワリエン",
    "address": "福島県福島市田沢字入２０番地",
    "lat": 37.7014405,
    "lng": 140.4912738,
    "tel": "024-547-2220",
    "url": "http://www.seijukai.org/",
    "pref": "福島県",
    "city": "福島市",
    "category": "tokuyou",
    "serviceType": "介護老人福祉施設",
    "capacity": 0,
    "openDays": [],
    "openDaysNote": ""
  },
  {
    "id": "770102697",
    "name": "特別養護老人ホーム　みず和の郷",
    "kana": "トクベツヨゴロウジンホーム　ミズワノサト",
    "address": "福島県福島市松川町水原字神明山25－2",
    "lat": 37.6620379,
    "lng": 140.4355746,
    "tel": "024-567-7700",
    "url": "http://www.ai-ai.or.jp/mizuwa/",
    "pref": "福島県",
    "city": "福島市",
    "category": "tokuyou",
    "serviceType": "介護老人福祉施設",
    "capacity": 70,
    "openDays": [],
    "openDaysNote": ""
  },
  {
    "id": "770101087",
    "name": "特別養護老人ホーム　ロング・ライフ",
    "kana": "トクベツヨウゴロウジンホーム　ロング・ライフ",
    "address": "福島県福島市松川町字産子内１番地の１",
    "lat": 37.6672997,
    "lng": 140.4780434,
    "tel": "024-567-5800",
    "url": "http://www.life-time-fukushima.jp/",
    "pref": "福島県",
    "city": "福島市",
    "category": "tokuyou",
    "serviceType": "介護老人福祉施設",
    "capacity": 50,
    "openDays": [],
    "openDaysNote": ""
  },
  {
    "id": "770101061",
    "name": "特別養護老人ホーム　愛日荘園",
    "kana": "トクベツヨウゴロウジンホーム　アイニチソウエン",
    "address": "福島県福島市大波字熊野山１番地",
    "lat": 37.7520954779818,
    "lng": 140.531494932311,
    "tel": "024-588-1120",
    "url": "http://www.ainichisouen.net/",
    "pref": "福島県",
    "city": "福島市",
    "category": "tokuyou",
    "serviceType": "介護老人福祉施設",
    "capacity": null,
    "openDays": [],
    "openDaysNote": ""
  },
  {
    "id": "770102861",
    "name": "特別養護老人ホーム　信夫の里",
    "kana": "トクベツヨウゴロウジンホーム　シノブノサト",
    "address": "福島県福島市仁井田字下川原17番地",
    "lat": 37.7533837,
    "lng": 140.4380735,
    "tel": "024-546-2727",
    "url": "http://sinobunosato-welfare.jp/",
    "pref": "福島県",
    "city": "福島市",
    "category": "tokuyou",
    "serviceType": "介護老人福祉施設",
    "capacity": 0,
    "openDays": [],
    "openDaysNote": ""
  },
  {
    "id": "770101640",
    "name": "特別養護老人ホーム　生愛ガーデン",
    "kana": "トクベツヨウゴロウジンホーム　セイアイガーデン",
    "address": "福島県福島市大笹生字向平12番地",
    "lat": 37.7966947,
    "lng": 140.3923317,
    "tel": "024-555-5311",
    "url": "http://www.seiaikai.jp",
    "pref": "福島県",
    "city": "福島市",
    "category": "tokuyou",
    "serviceType": "介護老人福祉施設",
    "capacity": 0,
    "openDays": [],
    "openDaysNote": ""
  },
  {
    "id": "770101053",
    "name": "特別養護老人ホーム　陽光園",
    "kana": "トクベツヨウゴロウジンホーム　ヨウコウエン",
    "address": "福島県福島市南沢又字水門下160-3",
    "lat": 37.7826285346093,
    "lng": 140.411483874869,
    "tel": "024-591-4477",
    "url": "http://youkoukai.jp/",
    "pref": "福島県",
    "city": "福島市",
    "category": "tokuyou",
    "serviceType": "介護老人福祉施設",
    "capacity": 0,
    "openDays": [],
    "openDaysNote": ""
  },
  {
    "id": "770101103",
    "name": "特別養護老人ホーム「聖・輝きの郷」",
    "kana": "トクベツヨウゴロウジンホーム「セイ・カガヤキノサト」",
    "address": "福島県福島市山口字七口13-1",
    "lat": 37.7648788,
    "lng": 140.5124996,
    "tel": "024-525-5000",
    "url": "http://www.sosei.org",
    "pref": "福島県",
    "city": "福島市",
    "category": "tokuyou",
    "serviceType": "介護老人福祉施設",
    "capacity": 0,
    "openDays": [],
    "openDaysNote": ""
  },
  {
    "id": "770106078",
    "name": "特別養護老人ホーム「聖・星の郷」",
    "kana": "トクベツヨウゴロウジンホーム　セイ・ホシノサト",
    "address": "福島県福島市字四至田15-1",
    "lat": 37.76471,
    "lng": 140.5136805,
    "tel": "024-572-7600",
    "url": "http://sosei.org",
    "pref": "福島県",
    "city": "福島市",
    "category": "tokuyou",
    "serviceType": "介護老人福祉施設",
    "capacity": null,
    "openDays": [],
    "openDaysNote": ""
  },
  {
    "id": "770105245",
    "name": "特別養護老人ホームあづまの郷",
    "kana": "トクベツヨウゴロウジンホーム　アヅマノサト",
    "address": "福島県福島市上鳥渡字北河原2番地の1",
    "lat": 37.7326214,
    "lng": 140.4107915,
    "tel": "024-593-0303",
    "url": "http://sakura-fukushikai.hp.peraichi.com",
    "pref": "福島県",
    "city": "福島市",
    "category": "tokuyou",
    "serviceType": "介護老人福祉施設",
    "capacity": 80,
    "openDays": [],
    "openDaysNote": ""
  },
  {
    "id": "770101079",
    "name": "特別養護老人ホームさわやかアイリス",
    "kana": "トクベツヨウゴロウジンホームサワヤカアイリス",
    "address": "福島県福島市在庭坂字志津山６番地の１",
    "lat": 37.75974,
    "lng": 140.3665113,
    "tel": "024-591-2185",
    "url": "https://sawayaka-iris.jp/",
    "pref": "福島県",
    "city": "福島市",
    "category": "tokuyou",
    "serviceType": "介護老人福祉施設",
    "capacity": 0,
    "openDays": [],
    "openDaysNote": ""
  },
  {
    "id": "770105039",
    "name": "特別養護老人ホーム飯野ふるさと村",
    "kana": "トクベツヨウゴロウジンホームイイノフルサトムラ",
    "address": "福島県福島市飯野町大久保字古枝41番1",
    "lat": 37.6714667,
    "lng": 140.5368215,
    "tel": "024-572-7801",
    "url": "",
    "pref": "福島県",
    "city": "福島市",
    "category": "tokuyou",
    "serviceType": "介護老人福祉施設",
    "capacity": 50,
    "openDays": [],
    "openDaysNote": ""
  },
  {
    "id": "770101046",
    "name": "福島県飯坂ホーム",
    "kana": "フクシマケンイイザカホーム",
    "address": "福島県福島市飯坂町字上原２６－１",
    "lat": 37.8376905679747,
    "lng": 140.444808300545,
    "tel": "024-542-5124",
    "url": "http://www.fukushima-sj.jp/iizaka_home/index.html",
    "pref": "福島県",
    "city": "福島市",
    "category": "tokuyou",
    "serviceType": "介護老人福祉施設",
    "capacity": 100,
    "openDays": [],
    "openDaysNote": ""
  },
  {
    "id": "773000286",
    "name": "特別養護老人ホームよもぎ荘",
    "kana": "トクベツヨウゴロウジンホーム　ヨモギソウ",
    "address": "福島県石川郡平田村大字永田字広町３１番地",
    "lat": 37.2170275,
    "lng": 140.5699658,
    "tel": "0247-25-1411",
    "url": "http://ishikawafukushikai.jp/",
    "pref": "福島県",
    "city": "平田村",
    "category": "tokuyou",
    "serviceType": "介護老人福祉施設",
    "capacity": 50,
    "openDays": [],
    "openDaysNote": ""
  },
  {
    "id": "771400181",
    "name": "特別養護老人ホーム　カーサ・コリーナ",
    "kana": "トクベツヨウゴロウジンホーム　カーサ・コリーナ",
    "address": "福島県本宮市和田字戸ノ内158番地3",
    "lat": 37.5186829503584,
    "lng": 140.427105792065,
    "tel": "0243-24-5777",
    "url": "http://asaka.or.jp/fukusikai/",
    "pref": "福島県",
    "city": "本宮市",
    "category": "tokuyou",
    "serviceType": "介護老人福祉施設",
    "capacity": 40,
    "openDays": [],
    "openDaysNote": ""
  },
  {
    "id": "772100434",
    "name": "特別養護老人ホーム　ぼたん荘",
    "kana": "トクベツヨウゴロウジンホーム　ボタンソウ",
    "address": "福島県本宮市本宮字上千束3番地",
    "lat": 37.5181612,
    "lng": 140.3923822,
    "tel": "0243-63-2600",
    "url": "http://www.adachifukushi.jp/",
    "pref": "福島県",
    "city": "本宮市",
    "category": "tokuyou",
    "serviceType": "介護老人福祉施設",
    "capacity": 0,
    "openDays": [],
    "openDaysNote": ""
  },
  {
    "id": "772100483",
    "name": "特別養護老人ホームしらさわ有寿園",
    "kana": "トクベツヨウゴロウジンホーム　シラサワユウジュエン",
    "address": "福島県本宮市和田字戸ノ内158番地３",
    "lat": 37.5183206546549,
    "lng": 140.426769996181,
    "tel": "0243-64-2121",
    "url": "http://asaka.or.jp/fukusikai/",
    "pref": "福島県",
    "city": "本宮市",
    "category": "tokuyou",
    "serviceType": "介護老人福祉施設",
    "capacity": 60,
    "openDays": [],
    "openDaysNote": ""
  },
  {
    "id": "772900213",
    "name": "特別養護老人ホーム　ユーアイホーム",
    "kana": "トクベツヨウゴロウジンホーム　ユーアイホーム",
    "address": "福島県東白川郡矢祭町大字東舘字蔵屋敷122",
    "lat": 36.8704804,
    "lng": 140.4188725,
    "tel": "0247-46-3385",
    "url": "http://www.yu-ai.org/",
    "pref": "福島県",
    "city": "矢祭町",
    "category": "tokuyou",
    "serviceType": "介護老人福祉施設",
    "capacity": 86,
    "openDays": [],
    "openDaysNote": ""
  },
  {
    "id": "772900312",
    "name": "特別養護老人ホーム　藤井ハイム矢祭",
    "kana": "トクベツヨウゴロウジンホーム　フジイハイムヤマツリ",
    "address": "福島県東白川郡矢祭町大字東舘字柳町５２",
    "lat": 36.8746661,
    "lng": 140.420486,
    "tel": "０２４７－４６－２５１０",
    "url": "http://www.fujii-hospital.com/yamaturi2/ya2_index.html",
    "pref": "福島県",
    "city": "矢祭町",
    "category": "tokuyou",
    "serviceType": "介護老人福祉施設",
    "capacity": 0,
    "openDays": [],
    "openDaysNote": ""
  },
  {
    "id": "772801072",
    "name": "特別養護老人ホーム　エルピスやぶき",
    "kana": "トクベツヨウゴロウジンホーム　エルピスヤブキ",
    "address": "福島県西白河郡矢吹町一本木１４０番地１",
    "lat": 37.201611,
    "lng": 140.3417325,
    "tel": "0248-21-5552",
    "url": "http://tokushinkai.care/yabuki/",
    "pref": "福島県",
    "city": "矢吹町",
    "category": "tokuyou",
    "serviceType": "介護老人福祉施設",
    "capacity": 0,
    "openDays": [],
    "openDaysNote": ""
  },
  {
    "id": "772800058",
    "name": "特別養護老人ホーム寿光園",
    "kana": "トクベツヨウゴロウジンホーム　ジュコウエン",
    "address": "福島県西白河郡矢吹町滝八幡159番地2",
    "lat": 37.2143592,
    "lng": 140.3190374,
    "tel": "0248-44-4220",
    "url": "http://care-net.biz/07/jukouen/",
    "pref": "福島県",
    "city": "矢吹町",
    "category": "tokuyou",
    "serviceType": "介護老人福祉施設",
    "capacity": 0,
    "openDays": [],
    "openDaysNote": ""
  },
  {
    "id": "772600326",
    "name": "特別養護老人ホーム　福柳苑",
    "kana": "トクベツヨウゴロウジンホーム　フクリュウエン",
    "address": "福島県河沼郡柳津町大字飯谷字前林甲370",
    "lat": 37.5226339291392,
    "lng": 139.710687257672,
    "tel": "0241-41-1165",
    "url": "http://www.magokoro-egao-anshin.com/",
    "pref": "福島県",
    "city": "柳津町",
    "category": "tokuyou",
    "serviceType": "介護老人福祉施設",
    "capacity": 0,
    "openDays": [],
    "openDaysNote": ""
  }
]