[
  {
    "id": "572550424",
    "name": "特別養護老人ホーム　楽しいわが家",
    "kana": "トクベツヨウゴロウジンホーム　タノシイワガヤ",
    "address": "秋田県にかほ市平沢字宝田32",
    "lat": 39.2832571,
    "lng": 139.9622018,
    "tel": "0184-32-3711",
    "url": "",
    "pref": "秋田県",
    "city": "にかほ市",
    "category": "tokuyou",
    "serviceType": "介護老人福祉施設",
    "capacity": 0,
    "openDays": [],
    "openDaysNote": ""
  },
  {
    "id": "572550440",
    "name": "特別養護老人ホーム浩寿苑",
    "kana": "トクベツヨウゴロウジンホームコウジュエン",
    "address": "秋田県にかほ市前川字中ノ森24番地5",
    "lat": 39.2370357,
    "lng": 139.9146386,
    "tel": "0184-38-4150",
    "url": "",
    "pref": "秋田県",
    "city": "にかほ市",
    "category": "tokuyou",
    "serviceType": "介護老人福祉施設",
    "capacity": 0,
    "openDays": [],
    "openDaysNote": ""
  },
  {
    "id": "571351741",
    "name": "特別養護老人ホーム合歓",
    "kana": "トクベツヨウゴロウジンホームネブ",
    "address": "秋田県にかほ市象潟町字荒屋妻３５－１",
    "lat": 39.2043038770485,
    "lng": 139.904300791541,
    "tel": "0184-74-7220",
    "url": "http://kisakata-kenseikai.or.jp/",
    "pref": "秋田県",
    "city": "にかほ市",
    "category": "tokuyou",
    "serviceType": "介護老人福祉施設",
    "capacity": null,
    "openDays": [],
    "openDaysNote": ""
  },
  {
    "id": "572550432",
    "name": "特別養護老人ホーム蕉風苑",
    "kana": "トクベツヨウゴロウジンホームショウフウエン",
    "address": "秋田県にかほ市象潟町大砂川字下橋２０－３",
    "lat": 39.1606773,
    "lng": 139.9018255,
    "tel": "0184-32-7050",
    "url": "http://kisakata-kenseikai.or.jp/",
    "pref": "秋田県",
    "city": "にかほ市",
    "category": "tokuyou",
    "serviceType": "介護老人福祉施設",
    "capacity": 70,
    "openDays": [],
    "openDaysNote": ""
  },
  {
    "id": "571351303",
    "name": "特別養護老人ホーム陽光苑",
    "kana": "トクベツヨウゴロウジンホームヨウコウエン",
    "address": "秋田県にかほ市金浦字古賀の田31-2",
    "lat": 39.2569928588382,
    "lng": 139.925918750262,
    "tel": "0184-44-8850",
    "url": "",
    "pref": "秋田県",
    "city": "にかほ市",
    "category": "tokuyou",
    "serviceType": "介護老人福祉施設",
    "capacity": 50,
    "openDays": [],
    "openDaysNote": ""
  },
  {
    "id": "572350775",
    "name": "井川町特別養護老人ホーム　さくら苑",
    "kana": "イカワマチトクベツヨウゴロウジンホーム　サクラエン",
    "address": "秋田県南秋田郡井川町寺沢字綱木沢145番地５",
    "lat": 39.894236,
    "lng": 140.1206789,
    "tel": "018-855-6123",
    "url": "http://www.sakuraen-akita-ikawa.org/",
    "pref": "秋田県",
    "city": "井川町",
    "category": "tokuyou",
    "serviceType": "介護老人福祉施設",
    "capacity": 50,
    "openDays": [],
    "openDaysNote": ""
  },
  {
    "id": "572851178",
    "name": "特別養護老人ホームたかせ",
    "kana": "トクベツヨウゴロウジンホームタカセ",
    "address": "秋田県雄勝郡羽後町下仙道字風平９７－１",
    "lat": 39.168976,
    "lng": 140.3199869,
    "tel": "0183-58-7620",
    "url": "",
    "pref": "秋田県",
    "city": "羽後町",
    "category": "tokuyou",
    "serviceType": "介護老人福祉施設",
    "capacity": 0,
    "openDays": [],
    "openDaysNote": ""
  },
  {
    "id": "572850709",
    "name": "特別養護老人ホーム松喬苑",
    "kana": "トクベツヨウゴロウジンホームショウキョウエン",
    "address": "秋田県雄勝郡羽後町林崎字五林坂７",
    "lat": 39.2161486,
    "lng": 140.3939946,
    "tel": "0183-62-0115",
    "url": "",
    "pref": "秋田県",
    "city": "羽後町",
    "category": "tokuyou",
    "serviceType": "介護老人福祉施設",
    "capacity": 85,
    "openDays": [],
    "openDaysNote": ""
  },
  {
    "id": "570351403",
    "name": "横手市社会福祉協議会　特別養護老人ホーム憩寿園",
    "kana": "ヨコテシシャカイフクシキョウギカイ　トクベツヨウゴロウジンホームケイジュエン",
    "address": "秋田県横手市十文字町梨木字御休ノ上108番地",
    "lat": 39.2376341,
    "lng": 140.5237805,
    "tel": "0182-42-2510",
    "url": "",
    "pref": "秋田県",
    "city": "横手市",
    "category": "tokuyou",
    "serviceType": "介護老人福祉施設",
    "capacity": 0,
    "openDays": [],
    "openDaysNote": ""
  },
  {
    "id": "570351411",
    "name": "横手市社会福祉協議会特別養護老人ホーム平寿苑",
    "kana": "ヨコテシシャカイフクシキョウギカイトクベツヨウゴロウジンホームヘイジュエン",
    "address": "秋田県横手市平鹿町浅舞字館廻３５３番地",
    "lat": 39.2675016,
    "lng": 140.4838564,
    "tel": "0182-38-7011",
    "url": "",
    "pref": "秋田県",
    "city": "横手市",
    "category": "tokuyou",
    "serviceType": "介護老人福祉施設",
    "capacity": 0,
    "openDays": [],
    "openDaysNote": ""
  },
  {
    "id": "570351429",
    "name": "横手市社会福祉協議会特別養護老人ホーム雄水苑",
    "kana": "ヨコテシシャカイフクシキョウギカイトクベツヨウゴロウジンホームユウスイエン",
    "address": "秋田県横手市雄物川町今宿字末館５０番地",
    "lat": 39.2845012691021,
    "lng": 140.403671035582,
    "tel": "0182-22-4561",
    "url": "https://www.yokote-shakyo.jp/",
    "pref": "秋田県",
    "city": "横手市",
    "category": "tokuyou",
    "serviceType": "介護老人福祉施設",
    "capacity": 0,
    "openDays": [],
    "openDaysNote": ""
  },
  {
    "id": "570351114",
    "name": "横手市特別養護老人ホーム白寿園",
    "kana": "ヨコテシトクベツヨウゴロウジンホームハクジュエン",
    "address": "秋田県横手市大森町字菅生田245-27",
    "lat": 39.3495894,
    "lng": 140.4139122,
    "tel": "0182-26-3000",
    "url": "",
    "pref": "秋田県",
    "city": "横手市",
    "category": "tokuyou",
    "serviceType": "介護老人福祉施設",
    "capacity": 0,
    "openDays": [],
    "openDaysNote": ""
  },
  {
    "id": "570351452",
    "name": "社会福祉法人ファミリーケアサービス　横手市特別養護老人ホーム　シルバードームいきいきの郷",
    "kana": "シャカイフクシホウジンファミリーケアサービス　ヨコテシトクベツヨウゴロウジンホーム　シルバードームイキイキノサト",
    "address": "秋田県横手市増田町増田字七日町177",
    "lat": 39.2032353861311,
    "lng": 140.549203826984,
    "tel": "0182-45-4411",
    "url": "http://family-care-service.com/",
    "pref": "秋田県",
    "city": "横手市",
    "category": "tokuyou",
    "serviceType": "介護老人福祉施設",
    "capacity": 0,
    "openDays": [],
    "openDaysNote": ""
  },
  {
    "id": "570350611",
    "name": "社会福祉法人ファミリーケアサービス　特別養護老人ホームすこやか横手",
    "kana": "シャカイフクシホウジンファミリーケアサービス　トクベツヨウゴロウジンホームスコヤカヨコテ",
    "address": "秋田県横手市横山町1番1号",
    "lat": 39.3043595,
    "lng": 140.5637137,
    "tel": "0182-33-7777",
    "url": "http://www.family-care-service.com/",
    "pref": "秋田県",
    "city": "横手市",
    "category": "tokuyou",
    "serviceType": "介護老人福祉施設",
    "capacity": 0,
    "openDays": [],
    "openDaysNote": ""
  },
  {
    "id": "570351395",
    "name": "社会福祉法人相和会　横手市特別養護老人ホーム鶴寿苑",
    "kana": "シャカイフクシホウジンソウワカイ　ヨコテシトクベツヨウゴロウジンホームカクジュエン",
    "address": "秋田県横手市山内土渕字鶴ヶ池３１－３",
    "lat": 39.2823234,
    "lng": 140.6215169,
    "tel": "０１８２－５３－２３００",
    "url": "http://sowakai.jp",
    "pref": "秋田県",
    "city": "横手市",
    "category": "tokuyou",
    "serviceType": "介護老人福祉施設",
    "capacity": 0,
    "openDays": [],
    "openDaysNote": ""
  },
  {
    "id": "570350868",
    "name": "特別養護老人ホーム　すこやか森の家",
    "kana": "トクベツヨウゴロウジンホーム　スコヤカモリノイエ",
    "address": "秋田県横手市婦気大堤字婦気前154-1",
    "lat": 39.3004775,
    "lng": 140.553466,
    "tel": "0182-35-6025",
    "url": "http://family-care-service.com/",
    "pref": "秋田県",
    "city": "横手市",
    "category": "tokuyou",
    "serviceType": "介護老人福祉施設",
    "capacity": 30,
    "openDays": [],
    "openDaysNote": ""
  },
  {
    "id": "570350850",
    "name": "特別養護老人ホーム　ビハーラ横手",
    "kana": "トクベツヨウゴロウジンホーム　ビハーラヨコテ",
    "address": "秋田県横手市上境字谷地中139番地",
    "lat": 39.342377,
    "lng": 140.5281348,
    "tel": "0182-35-6021",
    "url": "https://sowakai.jp",
    "pref": "秋田県",
    "city": "横手市",
    "category": "tokuyou",
    "serviceType": "介護老人福祉施設",
    "capacity": 0,
    "openDays": [],
    "openDaysNote": ""
  },
  {
    "id": "570351635",
    "name": "特別養護老人ホーム　ビハーラ赤坂",
    "kana": "トクベツヨウゴロウジンホーム　ビハーラアカサカ",
    "address": "秋田県横手市赤坂字仁坂105-2",
    "lat": 39.2985043034578,
    "lng": 140.533029409787,
    "tel": "0182-32-1171",
    "url": "http://sowakai.jp",
    "pref": "秋田県",
    "city": "横手市",
    "category": "tokuyou",
    "serviceType": "介護老人福祉施設",
    "capacity": 0,
    "openDays": [],
    "openDaysNote": ""
  },
  {
    "id": "570351445",
    "name": "特別養護老人ホームすこやか大雄",
    "kana": "トクベツヨウゴロウジンホームスコヤカタイユウ",
    "address": "秋田県横手市大雄字八柏谷地103番地1",
    "lat": 39.3233535020064,
    "lng": 140.494809454414,
    "tel": "0182-56-5055",
    "url": "http://family-care-service.com/",
    "pref": "秋田県",
    "city": "横手市",
    "category": "tokuyou",
    "serviceType": "介護老人福祉施設",
    "capacity": 0,
    "openDays": [],
    "openDaysNote": ""
  },
  {
    "id": "570351486",
    "name": "特別養護老人ホーム悠西苑",
    "kana": "トクベツヨウゴロウジンホームユウセイエン",
    "address": "秋田県横手市平鹿町浅舞字新堀146番地",
    "lat": 39.2691498576245,
    "lng": 140.483670498673,
    "tel": "0182-23-5252",
    "url": "http://hiraka-yushinkai.jp/",
    "pref": "秋田県",
    "city": "横手市",
    "category": "tokuyou",
    "serviceType": "介護老人福祉施設",
    "capacity": 40,
    "openDays": [],
    "openDaysNote": ""
  },
  {
    "id": "572350361",
    "name": "特別養護老人ホームわかば園",
    "kana": "トクベツヨウゴロウジンホームワカバエン",
    "address": "秋田県潟上市飯田川下虻川字上谷地１６８番地の１",
    "lat": 39.8693402,
    "lng": 140.0705929,
    "tel": "018-877-7077",
    "url": "http://www.wakabaen.or.jp/",
    "pref": "秋田県",
    "city": "潟上市",
    "category": "tokuyou",
    "serviceType": "介護老人福祉施設",
    "capacity": 80,
    "openDays": [],
    "openDaysNote": ""
  },
  {
    "id": "572350346",
    "name": "特別養護老人ホーム昭寿苑",
    "kana": "トクベツヨウゴロウジンホームショウジュエン",
    "address": "潟上市昭和大久保字北野海老漉沼端74-3",
    "lat": 39.845034,
    "lng": 140.0381287,
    "tel": "018-877-6411",
    "url": "http://syoujuen.jp/",
    "pref": "秋田県",
    "city": "潟上市",
    "category": "tokuyou",
    "serviceType": "介護老人福祉施設",
    "capacity": 0,
    "openDays": [],
    "openDaysNote": ""
  },
  {
    "id": "572350379",
    "name": "特別養護老人ホーム松恵苑",
    "kana": "トクベツヨウゴロウジンホームショウケイエン",
    "address": "秋田県潟上市天王字鶴沼台43-226",
    "lat": 39.8605515,
    "lng": 140.0178228,
    "tel": "018-878-5533",
    "url": "https://keijinkai.akita.jp/facilities/shokeien.html",
    "pref": "秋田県",
    "city": "潟上市",
    "category": "tokuyou",
    "serviceType": "介護老人福祉施設",
    "capacity": 0,
    "openDays": [],
    "openDaysNote": ""
  },
  {
    "id": "572350338",
    "name": "特別養護老人ホーム広青苑",
    "kana": "トクベツヨウゴロウジンホームコウセイエン",
    "address": "秋田県南秋田郡五城目町上樋口字樽沢１３７番地",
    "lat": 39.9316711,
    "lng": 140.117156,
    "tel": "018-852-5400",
    "url": "https://yamayurikai-akita.jp/",
    "pref": "秋田県",
    "city": "五城目町",
    "category": "tokuyou",
    "serviceType": "介護老人福祉施設",
    "capacity": 0,
    "openDays": [],
    "openDaysNote": ""
  },
  {
    "id": "572251254",
    "name": "特別養護老人ホーム　もりたけ",
    "kana": "トクベツヨウゴロウジンホーム　モリタケ",
    "address": "秋田県山本郡三種町森岳字木戸沢１００－４７",
    "lat": 40.0837976,
    "lng": 140.088824,
    "tel": "0185-72-4555",
    "url": "http://www.moritake-onsen.com/",
    "pref": "秋田県",
    "city": "三種町",
    "category": "tokuyou",
    "serviceType": "介護老人福祉施設",
    "capacity": 0,
    "openDays": [],
    "openDaysNote": ""
  },
  {
    "id": "572250165",
    "name": "特別養護老人ホーム希望苑",
    "kana": "トクベツヨウゴロウジンホームキボウエン",
    "address": "山本郡三種町鹿渡字町後２５１",
    "lat": 40.0402059183886,
    "lng": 140.075933535582,
    "tel": "0185-87-3130",
    "url": "http://kibo-en.or.jp/",
    "pref": "秋田県",
    "city": "三種町",
    "category": "tokuyou",
    "serviceType": "介護老人福祉施設",
    "capacity": 52,
    "openDays": [],
    "openDaysNote": ""
  },
  {
    "id": "572250181",
    "name": "特別養護老人ホーム美幸苑",
    "kana": "トクベツヨウゴロウジンホーム　ビコウエン",
    "address": "秋田県山本郡三種町鵜川字西本田８２番地1",
    "lat": 40.1005709,
    "lng": 140.0066338,
    "tel": "0185-72-1231",
    "url": "http://bikoen.net/",
    "pref": "秋田県",
    "city": "三種町",
    "category": "tokuyou",
    "serviceType": "介護老人福祉施設",
    "capacity": 0,
    "openDays": [],
    "openDaysNote": ""
  },
  {
    "id": "570951756",
    "name": "介護老人福祉施設鹿角微笑苑",
    "kana": "カイゴロウジンフクシシセツカヅノミショウエン",
    "address": "秋田県鹿角市十和田大湯字屋布ノ下タ２０番地",
    "lat": 40.2731784,
    "lng": 140.7911779,
    "tel": "0186-35-5556",
    "url": "https://jyukoukai.jp",
    "pref": "秋田県",
    "city": "鹿角市",
    "category": "tokuyou",
    "serviceType": "介護老人福祉施設",
    "capacity": 0,
    "openDays": [],
    "openDaysNote": ""
  },
  {
    "id": "570950014",
    "name": "特別養護老人ホーム　東恵園",
    "kana": "トクベツヨウゴロウジンホーム　トウケイエン",
    "address": "秋田県鹿角市花輪字古館4番地1",
    "lat": 40.1944974,
    "lng": 140.803783,
    "tel": "0186-23-7270",
    "url": "http://a-hanawafukushikai.jp/",
    "pref": "秋田県",
    "city": "鹿角市",
    "category": "tokuyou",
    "serviceType": "介護老人福祉施設",
    "capacity": 0,
    "openDays": [],
    "openDaysNote": ""
  },
  {
    "id": "570950022",
    "name": "特別養護老人ホームケアホームおおゆ",
    "kana": "トクベツヨウゴロウジンホームケアホームオオユ",
    "address": "秋田県鹿角市十和田大湯字湯の岱一丁目１番地",
    "lat": 40.2965997,
    "lng": 140.8347931,
    "tel": "0186-37-3500",
    "url": "http://aiseikai.or.jp",
    "pref": "秋田県",
    "city": "鹿角市",
    "category": "tokuyou",
    "serviceType": "介護老人福祉施設",
    "capacity": null,
    "openDays": [],
    "openDaysNote": ""
  },
  {
    "id": "570150300",
    "name": "介護老人福祉施設　新成園",
    "kana": "カイゴロウジンフクシシセツ　シンセイエン",
    "address": "秋田県秋田市浜田字元中村280－9",
    "lat": 39.6800283,
    "lng": 140.0694835,
    "tel": "018-828-0022",
    "url": "http://shinseikai-akita.com",
    "pref": "秋田県",
    "city": "秋田市",
    "category": "tokuyou",
    "serviceType": "介護老人福祉施設",
    "capacity": 0,
    "openDays": [],
    "openDaysNote": ""
  },
  {
    "id": "570150243",
    "name": "松寿会特別養護老人ホーム松涛園",
    "kana": "ショウジュカイトクベツヨウゴロウジンホームショウトウエン",
    "address": "秋田県秋田市浜田字陳ヶ原３５番地３１",
    "lat": 39.6504352,
    "lng": 140.0680431,
    "tel": "018-828-7856",
    "url": "http://shoujukai.jp/",
    "pref": "秋田県",
    "city": "秋田市",
    "category": "tokuyou",
    "serviceType": "介護老人福祉施設",
    "capacity": 0,
    "openDays": [],
    "openDaysNote": ""
  },
  {
    "id": "570151472",
    "name": "特別養護老人ホーム　ほどの",
    "kana": "トクベツヨウゴロウジンホーム　ホドノ",
    "address": "秋田市保戸野すわ町8番24号",
    "lat": 39.7246246,
    "lng": 140.1173348,
    "tel": "018-893-6341",
    "url": "http://www.kohoen.or.jp",
    "pref": "秋田県",
    "city": "秋田市",
    "category": "tokuyou",
    "serviceType": "介護老人福祉施設",
    "capacity": 0,
    "openDays": [],
    "openDaysNote": ""
  },
  {
    "id": "570150292",
    "name": "特別養護老人ホーム　やすらぎホームけやき",
    "kana": "トクベツヨウゴロウジンホーム　ヤスラギホームケヤキ",
    "address": "秋田県秋田市御所野下堤五丁目１番５号",
    "lat": 39.6668883,
    "lng": 140.1549339,
    "tel": "018-826-0651",
    "url": "http://akita-keyaki.or.jp/",
    "pref": "秋田県",
    "city": "秋田市",
    "category": "tokuyou",
    "serviceType": "介護老人福祉施設",
    "capacity": 106,
    "openDays": [],
    "openDaysNote": ""
  },
  {
    "id": "572450393",
    "name": "特別養護老人ホーム　河辺荘",
    "kana": "トクベツヨウゴロウジンホーム　カワベソウ",
    "address": "秋田県秋田市河辺大張野字水口沢２１６番地",
    "lat": 39.6593589,
    "lng": 140.2602944,
    "tel": "018-882-3516",
    "url": "http://www.kawabe-fukushikai.jp",
    "pref": "秋田県",
    "city": "秋田市",
    "category": "tokuyou",
    "serviceType": "介護老人福祉施設",
    "capacity": 50,
    "openDays": [],
    "openDaysNote": ""
  },
  {
    "id": "570150748",
    "name": "特別養護老人ホーム　魁聖園",
    "kana": "トクベツヨウゴロウジンホーム　カイセイエン",
    "address": "秋田県秋田市新藤田字治郎沢52-6",
    "lat": 39.7432258,
    "lng": 140.1380596,
    "tel": "018-884-1071",
    "url": "http://www.kaiseien.jp/",
    "pref": "秋田県",
    "city": "秋田市",
    "category": "tokuyou",
    "serviceType": "介護老人福祉施設",
    "capacity": 0,
    "openDays": [],
    "openDaysNote": ""
  },
  {
    "id": "570150268",
    "name": "特別養護老人ホーム　幸楽園",
    "kana": "トクベツヨウゴロウジンホーム　コウラクエン",
    "address": "秋田県秋田市上新城中字片野4番地",
    "lat": 39.7850176,
    "lng": 140.1070939,
    "tel": "018-870-2224",
    "url": "http://www.kourakukai.or.jp/r_home",
    "pref": "秋田県",
    "city": "秋田市",
    "category": "tokuyou",
    "serviceType": "介護老人福祉施設",
    "capacity": 0,
    "openDays": [],
    "openDaysNote": ""
  },
  {
    "id": "570150219",
    "name": "特別養護老人ホーム　高清水寿光園",
    "kana": "トクベツヨウゴロウジンホーム　タカシミズジュコウエン",
    "address": "秋田県秋田市寺内後城６－４１",
    "lat": 39.7401493,
    "lng": 140.0739906,
    "tel": "018-880-1050",
    "url": "http://www.akitaken-kouseikyoukai.jp/",
    "pref": "秋田県",
    "city": "秋田市",
    "category": "tokuyou",
    "serviceType": "介護老人福祉施設",
    "capacity": 0,
    "openDays": [],
    "openDaysNote": ""
  },
  {
    "id": "570151381",
    "name": "特別養護老人ホーム　中通",
    "kana": "トクベツヨウゴロウジンホーム　ナカドオリ",
    "address": "秋田県秋田市中通4丁目3番23号",
    "lat": 39.7146375103325,
    "lng": 140.1235465346,
    "tel": "018-874-8277",
    "url": "http://www.syahuku-hokuto.org/",
    "pref": "秋田県",
    "city": "秋田市",
    "category": "tokuyou",
    "serviceType": "介護老人福祉施設",
    "capacity": 0,
    "openDays": [],
    "openDaysNote": ""
  },
  {
    "id": "570150284",
    "name": "特別養護老人ホーム　南寿園",
    "kana": "トクベツヨウゴロウジンホーム　ナンジュエン",
    "address": "秋田市上北手猿田字後谷地108-3",
    "lat": 39.6814676,
    "lng": 140.169932,
    "tel": "018-829-0700",
    "url": "http://www.akitaken-kouseikyoukai.jp",
    "pref": "秋田県",
    "city": "秋田市",
    "category": "tokuyou",
    "serviceType": "介護老人福祉施設",
    "capacity": 0,
    "openDays": [],
    "openDaysNote": ""
  },
  {
    "id": "570151282",
    "name": "特別養護老人ホーム　八橋",
    "kana": "トクベツヨウゴロウジンホーム　ヤバセ",
    "address": "秋田県秋田市八橋イサノ1丁目2番4号",
    "lat": 39.730737,
    "lng": 140.0944199,
    "tel": "018-896-0377",
    "url": "http://www.oukyukai.net/",
    "pref": "秋田県",
    "city": "秋田市",
    "category": "tokuyou",
    "serviceType": "介護老人福祉施設",
    "capacity": 0,
    "openDays": [],
    "openDaysNote": ""
  },
  {
    "id": "570151530",
    "name": "特別養護老人ホームぬくもり山王",
    "kana": "トクベツヨウゴロウジンホームヌクモリサンノウ",
    "address": "秋田県秋田市川尻町字大川反２３３番地の５９",
    "lat": 39.7136827,
    "lng": 140.08558,
    "tel": "018-824-7000",
    "url": "http://www.akita-hamanasukai.jp/",
    "pref": "秋田県",
    "city": "秋田市",
    "category": "tokuyou",
    "serviceType": "介護老人福祉施設",
    "capacity": 0,
    "openDays": [],
    "openDaysNote": ""
  },
  {
    "id": "570151340",
    "name": "特別養護老人ホームひなた",
    "kana": "トクベツヨウゴロウジンホームヒナタ",
    "address": "秋田市土崎港西三丁目１１－５",
    "lat": 39.7569554,
    "lng": 140.0666071,
    "tel": "018-816-0377",
    "url": "http://www.shinshukai.site",
    "pref": "秋田県",
    "city": "秋田市",
    "category": "tokuyou",
    "serviceType": "介護老人福祉施設",
    "capacity": 60,
    "openDays": [],
    "openDaysNote": ""
  },
  {
    "id": "570150813",
    "name": "特別養護老人ホームリンデンバウムいずみ",
    "kana": "トクベツヨウゴロウジンホームリンデンバウムイズミ",
    "address": "秋田市泉菅野二丁目１７番１１号",
    "lat": 39.7360816,
    "lng": 140.115076,
    "tel": "018-896-5880",
    "url": "http://www.izumi.akita.jp/",
    "pref": "秋田県",
    "city": "秋田市",
    "category": "tokuyou",
    "serviceType": "介護老人福祉施設",
    "capacity": 65,
    "openDays": [],
    "openDaysNote": ""
  },
  {
    "id": "570151217",
    "name": "特別養護老人ホーム一つ森",
    "kana": "トクベツヨウゴロウジンホームヒトツモリ",
    "address": "秋田県秋田市上北手荒巻字鳥越229-1",
    "lat": 39.6940679,
    "lng": 140.1402788,
    "tel": "018-892-7776",
    "url": "http://aizenkai.com/",
    "pref": "秋田県",
    "city": "秋田市",
    "category": "tokuyou",
    "serviceType": "介護老人福祉施設",
    "capacity": 0,
    "openDays": [],
    "openDaysNote": ""
  },
  {
    "id": "572450872",
    "name": "特別養護老人ホーム花の家",
    "kana": "トクベツヨウゴロウジンホームハナノイエ",
    "address": "秋田県秋田市雄和石田字苗代沢１８",
    "lat": 39.5944448,
    "lng": 140.1729197,
    "tel": "018-886-2626",
    "url": "http://www.yuuwafukushikai.or.jp/",
    "pref": "秋田県",
    "city": "秋田市",
    "category": "tokuyou",
    "serviceType": "介護老人福祉施設",
    "capacity": 0,
    "openDays": [],
    "openDaysNote": ""
  },
  {
    "id": "570150227",
    "name": "特別養護老人ホーム海松園",
    "kana": "トクベツヨウゴロウジンホームカイショウエン",
    "address": "秋田市下新城中野字街道端西233-47",
    "lat": 39.7973705,
    "lng": 140.0554499,
    "tel": "018-873-3505",
    "url": "",
    "pref": "秋田県",
    "city": "秋田市",
    "category": "tokuyou",
    "serviceType": "介護老人福祉施設",
    "capacity": 0,
    "openDays": [],
    "openDaysNote": ""
  },
  {
    "id": "570151779",
    "name": "特別養護老人ホーム共生の里",
    "kana": "トクベツヨウゴロウジンホームキョウセイノサト",
    "address": "秋田県秋田市新屋町字関町後187番4",
    "lat": 39.6855552593879,
    "lng": 140.076541165468,
    "tel": "018-828-1125",
    "url": "https://akitafukushi.jp",
    "pref": "秋田県",
    "city": "秋田市",
    "category": "tokuyou",
    "serviceType": "介護老人福祉施設",
    "capacity": 80,
    "openDays": [],
    "openDaysNote": ""
  },
  {
    "id": "570150276",
    "name": "特別養護老人ホーム金寿園",
    "kana": "トクベツヨウゴロウジンホームキンジュエン",
    "address": "秋田県秋田市下新城笠岡字川向28番地",
    "lat": 39.79113,
    "lng": 140.0760769,
    "tel": "018-857-3130",
    "url": "http://www.kinjuen.net/",
    "pref": "秋田県",
    "city": "秋田市",
    "category": "tokuyou",
    "serviceType": "介護老人福祉施設",
    "capacity": 0,
    "openDays": [],
    "openDaysNote": ""
  },
  {
    "id": "570150250",
    "name": "特別養護老人ホーム光峰苑",
    "kana": "トクベツヨウゴロウジンホーム　コウホウエン",
    "address": "秋田市添川字矢坂16番地1",
    "lat": 39.7554273,
    "lng": 140.1507264,
    "tel": "018-868-1188",
    "url": "http://www.kohoen.or.jp",
    "pref": "秋田県",
    "city": "秋田市",
    "category": "tokuyou",
    "serviceType": "介護老人福祉施設",
    "capacity": 90,
    "openDays": [],
    "openDaysNote": ""
  },
  {
    "id": "570150235",
    "name": "特別養護老人ホーム大平荘",
    "kana": "トクベツヨウゴロウジンホームタイヘイソウ",
    "address": "秋田県秋田市太平八田字藤の崎231‐3",
    "lat": 39.7472239,
    "lng": 140.1807391,
    "tel": "018-838-2338",
    "url": "http://www.kouwakai-akita.org",
    "pref": "秋田県",
    "city": "秋田市",
    "category": "tokuyou",
    "serviceType": "介護老人福祉施設",
    "capacity": 100,
    "openDays": [],
    "openDaysNote": ""
  },
  {
    "id": "570151688",
    "name": "特別養護老人ホーム飯島",
    "kana": "トクベツヨウゴロウジンホームイイジマ",
    "address": "秋田県秋田市飯島道東一丁目５番１号",
    "lat": 39.7750978,
    "lng": 140.0663006,
    "tel": "018-853-8930",
    "url": "https://www.kyukokai.com/yuyukai/nh-iijima/",
    "pref": "秋田県",
    "city": "秋田市",
    "category": "tokuyou",
    "serviceType": "介護老人福祉施設",
    "capacity": 80,
    "openDays": [],
    "openDaysNote": ""
  },
  {
    "id": "572050888",
    "name": "特別養護老人ホーム　あかしあの郷",
    "kana": "トクベツヨウゴロウジンホーム　アカシアノサト",
    "address": "秋田県鹿角郡小坂町小坂鉱山字栗平25番地2",
    "lat": 40.3319058,
    "lng": 140.7398498,
    "tel": "0186-29-2900",
    "url": "http://www.kosaka-wel.or.jp/",
    "pref": "秋田県",
    "city": "小坂町",
    "category": "tokuyou",
    "serviceType": "介護老人福祉施設",
    "capacity": 0,
    "openDays": [],
    "openDaysNote": ""
  },
  {
    "id": "572050037",
    "name": "特別養護老人ホームサンホーム大石平",
    "kana": "トクベツヨウゴロウジンホームサンホームオオイシタイ",
    "address": "秋田県鹿角郡小坂町小坂字大石平30",
    "lat": 40.388977,
    "lng": 140.7488072,
    "tel": "0186-29-2300",
    "url": "http://www.kosaka-wel.or.jp/outline.html",
    "pref": "秋田県",
    "city": "小坂町",
    "category": "tokuyou",
    "serviceType": "介護老人福祉施設",
    "capacity": 0,
    "openDays": [],
    "openDaysNote": ""
  },
  {
    "id": "572151710",
    "name": "特別養護老人ホーム　　杉風荘",
    "kana": "トクベツヨウゴロウジンホーム　サンプウソウ",
    "address": "秋田県北秋田郡上小阿仁村沖田面字友倉９８番地",
    "lat": 40.0507226,
    "lng": 140.2833738,
    "tel": "0186-67-6303",
    "url": "https://www.kamikoani-shakyo.com/",
    "pref": "秋田県",
    "city": "上小阿仁村",
    "category": "tokuyou",
    "serviceType": "介護老人福祉施設",
    "capacity": 0,
    "openDays": [],
    "openDaysNote": ""
  },
  {
    "id": "571251339",
    "name": "特別養護老人ホームかくのだて桜苑",
    "kana": "トクベツヨウゴロウジンホームカクノダテサクラエン",
    "address": "秋田県仙北市角館町菅沢１５番地１",
    "lat": 39.5896336,
    "lng": 140.5763454,
    "tel": "0187-54-3055",
    "url": "",
    "pref": "秋田県",
    "city": "仙北市",
    "category": "tokuyou",
    "serviceType": "介護老人福祉施設",
    "capacity": 0,
    "openDays": [],
    "openDaysNote": ""
  },
  {
    "id": "571251263",
    "name": "特別養護老人ホームたざわこ清眺苑",
    "kana": "トクベツヨウゴロウジンホームタザワコセイチョウエン",
    "address": "秋田県仙北市田沢湖田沢字春山１４８番地２",
    "lat": 39.731393,
    "lng": 140.7003831,
    "tel": "0187-43-9001",
    "url": "http://www.kennanfukusi.jp/",
    "pref": "秋田県",
    "city": "仙北市",
    "category": "tokuyou",
    "serviceType": "介護老人福祉施設",
    "capacity": 70,
    "openDays": [],
    "openDaysNote": ""
  },
  {
    "id": "572650786",
    "name": "特別養護老人ホーム清流苑",
    "kana": "トクベツヨウゴロウジンホームセイリュウエン",
    "address": "秋田県仙北市西木町桧木内字松葉２３２番地",
    "lat": 39.743207,
    "lng": 140.5910882,
    "tel": "0187-58-2100",
    "url": "https://www.kennanfukusi.jp/seiryuen/#sisetu1",
    "pref": "秋田県",
    "city": "仙北市",
    "category": "tokuyou",
    "serviceType": "介護老人福祉施設",
    "capacity": 0,
    "openDays": [],
    "openDaysNote": ""
  },
  {
    "id": "572350833",
    "name": "大潟村　特別養護老人ホーム　ひだまり苑",
    "kana": "オオガタムラ　トクベツヨウゴロウジンホーム　ヒダマリエン",
    "address": "秋田県南秋田郡大潟村字西三丁目3番地",
    "lat": 40.0252685,
    "lng": 139.955833,
    "tel": "0185-22-4311",
    "url": "http://www.seiwakai-net.com/swc/ogata/",
    "pref": "秋田県",
    "city": "大潟村",
    "category": "tokuyou",
    "serviceType": "介護老人福祉施設",
    "capacity": 0,
    "openDays": [],
    "openDaysNote": ""
  },
  {
    "id": "570450049",
    "name": "指定介護老人福祉施設特別養護老人ホーム水交苑",
    "kana": "シテイカイゴロウジンフクシシセツトクベツヨウゴロウジンホームスイコウエン",
    "address": "秋田県大館市下綱22番地1",
    "lat": 40.2899493390459,
    "lng": 140.58901939489,
    "tel": "0186-48-3553",
    "url": "https://suikohen.jp/",
    "pref": "秋田県",
    "city": "大館市",
    "category": "tokuyou",
    "serviceType": "介護老人福祉施設",
    "capacity": 0,
    "openDays": [],
    "openDaysNote": ""
  },
  {
    "id": "570450064",
    "name": "大館市特別養護老人ホームつくし苑",
    "kana": "オオダテシ　トクベツヨウゴロウジンホーム　ツクシエン",
    "address": "大館市十二所字大水口4番地5",
    "lat": 40.2158174,
    "lng": 140.6582148,
    "tel": "0186-47-7200",
    "url": "http://www.odate-sfj.jp/",
    "pref": "秋田県",
    "city": "大館市",
    "category": "tokuyou",
    "serviceType": "介護老人福祉施設",
    "capacity": null,
    "openDays": [],
    "openDaysNote": ""
  },
  {
    "id": "570451245",
    "name": "特別養護老人ホーム　山館苑",
    "kana": "トクベツヨウゴロウジンホーム　ヤマダテエン",
    "address": "秋田県大館市山館字館ノ下12番地1特別養護老人ホーム　山館苑 特別養護老人ホーム　山館苑",
    "lat": 40.2371042,
    "lng": 140.5835737,
    "tel": "0186-42-7557",
    "url": "http://suikohen.jp/",
    "pref": "秋田県",
    "city": "大館市",
    "category": "tokuyou",
    "serviceType": "介護老人福祉施設",
    "capacity": 0,
    "openDays": [],
    "openDaysNote": ""
  },
  {
    "id": "570450056",
    "name": "特別養護老人ホーム　神山荘",
    "kana": "トクベツヨウゴロウジンホーム　カミヤマソウ",
    "address": "秋田県大館市花岡町字神山６番地２",
    "lat": 40.3230236,
    "lng": 140.555556,
    "tel": "0186-46-2210",
    "url": "http://www.fukuokf.jp/",
    "pref": "秋田県",
    "city": "大館市",
    "category": "tokuyou",
    "serviceType": "介護老人福祉施設",
    "capacity": 60,
    "openDays": [],
    "openDaysNote": ""
  },
  {
    "id": "570451690",
    "name": "特別養護老人ホーム　大館南ガーデン",
    "kana": "トクベツヨウゴロウジンホーム　オオダテミナミガーデン",
    "address": "秋田県大館市下川原字向野１７番地１",
    "lat": 40.2445086979625,
    "lng": 140.524332704091,
    "tel": "０１８６－５９－６１４１",
    "url": "http://www.fukuokf.jp",
    "pref": "秋田県",
    "city": "大館市",
    "category": "tokuyou",
    "serviceType": "介護老人福祉施設",
    "capacity": 80,
    "openDays": [],
    "openDaysNote": ""
  },
  {
    "id": "572150076",
    "name": "特別養護老人ホーム　長慶荘",
    "kana": "トクベツヨウゴロウジンホーム　チョウケイソウ",
    "address": "秋田県大館市岩瀬字羽貫谷地中島21番地９０",
    "lat": 40.2897905,
    "lng": 140.4514771,
    "tel": "0186-54-6225",
    "url": "http://www.fukuokf.jp",
    "pref": "秋田県",
    "city": "大館市",
    "category": "tokuyou",
    "serviceType": "介護老人福祉施設",
    "capacity": 60,
    "openDays": [],
    "openDaysNote": ""
  },
  {
    "id": "570451666",
    "name": "特別養護老人ホームはなみずき",
    "kana": "トクベツヨウゴロウジンホームハナミズキ",
    "address": "秋田県大館市比内町新館字真館21番地2",
    "lat": 40.2152478239442,
    "lng": 140.586350877246,
    "tel": "0186-59-4536",
    "url": "http://www.hinai-fukushikai.jp/",
    "pref": "秋田県",
    "city": "大館市",
    "category": "tokuyou",
    "serviceType": "介護老人福祉施設",
    "capacity": 0,
    "openDays": [],
    "openDaysNote": ""
  },
  {
    "id": "572150084",
    "name": "特別養護老人ホームやまぼうし",
    "kana": "トクベツヨウゴ　ロウジンホーム　ヤマボウシ",
    "address": "秋田県大館市比内町新館字真館21-6",
    "lat": 40.2157873198904,
    "lng": 140.586522509761,
    "tel": "0186-55-2020",
    "url": "http://www.hinai-fukushikai.jp/",
    "pref": "秋田県",
    "city": "大館市",
    "category": "tokuyou",
    "serviceType": "介護老人福祉施設",
    "capacity": 0,
    "openDays": [],
    "openDaysNote": ""
  },
  {
    "id": "570851063",
    "name": "特別養護老人ホーム　ありすの街",
    "kana": "トクベツヨウゴロウジンホーム　アリスノマチ",
    "address": "秋田県大仙市強首字上野台２３番地１８",
    "lat": 39.5350957638042,
    "lng": 140.317284914681,
    "tel": "0187-87-7310",
    "url": "http://hakuzinkai.jp/",
    "pref": "秋田県",
    "city": "大仙市",
    "category": "tokuyou",
    "serviceType": "介護老人福祉施設",
    "capacity": 0,
    "openDays": [],
    "openDaysNote": ""
  },
  {
    "id": "570851055",
    "name": "特別養護老人ホーム　ウォームハート",
    "kana": "トクベツヨウゴロウジンホーム　ウォームハート",
    "address": "秋田県大仙市刈和野字愛宕町17番地1",
    "lat": 39.5443045,
    "lng": 140.3701632,
    "tel": "0187-87-3003",
    "url": "http://warmheart-akita.com",
    "pref": "秋田県",
    "city": "大仙市",
    "category": "tokuyou",
    "serviceType": "介護老人福祉施設",
    "capacity": 60,
    "openDays": [],
    "openDaysNote": ""
  },
  {
    "id": "570851204",
    "name": "特別養護老人ホーム　テンダーヒルズ",
    "kana": "トクベツヨウゴロウジンホーム　テンダーヒルズ",
    "address": "秋田県大仙市内小友字明通３６番２",
    "lat": 39.4318009,
    "lng": 140.4382504,
    "tel": "0187-68-2611",
    "url": "http://aketorikai.com/",
    "pref": "秋田県",
    "city": "大仙市",
    "category": "tokuyou",
    "serviceType": "介護老人福祉施設",
    "capacity": 0,
    "openDays": [],
    "openDaysNote": ""
  },
  {
    "id": "570851238",
    "name": "特別養護老人ホーム　愛幸園",
    "kana": "トクベツヨウゴロウジンホーム　アイコウエン",
    "address": "秋田県大仙市神宮寺字本郷道南７８",
    "lat": 39.4915252,
    "lng": 140.417305,
    "tel": "0187-87-1080",
    "url": "https://www.daisen-f.com/shisetu/aikoen/index.php",
    "pref": "秋田県",
    "city": "大仙市",
    "category": "tokuyou",
    "serviceType": "介護老人福祉施設",
    "capacity": 0,
    "openDays": [],
    "openDaysNote": ""
  },
  {
    "id": "570851766",
    "name": "特別養護老人ホーム　花館",
    "kana": "トクベツヨウゴロウジンホーム　ハナダテ",
    "address": "秋田県大仙市花館柳町1-51特別養護老人ホーム　花館 特別養護老人ホーム　花館",
    "lat": 39.4743178,
    "lng": 140.4597479,
    "tel": "0187-73-8386",
    "url": "http://warmheart-akita.com",
    "pref": "秋田県",
    "city": "大仙市",
    "category": "tokuyou",
    "serviceType": "介護老人福祉施設",
    "capacity": 40,
    "openDays": [],
    "openDaysNote": ""
  },
  {
    "id": "570850503",
    "name": "特別養護老人ホームこもれびの杜",
    "kana": "トクベツヨウゴロウジンホームコモレビノモリ",
    "address": "秋田県大仙市飯田字堰東235番地",
    "lat": 39.440395,
    "lng": 140.485339,
    "tel": "0187-63-6646",
    "url": "https://www.kennanfukusi.jp/",
    "pref": "秋田県",
    "city": "大仙市",
    "category": "tokuyou",
    "serviceType": "介護老人福祉施設",
    "capacity": 0,
    "openDays": [],
    "openDaysNote": ""
  },
  {
    "id": "570850511",
    "name": "特別養護老人ホームサン・サルビア",
    "kana": "トクベツヨウゴロウジンホーム　サン・サルビア",
    "address": "秋田県大仙市角間川町字元道巻97番地",
    "lat": 39.398635,
    "lng": 140.4800186,
    "tel": "0187-86-5100",
    "url": "https://www.kennanfukusi.jp/",
    "pref": "秋田県",
    "city": "大仙市",
    "category": "tokuyou",
    "serviceType": "介護老人福祉施設",
    "capacity": 0,
    "openDays": [],
    "openDaysNote": ""
  },
  {
    "id": "570851279",
    "name": "特別養護老人ホーム桜寿苑",
    "kana": "トクベツヨウゴロウジンホームオウジュエン",
    "address": "秋田県大仙市北長野字野口前４7番地",
    "lat": 39.548494,
    "lng": 140.5471634,
    "tel": "0187-56-2001",
    "url": "https://daisen-f.com",
    "pref": "秋田県",
    "city": "大仙市",
    "category": "tokuyou",
    "serviceType": "介護老人福祉施設",
    "capacity": 0,
    "openDays": [],
    "openDaysNote": ""
  },
  {
    "id": "570851022",
    "name": "特別養護老人ホーム真森苑",
    "kana": "トクベツヨウゴロウジンホームマモリエン",
    "address": "秋田県大仙市板見内字一ツ森410",
    "lat": 39.473542,
    "lng": 140.5345431,
    "tel": "0187-69-3838",
    "url": "http://daisenmisato.net/",
    "pref": "秋田県",
    "city": "大仙市",
    "category": "tokuyou",
    "serviceType": "介護老人福祉施設",
    "capacity": 0,
    "openDays": [],
    "openDaysNote": ""
  },
  {
    "id": "570851006",
    "name": "特別養護老人ホーム真木苑",
    "kana": "トクベツヨウゴロウジンホームマギエン",
    "address": "秋田県大仙市太田町横沢字窪関南535－1",
    "lat": 39.5099222,
    "lng": 140.5987455,
    "tel": "0187-86-9060",
    "url": "http://www.daisenmisato.net",
    "pref": "秋田県",
    "city": "大仙市",
    "category": "tokuyou",
    "serviceType": "介護老人福祉施設",
    "capacity": 0,
    "openDays": [],
    "openDaysNote": ""
  },
  {
    "id": "570851329",
    "name": "特別養護老人ホーム福寿園",
    "kana": "トクベツヨウゴロウジンホームフクジュエン",
    "address": "秋田県大仙市南外字湯神台10",
    "lat": 39.4283625,
    "lng": 140.3598642,
    "tel": "0187-74-2121",
    "url": "http://www.daisen-f.com/",
    "pref": "秋田県",
    "city": "大仙市",
    "category": "tokuyou",
    "serviceType": "介護老人福祉施設",
    "capacity": null,
    "openDays": [],
    "openDaysNote": ""
  },
  {
    "id": "570851295",
    "name": "特別養護老人ホーム峰山荘",
    "kana": "トクベツヨウゴロウジンホームホウザンソウ",
    "address": "秋田県大仙市協和中淀川字中村１２－２",
    "lat": 39.5705515065441,
    "lng": 140.256292529193,
    "tel": "018-893-5520",
    "url": "http://www.daisen-f.com",
    "pref": "秋田県",
    "city": "大仙市",
    "category": "tokuyou",
    "serviceType": "介護老人福祉施設",
    "capacity": 0,
    "openDays": [],
    "openDaysNote": ""
  },
  {
    "id": "570651372",
    "name": "ユニット型特別養護老人ホーム　南海の丘",
    "kana": "ユニットガタトクベツヨウゴロウジンホーム　ナンカイノオカ",
    "address": "秋田県男鹿市船川港台島字中台１０８番地",
    "lat": 39.864949990822,
    "lng": 139.808036076057,
    "tel": "0185-27-8601",
    "url": "https://www.juen.or.jp",
    "pref": "秋田県",
    "city": "男鹿市",
    "category": "tokuyou",
    "serviceType": "介護老人福祉施設",
    "capacity": 30,
    "openDays": [],
    "openDaysNote": ""
  },
  {
    "id": "570650317",
    "name": "特別養護老人ホーム寿恵園",
    "kana": "トクベツヨウゴロウジンホームジュケイエン",
    "address": "秋田県男鹿市船川港比詰字神明堂脇７番地",
    "lat": 39.9095487,
    "lng": 139.8580084,
    "tel": "0185-24-5720",
    "url": "http://www.namahage.ne.jp/~kotobuki/",
    "pref": "秋田県",
    "city": "男鹿市",
    "category": "tokuyou",
    "serviceType": "介護老人福祉施設",
    "capacity": 80,
    "openDays": [],
    "openDaysNote": ""
  },
  {
    "id": "572350387",
    "name": "特別養護老人ホーム和幸苑",
    "kana": "トクベツヨウゴロウジンホームワコウエン",
    "address": "秋田県男鹿市角間崎字岡見沢86番地12",
    "lat": 39.9602281,
    "lng": 139.9049199,
    "tel": "0185-46-2011",
    "url": "http://wakami-sakurakai.jp/",
    "pref": "秋田県",
    "city": "男鹿市",
    "category": "tokuyou",
    "serviceType": "介護老人福祉施設",
    "capacity": 0,
    "openDays": [],
    "openDaysNote": ""
  },
  {
    "id": "572850717",
    "name": "東成瀬村　特別養護老人ホーム幸寿苑",
    "kana": "ヒガシナルセムラ　トクベツヨウゴロウジンホームコウジュエン",
    "address": "秋田県雄勝郡東成瀬村田子内字二階野206番地",
    "lat": 39.1808885,
    "lng": 140.6568917,
    "tel": "0182-47-3261",
    "url": "http://ogachi-nagomi.net/",
    "pref": "秋田県",
    "city": "東成瀬村",
    "category": "tokuyou",
    "serviceType": "介護老人福祉施設",
    "capacity": 50,
    "openDays": [],
    "openDaysNote": ""
  },
  {
    "id": "570751727",
    "name": "特別養護老人ホーム　いさみが岡",
    "kana": "トクベツヨウゴロウジンホーム　イサミガオカ",
    "address": "秋田県湯沢市山田字勇ヶ岡５０番地",
    "lat": 39.1449773,
    "lng": 140.4529388,
    "tel": "０１８３－７９－５７５３",
    "url": "http://ogachi-nagomi.net/",
    "pref": "秋田県",
    "city": "湯沢市",
    "category": "tokuyou",
    "serviceType": "介護老人福祉施設",
    "capacity": 0,
    "openDays": [],
    "openDaysNote": ""
  },
  {
    "id": "570751701",
    "name": "特別養護老人ホーム　サン・グリーンゆざわ",
    "kana": "トクベツヨウゴロウジンホーム　サン・グリーンユザワ",
    "address": "秋田県湯沢市裏門1丁目2番19号",
    "lat": 39.1641154,
    "lng": 140.5018096,
    "tel": "0183-72-6688",
    "url": "http://ogachi-nagomi.net/",
    "pref": "秋田県",
    "city": "湯沢市",
    "category": "tokuyou",
    "serviceType": "介護老人福祉施設",
    "capacity": 0,
    "openDays": [],
    "openDaysNote": ""
  },
  {
    "id": "572850899",
    "name": "特別養護老人ホーム　シャイントピアみなせ",
    "kana": "トクベツヨウゴロウジンホーム　シャイントピアミナセ",
    "address": "秋田県湯沢市皆瀬字小野１８８－１",
    "lat": 39.074401,
    "lng": 140.5895706,
    "tel": "0183-58-4004",
    "url": "http://www.shinetopia.com",
    "pref": "秋田県",
    "city": "湯沢市",
    "category": "tokuyou",
    "serviceType": "介護老人福祉施設",
    "capacity": 0,
    "openDays": [],
    "openDaysNote": ""
  },
  {
    "id": "570751362",
    "name": "特別養護老人ホーム健寿苑",
    "kana": "トクベツヨウゴロウジンホームケンジュエン",
    "address": "秋田県湯沢市駒形町字八面狐塚58番地",
    "lat": 39.1725096182427,
    "lng": 140.553732430463,
    "tel": "0183-42-4832",
    "url": "http://www.inakawa-fukushi.or.jp/",
    "pref": "秋田県",
    "city": "湯沢市",
    "category": "tokuyou",
    "serviceType": "介護老人福祉施設",
    "capacity": 0,
    "openDays": [],
    "openDaysNote": ""
  },
  {
    "id": "572850691",
    "name": "特別養護老人ホーム平成園",
    "kana": "トクベツヨウゴロウジンホームヘイセイエン",
    "address": "秋田県湯沢市小野字大沢田221番地",
    "lat": 39.0576759,
    "lng": 140.4592514,
    "tel": "0183-52-5210",
    "url": "http://ogachi-nagomi.net/",
    "pref": "秋田県",
    "city": "湯沢市",
    "category": "tokuyou",
    "serviceType": "介護老人福祉施設",
    "capacity": 0,
    "openDays": [],
    "openDaysNote": ""
  },
  {
    "id": "572250199",
    "name": "特別養護老人ホーム藤里",
    "kana": "トクベツヨウゴロウジンホームフジサト",
    "address": "秋田県山本郡藤里町矢坂字上野蟹子沢92番地",
    "lat": 40.2557565,
    "lng": 140.2525307,
    "tel": "0185-79-1200",
    "url": "http://www.shirakami.or.jp/~toku-fuji/",
    "pref": "秋田県",
    "city": "藤里町",
    "category": "tokuyou",
    "serviceType": "介護老人福祉施設",
    "capacity": 0,
    "openDays": [],
    "openDaysNote": ""
  },
  {
    "id": "570250159",
    "name": "特別養護老人ホーム　長寿園",
    "kana": "トクベツヨウゴロウジンホーム　チョウジュエン",
    "address": "秋田県能代市字腹鞁ノ沢１９番地１",
    "lat": 40.1778666,
    "lng": 140.0754013,
    "tel": "0185-58-3377",
    "url": "http://www.noshiroyamamotokouikiken.jp/",
    "pref": "秋田県",
    "city": "能代市",
    "category": "tokuyou",
    "serviceType": "介護老人福祉施設",
    "capacity": 60,
    "openDays": [],
    "openDaysNote": ""
  },
  {
    "id": "570226837",
    "name": "特別養護老人ホームさらさ能代",
    "kana": "トクベツヨウゴロウジンホームサラサノシロ",
    "address": "秋田県能代市元町14番126号",
    "lat": 40.2085539243224,
    "lng": 140.033705694582,
    "tel": "0185-74-6755",
    "url": "https://jawa-akita.com",
    "pref": "秋田県",
    "city": "能代市",
    "category": "tokuyou",
    "serviceType": "介護老人福祉施設",
    "capacity": 0,
    "openDays": [],
    "openDaysNote": ""
  },
  {
    "id": "572250173",
    "name": "特別養護老人ホームよねしろ",
    "kana": "トクベツヨウゴロウジンホームヨネシロ",
    "address": "秋田県能代市二ツ井町字下野家後１４５",
    "lat": 40.2095759,
    "lng": 140.2421727,
    "tel": "0185-73-6666",
    "url": "",
    "pref": "秋田県",
    "city": "能代市",
    "category": "tokuyou",
    "serviceType": "介護老人福祉施設",
    "capacity": 0,
    "openDays": [],
    "openDaysNote": ""
  },
  {
    "id": "572250736",
    "name": "特別養護老人ホーム海光苑",
    "kana": "トクベツヨウゴロウジンホームカイコウエン",
    "address": "秋田県山本郡八峰町八森字寺の後川向８番地１",
    "lat": 40.3396457,
    "lng": 140.0288143,
    "tel": "0185-70-4105",
    "url": "http://www.happoufukushikai.or.jp/",
    "pref": "秋田県",
    "city": "八峰町",
    "category": "tokuyou",
    "serviceType": "介護老人福祉施設",
    "capacity": 52,
    "openDays": [],
    "openDaysNote": ""
  },
  {
    "id": "572250207",
    "name": "特別養護老人ホーム松波苑",
    "kana": "トクベツヨウゴロウジンホームマツナミエン",
    "address": "秋田県山本郡八峰町峰浜水沢字下カッチキ台41番地14",
    "lat": 40.296651,
    "lng": 140.0291921,
    "tel": "0185-76-3980",
    "url": "",
    "pref": "秋田県",
    "city": "八峰町",
    "category": "tokuyou",
    "serviceType": "介護老人福祉施設",
    "capacity": 0,
    "openDays": [],
    "openDaysNote": ""
  },
  {
    "id": "572350353",
    "name": "特別養護老人ホーム　うたせ苑",
    "kana": "トクベツヨウゴロウジンホーム　ウタセエン",
    "address": "秋田県南秋田郡八郎潟町真坂字沢田122",
    "lat": 39.9673586,
    "lng": 140.0827053,
    "tel": "018-855-4110",
    "url": "http://www13.plala.or.jp/eijyuen/",
    "pref": "秋田県",
    "city": "八郎潟町",
    "category": "tokuyou",
    "serviceType": "介護老人福祉施設",
    "capacity": 50,
    "openDays": [],
    "openDaysNote": ""
  },
  {
    "id": "572650752",
    "name": "特別養護老人ホームロートピア仙南",
    "kana": "トクベツヨウゴロウジンホームロートピアセンナン",
    "address": "秋田県仙北郡美郷町金沢西根字上糠渕3-2",
    "lat": 39.3865933,
    "lng": 140.5284023,
    "tel": "0187-87-8010",
    "url": "http://www.rotopia.or.jp",
    "pref": "秋田県",
    "city": "美郷町",
    "category": "tokuyou",
    "serviceType": "介護老人福祉施設",
    "capacity": 0,
    "openDays": [],
    "openDaysNote": ""
  },
  {
    "id": "572650539",
    "name": "特別養護老人ホームロートピア緑泉",
    "kana": "トクベツヨウゴロウジンホームロートピアリョクセン",
    "address": "秋田県仙北郡美郷町六郷字作山１８７",
    "lat": 39.4154156,
    "lng": 140.5562235,
    "tel": "0187-84-3636",
    "url": "https://rotopia.or.jp",
    "pref": "秋田県",
    "city": "美郷町",
    "category": "tokuyou",
    "serviceType": "介護老人福祉施設",
    "capacity": 0,
    "openDays": [],
    "openDaysNote": ""
  },
  {
    "id": "572651040",
    "name": "特別養護老人ホーム真昼荘",
    "kana": "トクベツヨウゴロウジンホームマヒルソウ",
    "address": "秋田県仙北郡美郷町本堂城回字若林119",
    "lat": 39.472368,
    "lng": 140.5860398,
    "tel": "0187-85-2203",
    "url": "http://daisenmisato.net/",
    "pref": "秋田県",
    "city": "美郷町",
    "category": "tokuyou",
    "serviceType": "介護老人福祉施設",
    "capacity": 0,
    "openDays": [],
    "openDaysNote": ""
  },
  {
    "id": "572150126",
    "name": "特別養護老人ホーム　永楽苑",
    "kana": "トクベツヨウゴロウジンホーム　エイラクエン",
    "address": "秋田県北秋田市上杉字金沢１６２－１",
    "lat": 40.1857117,
    "lng": 140.351487,
    "tel": "0186-78-5151",
    "url": "http://aki-minsei.jp/",
    "pref": "秋田県",
    "city": "北秋田市",
    "category": "tokuyou",
    "serviceType": "介護老人福祉施設",
    "capacity": 0,
    "openDays": [],
    "openDaysNote": ""
  },
  {
    "id": "571151182",
    "name": "特別養護老人ホーム　森泉荘",
    "kana": "トクベツヨウゴロウジンホーム　シンセンソウ",
    "address": "秋田県北秋田市阿仁前田字下前田家ノ下モ28番地",
    "lat": 40.0699626,
    "lng": 140.4141287,
    "tel": "0186-75-3204",
    "url": "http://www.akita-kouraku.jp",
    "pref": "秋田県",
    "city": "北秋田市",
    "category": "tokuyou",
    "serviceType": "介護老人福祉施設",
    "capacity": 0,
    "openDays": [],
    "openDaysNote": ""
  },
  {
    "id": "571151737",
    "name": "特別養護老人ホームつむぎの彩",
    "kana": "トクベツヨウゴロウジンホームツムギノイロ",
    "address": "秋田県北秋田市材木町２番１３号",
    "lat": 40.2323369,
    "lng": 140.3733883,
    "tel": "0186-84-8311",
    "url": "http://kitaakita-shakyo.or.jp/",
    "pref": "秋田県",
    "city": "北秋田市",
    "category": "tokuyou",
    "serviceType": "介護老人福祉施設",
    "capacity": 0,
    "openDays": [],
    "openDaysNote": ""
  },
  {
    "id": "572150118",
    "name": "特別養護老人ホーム山水荘",
    "kana": "トクベツヨウゴロウジンホームサンスイソウ",
    "address": "秋田県北秋田市阿仁水無字宮後４番地",
    "lat": 40.0024348,
    "lng": 140.4048074,
    "tel": "0186-82-3020",
    "url": "https://ani-fukushi.jp",
    "pref": "秋田県",
    "city": "北秋田市",
    "category": "tokuyou",
    "serviceType": "介護老人福祉施設",
    "capacity": 0,
    "openDays": [],
    "openDaysNote": ""
  },
  {
    "id": "572150092",
    "name": "特別養護老人ホーム青山荘",
    "kana": "トクベツヨウゴロウジンホームセイザンソウ",
    "address": "秋田県北秋田市綴子字釜堤脇10番地",
    "lat": 40.2506073,
    "lng": 140.3773841,
    "tel": "0186-62-2747",
    "url": "http://www.kumagera.ne.jp/szs",
    "pref": "秋田県",
    "city": "北秋田市",
    "category": "tokuyou",
    "serviceType": "介護老人福祉施設",
    "capacity": null,
    "openDays": [],
    "openDaysNote": ""
  },
  {
    "id": "570551192",
    "name": "指定介護老人福祉施設　ふるさと学び舎",
    "kana": "シテイカイゴロウジンフクシシセツ　フルサトマナビヤ",
    "address": "秋田県由利本荘市土谷字新谷地157番地",
    "lat": 39.3918877,
    "lng": 140.0694002,
    "tel": "0184-28-1165",
    "url": "http://www.chuoukai.com/",
    "pref": "秋田県",
    "city": "由利本荘市",
    "category": "tokuyou",
    "serviceType": "介護老人福祉施設",
    "capacity": 0,
    "openDays": [],
    "openDaysNote": ""
  },
  {
    "id": "570551317",
    "name": "指定介護老人福祉施設　花ごよみ",
    "kana": "シテイカイゴロウジンフクシシセツ　ハナゴヨミ",
    "address": "由利本荘市土谷字新谷地160番地",
    "lat": 39.391921,
    "lng": 140.0701224,
    "tel": "0184-28-1187",
    "url": "http://www.chuoukai.com/05-hanagoyomi.html",
    "pref": "秋田県",
    "city": "由利本荘市",
    "category": "tokuyou",
    "serviceType": "介護老人福祉施設",
    "capacity": 100,
    "openDays": [],
    "openDaysNote": ""
  },
  {
    "id": "570551549",
    "name": "特別養護老人ホーム　あじさいの郷",
    "kana": "トクベツヨウゴロウジンホーム　アジサイノサト",
    "address": "由利本荘市水林４５９番地２",
    "lat": 39.3768843051666,
    "lng": 140.023774809448,
    "tel": "0184-23-5353",
    "url": "http://honjo-kyujyukai.net/",
    "pref": "秋田県",
    "city": "由利本荘市",
    "category": "tokuyou",
    "serviceType": "介護老人福祉施設",
    "capacity": null,
    "openDays": [],
    "openDaysNote": ""
  },
  {
    "id": "572550499",
    "name": "特別養護老人ホーム　おおうち",
    "kana": "トクベツヨウゴロウジンホーム　　オオウチ",
    "address": "秋田県由利本荘市岩谷町字ハケノ下80番地2",
    "lat": 39.4480723,
    "lng": 140.1066182,
    "tel": "0184-62-1133",
    "url": "http://www.oouchi-satsukikai.or.jp",
    "pref": "秋田県",
    "city": "由利本荘市",
    "category": "tokuyou",
    "serviceType": "介護老人福祉施設",
    "capacity": 0,
    "openDays": [],
    "openDaysNote": ""
  },
  {
    "id": "572550762",
    "name": "特別養護老人ホーム　ふるさと矢島",
    "kana": "トクベツヨウゴロウジンホーム　フルサトヤシマ",
    "address": "秋田県由利本荘市矢島町城内字八森下481番地1",
    "lat": 39.2344906,
    "lng": 140.1364144,
    "tel": "0184-27-5711",
    "url": "http://www.chuoukai.com/03-furusatoyashima.html",
    "pref": "秋田県",
    "city": "由利本荘市",
    "category": "tokuyou",
    "serviceType": "介護老人福祉施設",
    "capacity": 0,
    "openDays": [],
    "openDaysNote": ""
  },
  {
    "id": "570551648",
    "name": "特別養護老人ホーム　夢うさぎ",
    "kana": "トクベツヨウゴロウジンホーム　ユメウサギ",
    "address": "秋田県由利本荘市石脇字石ノ花194番地230",
    "lat": 39.3957700724965,
    "lng": 140.032428772243,
    "tel": "0184-74-3675",
    "url": "http://yumeusagi.info/",
    "pref": "秋田県",
    "city": "由利本荘市",
    "category": "tokuyou",
    "serviceType": "介護老人福祉施設",
    "capacity": 50,
    "openDays": [],
    "openDaysNote": ""
  },
  {
    "id": "570550418",
    "name": "特別養護老人ホーム　萬生苑",
    "kana": "トクベツヨウゴロウジンホーム　マンセイエン",
    "address": "秋田県由利本荘市薬師堂字一番堰38番地1",
    "lat": 39.3728511178723,
    "lng": 140.058740319928,
    "tel": "0184-24-3711",
    "url": "http://www.chuoukai.com",
    "pref": "秋田県",
    "city": "由利本荘市",
    "category": "tokuyou",
    "serviceType": "介護老人福祉施設",
    "capacity": 0,
    "openDays": [],
    "openDaysNote": ""
  },
  {
    "id": "572550846",
    "name": "特別養護老人ホームひまわり",
    "kana": "トクベツヨウゴロウジンホームヒマワリ",
    "address": "秋田県由利本荘市西目町海士剥字御月森1番地",
    "lat": 39.3687379,
    "lng": 140.0198736,
    "tel": "0184-32-1133",
    "url": "http://www.honjo-kyujyukai.net/",
    "pref": "秋田県",
    "city": "由利本荘市",
    "category": "tokuyou",
    "serviceType": "介護老人福祉施設",
    "capacity": 50,
    "openDays": [],
    "openDaysNote": ""
  },
  {
    "id": "572550457",
    "name": "特別養護老人ホーム広洋苑",
    "kana": "トクベツヨウゴロウジンホーム　コウヨウエン",
    "address": "秋田県由利本荘市岩城内道川字上山１３４番地",
    "lat": 39.5461311,
    "lng": 140.0572381,
    "tel": "0184-73-2245",
    "url": "http://amasagi.or.jp/kouyouen/",
    "pref": "秋田県",
    "city": "由利本荘市",
    "category": "tokuyou",
    "serviceType": "介護老人福祉施設",
    "capacity": 0,
    "openDays": [],
    "openDaysNote": ""
  },
  {
    "id": "570550954",
    "name": "特別養護老人ホーム東光苑",
    "kana": "トクベツヨウゴロウジンホーム　トウコウエン",
    "address": "秋田県由利本荘市東由利蔵字蔵83番地特別養護老人ホーム　東光苑 特別養護老人ホーム　東光苑",
    "lat": 39.3155666890332,
    "lng": 140.263561739148,
    "tel": "0184-69-2251",
    "url": "http://akita-yuai.com/",
    "pref": "秋田県",
    "city": "由利本荘市",
    "category": "tokuyou",
    "serviceType": "介護老人福祉施設",
    "capacity": 0,
    "openDays": [],
    "openDaysNote": ""
  },
  {
    "id": "570551168",
    "name": "特別養護老人ホーム白百合苑",
    "kana": "トクベツヨウゴロウジンホームシラユリエン",
    "address": "秋田県由利本荘市前郷字家岸79番地17",
    "lat": 39.3140376,
    "lng": 140.1113739,
    "tel": "0184-53-2100",
    "url": "http://www.yurihonjo-shakyo.jp",
    "pref": "秋田県",
    "city": "由利本荘市",
    "category": "tokuyou",
    "serviceType": "介護老人福祉施設",
    "capacity": 0,
    "openDays": [],
    "openDaysNote": ""
  },
  {
    "id": "570550939",
    "name": "由利本荘市特別養護老人ホーム「鳥寿苑」",
    "kana": "ユリホンジョウシトクベツヨウゴロウジンホームチョウジュエン",
    "address": "秋田県由利本荘市鳥海町伏見字久保77番地由利本荘市特別養護老人ホーム「鳥寿苑」 由利本荘市特別養護老人ホーム「鳥寿苑」",
    "lat": 39.1896897,
    "lng": 140.1890495,
    "tel": "0184-57-2500",
    "url": "http://www.akita-yuai.com/",
    "pref": "秋田県",
    "city": "由利本荘市",
    "category": "tokuyou",
    "serviceType": "介護老人福祉施設",
    "capacity": 0,
    "openDays": [],
    "openDaysNote": ""
  }
]