[
  {
    "id": "1072900077",
    "name": "かさかけの里",
    "kana": "カサカケノサト",
    "address": "群馬県みどり市笠懸町鹿３０３３－１",
    "lat": 36.3975461,
    "lng": 139.2773378,
    "tel": "0277-40-5167",
    "url": "https://kasakakenosato.com/",
    "pref": "群馬県",
    "city": "みどり市",
    "category": "tokuyou",
    "serviceType": "介護老人福祉施設",
    "capacity": 50,
    "openDays": [],
    "openDaysNote": ""
  },
  {
    "id": "1071200701",
    "name": "特別養護老人ホームかさかけの里(ユニット型）",
    "kana": "トクベツヨウゴロウジンホームカサカケノサト（ユニットガタ）",
    "address": "群馬県みどり市笠懸町鹿３０３３番１かさかけの里(ユニット棟） かさかけの里(ユニット棟）",
    "lat": 36.3974813311269,
    "lng": 139.277927885983,
    "tel": "0277-40-5167",
    "url": "https://kasakakenosato.com",
    "pref": "群馬県",
    "city": "みどり市",
    "category": "tokuyou",
    "serviceType": "介護老人福祉施設",
    "capacity": 60,
    "openDays": [],
    "openDaysNote": ""
  },
  {
    "id": "1073000075",
    "name": "特別養護老人ホームサニーヒル",
    "kana": "トクベツヨウゴロウジンホームサニーヒル",
    "address": "群馬県みどり市大間々町桐原１４７６－１",
    "lat": 36.437633,
    "lng": 139.2636824,
    "tel": "0277-72-1811",
    "url": "https://www.sunny-hill.jp/",
    "pref": "群馬県",
    "city": "みどり市",
    "category": "tokuyou",
    "serviceType": "介護老人福祉施設",
    "capacity": 55,
    "openDays": [],
    "openDaysNote": ""
  },
  {
    "id": "1071200727",
    "name": "特別養護老人ホームながめの郷（ユニット型養護老人ホームながめの郷）",
    "kana": "トクベツヨウゴロウジンホームナガメノサト（ユニットガタヨウゴロウジンホームナガメノサト）",
    "address": "群馬県みどり市大間々町桐原1511番地1",
    "lat": 36.4458362637268,
    "lng": 139.274624689194,
    "tel": "0277-32-5069",
    "url": "http://www.lacour.or.jp//",
    "pref": "群馬県",
    "city": "みどり市",
    "category": "tokuyou",
    "serviceType": "介護老人福祉施設",
    "capacity": 40,
    "openDays": [],
    "openDaysNote": ""
  },
  {
    "id": "1071200719",
    "name": "特別養護老人ホームながめの郷（従来型養護老人ホームながめの郷）",
    "kana": "トクベツヨウゴロウジンホームナガメノサト（ジュライガタヨウゴロウジンホームナガメノサト）",
    "address": "群馬県みどり市大間々町桐原1511番地1",
    "lat": 36.4459009922815,
    "lng": 139.274672968956,
    "tel": "0277-32-5069",
    "url": "http://www.lacour.or.jp/",
    "pref": "群馬県",
    "city": "みどり市",
    "category": "tokuyou",
    "serviceType": "介護老人福祉施設",
    "capacity": 30,
    "openDays": [],
    "openDaysNote": ""
  },
  {
    "id": "1072700055",
    "name": "やまぶきの苑",
    "kana": "ヤマブキノソノ",
    "address": "群馬県利根郡みなかみ町石倉１５０－１",
    "lat": 36.7410602,
    "lng": 138.9828608,
    "tel": "0278-72-8585",
    "url": "https://www.yamabuki-s.com/",
    "pref": "群馬県",
    "city": "みなかみ町",
    "category": "tokuyou",
    "serviceType": "介護老人福祉施設",
    "capacity": 0,
    "openDays": [],
    "openDaysNote": ""
  },
  {
    "id": "1072700428",
    "name": "特別養護老人ホーム　西嶺の郷",
    "kana": "トクベツヨウゴロウジンホーム　ニシミネノサト",
    "address": "群馬県利根郡みなかみ町西峰須川４７２－１",
    "lat": 36.6870728,
    "lng": 138.9097807,
    "tel": "0278-64-2430",
    "url": "http://www.nishimine.jp/",
    "pref": "群馬県",
    "city": "みなかみ町",
    "category": "tokuyou",
    "serviceType": "介護老人福祉施設",
    "capacity": 0,
    "openDays": [],
    "openDaysNote": ""
  },
  {
    "id": "1071100240",
    "name": "特別養護老人ホーム　なゆた",
    "kana": "トクベツヨウゴロウジンホーム　ナユタ",
    "address": "群馬県安中市鷺宮北上平３８９",
    "lat": 36.3053529,
    "lng": 138.8940216,
    "tel": "027-382-8366",
    "url": "http://www.tokuyo-nayuta.jp/",
    "pref": "群馬県",
    "city": "安中市",
    "category": "tokuyou",
    "serviceType": "介護老人福祉施設",
    "capacity": 0,
    "openDays": [],
    "openDaysNote": ""
  },
  {
    "id": "1071100786",
    "name": "特別養護老人ホーム「楽聚」",
    "kana": "トクベツヨウゴロウジンホーム「ラクジュ」",
    "address": "群馬県安中市松井田町二軒在家776番地1",
    "lat": 36.3023476657887,
    "lng": 138.81465492068,
    "tel": "027-387-0910",
    "url": "https://www.rakujyu.doctor-hp.com",
    "pref": "群馬県",
    "city": "安中市",
    "category": "tokuyou",
    "serviceType": "介護老人福祉施設",
    "capacity": 50,
    "openDays": [],
    "openDaysNote": ""
  },
  {
    "id": "1071100794",
    "name": "特別養護老人ホーム「楽聚」ユニット型",
    "kana": "トクベツヨウゴロウジンホーム「ラクジュ」ユニットガタ",
    "address": "安中市松井田町二軒在家776番地1",
    "lat": 36.3023597160301,
    "lng": 138.814652379762,
    "tel": "027-387-0910",
    "url": "https://www.rakujyu.doctor-hp.com",
    "pref": "群馬県",
    "city": "安中市",
    "category": "tokuyou",
    "serviceType": "介護老人福祉施設",
    "capacity": 30,
    "openDays": [],
    "openDaysNote": ""
  },
  {
    "id": "1072500067",
    "name": "特別養護老人ホームうすいの里",
    "kana": "トクベツヨウゴロウジンホームウスイノサト",
    "address": "群馬県安中市松井田町高梨子1491-1",
    "lat": 36.3298489,
    "lng": 138.795482,
    "tel": "027-393-5858",
    "url": "https://www.usuinosato.com",
    "pref": "群馬県",
    "city": "安中市",
    "category": "tokuyou",
    "serviceType": "介護老人福祉施設",
    "capacity": 0,
    "openDays": [],
    "openDaysNote": ""
  },
  {
    "id": "1071100596",
    "name": "特別養護老人ホームセラヴィ",
    "kana": "トクベツヨウゴロウジンホーム　セラウ゛ィ",
    "address": "群馬県安中市板鼻一丁目5番15号",
    "lat": 36.3368708,
    "lng": 138.9307052,
    "tel": "027-381-0326",
    "url": "http://www.greentope.jp/index.php",
    "pref": "群馬県",
    "city": "安中市",
    "category": "tokuyou",
    "serviceType": "介護老人福祉施設",
    "capacity": 50,
    "openDays": [],
    "openDaysNote": ""
  },
  {
    "id": "1071100075",
    "name": "特別養護老人ホームのどの荘",
    "kana": "トクベツヨウゴロウジンホームノドノソウ",
    "address": "群馬県安中市野殿1599-1",
    "lat": 36.3190715,
    "lng": 138.9147659,
    "tel": "027-382-7060",
    "url": "http://annakafukushikai.or.jp/",
    "pref": "群馬県",
    "city": "安中市",
    "category": "tokuyou",
    "serviceType": "介護老人福祉施設",
    "capacity": 78,
    "openDays": [],
    "openDaysNote": ""
  },
  {
    "id": "1071100042",
    "name": "特別養護老人ホーム明嶺荘",
    "kana": "トクベツヨウゴロウジンホームアカネソウ",
    "address": "群馬県安中市嶺２４０",
    "lat": 36.3188618,
    "lng": 138.849919,
    "tel": "027-385-0003",
    "url": "https://annakafukushikai.or.jp/",
    "pref": "群馬県",
    "city": "安中市",
    "category": "tokuyou",
    "serviceType": "介護老人福祉施設",
    "capacity": 82,
    "openDays": [],
    "openDaysNote": ""
  },
  {
    "id": "1070400039",
    "name": "ことぶきの郷",
    "kana": "コトブキノサト",
    "address": "群馬県伊勢崎市波志江町１９７６番地５",
    "lat": 36.3473486,
    "lng": 139.187667,
    "tel": "0270-70-4165",
    "url": "https://www.kotobukinosato.or.jp",
    "pref": "群馬県",
    "city": "伊勢崎市",
    "category": "tokuyou",
    "serviceType": "介護老人福祉施設",
    "capacity": 50,
    "openDays": [],
    "openDaysNote": ""
  },
  {
    "id": "1070400054",
    "name": "ゆたか",
    "kana": "ユタカ",
    "address": "群馬県伊勢崎市馬見塚町1196-1",
    "lat": 36.2727246,
    "lng": 139.2119922,
    "tel": "0270-20-3311",
    "url": "http://www.yutaka-isesaki.com",
    "pref": "群馬県",
    "city": "伊勢崎市",
    "category": "tokuyou",
    "serviceType": "介護老人福祉施設",
    "capacity": 0,
    "openDays": [],
    "openDaysNote": ""
  },
  {
    "id": "1070401672",
    "name": "特別養護老人ホーム　あいの詩",
    "kana": "トクベツヨウゴロウジンホーム　アイノウタ",
    "address": "群馬県伊勢崎市田中島町1169",
    "lat": 36.3214704,
    "lng": 139.1610186,
    "tel": "0270-24-3888",
    "url": "http://www.i-miyagokai.jp/",
    "pref": "群馬県",
    "city": "伊勢崎市",
    "category": "tokuyou",
    "serviceType": "介護老人福祉施設",
    "capacity": 0,
    "openDays": [],
    "openDaysNote": ""
  },
  {
    "id": "1070402050",
    "name": "特別養護老人ホーム　ぶどうの郷",
    "kana": "トクベツヨウゴロウジンホーム　ブドウノサト",
    "address": "群馬県伊勢崎市宮古町１２８－１",
    "lat": 36.3238729,
    "lng": 139.1524889,
    "tel": "0270-20-1313",
    "url": "https://magatamakai.jp/",
    "pref": "群馬県",
    "city": "伊勢崎市",
    "category": "tokuyou",
    "serviceType": "介護老人福祉施設",
    "capacity": 78,
    "openDays": [],
    "openDaysNote": ""
  },
  {
    "id": "1070400583",
    "name": "特別養護老人ホーム　ローズヒル",
    "kana": "トクベツヨウゴロウジンホーム　ローズヒル",
    "address": "群馬県伊勢崎市北千木町１１２６",
    "lat": 36.306779,
    "lng": 139.2197422,
    "tel": "0270-40-5106",
    "url": "http://oogida.jimdo.com",
    "pref": "群馬県",
    "city": "伊勢崎市",
    "category": "tokuyou",
    "serviceType": "介護老人福祉施設",
    "capacity": 0,
    "openDays": [],
    "openDaysNote": ""
  },
  {
    "id": "1070403371",
    "name": "特別養護老人ホーム　ローズヒル（ユニット型）",
    "kana": "トクベツヨウゴロウジンホーム　ローズヒル（ユニットガタ）",
    "address": "群馬県伊勢崎市北千木町1126",
    "lat": 36.306779,
    "lng": 139.2197422,
    "tel": "0270-40-5106",
    "url": "oogida.jimdo.com",
    "pref": "群馬県",
    "city": "伊勢崎市",
    "category": "tokuyou",
    "serviceType": "介護老人福祉施設",
    "capacity": 0,
    "openDays": [],
    "openDaysNote": ""
  },
  {
    "id": "1070400211",
    "name": "特別養護老人ホーム　ロータスヴィレッジ",
    "kana": "トクベツヨウゴロウジンホーム　ロータスウ゛ィレッジ",
    "address": "群馬県伊勢崎市豊城町2780-2",
    "lat": 36.3400197,
    "lng": 139.2222936,
    "tel": "0270-26-9101",
    "url": "http:www2.wind.ne.jp/LOTUS/",
    "pref": "群馬県",
    "city": "伊勢崎市",
    "category": "tokuyou",
    "serviceType": "介護老人福祉施設",
    "capacity": 0,
    "openDays": [],
    "openDaysNote": ""
  },
  {
    "id": "1070403413",
    "name": "特別養護老人ホーム　小泉の杜",
    "kana": "トクベツヨウゴロウジンホーム　コイズミノモリ",
    "address": "群馬県伊勢崎市田部井町3丁目2017-2",
    "lat": 36.3503724,
    "lng": 139.2611092,
    "tel": "0270-62-2000",
    "url": "http://forest-koizumi.jp/",
    "pref": "群馬県",
    "city": "伊勢崎市",
    "category": "tokuyou",
    "serviceType": "介護老人福祉施設",
    "capacity": 90,
    "openDays": [],
    "openDaysNote": ""
  },
  {
    "id": "1070404148",
    "name": "特別養護老人ホームGreen　Rose",
    "kana": "トクベツヨウゴロウジンホーム　グリーン　ローズ",
    "address": "群馬県伊勢崎市安堀町789-3",
    "lat": 36.3364412,
    "lng": 139.1833178,
    "tel": "0270-21-1108",
    "url": "https://hitoha.space/",
    "pref": "群馬県",
    "city": "伊勢崎市",
    "category": "tokuyou",
    "serviceType": "介護老人福祉施設",
    "capacity": 80,
    "openDays": [],
    "openDaysNote": ""
  },
  {
    "id": "1072800509",
    "name": "特別養護老人ホームアミーキ",
    "kana": "トクベツヨウゴロウジンホームアミーキ",
    "address": "群馬県伊勢崎市磯町435番地1",
    "lat": 36.399534,
    "lng": 139.2307364,
    "tel": "0270-20-2121",
    "url": "http://www.e-amici.org/",
    "pref": "群馬県",
    "city": "伊勢崎市",
    "category": "tokuyou",
    "serviceType": "介護老人福祉施設",
    "capacity": null,
    "openDays": [],
    "openDaysNote": ""
  },
  {
    "id": "1072800095",
    "name": "特別養護老人ホームいこいの里",
    "kana": "トクベツヨウゴロウジンホームイコイノサト",
    "address": "群馬県伊勢崎市境上武士1017-1特別養護老人ホームいこいの里 特別養護老人ホームいこいの里",
    "lat": 36.2780298,
    "lng": 139.2296178,
    "tel": "0270-74-4976",
    "url": "https://g-sakaifukushikai.jp/",
    "pref": "群馬県",
    "city": "伊勢崎市",
    "category": "tokuyou",
    "serviceType": "介護老人福祉施設",
    "capacity": 0,
    "openDays": [],
    "openDaysNote": ""
  },
  {
    "id": "1072800020",
    "name": "特別養護老人ホームサルビア荘",
    "kana": "トクベツヨウゴロウジンホーム　サルビアソウ",
    "address": "群馬県伊勢崎市国定町二丁目２３４５番地",
    "lat": 36.3630455,
    "lng": 139.2353695,
    "tel": "0270-20-8090",
    "url": "http://www.sarubiasou.com",
    "pref": "群馬県",
    "city": "伊勢崎市",
    "category": "tokuyou",
    "serviceType": "介護老人福祉施設",
    "capacity": 0,
    "openDays": [],
    "openDaysNote": ""
  },
  {
    "id": "1070402456",
    "name": "特別養護老人ホームなごみ",
    "kana": "トクベツヨウゴロウジンホームナゴミ",
    "address": "群馬県伊勢崎市本関町1216-1",
    "lat": 36.3494269,
    "lng": 139.2117335,
    "tel": "0270-75-6680",
    "url": "http://uekikai.fc2.web.com",
    "pref": "群馬県",
    "city": "伊勢崎市",
    "category": "tokuyou",
    "serviceType": "介護老人福祉施設",
    "capacity": 50,
    "openDays": [],
    "openDaysNote": ""
  },
  {
    "id": "1070400047",
    "name": "特別養護老人ホーム愛老園",
    "kana": "トクベツヨウゴロウジンホームアイロウエン",
    "address": "群馬県伊勢崎市太田町686",
    "lat": 36.3257425,
    "lng": 139.1876429,
    "tel": "0270-23-2277",
    "url": "https://www.airo-en.com/",
    "pref": "群馬県",
    "city": "伊勢崎市",
    "category": "tokuyou",
    "serviceType": "介護老人福祉施設",
    "capacity": 0,
    "openDays": [],
    "openDaysNote": ""
  },
  {
    "id": "1070402027",
    "name": "特別養護老人ホーム銀杏の丘",
    "kana": "トクベツヨウゴロウジンホームイチョウノオカ",
    "address": "群馬県伊勢崎市境上渕名1010-1",
    "lat": 36.3102908,
    "lng": 139.2544555,
    "tel": "0270-76-7564",
    "url": "https://g-sakaifukushikai.jp/",
    "pref": "群馬県",
    "city": "伊勢崎市",
    "category": "tokuyou",
    "serviceType": "介護老人福祉施設",
    "capacity": 30,
    "openDays": [],
    "openDaysNote": ""
  },
  {
    "id": "1070400203",
    "name": "特別養護老人ホーム恵風荘",
    "kana": "トクベツヨウゴロウジンホームケイフウソウ",
    "address": "群馬県伊勢崎市韮塚町８４８－１",
    "lat": 36.3060165,
    "lng": 139.1669577,
    "tel": "0270-21-3311",
    "url": "https://magatamakai.jp/",
    "pref": "群馬県",
    "city": "伊勢崎市",
    "category": "tokuyou",
    "serviceType": "介護老人福祉施設",
    "capacity": 0,
    "openDays": [],
    "openDaysNote": ""
  },
  {
    "id": "1072400201",
    "name": "特別養護老人ホーム　かぶらの里",
    "kana": "トクベツヨウゴロウジンホーム　カブラノサト",
    "address": "群馬県甘楽郡下仁田町大字下小坂８７７",
    "lat": 36.2286876,
    "lng": 138.7593404,
    "tel": "0274-82-0222",
    "url": "http://care-net.biz/10/kabura/",
    "pref": "群馬県",
    "city": "下仁田町",
    "category": "tokuyou",
    "serviceType": "介護老人福祉施設",
    "capacity": 40,
    "openDays": [],
    "openDaysNote": ""
  },
  {
    "id": "1072400532",
    "name": "特別養護老人ホーム　かぶらの里（ユニット型）",
    "kana": "トクベツヨウゴロウジンホーム　カブラノサト　（ユニットガタ）",
    "address": "群馬県甘楽郡下仁田町大字下小坂８７７",
    "lat": 36.2286876,
    "lng": 138.7593404,
    "tel": "0274-82-0222",
    "url": "http://care-net.biz/10/kabura/",
    "pref": "群馬県",
    "city": "下仁田町",
    "category": "tokuyou",
    "serviceType": "介護老人福祉施設",
    "capacity": 30,
    "openDays": [],
    "openDaysNote": ""
  },
  {
    "id": "1072400441",
    "name": "特別養護老人ホーム　シルク・おばた",
    "kana": "トクベツヨウゴロウジンホーム　シルク・オバタ",
    "address": "群馬県甘楽郡甘楽町大字善慶寺１３５１",
    "lat": 36.2380016,
    "lng": 138.9080202,
    "tel": "0274-67-5533",
    "url": "https://www.kanrakai-silk.or.jp",
    "pref": "群馬県",
    "city": "甘楽町",
    "category": "tokuyou",
    "serviceType": "介護老人福祉施設",
    "capacity": 0,
    "openDays": [],
    "openDaysNote": ""
  },
  {
    "id": "1072400110",
    "name": "特別養護老人ホーム・シルク",
    "kana": "トクベツヨウゴロウジンホームシルク",
    "address": "群馬県甘楽郡甘楽町大字白倉１３８４－１",
    "lat": 36.2426761,
    "lng": 138.9345507,
    "tel": "0274-60-4151",
    "url": "https://www.kanrakai-silk.or.jp",
    "pref": "群馬県",
    "city": "甘楽町",
    "category": "tokuyou",
    "serviceType": "介護老人福祉施設",
    "capacity": 60,
    "openDays": [],
    "openDaysNote": ""
  },
  {
    "id": "1070700016",
    "name": "クローバー荘",
    "kana": "クローバーソウ",
    "address": "群馬県館林市田谷町１１８７－１",
    "lat": 36.2579698,
    "lng": 139.5785899,
    "tel": "0276-77-2230",
    "url": "http://www.popurakai.or.jp",
    "pref": "群馬県",
    "city": "館林市",
    "category": "tokuyou",
    "serviceType": "介護老人福祉施設",
    "capacity": 0,
    "openDays": [],
    "openDaysNote": ""
  },
  {
    "id": "1070700123",
    "name": "特別養護老人ホーム　ヴィレージュ",
    "kana": "トクベツヨウゴロウジンホーム　ウ゛ィレージュ",
    "address": "群馬県館林市岡野町３３５－１",
    "lat": 36.2616008,
    "lng": 139.520583,
    "tel": "0276-71-1682",
    "url": "http://houjyukai1999.jp/",
    "pref": "群馬県",
    "city": "館林市",
    "category": "tokuyou",
    "serviceType": "介護老人福祉施設",
    "capacity": 50,
    "openDays": [],
    "openDaysNote": ""
  },
  {
    "id": "1070700602",
    "name": "特別養護老人ホーム　赤羽の郷",
    "kana": "トクベツヨウゴロウジンホーム　アカバネノサト",
    "address": "群馬県館林市赤生田町648-9",
    "lat": 36.2274145,
    "lng": 139.5648392,
    "tel": "0276-71-0710",
    "url": "http://zenjinkai.com",
    "pref": "群馬県",
    "city": "館林市",
    "category": "tokuyou",
    "serviceType": "介護老人福祉施設",
    "capacity": 0,
    "openDays": [],
    "openDaysNote": ""
  },
  {
    "id": "1070701287",
    "name": "特別養護老人ホームあざみ荘",
    "kana": "トクベツヨウゴロウジンホームアザミソウ",
    "address": "群馬県館林市大手町8-25",
    "lat": 36.2478867,
    "lng": 139.5374876,
    "tel": "0276-76-2131",
    "url": "www.popurakai.or.jp",
    "pref": "群馬県",
    "city": "館林市",
    "category": "tokuyou",
    "serviceType": "介護老人福祉施設",
    "capacity": 46,
    "openDays": [],
    "openDaysNote": ""
  },
  {
    "id": "1070701436",
    "name": "特別養護老人ホームふれあす",
    "kana": "トクベツヨウゴロウジンホームフレアス",
    "address": "群馬県館林市苗木町2578番地の3",
    "lat": 36.2311661923177,
    "lng": 139.496865441525,
    "tel": "0276-49-6393",
    "url": "https://matsubanokai.jp",
    "pref": "群馬県",
    "city": "館林市",
    "category": "tokuyou",
    "serviceType": "介護老人福祉施設",
    "capacity": 50,
    "openDays": [],
    "openDaysNote": ""
  },
  {
    "id": "1070700032",
    "name": "特別養護老人ホーム東毛光生園",
    "kana": "トクベツヨウゴロウジンホームトウモウコウセイエン",
    "address": "群馬県館林市成島町862-4",
    "lat": 36.2478574,
    "lng": 139.4988604,
    "tel": "0276-75-1260",
    "url": "http://www.tomokoseien.com",
    "pref": "群馬県",
    "city": "館林市",
    "category": "tokuyou",
    "serviceType": "介護老人福祉施設",
    "capacity": 0,
    "openDays": [],
    "openDaysNote": ""
  },
  {
    "id": "1072200106",
    "name": "特別養護老人ホーム　船尾苑",
    "kana": "トクベツヨウゴロウジンホーム　フナオエン",
    "address": "群馬県北群馬郡吉岡町大字上野田２１３５番地",
    "lat": 36.4687384,
    "lng": 138.9669053,
    "tel": "0279-54-2700",
    "url": "http://www.kuneikai.com",
    "pref": "群馬県",
    "city": "吉岡町",
    "category": "tokuyou",
    "serviceType": "介護老人福祉施設",
    "capacity": 0,
    "openDays": [],
    "openDaysNote": ""
  },
  {
    "id": "1072800160",
    "name": "特別養護老人ホーム　にしきの園",
    "kana": "トクベツヨウゴロウジンホーム　ニシキノエン",
    "address": "群馬県佐波郡玉村町大字飯倉５９",
    "lat": 36.2891288,
    "lng": 139.1512823,
    "tel": "0270-64-6666",
    "url": "http://nishikinoen.com/",
    "pref": "群馬県",
    "city": "玉村町",
    "category": "tokuyou",
    "serviceType": "介護老人福祉施設",
    "capacity": null,
    "openDays": [],
    "openDaysNote": ""
  },
  {
    "id": "1072800657",
    "name": "特別養護老人ホームタマビレッジ",
    "kana": "トクベツヨウゴロウジンホームタマビレッジ",
    "address": "群馬県佐波郡玉村町上新田640-１",
    "lat": 36.3093481,
    "lng": 139.098285,
    "tel": "0270-30-2311",
    "url": "http://www.tamavillage.jp/",
    "pref": "群馬県",
    "city": "玉村町",
    "category": "tokuyou",
    "serviceType": "介護老人福祉施設",
    "capacity": 55,
    "openDays": [],
    "openDaysNote": ""
  },
  {
    "id": "1070302730",
    "name": "ユニット型特別養護老人ホーム双葉苑",
    "kana": "ユニットガタトクベツヨウゴロウジンホームフタバエン",
    "address": "群馬県桐生市広沢町1丁目2643番地の1",
    "lat": 36.3918242747916,
    "lng": 139.333254741803,
    "tel": "0277-54-8900",
    "url": "https://ryouiku-futabakai.or.jp/",
    "pref": "群馬県",
    "city": "桐生市",
    "category": "tokuyou",
    "serviceType": "介護老人福祉施設",
    "capacity": 0,
    "openDays": [],
    "openDaysNote": ""
  },
  {
    "id": "1072000050",
    "name": "社会福祉法人　泰和会　しみずの里",
    "kana": "シャカイフクシホウジン　タイワカイ　シミズノサト",
    "address": "群馬県桐生市黒保根町下田沢２５６５－１",
    "lat": 36.5101374,
    "lng": 139.2760818,
    "tel": "0277-96-3388",
    "url": "http://taiwakai.com/",
    "pref": "群馬県",
    "city": "桐生市",
    "category": "tokuyou",
    "serviceType": "介護老人福祉施設",
    "capacity": 0,
    "openDays": [],
    "openDaysNote": ""
  },
  {
    "id": "1070300833",
    "name": "社会福祉法人　邦知会　ハーモニー広沢",
    "kana": "シャカイフクシホウジン　ホウチカイ　ハーモニーヒロサワ",
    "address": "群馬県桐生市広沢町6-332-1",
    "lat": 36.3702662,
    "lng": 139.3610925,
    "tel": "0277-53-1120",
    "url": "http://www.houchikai.or.jp",
    "pref": "群馬県",
    "city": "桐生市",
    "category": "tokuyou",
    "serviceType": "介護老人福祉施設",
    "capacity": 0,
    "openDays": [],
    "openDaysNote": ""
  },
  {
    "id": "1070300106",
    "name": "社会福祉法人　邦知会　ユートピア広沢",
    "kana": "シャカイフクシホウジンホウチカイ　ユートピアヒロサワ",
    "address": "群馬県桐生市広沢町6-307-3",
    "lat": 36.3713938,
    "lng": 139.3592398,
    "tel": "0277-53-1150",
    "url": "http://www.houchikai.or.jp",
    "pref": "群馬県",
    "city": "桐生市",
    "category": "tokuyou",
    "serviceType": "介護老人福祉施設",
    "capacity": 0,
    "openDays": [],
    "openDaysNote": ""
  },
  {
    "id": "1070301237",
    "name": "特別養護老人ホーム　げんき・倶楽部",
    "kana": "トクベツヨウゴロウジンホーム　ゲンキ・クラブ",
    "address": "群馬県桐生市新里町新川1312",
    "lat": 36.4123917,
    "lng": 139.2574837,
    "tel": "0277-70-2220",
    "url": "http://www5.ocn.ne.jp/~genki-c/",
    "pref": "群馬県",
    "city": "桐生市",
    "category": "tokuyou",
    "serviceType": "介護老人福祉施設",
    "capacity": 80,
    "openDays": [],
    "openDaysNote": ""
  },
  {
    "id": "1070300742",
    "name": "特別養護老人ホーム　サンライズさかいの",
    "kana": "トクベツヨウゴロウジンホーム　サンライズサカイノ",
    "address": "群馬県桐生市境野町７丁目1788番地1",
    "lat": 36.3777905,
    "lng": 139.3625142,
    "tel": "0277-20-8661",
    "url": "http://www.watarasekai.jp",
    "pref": "群馬県",
    "city": "桐生市",
    "category": "tokuyou",
    "serviceType": "介護老人福祉施設",
    "capacity": 0,
    "openDays": [],
    "openDaysNote": ""
  },
  {
    "id": "1070302870",
    "name": "特別養護老人ホーム　シルクの里",
    "kana": "シルクノサト",
    "address": "群馬県桐生市宮本町一丁目12番34号",
    "lat": 36.4143162281124,
    "lng": 139.339030425131,
    "tel": "0277-20-6622",
    "url": "http://www.silknosato.jp",
    "pref": "群馬県",
    "city": "桐生市",
    "category": "tokuyou",
    "serviceType": "介護老人福祉施設",
    "capacity": 60,
    "openDays": [],
    "openDaysNote": ""
  },
  {
    "id": "1070300478",
    "name": "特別養護老人ホーム　のぞみの苑",
    "kana": "トクベツヨウゴロウジンホーム　ノゾミノソノ",
    "address": "群馬県桐生市相生町５－４９３",
    "lat": 36.4146192,
    "lng": 139.2855561,
    "tel": "0277-54-9535",
    "url": "http://www.kibounoie.or.jp",
    "pref": "群馬県",
    "city": "桐生市",
    "category": "tokuyou",
    "serviceType": "介護老人福祉施設",
    "capacity": 0,
    "openDays": [],
    "openDaysNote": ""
  },
  {
    "id": "1070301732",
    "name": "特別養護老人ホーム　思いやり",
    "kana": "トクベツヨウゴロウジンホームオモイヤリ",
    "address": "群馬県桐生市川内町1丁目361-2",
    "lat": 36.4341317,
    "lng": 139.3228882,
    "tel": "0277-32-5888",
    "url": "http://www.tokushoukai358.com",
    "pref": "群馬県",
    "city": "桐生市",
    "category": "tokuyou",
    "serviceType": "介護老人福祉施設",
    "capacity": 60,
    "openDays": [],
    "openDaysNote": ""
  },
  {
    "id": "1070301617",
    "name": "特別養護老人ホーム　瀬々らぎの里",
    "kana": "トクベツヨウゴロウジンホーム　セセラギノサト",
    "address": "群馬県桐生市梅田町１丁目724番地1",
    "lat": 36.4474245891257,
    "lng": 139.366135987094,
    "tel": "0277-32-2122",
    "url": "http://www.seseraginosato.jp",
    "pref": "群馬県",
    "city": "桐生市",
    "category": "tokuyou",
    "serviceType": "介護老人福祉施設",
    "capacity": 0,
    "openDays": [],
    "openDaysNote": ""
  },
  {
    "id": "1070302748",
    "name": "特別養護老人ホームのぞみの苑",
    "kana": "トクベツヨウゴロウジンホームノゾミノソノ",
    "address": "群馬県桐生市相生町５－４９３",
    "lat": 36.4146192,
    "lng": 139.2855561,
    "tel": "0277-54-9535",
    "url": "http://www.kibounoie.or.jp",
    "pref": "群馬県",
    "city": "桐生市",
    "category": "tokuyou",
    "serviceType": "介護老人福祉施設",
    "capacity": 0,
    "openDays": [],
    "openDaysNote": ""
  },
  {
    "id": "1070302292",
    "name": "特別養護老人ホーム山笑",
    "kana": "トクベツヨウゴロウジンホームサンワ",
    "address": "群馬県桐生市相生町1-610-1",
    "lat": 36.4025907,
    "lng": 139.3093259,
    "tel": "0277-47-6503",
    "url": "",
    "pref": "群馬県",
    "city": "桐生市",
    "category": "tokuyou",
    "serviceType": "介護老人福祉施設",
    "capacity": 60,
    "openDays": [],
    "openDaysNote": ""
  },
  {
    "id": "1070300189",
    "name": "特別養護老人ホーム双葉苑",
    "kana": "トクベツヨウゴロウジンホームフタバエン",
    "address": "群馬県桐生市広沢町１丁目２６４３番地の１",
    "lat": 36.3919753,
    "lng": 139.3330655,
    "tel": "0277-54-8900",
    "url": "http://www.ryouiku-futabakai.or.jp/",
    "pref": "群馬県",
    "city": "桐生市",
    "category": "tokuyou",
    "serviceType": "介護老人福祉施設",
    "capacity": 0,
    "openDays": [],
    "openDaysNote": ""
  },
  {
    "id": "1070300239",
    "name": "特別養護老人ホーム梅の郷",
    "kana": "トクベツヨウゴロウジンホーム　ウメノサト",
    "address": "群馬県桐生市梅田町４丁目１７７４－４",
    "lat": 36.4741719,
    "lng": 139.4064057,
    "tel": "0277-20-5055",
    "url": "https://umedafukushikai.com",
    "pref": "群馬県",
    "city": "桐生市",
    "category": "tokuyou",
    "serviceType": "介護老人福祉施設",
    "capacity": 70,
    "openDays": [],
    "openDaysNote": ""
  },
  {
    "id": "1070301153",
    "name": "特別養護老人ホーム菱風園",
    "kana": "トクベツヨウゴロウジンホ－ム　リョウフウエン",
    "address": "群馬県桐生市菱町１－３０１６－１",
    "lat": 36.3914337,
    "lng": 139.3626495,
    "tel": "0277-43-9972",
    "url": "https://gswc-sf.org/ryofuen/",
    "pref": "群馬県",
    "city": "桐生市",
    "category": "tokuyou",
    "serviceType": "介護老人福祉施設",
    "capacity": 0,
    "openDays": [],
    "openDaysNote": ""
  },
  {
    "id": "1070200264",
    "name": "ホピ園",
    "kana": "ホピエン",
    "address": "群馬県高崎市寺尾町６２１番地１",
    "lat": 36.296738,
    "lng": 139.0124938,
    "tel": "027-324-8844",
    "url": "http://turbulence.jp/",
    "pref": "群馬県",
    "city": "高崎市",
    "category": "tokuyou",
    "serviceType": "介護老人福祉施設",
    "capacity": 60,
    "openDays": [],
    "openDaysNote": ""
  },
  {
    "id": "1070204944",
    "name": "ユニット型特別養護老人ホームルネス二之沢",
    "kana": "ユニットガタトクベツヨウゴロウジンホームルネスニノサワ",
    "address": "群馬県高崎市足門町166-1",
    "lat": 36.4023856,
    "lng": 138.9795544,
    "tel": "027-310-0877",
    "url": "http://www.runes.or.jp/",
    "pref": "群馬県",
    "city": "高崎市",
    "category": "tokuyou",
    "serviceType": "介護老人福祉施設",
    "capacity": 30,
    "openDays": [],
    "openDaysNote": ""
  },
  {
    "id": "1070200215",
    "name": "恵峰園",
    "kana": "ケイホウエン",
    "address": "群馬県高崎市京目町1632番地1",
    "lat": 36.3482974,
    "lng": 139.0532997,
    "tel": "027-353-2359",
    "url": "https://www.keihouen.or.jp",
    "pref": "群馬県",
    "city": "高崎市",
    "category": "tokuyou",
    "serviceType": "介護老人福祉施設",
    "capacity": 0,
    "openDays": [],
    "openDaysNote": ""
  },
  {
    "id": "1072100371",
    "name": "特別養護老人ホーム　エンジェルホーム",
    "kana": "トクベツヨウゴロウジンホーム　エンジェルホーム",
    "address": "群馬県高崎市中室田町２２５４番地",
    "lat": 36.3974094,
    "lng": 138.8612006,
    "tel": "027-374-2103",
    "url": "http://www.sinseikai.org",
    "pref": "群馬県",
    "city": "高崎市",
    "category": "tokuyou",
    "serviceType": "介護老人福祉施設",
    "capacity": 0,
    "openDays": [],
    "openDaysNote": ""
  },
  {
    "id": "1070207020",
    "name": "特別養護老人ホーム　キートス南八幡",
    "kana": "トクベツヨウゴロウジンホーム　キートスミナミヤハタ",
    "address": "群馬県高崎市山名町836-1",
    "lat": 36.2722086863481,
    "lng": 139.040825886706,
    "tel": "027-386-5554",
    "url": "https://www.keikokai.or.jp/",
    "pref": "群馬県",
    "city": "高崎市",
    "category": "tokuyou",
    "serviceType": "介護老人福祉施設",
    "capacity": 40,
    "openDays": [],
    "openDaysNote": ""
  },
  {
    "id": "1070200777",
    "name": "特別養護老人ホーム　ふるさと",
    "kana": "トクベツヨウゴロウジンホーム　フルサト",
    "address": "群馬県高崎市綿貫町１３６９番地",
    "lat": 36.3053142,
    "lng": 139.0813818,
    "tel": "027-347-8000",
    "url": "http://www.yume-furusato.or.jp",
    "pref": "群馬県",
    "city": "高崎市",
    "category": "tokuyou",
    "serviceType": "介護老人福祉施設",
    "capacity": 55,
    "openDays": [],
    "openDaysNote": ""
  },
  {
    "id": "1072300302",
    "name": "特別養護老人ホーム　花みづき寮",
    "kana": "トクベツヨウゴロウジンホーム　ハナミヅキリョウ",
    "address": "群馬県高崎市新町１８６３",
    "lat": 36.2644017,
    "lng": 139.1041517,
    "tel": "0274-40-3388",
    "url": "http://www.genkimura.or.jp/",
    "pref": "群馬県",
    "city": "高崎市",
    "category": "tokuyou",
    "serviceType": "介護老人福祉施設",
    "capacity": 60,
    "openDays": [],
    "openDaysNote": ""
  },
  {
    "id": "1070200413",
    "name": "特別養護老人ホーム　希望館",
    "kana": "トクベツヨウゴロウジンホーム　キボウカン",
    "address": "群馬県高崎市江木町１０９３－１",
    "lat": 36.3367392,
    "lng": 139.0204141,
    "tel": "027-322-4985",
    "url": "http:www.kibokan.or.jp/",
    "pref": "群馬県",
    "city": "高崎市",
    "category": "tokuyou",
    "serviceType": "介護老人福祉施設",
    "capacity": 100,
    "openDays": [],
    "openDaysNote": ""
  },
  {
    "id": "1070204571",
    "name": "特別養護老人ホーム　菊地の園",
    "kana": "トクベツヨウゴロウジンホーム　キクヂノソノ",
    "address": "群馬県高崎市菊地町４３４番地",
    "lat": 36.3611993205356,
    "lng": 138.96380626627,
    "tel": "０２７－３８６－６７００",
    "url": "",
    "pref": "群馬県",
    "city": "高崎市",
    "category": "tokuyou",
    "serviceType": "介護老人福祉施設",
    "capacity": 0,
    "openDays": [],
    "openDaysNote": ""
  },
  {
    "id": "1070206816",
    "name": "特別養護老人ホーム　菊池の園",
    "kana": "トクベツヨウゴロウジンホーム　キクヂノソノ",
    "address": "群馬県高崎市菊地町434番地",
    "lat": 36.3611529,
    "lng": 138.9636917,
    "tel": "０２７－３８６－６７００",
    "url": "",
    "pref": "群馬県",
    "city": "高崎市",
    "category": "tokuyou",
    "serviceType": "介護老人福祉施設",
    "capacity": null,
    "openDays": [],
    "openDaysNote": ""
  },
  {
    "id": "1072300021",
    "name": "特別養護老人ホーム　吉井セピア",
    "kana": "トクベツヨウゴロウジンホーム　ヨシイセピア",
    "address": "群馬県高崎市吉井町塩1147",
    "lat": 36.2341664,
    "lng": 138.9720614,
    "tel": "027-387-8797",
    "url": "https://mitsukikai.com/",
    "pref": "群馬県",
    "city": "高崎市",
    "category": "tokuyou",
    "serviceType": "介護老人福祉施設",
    "capacity": 70,
    "openDays": [],
    "openDaysNote": ""
  },
  {
    "id": "1070200421",
    "name": "特別養護老人ホーム　明生苑",
    "kana": "トクベツヨウゴロウジンホーム　メイセイエン",
    "address": "群馬県高崎市矢中町1105-4",
    "lat": 36.3052188,
    "lng": 139.0515428,
    "tel": "027-347-1050",
    "url": "https://meiseien.net/",
    "pref": "群馬県",
    "city": "高崎市",
    "category": "tokuyou",
    "serviceType": "介護老人福祉施設",
    "capacity": 0,
    "openDays": [],
    "openDaysNote": ""
  },
  {
    "id": "1070201031",
    "name": "特別養護老人ホームシェステさとの花",
    "kana": "トクベツヨウゴロウジンホーム　シェステサトノハナ",
    "address": "群馬県高崎市乗附町208",
    "lat": 36.326811,
    "lng": 138.9810756,
    "tel": "027-321-2000",
    "url": "さとの花",
    "pref": "群馬県",
    "city": "高崎市",
    "category": "tokuyou",
    "serviceType": "介護老人福祉施設",
    "capacity": 70,
    "openDays": [],
    "openDaysNote": ""
  },
  {
    "id": "1070202427",
    "name": "特別養護老人ホームシリウス",
    "kana": "トクベツヨウゴロウジンホームシリウス",
    "address": "群馬県高崎市倉渕町三ノ倉533番地１",
    "lat": 36.4198253,
    "lng": 138.7981171,
    "tel": "027-340-6633",
    "url": "http://sirius.or.jp/",
    "pref": "群馬県",
    "city": "高崎市",
    "category": "tokuyou",
    "serviceType": "介護老人福祉施設",
    "capacity": 65,
    "openDays": [],
    "openDaysNote": ""
  },
  {
    "id": "1070207228",
    "name": "特別養護老人ホームシンフォニー",
    "kana": "トクベツヨウゴロウジンホームシンフォニー",
    "address": "群馬県高崎市井野町915-2社会福祉法人苗場福祉会　特別養護老人ホームシンフォニー 社会福祉法人苗場福祉会　特別養護老人ホームシンフォニー",
    "lat": 36.3556077,
    "lng": 139.0249075,
    "tel": "027-388-9110",
    "url": "https://naebafukushikai.com",
    "pref": "群馬県",
    "city": "高崎市",
    "category": "tokuyou",
    "serviceType": "介護老人福祉施設",
    "capacity": 0,
    "openDays": [],
    "openDaysNote": ""
  },
  {
    "id": "1070204993",
    "name": "特別養護老人ホームはなぞの",
    "kana": "トクベツヨウゴロウジンホームハナゾノ",
    "address": "群馬県高崎市塚田町21-1",
    "lat": 36.389618,
    "lng": 139.0174362,
    "tel": "027-388-8847",
    "url": "http://kokufukai.jp/",
    "pref": "群馬県",
    "city": "高崎市",
    "category": "tokuyou",
    "serviceType": "介護老人福祉施設",
    "capacity": 80,
    "openDays": [],
    "openDaysNote": ""
  },
  {
    "id": "1072100512",
    "name": "特別養護老人ホームルネス二之沢",
    "kana": "トクベツヨウゴロウジンホーム　ルネスニノサワ",
    "address": "群馬県高崎市足門町166番地1",
    "lat": 36.4023856,
    "lng": 138.9795544,
    "tel": "027-310-0877",
    "url": "http;//www.runes.or.jp",
    "pref": "群馬県",
    "city": "高崎市",
    "category": "tokuyou",
    "serviceType": "介護老人福祉施設",
    "capacity": 0,
    "openDays": [],
    "openDaysNote": ""
  },
  {
    "id": "1070206501",
    "name": "特別養護老人ホーム吉井の丘",
    "kana": "トクベツヨウゴロウジンホーム　ヨシイノオカ",
    "address": "群馬県高崎市吉井町岩崎字二子2224－1吉井の丘 吉井の丘",
    "lat": 36.2702566,
    "lng": 138.990145,
    "tel": "027－387－0918",
    "url": "http://mikinokai.com/yoshiinooka_index.php",
    "pref": "群馬県",
    "city": "高崎市",
    "category": "tokuyou",
    "serviceType": "介護老人福祉施設",
    "capacity": 40,
    "openDays": [],
    "openDaysNote": ""
  },
  {
    "id": "1070202112",
    "name": "特別養護老人ホーム高風園",
    "kana": "トクベツヨウゴロウジンホーム　コウフウエン",
    "address": "群馬県高崎市寺尾町２４１２",
    "lat": 36.3019653,
    "lng": 138.9914928,
    "tel": "027-322-7802",
    "url": "http://kofuen.sakura.ne.jp/kofuen/",
    "pref": "群馬県",
    "city": "高崎市",
    "category": "tokuyou",
    "serviceType": "介護老人福祉施設",
    "capacity": 80,
    "openDays": [],
    "openDaysNote": ""
  },
  {
    "id": "1070203029",
    "name": "特別養護老人ホーム高風園「そめやの里」",
    "kana": "トクベツヨウゴロウジンホームコウフウエン「ソメヤノサト」",
    "address": "群馬県高崎市新保町９９３",
    "lat": 36.3490276,
    "lng": 139.0426895,
    "tel": "027-364-1601",
    "url": "https://gswc-sf.org/kofuen-someyanosato/",
    "pref": "群馬県",
    "city": "高崎市",
    "category": "tokuyou",
    "serviceType": "介護老人福祉施設",
    "capacity": 0,
    "openDays": [],
    "openDaysNote": ""
  },
  {
    "id": "1070200256",
    "name": "特別養護老人ホーム森の小径",
    "kana": "トクベツヨウゴロウジンホーム　モリノコミチ",
    "address": "群馬県高崎市浜川町836-2",
    "lat": 36.3741816,
    "lng": 138.9826405,
    "tel": "027-344-4321",
    "url": "https://erin-takasaki.com/",
    "pref": "群馬県",
    "city": "高崎市",
    "category": "tokuyou",
    "serviceType": "介護老人福祉施設",
    "capacity": 50,
    "openDays": [],
    "openDaysNote": ""
  },
  {
    "id": "1072100157",
    "name": "特別養護老人ホーム榛名憩の園",
    "kana": "トクベツヨウゴロウジンホームハルナイコイノソノ",
    "address": "群馬県高崎市中室田町２２５２番地",
    "lat": 36.3967623,
    "lng": 138.8599091,
    "tel": "027-374-0767",
    "url": "http://www.sinseikai.org/",
    "pref": "群馬県",
    "city": "高崎市",
    "category": "tokuyou",
    "serviceType": "介護老人福祉施設",
    "capacity": 0,
    "openDays": [],
    "openDaysNote": ""
  },
  {
    "id": "1072100165",
    "name": "特別養護老人ホーム誠の園",
    "kana": "トクベツヨウゴロウジンホームマコトノソノ",
    "address": "群馬県高崎市中室田町２１０９番地",
    "lat": 36.3947126,
    "lng": 138.8597758,
    "tel": "027-374-4777",
    "url": "http://www.sinseikai.org/",
    "pref": "群馬県",
    "city": "高崎市",
    "category": "tokuyou",
    "serviceType": "介護老人福祉施設",
    "capacity": 0,
    "openDays": [],
    "openDaysNote": ""
  },
  {
    "id": "1072100132",
    "name": "特別養護老人ホーム泉の園",
    "kana": "トクベツヨウゴロウジンホームイズミノソノ",
    "address": "群馬県高崎市箕郷町矢原12番地1",
    "lat": 36.3972831,
    "lng": 138.9627778,
    "tel": "027-371-8500",
    "url": "http://www.izuminosono.com",
    "pref": "群馬県",
    "city": "高崎市",
    "category": "tokuyou",
    "serviceType": "介護老人福祉施設",
    "capacity": 70,
    "openDays": [],
    "openDaysNote": ""
  },
  {
    "id": "1070204902",
    "name": "特別養護老人ホーム泉の園ユニット",
    "kana": "トクベツヨウゴロウジンホームイズミノソノユニット",
    "address": "群馬県高崎市箕郷町矢原12番地1",
    "lat": 36.3972831,
    "lng": 138.9627778,
    "tel": "027-371-8500",
    "url": "http://www.izuminosono.com",
    "pref": "群馬県",
    "city": "高崎市",
    "category": "tokuyou",
    "serviceType": "介護老人福祉施設",
    "capacity": 60,
    "openDays": [],
    "openDaysNote": ""
  },
  {
    "id": "1070207640",
    "name": "特別養護老人ホーム待望館",
    "kana": "トクベツヨウゴロウジンホームタイボウカン",
    "address": "群馬県高崎市新町1435-3",
    "lat": 36.2617295236316,
    "lng": 139.106048363125,
    "tel": "274258104",
    "url": "",
    "pref": "群馬県",
    "city": "高崎市",
    "category": "tokuyou",
    "serviceType": "介護老人福祉施設",
    "capacity": null,
    "openDays": [],
    "openDaysNote": ""
  },
  {
    "id": "1070200405",
    "name": "特別養護老人ホーム長寿荘",
    "kana": "トクベツヨウゴロウジンホームチョウジュソウ",
    "address": "群馬県高崎市井野町355-1特別養護老人ホーム長寿荘 特別養護老人ホーム長寿荘",
    "lat": 36.3606571001447,
    "lng": 139.021278102447,
    "tel": "027-363-3311",
    "url": "https://www.houseikai.jp/",
    "pref": "群馬県",
    "city": "高崎市",
    "category": "tokuyou",
    "serviceType": "介護老人福祉施設",
    "capacity": 0,
    "openDays": [],
    "openDaysNote": ""
  },
  {
    "id": "1070206048",
    "name": "特別養護老人ホーム長寿荘ユニット型",
    "kana": "トクベツヨウゴロウジンホームチョウジュソウユニットガタ",
    "address": "群馬県高崎市井野町355-1特別養護老人ホーム長寿荘 特別養護老人ホーム長寿荘",
    "lat": 36.3608676,
    "lng": 139.0212688,
    "tel": "027-363-3311",
    "url": "https://www.houseikai.jp/",
    "pref": "群馬県",
    "city": "高崎市",
    "category": "tokuyou",
    "serviceType": "介護老人福祉施設",
    "capacity": 0,
    "openDays": [],
    "openDaysNote": ""
  },
  {
    "id": "1070200355",
    "name": "特別養護老人ホーム天界園",
    "kana": "トクベツヨウゴロウジンホームテンカイエン",
    "address": "群馬県高崎市下佐野町553番地",
    "lat": 36.2965049,
    "lng": 139.0290034,
    "tel": "027-320-2228",
    "url": "https://www.tenkaien.or.jp",
    "pref": "群馬県",
    "city": "高崎市",
    "category": "tokuyou",
    "serviceType": "介護老人福祉施設",
    "capacity": 0,
    "openDays": [],
    "openDaysNote": ""
  },
  {
    "id": "1070204977",
    "name": "特別養護老人ホーム天界園",
    "kana": "トクベツヨウゴロウジンホームテンカイエン",
    "address": "群馬県高崎市下佐野町553番地",
    "lat": 36.2965049,
    "lng": 139.0290034,
    "tel": "027-320-2228",
    "url": "https://www.tenkaien.or.jp",
    "pref": "群馬県",
    "city": "高崎市",
    "category": "tokuyou",
    "serviceType": "介護老人福祉施設",
    "capacity": 0,
    "openDays": [],
    "openDaysNote": ""
  },
  {
    "id": "1070201775",
    "name": "特別養護老人ホーム悠ゆう",
    "kana": "トクベツヨウゴロウジンホームユウユウ",
    "address": "群馬県高崎市南大類町１２１０",
    "lat": 36.3273038,
    "lng": 139.0351797,
    "tel": "027-353-0002",
    "url": "http://takasakifuku.jp/",
    "pref": "群馬県",
    "city": "高崎市",
    "category": "tokuyou",
    "serviceType": "介護老人福祉施設",
    "capacity": 0,
    "openDays": [],
    "openDaysNote": ""
  },
  {
    "id": "1070801178",
    "name": "小野子ヒルズ",
    "kana": "オノコヒルズ",
    "address": "群馬県渋川市小野子３６１５－１",
    "lat": 36.5735702733945,
    "lng": 138.972233808195,
    "tel": "0279-26-2626",
    "url": "http://www.paznomori.or.jp/",
    "pref": "群馬県",
    "city": "渋川市",
    "category": "tokuyou",
    "serviceType": "介護老人福祉施設",
    "capacity": 60,
    "openDays": [],
    "openDaysNote": ""
  },
  {
    "id": "1070801277",
    "name": "特別養護老人ホーム　カナン",
    "kana": "トクベツヨウゴロウジンホーム　カナン",
    "address": "群馬県渋川市渋川3653-1",
    "lat": 36.4930623615195,
    "lng": 138.951678984131,
    "tel": "0279-26-2511",
    "url": "http://www.meguminosono.jp/",
    "pref": "群馬県",
    "city": "渋川市",
    "category": "tokuyou",
    "serviceType": "介護老人福祉施設",
    "capacity": 90,
    "openDays": [],
    "openDaysNote": ""
  },
  {
    "id": "1072000258",
    "name": "特別養護老人ホーム　ねむの丘",
    "kana": "トクベツヨウゴロウジンホーム　ネムノオカ",
    "address": "群馬県渋川市北橘町八崎２３６５番地１",
    "lat": 36.4945318,
    "lng": 139.0401056,
    "tel": "0279-20-4000",
    "url": "http://www.nemunooka.com",
    "pref": "群馬県",
    "city": "渋川市",
    "category": "tokuyou",
    "serviceType": "介護老人福祉施設",
    "capacity": 0,
    "openDays": [],
    "openDaysNote": ""
  },
  {
    "id": "1070800568",
    "name": "特別養護老人ホーム　ひかりの里",
    "kana": "トクベツヨウゴロウジンホーム　ヒカリノサト",
    "address": "群馬県渋川市渋川２２１６－１",
    "lat": 36.4975809,
    "lng": 138.9987981,
    "tel": "0279-23-6699",
    "url": "http://hikarino-sato.jp",
    "pref": "群馬県",
    "city": "渋川市",
    "category": "tokuyou",
    "serviceType": "介護老人福祉施設",
    "capacity": 0,
    "openDays": [],
    "openDaysNote": ""
  },
  {
    "id": "1072200031",
    "name": "特別養護老人ホーム　春日園",
    "kana": "トクベツヨウゴロウジンホーム　カスガエン",
    "address": "群馬県渋川市中郷２３９９－７",
    "lat": 36.5378574,
    "lng": 139.0094043,
    "tel": "0279-53-2506",
    "url": "http://www.kasugaen.com/",
    "pref": "群馬県",
    "city": "渋川市",
    "category": "tokuyou",
    "serviceType": "介護老人福祉施設",
    "capacity": 70,
    "openDays": [],
    "openDaysNote": ""
  },
  {
    "id": "1070800154",
    "name": "特別養護老人ホームかない苑",
    "kana": "トクベツヨウゴロウジンホームカナイエン",
    "address": "群馬県渋川市金井２２１２番地１",
    "lat": 36.5163648,
    "lng": 138.9867097,
    "tel": "0279-24-8383",
    "url": "https://www.kanaien.jp/",
    "pref": "群馬県",
    "city": "渋川市",
    "category": "tokuyou",
    "serviceType": "介護老人福祉施設",
    "capacity": 0,
    "openDays": [],
    "openDaysNote": ""
  },
  {
    "id": "1070801111",
    "name": "特別養護老人ホームねむの丘（ユニット型）",
    "kana": "トクベツヨウゴロージンホームネムノオカ（ユニットガタ）",
    "address": "群馬県渋川市北橘町八崎２３６５番地1",
    "lat": 36.4945318,
    "lng": 139.0401056,
    "tel": "0279-20-4000",
    "url": "http://www.nemunooka.com/",
    "pref": "群馬県",
    "city": "渋川市",
    "category": "tokuyou",
    "serviceType": "介護老人福祉施設",
    "capacity": 0,
    "openDays": [],
    "openDaysNote": ""
  },
  {
    "id": "1070800055",
    "name": "特別養護老人ホーム永光荘",
    "kana": "トクベツヨウゴロウジンホームエイコウソウ",
    "address": "群馬県渋川市半田７８５－５",
    "lat": 36.4590134,
    "lng": 139.0204893,
    "tel": "0279-23-1122",
    "url": "http://www.eikoso.or.jp",
    "pref": "群馬県",
    "city": "渋川市",
    "category": "tokuyou",
    "serviceType": "介護老人福祉施設",
    "capacity": 90,
    "openDays": [],
    "openDaysNote": ""
  },
  {
    "id": "1070800543",
    "name": "特別養護老人ホーム清流の郷",
    "kana": "トクベツヨウゴロウジンホームセイリュウノサト",
    "address": "群馬県渋川市赤城町敷島４４－１",
    "lat": 36.5351111205366,
    "lng": 139.029870956484,
    "tel": "0279-56-9201",
    "url": "http://www.eikoso.or.jp/html/seiryu.html",
    "pref": "群馬県",
    "city": "渋川市",
    "category": "tokuyou",
    "serviceType": "介護老人福祉施設",
    "capacity": 0,
    "openDays": [],
    "openDaysNote": ""
  },
  {
    "id": "1072700568",
    "name": "特別養護老人ホーム菜の花館",
    "kana": "トクベツヨウゴロウジンホームナノハナカン",
    "address": "群馬県利根郡昭和村大字糸井１７５７－３１１",
    "lat": 36.640789,
    "lng": 139.077869,
    "tel": "0278-30-3331",
    "url": "https://kijokai.or.jp/nanohanakan/",
    "pref": "群馬県",
    "city": "昭和村",
    "category": "tokuyou",
    "serviceType": "介護老人福祉施設",
    "capacity": 70,
    "openDays": [],
    "openDaysNote": ""
  },
  {
    "id": "1070600083",
    "name": "特別養護老人ホームききょうの里",
    "kana": "トクベツヨウゴロウジンホームキキョウノサト",
    "address": "群馬県沼田市横塚町９５７番地２",
    "lat": 36.6712937,
    "lng": 139.100255,
    "tel": "0278-23-8831",
    "url": "https://www.kikyou.or.jp",
    "pref": "群馬県",
    "city": "沼田市",
    "category": "tokuyou",
    "serviceType": "介護老人福祉施設",
    "capacity": 0,
    "openDays": [],
    "openDaysNote": ""
  },
  {
    "id": "1070600729",
    "name": "特別養護老人ホームくやはら",
    "kana": "トクベツヨウゴロウジンホームクヤハラ",
    "address": "群馬県沼田市久屋原町４１４番地１",
    "lat": 36.666211,
    "lng": 139.1075989,
    "tel": "0278-25-9292",
    "url": "http://www.kyujinkai.com",
    "pref": "群馬県",
    "city": "沼田市",
    "category": "tokuyou",
    "serviceType": "介護老人福祉施設",
    "capacity": 77,
    "openDays": [],
    "openDaysNote": ""
  },
  {
    "id": "1070601065",
    "name": "特別養護老人ホームとね虹の里",
    "kana": "トクベツヨウゴロウジンホームトネニジノサト",
    "address": "群馬県沼田市東原新町1855番地1",
    "lat": 36.6481397,
    "lng": 139.0537171,
    "tel": "0278-25-8618",
    "url": "http://toneniji.or.jp",
    "pref": "群馬県",
    "city": "沼田市",
    "category": "tokuyou",
    "serviceType": "介護老人福祉施設",
    "capacity": 60,
    "openDays": [],
    "openDaysNote": ""
  },
  {
    "id": "1070601149",
    "name": "特別養護老人ホームまごころ",
    "kana": "トクベツヨウゴロウジンホームマゴコロ",
    "address": "群馬県沼田市戸鹿野町375‐1",
    "lat": 36.6337666,
    "lng": 139.0369738,
    "tel": "278228811",
    "url": "https://kyujinkai.com/",
    "pref": "群馬県",
    "city": "沼田市",
    "category": "tokuyou",
    "serviceType": "介護老人福祉施設",
    "capacity": 0,
    "openDays": [],
    "openDaysNote": ""
  },
  {
    "id": "1072200288",
    "name": "特別養護老人ホームしんとう苑",
    "kana": "トクベツヨウゴロウジンホーム　シントウエン",
    "address": "群馬県北群馬郡榛東村広馬場1797-1",
    "lat": 36.4200497,
    "lng": 138.9660962,
    "tel": "0279-55-6622",
    "url": "http://www.shintouen.or.jp",
    "pref": "群馬県",
    "city": "榛東村",
    "category": "tokuyou",
    "serviceType": "介護老人福祉施設",
    "capacity": 70,
    "openDays": [],
    "openDaysNote": ""
  },
  {
    "id": "1072300112",
    "name": "特別養護老人ホームシェステやまの花",
    "kana": "トクベツヨウゴロウジンホームシェステヤマノハナ",
    "address": "群馬県多野郡神流町大字万場２０７",
    "lat": 36.1181303,
    "lng": 138.9152083,
    "tel": "0274-20-5200",
    "url": "ｈｔｔｐ：yamanohana.jp/",
    "pref": "群馬県",
    "city": "神流町",
    "category": "tokuyou",
    "serviceType": "介護老人福祉施設",
    "capacity": 0,
    "openDays": [],
    "openDaysNote": ""
  },
  {
    "id": "1073100040",
    "name": "ちよだＣＯＭハウス",
    "kana": "チヨダコムハウス",
    "address": "群馬県邑楽郡千代田町赤岩２１１４－２",
    "lat": 36.2182814,
    "lng": 139.4484757,
    "tel": "0276-86-3111",
    "url": "http://mokuseikai.net/",
    "pref": "群馬県",
    "city": "千代田町",
    "category": "tokuyou",
    "serviceType": "介護老人福祉施設",
    "capacity": 0,
    "openDays": [],
    "openDaysNote": ""
  },
  {
    "id": "1073100669",
    "name": "特別養護老人ホーム　みどりの風",
    "kana": "トクベツヨウゴロウジンホーム　ミドリノカゼ",
    "address": "群馬県邑楽郡千代田町大字瀬戸井３８６",
    "lat": 36.1991867,
    "lng": 139.45559,
    "tel": "0276-86-5011",
    "url": "",
    "pref": "群馬県",
    "city": "千代田町",
    "category": "tokuyou",
    "serviceType": "介護老人福祉施設",
    "capacity": 70,
    "openDays": [],
    "openDaysNote": ""
  },
  {
    "id": "1072700097",
    "name": "特別養護老人ホーム　川場春光園",
    "kana": "トクベツヨウゴロウジンホーム　カワバシュンコウエン",
    "address": "群馬県利根郡川場村大字生品１８６１番地",
    "lat": 36.6678530955944,
    "lng": 139.077479331877,
    "tel": "0278-52-2039",
    "url": "https://hotakakai.or.jp/facilities/kawaba-s/",
    "pref": "群馬県",
    "city": "川場村",
    "category": "tokuyou",
    "serviceType": "介護老人福祉施設",
    "capacity": 0,
    "openDays": [],
    "openDaysNote": ""
  },
  {
    "id": "1070100316",
    "name": "あじさい園",
    "kana": "アジサイエン",
    "address": "群馬県前橋市川曲町536番地",
    "lat": 36.3517471,
    "lng": 139.0523358,
    "tel": "027-280-5588",
    "url": "http://www.ajisaien.jp/",
    "pref": "群馬県",
    "city": "前橋市",
    "category": "tokuyou",
    "serviceType": "介護老人福祉施設",
    "capacity": 60,
    "openDays": [],
    "openDaysNote": ""
  },
  {
    "id": "1070100027",
    "name": "ほのぼの荘",
    "kana": "ホノボノソウ",
    "address": "群馬県前橋市金丸町252番地1",
    "lat": 36.4684755,
    "lng": 139.1254773,
    "tel": "027-269-1100",
    "url": "http://eijyukai.la.coocan.jp",
    "pref": "群馬県",
    "city": "前橋市",
    "category": "tokuyou",
    "serviceType": "介護老人福祉施設",
    "capacity": 58,
    "openDays": [],
    "openDaysNote": ""
  },
  {
    "id": "1072000225",
    "name": "鐘の鳴る丘愛誠園",
    "kana": "カネノナルオカアイセイエン",
    "address": "群馬県前橋市東金丸町95",
    "lat": 36.4748917,
    "lng": 139.1372923,
    "tel": "027-284-1165",
    "url": "http://www.kanenonaruoka-aiseien.com",
    "pref": "群馬県",
    "city": "前橋市",
    "category": "tokuyou",
    "serviceType": "介護老人福祉施設",
    "capacity": 77,
    "openDays": [],
    "openDaysNote": ""
  },
  {
    "id": "1070100506",
    "name": "特別養護老人ホ－ム　恵風園",
    "kana": "トクベツヨウゴロウジンホ－ム　ケイフウエン",
    "address": "群馬県前橋市日吉町２－２０－１４",
    "lat": 36.3951617,
    "lng": 139.0794904,
    "tel": "027-233-5815",
    "url": "http://www.keifu-kai.or.jp",
    "pref": "群馬県",
    "city": "前橋市",
    "category": "tokuyou",
    "serviceType": "介護老人福祉施設",
    "capacity": 0,
    "openDays": [],
    "openDaysNote": ""
  },
  {
    "id": "1070101280",
    "name": "特別養護老人ホーム　えいめい",
    "kana": "トクベツヨウゴロウジンホーム　エイメイ",
    "address": "群馬県前橋市天川大島町三丁目７０５番地",
    "lat": 36.3770536,
    "lng": 139.1080233,
    "tel": "027-261-8555",
    "url": "http://www.kiyomizunokai.com/",
    "pref": "群馬県",
    "city": "前橋市",
    "category": "tokuyou",
    "serviceType": "介護老人福祉施設",
    "capacity": 80,
    "openDays": [],
    "openDaysNote": ""
  },
  {
    "id": "1072000241",
    "name": "特別養護老人ホーム　サンホームふじみ",
    "kana": "トクベツヨウゴロウジンホーム　サンホームフジミ",
    "address": "群馬県前橋市富士見町小沢２０７番地１",
    "lat": 36.4535677,
    "lng": 139.0854454,
    "tel": "027-288-8221",
    "url": "https://fujimi-kai.or.jp",
    "pref": "群馬県",
    "city": "前橋市",
    "category": "tokuyou",
    "serviceType": "介護老人福祉施設",
    "capacity": 50,
    "openDays": [],
    "openDaysNote": ""
  },
  {
    "id": "1070101819",
    "name": "特別養護老人ホーム　シャリティエまえばし",
    "kana": "トクベツヨウゴロウジンホーム　シャリティエマエバシ",
    "address": "群馬県前橋市表町二丁目18-8",
    "lat": 36.3857878,
    "lng": 139.0731551,
    "tel": "027-221-6511",
    "url": "http://www.charitie.or.jp/",
    "pref": "群馬県",
    "city": "前橋市",
    "category": "tokuyou",
    "serviceType": "介護老人福祉施設",
    "capacity": 50,
    "openDays": [],
    "openDaysNote": ""
  },
  {
    "id": "1070100266",
    "name": "特別養護老人ホーム　すみれ荘",
    "kana": "トクベツヨウゴロウジンホーム　スミレソウ",
    "address": "群馬県前橋市富田町1180-1",
    "lat": 36.3926945,
    "lng": 139.1463087,
    "tel": "027-268-5565",
    "url": "https://www.sumiresou.org",
    "pref": "群馬県",
    "city": "前橋市",
    "category": "tokuyou",
    "serviceType": "介護老人福祉施設",
    "capacity": 60,
    "openDays": [],
    "openDaysNote": ""
  },
  {
    "id": "1070100555",
    "name": "特別養護老人ホーム　せきね園",
    "kana": "トクベツヨウゴロウジンホーム　セキネエン",
    "address": "群馬県前橋市関根町　６６８番地",
    "lat": 36.4381548,
    "lng": 139.0462688,
    "tel": "027-235-3566",
    "url": "http://sekineen-mizuhokai.or.jp",
    "pref": "群馬県",
    "city": "前橋市",
    "category": "tokuyou",
    "serviceType": "介護老人福祉施設",
    "capacity": 0,
    "openDays": [],
    "openDaysNote": ""
  },
  {
    "id": "1070107394",
    "name": "特別養護老人ホーム　ほなみ　ユニット型",
    "kana": "トクベツヨウゴロウジンホーム　ホナミ　ユニットガタ",
    "address": "群馬県前橋市朝倉町842-1",
    "lat": 36.3710705,
    "lng": 139.0926952,
    "tel": "0271-287-4165",
    "url": "honami＠kyoudou-fukushikai.jp",
    "pref": "群馬県",
    "city": "前橋市",
    "category": "tokuyou",
    "serviceType": "介護老人福祉施設",
    "capacity": null,
    "openDays": [],
    "openDaysNote": ""
  },
  {
    "id": "1070106024",
    "name": "特別養護老人ホーム　ルネス前橋",
    "kana": "トクベツヨウゴロウジンホーム　ルネスマエバシ",
    "address": "群馬県前橋市岩神町二丁目３－２７",
    "lat": 36.401576152893,
    "lng": 139.05933555582,
    "tel": "027-219-2038",
    "url": "http://www.runes.or.jp",
    "pref": "群馬県",
    "city": "前橋市",
    "category": "tokuyou",
    "serviceType": "介護老人福祉施設",
    "capacity": 70,
    "openDays": [],
    "openDaysNote": ""
  },
  {
    "id": "1072000811",
    "name": "特別養護老人ホーム　元気の郷",
    "kana": "トクベツヨウゴロウジンホーム　ゲンキノサト",
    "address": "群馬県前橋市粕川町月田４００",
    "lat": 36.4314573,
    "lng": 139.2056989,
    "tel": "027-280-9111",
    "url": "http://www.kasukawa.or.jp",
    "pref": "群馬県",
    "city": "前橋市",
    "category": "tokuyou",
    "serviceType": "介護老人福祉施設",
    "capacity": 0,
    "openDays": [],
    "openDaysNote": ""
  },
  {
    "id": "1070108400",
    "name": "特別養護老人ホーム　生糸（いと）の街",
    "kana": "トクベツヨウゴロウジンホーム　イトノマチ",
    "address": "群馬県前橋市西片貝町三丁目２８５番地",
    "lat": 36.3877060960075,
    "lng": 139.098573082278,
    "tel": "027-289-5777",
    "url": "http://www.itonomachi.jp",
    "pref": "群馬県",
    "city": "前橋市",
    "category": "tokuyou",
    "serviceType": "介護老人福祉施設",
    "capacity": null,
    "openDays": [],
    "openDaysNote": ""
  },
  {
    "id": "1072000142",
    "name": "特別養護老人ホーム　第二明光園",
    "kana": "トクベツヨウゴロウジンホーム　ダイニメイコウエン",
    "address": "群馬県前橋市樋越町１９－１",
    "lat": 36.4130423,
    "lng": 139.1814517,
    "tel": "027-283-3912",
    "url": "http://www.meikouen.sakura.ne.jp/",
    "pref": "群馬県",
    "city": "前橋市",
    "category": "tokuyou",
    "serviceType": "介護老人福祉施設",
    "capacity": 50,
    "openDays": [],
    "openDaysNote": ""
  },
  {
    "id": "1072000589",
    "name": "特別養護老人ホームあゆみの里",
    "kana": "トクベツヨウゴロウジンホームアユミノサト",
    "address": "群馬県前橋市柏倉町2189-223",
    "lat": 36.4608611,
    "lng": 139.1715444,
    "tel": "027-280-2323",
    "url": "http://miyagikai.jp",
    "pref": "群馬県",
    "city": "前橋市",
    "category": "tokuyou",
    "serviceType": "介護老人福祉施設",
    "capacity": 50,
    "openDays": [],
    "openDaysNote": ""
  },
  {
    "id": "1070102403",
    "name": "特別養護老人ホームかまくら",
    "kana": "トクベツヨウゴロウジンホームカマクラ",
    "address": "群馬県前橋市上細井町2050-7",
    "lat": 36.4149756,
    "lng": 139.0799449,
    "tel": "027-210-1110",
    "url": "https://kamakurakai.or.jp",
    "pref": "群馬県",
    "city": "前橋市",
    "category": "tokuyou",
    "serviceType": "介護老人福祉施設",
    "capacity": 0,
    "openDays": [],
    "openDaysNote": ""
  },
  {
    "id": "1070102429",
    "name": "特別養護老人ホームこうふく園",
    "kana": "トクベツヨウゴロウジンホームコウフクエン",
    "address": "群馬県前橋市大胡町３５１－１",
    "lat": 36.4093621,
    "lng": 139.1607232,
    "tel": "027-280-2522",
    "url": "https://www.koufukuen.org/",
    "pref": "群馬県",
    "city": "前橋市",
    "category": "tokuyou",
    "serviceType": "介護老人福祉施設",
    "capacity": 70,
    "openDays": [],
    "openDaysNote": ""
  },
  {
    "id": "1070107162",
    "name": "特別養護老人ホームサンライフアネックス",
    "kana": "トクベツヨウゴロウジンホームサンライフアネックス",
    "address": "群馬県前橋市総社町総社３０５１番地４",
    "lat": 36.3945780266419,
    "lng": 139.036257054631,
    "tel": "027-280-4165",
    "url": "http://www.yokokai.or.jp",
    "pref": "群馬県",
    "city": "前橋市",
    "category": "tokuyou",
    "serviceType": "介護老人福祉施設",
    "capacity": 0,
    "openDays": [],
    "openDaysNote": ""
  },
  {
    "id": "1070108731",
    "name": "特別養護老人ホームサンライフ南町",
    "kana": "トクベツヨウゴロウジンホームサンライフミナミチョウ",
    "address": "群馬県前橋市南町二丁目６７番地５",
    "lat": 36.3732243,
    "lng": 139.0672413,
    "tel": "027-212-2555",
    "url": "http://www.yokokai.or.jp",
    "pref": "群馬県",
    "city": "前橋市",
    "category": "tokuyou",
    "serviceType": "介護老人福祉施設",
    "capacity": 0,
    "openDays": [],
    "openDaysNote": ""
  },
  {
    "id": "1070104300",
    "name": "特別養護老人ホームサンライフ問屋町",
    "kana": "トクベツヨウゴロウジンホームサンライフトンヤマチ",
    "address": "群馬県前橋市問屋町一丁目５番地４",
    "lat": 36.3939359,
    "lng": 139.0396357,
    "tel": "027-253-4165",
    "url": "http://www.yokokai.or.jp",
    "pref": "群馬県",
    "city": "前橋市",
    "category": "tokuyou",
    "serviceType": "介護老人福祉施設",
    "capacity": 0,
    "openDays": [],
    "openDaysNote": ""
  },
  {
    "id": "1070107386",
    "name": "特別養護老人ホームほなみ",
    "kana": "トクベツヨウゴロウジンホームホナミ",
    "address": "群馬県前橋市朝倉町842-1",
    "lat": 36.3710705,
    "lng": 139.0926952,
    "tel": "027-287-4165",
    "url": "https://kyoudou-fukushikai.jp/",
    "pref": "群馬県",
    "city": "前橋市",
    "category": "tokuyou",
    "serviceType": "介護老人福祉施設",
    "capacity": null,
    "openDays": [],
    "openDaysNote": ""
  },
  {
    "id": "1070105398",
    "name": "特別養護老人ホームみのりの丘",
    "kana": "トクベツヨウゴロウジンホームミノリノオカ",
    "address": "群馬県前橋市富士見町小沢534番地9",
    "lat": 36.4432418307729,
    "lng": 139.07625442632,
    "tel": "027-230-5277",
    "url": "http://www.jagunma.net/jakosei/",
    "pref": "群馬県",
    "city": "前橋市",
    "category": "tokuyou",
    "serviceType": "介護老人福祉施設",
    "capacity": 70,
    "openDays": [],
    "openDaysNote": ""
  },
  {
    "id": "1070100530",
    "name": "特別養護老人ホームやすらぎ園",
    "kana": "トクベツヨウゴロウジンホームヤスラギエン",
    "address": "群馬県前橋市江木町1225-1",
    "lat": 36.4064396,
    "lng": 139.1332576,
    "tel": "027-269-6216",
    "url": "http://m-asokakai.jp/",
    "pref": "群馬県",
    "city": "前橋市",
    "category": "tokuyou",
    "serviceType": "介護老人福祉施設",
    "capacity": 50,
    "openDays": [],
    "openDaysNote": ""
  },
  {
    "id": "1070103237",
    "name": "特別養護老人ホーム桜桃園",
    "kana": "トクベツヨウゴロウジンホームオウトウエン",
    "address": "群馬県前橋市房丸町４８番地1",
    "lat": 36.3388076,
    "lng": 139.1119509,
    "tel": "027-289-0111",
    "url": "http://outouen.or.jp/",
    "pref": "群馬県",
    "city": "前橋市",
    "category": "tokuyou",
    "serviceType": "介護老人福祉施設",
    "capacity": 50,
    "openDays": [],
    "openDaysNote": ""
  },
  {
    "id": "1070100563",
    "name": "特別養護老人ホーム春日の里",
    "kana": "トクベツヨウゴロウジンホームカスガノサト",
    "address": "群馬県前橋市上佐鳥町７７４番地",
    "lat": 36.3557527,
    "lng": 139.083955,
    "tel": "027-265-6661",
    "url": "http://www.kasuga-k.or.jp",
    "pref": "群馬県",
    "city": "前橋市",
    "category": "tokuyou",
    "serviceType": "介護老人福祉施設",
    "capacity": 50,
    "openDays": [],
    "openDaysNote": ""
  },
  {
    "id": "1070105661",
    "name": "特別養護老人ホーム春日の里ユニット型",
    "kana": "トクベツヨウゴロウジンホームカスガノサトユニットガタ",
    "address": "群馬県前橋市上佐鳥町７７４番地",
    "lat": 36.3557527,
    "lng": 139.083955,
    "tel": "027-265-6661",
    "url": "http://www.kasuga-k.or.jp/",
    "pref": "群馬県",
    "city": "前橋市",
    "category": "tokuyou",
    "serviceType": "介護老人福祉施設",
    "capacity": 50,
    "openDays": [],
    "openDaysNote": ""
  },
  {
    "id": "1070100548",
    "name": "特別養護老人ホーム上毛の里",
    "kana": "トクベツヨウゴロウジンホームジョウモウノサト",
    "address": "群馬県前橋市上増田町６００番地",
    "lat": 36.3525874,
    "lng": 139.1492709,
    "tel": "027-266-9023",
    "url": "http://www.kouenkai.or.jp/",
    "pref": "群馬県",
    "city": "前橋市",
    "category": "tokuyou",
    "serviceType": "介護老人福祉施設",
    "capacity": 0,
    "openDays": [],
    "openDaysNote": ""
  },
  {
    "id": "1070105612",
    "name": "特別養護老人ホーム上毛の里ユニット型",
    "kana": "トクベツヨウゴロウジンホームジョウモウノサトユニットガタ",
    "address": "群馬県前橋市上増田町６００",
    "lat": 36.3525874,
    "lng": 139.1492709,
    "tel": "027-266-9023",
    "url": "https://www.kouenkai.or.jp/",
    "pref": "群馬県",
    "city": "前橋市",
    "category": "tokuyou",
    "serviceType": "介護老人福祉施設",
    "capacity": 0,
    "openDays": [],
    "openDaysNote": ""
  },
  {
    "id": "1070100936",
    "name": "特別養護老人ホーム清里荘",
    "kana": "トクベツヨウゴロウジンホームキヨサトソウ",
    "address": "群馬県前橋市青梨子町５０３",
    "lat": 36.4134354,
    "lng": 139.0166757,
    "tel": "027-254-1513",
    "url": "www.kiyosatosou.jp",
    "pref": "群馬県",
    "city": "前橋市",
    "category": "tokuyou",
    "serviceType": "介護老人福祉施設",
    "capacity": null,
    "openDays": [],
    "openDaysNote": ""
  },
  {
    "id": "1070103526",
    "name": "特別養護老人ホーム明風園",
    "kana": "トクベツヨウゴロウジンホーム　メイフウエン",
    "address": "群馬県前橋市亀泉町1-26",
    "lat": 36.404798,
    "lng": 139.1267475,
    "tel": "027-269-4380",
    "url": "https://gswc-sf.org/meifuen/",
    "pref": "群馬県",
    "city": "前橋市",
    "category": "tokuyou",
    "serviceType": "介護老人福祉施設",
    "capacity": 0,
    "openDays": [],
    "openDaysNote": ""
  },
  {
    "id": "1070500051",
    "name": "社会福祉法人至誠会特別養護老人ホーム清風園",
    "kana": "シャカイフクシホウジンシセイカイ　トクベツヨウゴロウジンホームセイフウエン",
    "address": "群馬県太田市熊野町38-81",
    "lat": 36.3075433057794,
    "lng": 139.384645142467,
    "tel": "0276-22-2613",
    "url": "http://shisei-kai.net",
    "pref": "群馬県",
    "city": "太田市",
    "category": "tokuyou",
    "serviceType": "介護老人福祉施設",
    "capacity": 0,
    "openDays": [],
    "openDaysNote": ""
  },
  {
    "id": "1070502719",
    "name": "特別養護老人ホーム　きざきの郷",
    "kana": "トクベツヨウゴロウジンホーム　キザキノサト",
    "address": "群馬県太田市新田中江田町58－1",
    "lat": 36.2742479,
    "lng": 139.2998087,
    "tel": "0276－55－2290",
    "url": "http://umenosato.org/",
    "pref": "群馬県",
    "city": "太田市",
    "category": "tokuyou",
    "serviceType": "介護老人福祉施設",
    "capacity": 0,
    "openDays": [],
    "openDaysNote": ""
  },
  {
    "id": "1070503683",
    "name": "特別養護老人ホーム　きざきの郷　令和荘",
    "kana": "トクベツヨウゴロウジンホーム　キザキノサト　レイワソウ",
    "address": "群馬県太田市新田中江田町58-1",
    "lat": 36.2741223,
    "lng": 139.3007908,
    "tel": "0276-55-2290",
    "url": "http://umenosato.org/",
    "pref": "群馬県",
    "city": "太田市",
    "category": "tokuyou",
    "serviceType": "介護老人福祉施設",
    "capacity": null,
    "openDays": [],
    "openDaysNote": ""
  },
  {
    "id": "1070502750",
    "name": "特別養護老人ホーム　さくらの里",
    "kana": "トクベツヨウゴロウジンホーム　サクラノサト",
    "address": "群馬県太田市上田島町185番地1",
    "lat": 36.2765977270458,
    "lng": 139.327527658722,
    "tel": "0276-55-2968",
    "url": "http://keiyuukai-sakura.or.jp/",
    "pref": "群馬県",
    "city": "太田市",
    "category": "tokuyou",
    "serviceType": "介護老人福祉施設",
    "capacity": 60,
    "openDays": [],
    "openDaysNote": ""
  },
  {
    "id": "1070500283",
    "name": "特別養護老人ホーム　にらがわの里",
    "kana": "トクベツヨウゴロウジンホーム　ニラガワノサト",
    "address": "群馬県太田市上小林町1465-1",
    "lat": 36.3152394,
    "lng": 139.398549,
    "tel": "0276-25-5666",
    "url": "http://www.madokakai.or.jp/",
    "pref": "群馬県",
    "city": "太田市",
    "category": "tokuyou",
    "serviceType": "介護老人福祉施設",
    "capacity": 60,
    "openDays": [],
    "openDaysNote": ""
  },
  {
    "id": "1070500291",
    "name": "特別養護老人ホーム　みづほの里",
    "kana": "トクベツヨウゴロウジンホーム　ミヅホノサト",
    "address": "群馬県太田市牛沢町156-1",
    "lat": 36.2620196,
    "lng": 139.3581204,
    "tel": "0276-38-3200",
    "url": "http://www.gunma-doujinkai.or.jp/",
    "pref": "群馬県",
    "city": "太田市",
    "category": "tokuyou",
    "serviceType": "介護老人福祉施設",
    "capacity": 0,
    "openDays": [],
    "openDaysNote": ""
  },
  {
    "id": "1070502354",
    "name": "特別養護老人ホーム　ユニットにらがわの里",
    "kana": "トクベツヨウゴロウジンホーム　ユニットニラガワノサト",
    "address": "群馬県太田市上小林町1465-1",
    "lat": 36.3152394,
    "lng": 139.398549,
    "tel": "0276-60-5975",
    "url": "http://www.madokakai.or.jp/",
    "pref": "群馬県",
    "city": "太田市",
    "category": "tokuyou",
    "serviceType": "介護老人福祉施設",
    "capacity": 30,
    "openDays": [],
    "openDaysNote": ""
  },
  {
    "id": "1070503675",
    "name": "特別養護老人ホーム　ゆらの里にこにこホーム",
    "kana": "トクベツヨウゴロウジンホーム　ユラノサトニコニコホーム",
    "address": "群馬県太田市由良町104-1",
    "lat": 36.286220633714,
    "lng": 139.350437859423,
    "tel": "0276-55-1717",
    "url": "yuranosato.co.jp",
    "pref": "群馬県",
    "city": "太田市",
    "category": "tokuyou",
    "serviceType": "介護老人福祉施設",
    "capacity": 0,
    "openDays": [],
    "openDaysNote": ""
  },
  {
    "id": "1070501679",
    "name": "特別養護老人ホーム　愛の里にった",
    "kana": "トクベツヨウゴロウジンホーム　アイノサトニッタ",
    "address": "群馬県太田市新田市野井町145-1",
    "lat": 36.317388,
    "lng": 139.3108309,
    "tel": "0276-60-9661",
    "url": "http://www.aikokai.com",
    "pref": "群馬県",
    "city": "太田市",
    "category": "tokuyou",
    "serviceType": "介護老人福祉施設",
    "capacity": 40,
    "openDays": [],
    "openDaysNote": ""
  },
  {
    "id": "1070502172",
    "name": "特別養護老人ホーム　愛の里にった(ユニット型）",
    "kana": "トクベツヨウゴロウジンホーム　アイノサトニッタ　ユニット",
    "address": "群馬県太田市新田市野井町145-1",
    "lat": 36.317388,
    "lng": 139.3108309,
    "tel": "0276-60-9661",
    "url": "http://www.aikokai.com",
    "pref": "群馬県",
    "city": "太田市",
    "category": "tokuyou",
    "serviceType": "介護老人福祉施設",
    "capacity": 40,
    "openDays": [],
    "openDaysNote": ""
  },
  {
    "id": "1072900143",
    "name": "特別養護老人ホーム　愛光園",
    "kana": "トクベツヨウゴロウジンホーム　アイコウエン",
    "address": "群馬県太田市新田上江田町1513-1",
    "lat": 36.3016918,
    "lng": 139.2850483,
    "tel": "0276-56-7222",
    "url": "http://www.aikokai.com/",
    "pref": "群馬県",
    "city": "太田市",
    "category": "tokuyou",
    "serviceType": "介護老人福祉施設",
    "capacity": 90,
    "openDays": [],
    "openDaysNote": ""
  },
  {
    "id": "1072900549",
    "name": "特別養護老人ホーム　親孝行の里",
    "kana": "トクベツヨウゴロウジンホームオヤコウコウノサト",
    "address": "群馬県太田市藪塚町３９２２",
    "lat": 36.3764183,
    "lng": 139.3120401,
    "tel": "0277-78-1165",
    "url": "http://www.oyakoukounosato.com",
    "pref": "群馬県",
    "city": "太田市",
    "category": "tokuyou",
    "serviceType": "介護老人福祉施設",
    "capacity": 0,
    "openDays": [],
    "openDaysNote": ""
  },
  {
    "id": "1072900127",
    "name": "特別養護老人ホーム　清和荘",
    "kana": "トクベツヨウゴロウジンホーム　セイワソウ",
    "address": "群馬県太田市亀岡町280番地",
    "lat": 36.2552251,
    "lng": 139.3181686,
    "tel": "0276-52-5002",
    "url": "http://meikoukai.net/",
    "pref": "群馬県",
    "city": "太田市",
    "category": "tokuyou",
    "serviceType": "介護老人福祉施設",
    "capacity": 0,
    "openDays": [],
    "openDaysNote": ""
  },
  {
    "id": "1070502818",
    "name": "特別養護老人ホーム　清和荘(ユニット型)",
    "kana": "トクベツヨウゴロウジンホーム　セイワソウ（ユニットガタ）",
    "address": "群馬県太田市亀岡町280",
    "lat": 36.2552251,
    "lng": 139.3181686,
    "tel": "0276-52-5002",
    "url": "http://meikoukai.net/",
    "pref": "群馬県",
    "city": "太田市",
    "category": "tokuyou",
    "serviceType": "介護老人福祉施設",
    "capacity": 0,
    "openDays": [],
    "openDaysNote": ""
  },
  {
    "id": "1070500275",
    "name": "特別養護老人ホーム　鶴生田園",
    "kana": "トクベツヨウゴロウジンホーム　ツルウダエン",
    "address": "群馬県太田市鶴生田町　1970-53",
    "lat": 36.32306,
    "lng": 139.3643905,
    "tel": "0276-25-6101",
    "url": "http://www.gunma-doujinkai.or.jp/",
    "pref": "群馬県",
    "city": "太田市",
    "category": "tokuyou",
    "serviceType": "介護老人福祉施設",
    "capacity": 0,
    "openDays": [],
    "openDaysNote": ""
  },
  {
    "id": "1070501109",
    "name": "特別養護老人ホームこまくさ",
    "kana": "トクベツヨウゴロウジンホームコマクサ",
    "address": "群馬県太田市藤阿久町３６０－１",
    "lat": 36.2863836,
    "lng": 139.3605024,
    "tel": "0276-33-7355",
    "url": "http://komakusa.jinwakai.net/",
    "pref": "群馬県",
    "city": "太田市",
    "category": "tokuyou",
    "serviceType": "介護老人福祉施設",
    "capacity": 75,
    "openDays": [],
    "openDaysNote": ""
  },
  {
    "id": "1070503311",
    "name": "特別養護老人ホームささら子の里",
    "kana": "トクベツヨウゴロウジンホームササラコノサト",
    "address": "群馬県太田市新田赤堀町128-1",
    "lat": 36.2978287,
    "lng": 139.3009218,
    "tel": "276609988",
    "url": "http://www.gunma-doujinkai.or.jp",
    "pref": "群馬県",
    "city": "太田市",
    "category": "tokuyou",
    "serviceType": "介護老人福祉施設",
    "capacity": 0,
    "openDays": [],
    "openDaysNote": ""
  },
  {
    "id": "1070503352",
    "name": "特別養護老人ホーム高原園",
    "kana": "トクベツヨウゴロウジンホームタカハラエン",
    "address": "群馬県太田市龍舞町410番地2",
    "lat": 36.2749630664985,
    "lng": 139.424576142861,
    "tel": "0276－45－4967",
    "url": "https://care-net.bz/10/takahara/",
    "pref": "群馬県",
    "city": "太田市",
    "category": "tokuyou",
    "serviceType": "介護老人福祉施設",
    "capacity": 100,
    "openDays": [],
    "openDaysNote": ""
  },
  {
    "id": "1070500184",
    "name": "特別養護老人ホーム八瀬川の里",
    "kana": "トクベツヨウゴロウジンホーム　ヤセガワノサト",
    "address": "群馬県太田市高林北町1185",
    "lat": 36.2630417,
    "lng": 139.3713638,
    "tel": "0276-40-6210",
    "url": "www.jinwakai.mat/",
    "pref": "群馬県",
    "city": "太田市",
    "category": "tokuyou",
    "serviceType": "介護老人福祉施設",
    "capacity": 85,
    "openDays": [],
    "openDaysNote": ""
  },
  {
    "id": "1073100115",
    "name": "特別養護老人ホーム　大泉園",
    "kana": "トクベツヨウゴロウジンホーム　オオイズミエン",
    "address": "群馬県邑楽郡大泉町古海２００１",
    "lat": 36.2290569,
    "lng": 139.4143144,
    "tel": "0276-62-8841",
    "url": "http://www.ooizumi.gunma-doujinkai.or.jp/",
    "pref": "群馬県",
    "city": "大泉町",
    "category": "tokuyou",
    "serviceType": "介護老人福祉施設",
    "capacity": 0,
    "openDays": [],
    "openDaysNote": ""
  },
  {
    "id": "1073101287",
    "name": "特別養護老人ホームあいの花",
    "kana": "トクベツヨウゴロウジンホームアイノハナ",
    "address": "群馬県邑楽郡大泉町吉田2392-3",
    "lat": 36.2441515917078,
    "lng": 139.410615046696,
    "tel": "0276-57-8711",
    "url": "https://i-miyagokai.jp/ainohana/",
    "pref": "群馬県",
    "city": "大泉町",
    "category": "tokuyou",
    "serviceType": "介護老人福祉施設",
    "capacity": 0,
    "openDays": [],
    "openDaysNote": ""
  },
  {
    "id": "1072600735",
    "name": "特別養護老人ホーム　サザン小川",
    "kana": "トクベツヨウゴロウジンホーム　サザンオガワ",
    "address": "群馬県吾妻郡中之条町大字中之条町714-1",
    "lat": 36.5837013,
    "lng": 138.8324817,
    "tel": "0279-75-7890",
    "url": "https://southern-ogawa.or.jp/",
    "pref": "群馬県",
    "city": "中之条町",
    "category": "tokuyou",
    "serviceType": "介護老人福祉施設",
    "capacity": 70,
    "openDays": [],
    "openDaysNote": ""
  },
  {
    "id": "1072600156",
    "name": "特別養護老人ホームやまゆり荘",
    "kana": "トクベツヨウゴロウジンホームヤマユリソウ",
    "address": "群馬県吾妻郡中之条町大字折田２５１５",
    "lat": 36.6021819,
    "lng": 138.8141078,
    "tel": "0279-75-6517",
    "url": "http://www12.wind.ne.jp/harukaze/",
    "pref": "群馬県",
    "city": "中之条町",
    "category": "tokuyou",
    "serviceType": "介護老人福祉施設",
    "capacity": 80,
    "openDays": [],
    "openDaysNote": ""
  },
  {
    "id": "1072600081",
    "name": "からまつ荘",
    "kana": "カラマツソウ",
    "address": "群馬県吾妻郡長野原町大字与喜屋1624",
    "lat": 36.546954,
    "lng": 138.6185791,
    "tel": "0279-82-4150",
    "url": "https://nishiagatsuma.jp/",
    "pref": "群馬県",
    "city": "長野原町",
    "category": "tokuyou",
    "serviceType": "介護老人福祉施設",
    "capacity": 80,
    "openDays": [],
    "openDaysNote": ""
  },
  {
    "id": "1072600412",
    "name": "特別養護老人ホーム　ひだまりの森白樺荘",
    "kana": "トクベツヨウゴロウジンホーム　ヒダマリノモリシラカバソウ",
    "address": "群馬県　吾妻郡　嬬恋村　大字　田代　９３８－８",
    "lat": 36.4843484,
    "lng": 138.4616391,
    "tel": "0279-98-0789",
    "url": "http://www.nodoka.or.jp",
    "pref": "群馬県",
    "city": "嬬恋村",
    "category": "tokuyou",
    "serviceType": "介護老人福祉施設",
    "capacity": 70,
    "openDays": [],
    "openDaysNote": ""
  },
  {
    "id": "1072600644",
    "name": "東吾妻町立特別養護老人ホームいわびつ荘",
    "kana": "ヒガシアガツマチョウリツトクベツヨウゴロウジンホームイワビツソウ",
    "address": "群馬県吾妻郡東吾妻町大字原町5015番地",
    "lat": 36.5709998,
    "lng": 138.82463,
    "tel": "0279-68-4840",
    "url": "https://higashiaga-shakyo.jp/",
    "pref": "群馬県",
    "city": "東吾妻町",
    "category": "tokuyou",
    "serviceType": "介護老人福祉施設",
    "capacity": 4,
    "openDays": [],
    "openDaysNote": ""
  },
  {
    "id": "1072300088",
    "name": "御嶽特別養護老人ホーム",
    "kana": "ミタケトクベツヨウゴロウジンホーム",
    "address": "群馬県藤岡市浄法寺１８８１－６",
    "lat": 36.1879566,
    "lng": 139.049604,
    "tel": "0274-52-2231",
    "url": "http://ryuhoukai.jp/",
    "pref": "群馬県",
    "city": "藤岡市",
    "category": "tokuyou",
    "serviceType": "介護老人福祉施設",
    "capacity": 40,
    "openDays": [],
    "openDaysNote": ""
  },
  {
    "id": "1070900053",
    "name": "社会福祉法人伸和会つどい（岡の郷）",
    "kana": "シャカイフクシホウジンシンワカイツドイ（オカノゴウ）",
    "address": "群馬県藤岡市岡之郷１２番地４",
    "lat": 36.2743531,
    "lng": 139.0883257,
    "tel": "0274-40-3400",
    "url": "http://www.fuku-shinwakai.or.jp",
    "pref": "群馬県",
    "city": "藤岡市",
    "category": "tokuyou",
    "serviceType": "介護老人福祉施設",
    "capacity": 50,
    "openDays": [],
    "openDaysNote": ""
  },
  {
    "id": "1070901150",
    "name": "特別養護老人ホーム　つどい（ユニット型）",
    "kana": "トクベツヨウゴロウジンホーム　ツドイ（ユニットガタ）",
    "address": "群馬県藤岡市岡之郷8番地1",
    "lat": 36.2746475,
    "lng": 139.0878674,
    "tel": "0274-40-3400",
    "url": "http://www.fuku-shinwakai.or.jp",
    "pref": "群馬県",
    "city": "藤岡市",
    "category": "tokuyou",
    "serviceType": "介護老人福祉施設",
    "capacity": 0,
    "openDays": [],
    "openDaysNote": ""
  },
  {
    "id": "1070900046",
    "name": "特別養護老人ホーム　ふじの里",
    "kana": "トクベツヨウゴロウジンホーム　フジノサト",
    "address": "群馬県藤岡市中大塚880番地特別養護老人ホーム　ふじの里 特別養護老人ホーム　ふじの里",
    "lat": 36.246808,
    "lng": 139.0519883,
    "tel": "0274-24-6666",
    "url": "fujino-sato.jp",
    "pref": "群馬県",
    "city": "藤岡市",
    "category": "tokuyou",
    "serviceType": "介護老人福祉施設",
    "capacity": 50,
    "openDays": [],
    "openDaysNote": ""
  },
  {
    "id": "1070901192",
    "name": "特別養護老人ホーム　ライフゆうかり",
    "kana": "トクベツヨウゴロウジンホーム　ライフユウカリ",
    "address": "群馬県藤岡市小林975-1",
    "lat": 36.2373259189036,
    "lng": 139.091249488431,
    "tel": "0274-22-8341",
    "url": "http://mikinokai.com/yukari_index.php",
    "pref": "群馬県",
    "city": "藤岡市",
    "category": "tokuyou",
    "serviceType": "介護老人福祉施設",
    "capacity": 70,
    "openDays": [],
    "openDaysNote": ""
  },
  {
    "id": "1070900509",
    "name": "特別養護老人ホーム　真ほろば",
    "kana": "トクベツヨウゴロウジンホーム　マホロバ",
    "address": "群馬県藤岡市藤岡1019-2",
    "lat": 36.2550684,
    "lng": 139.068281,
    "tel": "0274-23-6520",
    "url": "http://www.junsei-kai.or.jp",
    "pref": "群馬県",
    "city": "藤岡市",
    "category": "tokuyou",
    "serviceType": "介護老人福祉施設",
    "capacity": 0,
    "openDays": [],
    "openDaysNote": ""
  },
  {
    "id": "1070900061",
    "name": "特別養護老人ホーム音和の園",
    "kana": "トクベツヨウゴロウジンホームオトワノソノ",
    "address": "群馬県藤岡市藤岡２８７４-２",
    "lat": 36.2236164,
    "lng": 139.0586797,
    "tel": "0274-24-2095",
    "url": "http://park10.wakwak.com/~otowanosono/",
    "pref": "群馬県",
    "city": "藤岡市",
    "category": "tokuyou",
    "serviceType": "介護老人福祉施設",
    "capacity": 0,
    "openDays": [],
    "openDaysNote": ""
  },
  {
    "id": "1072400060",
    "name": "さわやかホーム",
    "kana": "サワヤカホーム",
    "address": "群馬県甘楽郡南牧村大字大日向９２６",
    "lat": 36.1576448,
    "lng": 138.7037486,
    "tel": "0274-87-2100",
    "url": "http://sawayaka.doctor-hp.com",
    "pref": "群馬県",
    "city": "南牧村",
    "category": "tokuyou",
    "serviceType": "介護老人福祉施設",
    "capacity": 0,
    "openDays": [],
    "openDaysNote": ""
  },
  {
    "id": "1073100016",
    "name": "ミモザ荘",
    "kana": "ミモザソウ",
    "address": "群馬県邑楽郡板倉町細谷２１７",
    "lat": 36.2480335,
    "lng": 139.6252018,
    "tel": "0276-77-2550",
    "url": "www.popurakai.or.jp",
    "pref": "群馬県",
    "city": "板倉町",
    "category": "tokuyou",
    "serviceType": "介護老人福祉施設",
    "capacity": null,
    "openDays": [],
    "openDaysNote": ""
  },
  {
    "id": "1071000101",
    "name": "社会福祉法人　大桐会　天の間園",
    "kana": "シャカイフクシホウジン　オオギリカイ　アマノマエン",
    "address": "群馬県富岡市上高瀬1390",
    "lat": 36.2468762365797,
    "lng": 138.873402344336,
    "tel": "0274-63-7774",
    "url": "https://amanomaen.coresv.com/",
    "pref": "群馬県",
    "city": "富岡市",
    "category": "tokuyou",
    "serviceType": "介護老人福祉施設",
    "capacity": 0,
    "openDays": [],
    "openDaysNote": ""
  },
  {
    "id": "1071000960",
    "name": "特別養護老人ホーム　あまてらす（ユニット型）",
    "kana": "トクベツヨウゴロウジンホーム　アマテラス（ユニットガタ）",
    "address": "群馬県富岡市相野田660番地1",
    "lat": 36.2879934,
    "lng": 138.9218582,
    "tel": "0274-63-8800",
    "url": "http://yuujinkai.org",
    "pref": "群馬県",
    "city": "富岡市",
    "category": "tokuyou",
    "serviceType": "介護老人福祉施設",
    "capacity": 44,
    "openDays": [],
    "openDaysNote": ""
  },
  {
    "id": "1071000952",
    "name": "特別養護老人ホーム　あまてらす（従来型）",
    "kana": "トクベツヨウゴロウジンホーム　アマテラス（ジュライガタ）",
    "address": "群馬県富岡市相野田660番地1",
    "lat": 36.2880063720038,
    "lng": 138.922469743655,
    "tel": "0274-63-8800",
    "url": "http://yuujinkai.org",
    "pref": "群馬県",
    "city": "富岡市",
    "category": "tokuyou",
    "serviceType": "介護老人福祉施設",
    "capacity": 36,
    "openDays": [],
    "openDaysNote": ""
  },
  {
    "id": "1071000077",
    "name": "特別養護老人ホーム　鏑泉苑",
    "kana": "トクベツヨウゴロウジンホーム　テキセンエン",
    "address": "群馬県富岡市下高瀬724番地",
    "lat": 36.2421844,
    "lng": 138.886503,
    "tel": "0274-62-0964",
    "url": "http://www.keisaikai.com/",
    "pref": "群馬県",
    "city": "富岡市",
    "category": "tokuyou",
    "serviceType": "介護老人福祉施設",
    "capacity": 40,
    "openDays": [],
    "openDaysNote": ""
  },
  {
    "id": "1071000192",
    "name": "特別養護老人ホームふれあいホーム",
    "kana": "トクベツヨウゴロウジンホームフレアイホーム",
    "address": "群馬県富岡市黒川1380",
    "lat": 36.2682868,
    "lng": 138.8796104,
    "tel": "0274-70-2020",
    "url": "https://kyousei.gunma.jp",
    "pref": "群馬県",
    "city": "富岡市",
    "category": "tokuyou",
    "serviceType": "介護老人福祉施設",
    "capacity": 0,
    "openDays": [],
    "openDaysNote": ""
  },
  {
    "id": "1071000846",
    "name": "特別養護老人ホーム妙義",
    "kana": "トクベツヨウゴロウジンホームミョウギ",
    "address": "群馬県富岡市妙義町下高田1888-1",
    "lat": 36.2816769,
    "lng": 138.8259703,
    "tel": "0274-73-4151",
    "url": "http://myogi.or.jp",
    "pref": "群馬県",
    "city": "富岡市",
    "category": "tokuyou",
    "serviceType": "介護老人福祉施設",
    "capacity": 0,
    "openDays": [],
    "openDaysNote": ""
  },
  {
    "id": "1071000911",
    "name": "特別養護老人ホーム妙義するすみ",
    "kana": "トクベツヨウゴロウジンホームミョウギスルスミ",
    "address": "群馬県富岡市妙義町下高田1887番地1特別養護老人ホーム妙義するすみ 特別養護老人ホーム妙義するすみ",
    "lat": 36.2820174275224,
    "lng": 138.825403797719,
    "tel": "0274-67-1300",
    "url": "http://myogi.or.jp/",
    "pref": "群馬県",
    "city": "富岡市",
    "category": "tokuyou",
    "serviceType": "介護老人福祉施設",
    "capacity": 0,
    "openDays": [],
    "openDaysNote": ""
  },
  {
    "id": "1072700170",
    "name": "特別養護老人ホーム桜花苑",
    "kana": "トクベツヨウゴロウジンホーム　オウカエン",
    "address": "群馬県利根郡片品村大字摺渕340番地",
    "lat": 36.7375758,
    "lng": 139.2215085,
    "tel": "0278-58-4010",
    "url": "http://oukaen.wix.com/ozetyoujukai",
    "pref": "群馬県",
    "city": "片品村",
    "category": "tokuyou",
    "serviceType": "介護老人福祉施設",
    "capacity": 0,
    "openDays": [],
    "openDaysNote": ""
  },
  {
    "id": "1073100271",
    "name": "特別養護老人ホーム和の郷",
    "kana": "トクベツヨウゴロウジンホームナゴミノサト",
    "address": "群馬県邑楽郡明和町南大島２５３－１",
    "lat": 36.2145075,
    "lng": 139.5300919,
    "tel": "0276-91-3011",
    "url": "http://www.nagomi-gunma.jp/",
    "pref": "群馬県",
    "city": "明和町",
    "category": "tokuyou",
    "serviceType": "介護老人福祉施設",
    "capacity": 0,
    "openDays": [],
    "openDaysNote": ""
  },
  {
    "id": "1073100198",
    "name": "特別養護老人ホーム　やまつつじ",
    "kana": "トクベツヨウゴロウジンホウム　ヤマツツジ",
    "address": "群馬県邑楽郡邑楽町中野２１８－１",
    "lat": 36.2664036,
    "lng": 139.449209,
    "tel": "0276-80-9000",
    "url": "https://care-net.biz/10/oyu-kai/",
    "pref": "群馬県",
    "city": "邑楽町",
    "category": "tokuyou",
    "serviceType": "介護老人福祉施設",
    "capacity": 70,
    "openDays": [],
    "openDaysNote": ""
  },
  {
    "id": "1073101204",
    "name": "特別養護老人ホームまがたまの里",
    "kana": "トクベツヨウゴロウジンホームマガタマノサト",
    "address": "群馬県邑楽郡邑楽町大字狸塚１０４０番地１",
    "lat": 36.2350631596939,
    "lng": 139.461896783467,
    "tel": "0276-89-0011",
    "url": "www.magatamanosato.com",
    "pref": "群馬県",
    "city": "邑楽町",
    "category": "tokuyou",
    "serviceType": "介護老人福祉施設",
    "capacity": 50,
    "openDays": [],
    "openDaysNote": ""
  }
]