[
  {
    "id": "873000103",
    "name": "社会福祉法人　聖隷会　特別養護老人ホーム　霞ヶ浦の里",
    "kana": "シャカイフクシホウジンセイレイカイトクベツヨウゴロウジンホーム　カスミガウラノサト",
    "address": "茨城県かすみがうら市男神356番地１",
    "lat": 36.0883939,
    "lng": 140.3455459,
    "tel": "029-834-6000",
    "url": "http://www.seireikai.jp/",
    "pref": "茨城県",
    "city": "かすみがうら市",
    "category": "tokuyou",
    "serviceType": "介護老人福祉施設",
    "capacity": 50,
    "openDays": [],
    "openDaysNote": ""
  },
  {
    "id": "873900187",
    "name": "社会福祉法人廣山会　特別養護老人ホームプルミエールひたち野",
    "kana": "シャカイフクシホウジンコウザンカイトクベツヨウゴロウジンホームプルミエールヒタチノ",
    "address": "かすみがうら市大字上土田山田330番地2",
    "lat": 36.0942581,
    "lng": 140.3307847,
    "tel": "0299-59-5611",
    "url": "http://www.premierehitachino.com",
    "pref": "茨城県",
    "city": "かすみがうら市",
    "category": "tokuyou",
    "serviceType": "介護老人福祉施設",
    "capacity": 80,
    "openDays": [],
    "openDaysNote": ""
  },
  {
    "id": "873900427",
    "name": "特別養護老人ホーム　グリーンヒル千代田",
    "kana": "トクベツヨウゴロウジンホーム　グリーンヒルチヨダ",
    "address": "茨城県かすみがうら市上佐谷2008",
    "lat": 36.1639882,
    "lng": 140.2107305,
    "tel": "0299-59-3787",
    "url": "asahikai@ab.wakwak.com",
    "pref": "茨城県",
    "city": "かすみがうら市",
    "category": "tokuyou",
    "serviceType": "介護老人福祉施設",
    "capacity": 0,
    "openDays": [],
    "openDaysNote": ""
  },
  {
    "id": "873000061",
    "name": "特別養護老人ホーム　ふるさと",
    "kana": "トクベツヨウゴロウジンホーム　フルサト",
    "address": "茨城県かすみがうら市新治１８１１－６",
    "lat": 36.1405248,
    "lng": 140.248464,
    "tel": "0299-59-7778",
    "url": "http://kasumikai-furusato.com",
    "pref": "茨城県",
    "city": "かすみがうら市",
    "category": "tokuyou",
    "serviceType": "介護老人福祉施設",
    "capacity": null,
    "openDays": [],
    "openDaysNote": ""
  },
  {
    "id": "873000418",
    "name": "特別養護老人ホーム　筑水苑かすみがうら",
    "kana": "トクベツヨウゴロウジンホーム　チクスイエンカスミガウラ",
    "address": "茨城県かすみがうら市宍倉6150-5",
    "lat": 36.1233378,
    "lng": 140.2607993,
    "tel": "029-869-6331",
    "url": "http://www.tikusuien.jp/kasumigaura/about/",
    "pref": "茨城県",
    "city": "かすみがうら市",
    "category": "tokuyou",
    "serviceType": "介護老人福祉施設",
    "capacity": 0,
    "openDays": [],
    "openDaysNote": ""
  },
  {
    "id": "873900096",
    "name": "特別養護老人ホームサンシャインつくば",
    "kana": "トクベツヨウゴロウジンホームサンシャインツクバ",
    "address": "茨城県かすみがうら市上大堤210-27",
    "lat": 36.1086122,
    "lng": 140.2883778,
    "tel": "029-897-0101",
    "url": "https://www.seihoukai-ibaraki.org",
    "pref": "茨城県",
    "city": "かすみがうら市",
    "category": "tokuyou",
    "serviceType": "介護老人福祉施設",
    "capacity": 30,
    "openDays": [],
    "openDaysNote": ""
  },
  {
    "id": "875500233",
    "name": "特別養護老人ホーム　いなの里",
    "kana": "トクベツヨウゴロウジンホーム　イナノサト",
    "address": "茨城県つくばみらい市長渡呂新田840－2",
    "lat": 35.9567133,
    "lng": 140.02731,
    "tel": "0297－57－1223",
    "url": "http:/www.inanosato.ocm/index.html",
    "pref": "茨城県",
    "city": "つくばみらい市",
    "category": "tokuyou",
    "serviceType": "介護老人福祉施設",
    "capacity": 0,
    "openDays": [],
    "openDaysNote": ""
  },
  {
    "id": "874000110",
    "name": "特別養護老人ホーム　いなの里",
    "kana": "トクベツヨウゴロウジンホーム　イナノサト",
    "address": "つくばみらい市長渡呂新田840－2",
    "lat": 35.9567133,
    "lng": 140.02731,
    "tel": "0297-57-1223",
    "url": "http://www.inanosato.com/index.html",
    "pref": "茨城県",
    "city": "つくばみらい市",
    "category": "tokuyou",
    "serviceType": "介護老人福祉施設",
    "capacity": 0,
    "openDays": [],
    "openDaysNote": ""
  },
  {
    "id": "875500225",
    "name": "特別養護老人ホームぬくもり荘(ユニット型個室)",
    "kana": "トクベツヨウゴロウジンホームヌクモリソウ",
    "address": "茨城県つくばみらい市古川1047",
    "lat": 35.9927419,
    "lng": 140.0131101,
    "tel": "0297-52-1280",
    "url": "http://www.nukumorisou.com/",
    "pref": "茨城県",
    "city": "つくばみらい市",
    "category": "tokuyou",
    "serviceType": "介護老人福祉施設",
    "capacity": 30,
    "openDays": [],
    "openDaysNote": ""
  },
  {
    "id": "874000037",
    "name": "特別養護老人ホームぬくもり荘(多床室)",
    "kana": "トクベツヨウゴロウジンホームヌクモリソウ",
    "address": "茨城県つくばみらい市古川１０４７",
    "lat": 35.9927669,
    "lng": 140.013099,
    "tel": "0297-52-1280",
    "url": "https://www.nukumorisou.com/",
    "pref": "茨城県",
    "city": "つくばみらい市",
    "category": "tokuyou",
    "serviceType": "介護老人福祉施設",
    "capacity": 52,
    "openDays": [],
    "openDaysNote": ""
  },
  {
    "id": "875500175",
    "name": "特別養護老人ホーム雅荘",
    "kana": "トクベツヨウゴロウジンホームミヤビソウ",
    "address": "茨城県つくばみらい市福岡1199",
    "lat": 36.0241896992024,
    "lng": 140.032781973016,
    "tel": "0297-20-5525",
    "url": "http://www.miyabisou.jp",
    "pref": "茨城県",
    "city": "つくばみらい市",
    "category": "tokuyou",
    "serviceType": "介護老人福祉施設",
    "capacity": null,
    "openDays": [],
    "openDaysNote": ""
  },
  {
    "id": "872000856",
    "name": "特別養護老人ホーム　　アイリスコート",
    "kana": "トクベツヨウゴロウジンホーム　アイリスコート",
    "address": "つくば市上横場429－1",
    "lat": 36.0519665840067,
    "lng": 140.087488093362,
    "tel": "029-839-3131",
    "url": "http://www.iriscourt.jp",
    "pref": "茨城県",
    "city": "つくば市",
    "category": "tokuyou",
    "serviceType": "介護老人福祉施設",
    "capacity": 0,
    "openDays": [],
    "openDaysNote": ""
  },
  {
    "id": "872000708",
    "name": "特別養護老人ホーム　くきの里",
    "kana": "トクベツヨウゴロウジンホーム　クキノサト",
    "address": "茨城県つくば市上岩崎1845-27",
    "lat": 35.9858872,
    "lng": 140.0959278,
    "tel": "029-840-1131",
    "url": "http://www.aishinkai.or.jp",
    "pref": "茨城県",
    "city": "つくば市",
    "category": "tokuyou",
    "serviceType": "介護老人福祉施設",
    "capacity": 50,
    "openDays": [],
    "openDaysNote": ""
  },
  {
    "id": "872000617",
    "name": "特別養護老人ホーム　シニアガーデン",
    "kana": "トクベツヨウゴロウジンホーム　シニアガーデン",
    "address": "茨城県つくば市大曽根3690",
    "lat": 36.1389629,
    "lng": 140.0790405,
    "tel": "029-877-0203",
    "url": "https://f-kenseikai.or.jp/",
    "pref": "茨城県",
    "city": "つくば市",
    "category": "tokuyou",
    "serviceType": "介護老人福祉施設",
    "capacity": null,
    "openDays": [],
    "openDaysNote": ""
  },
  {
    "id": "872090022",
    "name": "特別養護老人ホーム　まごころの杜つくば",
    "kana": "トクベツヨウゴロウジンホーム　マゴコロノモリツクバ",
    "address": "茨城県つくば市大砂185-2",
    "lat": 36.1465745556906,
    "lng": 140.04504472209,
    "tel": "029-886-8710",
    "url": "https://sekiyoukai.or.jp/",
    "pref": "茨城県",
    "city": "つくば市",
    "category": "tokuyou",
    "serviceType": "介護老人福祉施設",
    "capacity": 0,
    "openDays": [],
    "openDaysNote": ""
  },
  {
    "id": "872090014",
    "name": "特別養護老人ホーム　新つくばホーム新館",
    "kana": "トクベツヨウゴロウジンホーム　シンツクバホームシンカン",
    "address": "茨城県つくば市学園の森３丁目２９番地２",
    "lat": 36.0939735597294,
    "lng": 140.091434400594,
    "tel": "０２９－８５６－４４７７",
    "url": "http://chikunan-kai.jp/facility/shintukuba/",
    "pref": "茨城県",
    "city": "つくば市",
    "category": "tokuyou",
    "serviceType": "介護老人福祉施設",
    "capacity": 0,
    "openDays": [],
    "openDaysNote": ""
  },
  {
    "id": "872002050",
    "name": "特別養護老人ホーム　大地と大空",
    "kana": "トクベツヨウゴロウジンホーム　ダイチトオオゾラ",
    "address": "茨城県つくば市稲荷原１２４１－１",
    "lat": 36.0068934,
    "lng": 140.1141788,
    "tel": "029-879-8101",
    "url": "http://daichi.kinsuikai.org/",
    "pref": "茨城県",
    "city": "つくば市",
    "category": "tokuyou",
    "serviceType": "介護老人福祉施設",
    "capacity": 60,
    "openDays": [],
    "openDaysNote": ""
  },
  {
    "id": "872000187",
    "name": "特別養護老人ホーム　筑波園",
    "kana": "トクベツヨウゴロウジンホーム　ツクバエン",
    "address": "茨城県つくば市北条１１８０",
    "lat": 36.1806333,
    "lng": 140.0979349,
    "tel": "029-867-1161",
    "url": "http://www.intio.or.jp/tukubaen",
    "pref": "茨城県",
    "city": "つくば市",
    "category": "tokuyou",
    "serviceType": "介護老人福祉施設",
    "capacity": 0,
    "openDays": [],
    "openDaysNote": ""
  },
  {
    "id": "872090006",
    "name": "特別養護老人ホーム　筑波園",
    "kana": "トクベツヨウゴロウジンホーム　ツクバエン",
    "address": "茨城県つくば市北条1180",
    "lat": 36.180632,
    "lng": 140.0978924,
    "tel": "029-867-1161",
    "url": "http://www.intio.or.jp/tukubaen",
    "pref": "茨城県",
    "city": "つくば市",
    "category": "tokuyou",
    "serviceType": "介護老人福祉施設",
    "capacity": 0,
    "openDays": [],
    "openDaysNote": ""
  },
  {
    "id": "872000195",
    "name": "特別養護老人ホーム　美健荘",
    "kana": "トクベツヨウゴロウジンホーム　ビケンソウ",
    "address": "茨城県つくば市上郷1438-3",
    "lat": 36.1106677,
    "lng": 140.017169,
    "tel": "029-847-4194",
    "url": "http://www.bikensou.jp/",
    "pref": "茨城県",
    "city": "つくば市",
    "category": "tokuyou",
    "serviceType": "介護老人福祉施設",
    "capacity": null,
    "openDays": [],
    "openDaysNote": ""
  },
  {
    "id": "872001789",
    "name": "特別養護老人ホーム　木の花さくや",
    "kana": "トクベツヨウゴロウジンホーム　コノハナサクヤ",
    "address": "つくば市鬼ヶ窪字大割１２１２番１１",
    "lat": 36.0790935372148,
    "lng": 140.047940717722,
    "tel": "029-828-7061",
    "url": "https://www.nozomikai.com",
    "pref": "茨城県",
    "city": "つくば市",
    "category": "tokuyou",
    "serviceType": "介護老人福祉施設",
    "capacity": 70,
    "openDays": [],
    "openDaysNote": ""
  },
  {
    "id": "872000211",
    "name": "特別養護老人ホームつくばの杜",
    "kana": "トクベツヨウゴロウジンホームツクバノモリ",
    "address": "茨城県つくば市吉瀬字神送1017-1",
    "lat": 36.0755383855491,
    "lng": 140.149262592313,
    "tel": "029-857-8666",
    "url": "http://www.tsukubanomori.or.jp",
    "pref": "茨城県",
    "city": "つくば市",
    "category": "tokuyou",
    "serviceType": "介護老人福祉施設",
    "capacity": 0,
    "openDays": [],
    "openDaysNote": ""
  },
  {
    "id": "872002407",
    "name": "特別養護老人ホームはなみずき",
    "kana": "トクベツヨウゴロウジンホームハナミズキ",
    "address": "下原525－1",
    "lat": 36.040081,
    "lng": 140.1321755,
    "tel": "029－896－3022",
    "url": "http://hanamizuki-care.jp/",
    "pref": "茨城県",
    "city": "つくば市",
    "category": "tokuyou",
    "serviceType": "介護老人福祉施設",
    "capacity": 0,
    "openDays": [],
    "openDaysNote": ""
  },
  {
    "id": "872000203",
    "name": "特別養護老人ホーム新つくばホーム",
    "kana": "トクベツヨウゴロウジンホームシンツクバホーム",
    "address": "茨城県つくば市学園の森３丁目２９番地２",
    "lat": 36.0939375,
    "lng": 140.09183,
    "tel": "029-856-4477",
    "url": "http://chikunan-kai.jp/facility/shintukuba/",
    "pref": "茨城県",
    "city": "つくば市",
    "category": "tokuyou",
    "serviceType": "介護老人福祉施設",
    "capacity": 50,
    "openDays": [],
    "openDaysNote": ""
  },
  {
    "id": "872101829",
    "name": "特別養護老人ホーム　グリーンハウスひたちなか",
    "kana": "トクベツヨウゴロウジンホーム　グリーンハウスヒタチナカ",
    "address": "茨城県ひたちなか市東石川3183-1",
    "lat": 36.415523048404,
    "lng": 140.537340682448,
    "tel": "029-354-8001",
    "url": "http://www.shoseikai.com/hitatinaka/top/hitatinaka_top.html",
    "pref": "茨城県",
    "city": "ひたちなか市",
    "category": "tokuyou",
    "serviceType": "介護老人福祉施設",
    "capacity": 0,
    "openDays": [],
    "openDaysNote": ""
  },
  {
    "id": "872100250",
    "name": "特別養護老人ホーム　サンフラワーひたちなか",
    "kana": "トクベツヨウゴロウジンホーム　サンフラワーヒタチナカ",
    "address": "茨城県ひたちなか市長砂字久保633-1",
    "lat": 36.4179427685654,
    "lng": 140.577296501247,
    "tel": "029-285-9288",
    "url": "http://www.tokai-sunflower.com/",
    "pref": "茨城県",
    "city": "ひたちなか市",
    "category": "tokuyou",
    "serviceType": "介護老人福祉施設",
    "capacity": 53,
    "openDays": [],
    "openDaysNote": ""
  },
  {
    "id": "872100771",
    "name": "特別養護老人ホーム　はまぎくの里",
    "kana": "トクベツヨウゴロウジンホーム　ハマギクノサト",
    "address": "ひたちなか市中根952-1",
    "lat": 36.3872552,
    "lng": 140.5618177,
    "tel": "029-273-4165",
    "url": "http//www.hamagiku4165.com",
    "pref": "茨城県",
    "city": "ひたちなか市",
    "category": "tokuyou",
    "serviceType": "介護老人福祉施設",
    "capacity": null,
    "openDays": [],
    "openDaysNote": ""
  },
  {
    "id": "872100177",
    "name": "特別養護老人ホーム　恵苑",
    "kana": "トクベツヨウゴロウジホーム　メグミエン",
    "address": "茨城県ひたちなか市烏ヶ台11835-2",
    "lat": 36.3680583,
    "lng": 140.5998832,
    "tel": "029-262-5566",
    "url": "http://www.katsujinkai-megumien.com/",
    "pref": "茨城県",
    "city": "ひたちなか市",
    "category": "tokuyou",
    "serviceType": "介護老人福祉施設",
    "capacity": 0,
    "openDays": [],
    "openDaysNote": ""
  },
  {
    "id": "872102272",
    "name": "特別養護老人ホーム　春寿園",
    "kana": "トクベツヨウゴロウジンホーム　シュンジュエン",
    "address": "茨城県ひたちなか市堀口８８－１",
    "lat": 36.3900705,
    "lng": 140.5080486,
    "tel": "029-229-2225",
    "url": "https://syunjyukai2225.or.jp/",
    "pref": "茨城県",
    "city": "ひたちなか市",
    "category": "tokuyou",
    "serviceType": "介護老人福祉施設",
    "capacity": null,
    "openDays": [],
    "openDaysNote": ""
  },
  {
    "id": "872100151",
    "name": "特別養護老人ホーム　北勝園",
    "kana": "トクベツヨウゴロウジンホーム　ホクショウエン",
    "address": "茨城県ひたちなか市津田２０９３－１",
    "lat": 36.4050076,
    "lng": 140.4919829,
    "tel": "029-272-1178",
    "url": "http://hokusuikai.or.jp",
    "pref": "茨城県",
    "city": "ひたちなか市",
    "category": "tokuyou",
    "serviceType": "介護老人福祉施設",
    "capacity": 50,
    "openDays": [],
    "openDaysNote": ""
  },
  {
    "id": "872102546",
    "name": "特別養護老人ホームかつた",
    "kana": "トクベツヨウゴロウジンホームカツタ",
    "address": "茨城県ひたちなか市三反田3690-3",
    "lat": 36.3718737295392,
    "lng": 140.544163638623,
    "tel": "029-352-9955",
    "url": "https://swc-jinshinkai.com/",
    "pref": "茨城県",
    "city": "ひたちなか市",
    "category": "tokuyou",
    "serviceType": "介護老人福祉施設",
    "capacity": null,
    "openDays": [],
    "openDaysNote": ""
  },
  {
    "id": "872101084",
    "name": "特別養護老人ホームさわの森",
    "kana": "トクベツヨウゴロウジンホームサワノモリ",
    "address": "茨城県ひたちなか市高野字柏野２４４８",
    "lat": 36.4410412,
    "lng": 140.542715,
    "tel": "029-354-3711",
    "url": "http://www.moritakinenkai.com/",
    "pref": "茨城県",
    "city": "ひたちなか市",
    "category": "tokuyou",
    "serviceType": "介護老人福祉施設",
    "capacity": 0,
    "openDays": [],
    "openDaysNote": ""
  },
  {
    "id": "873801419",
    "name": "セントラル阿見",
    "kana": "セントラルアミ",
    "address": "茨城県稲敷郡阿見町荒川本郷179-23",
    "lat": 36.0137010253008,
    "lng": 140.160454113129,
    "tel": "029-893-6868",
    "url": "http://www.wakatake-kai.or.jp",
    "pref": "茨城県",
    "city": "阿見町",
    "category": "tokuyou",
    "serviceType": "介護老人福祉施設",
    "capacity": null,
    "openDays": [],
    "openDaysNote": ""
  },
  {
    "id": "873801013",
    "name": "特別養護老人ホーム　阿見こなん",
    "kana": "トクベツヨウゴロウジンホーム　アミコナン",
    "address": "茨城県稲敷郡阿見町南平台１－３３－１０",
    "lat": 36.0223307,
    "lng": 140.2553205,
    "tel": "029-879-8588",
    "url": "http://www.seisyuukai.com/",
    "pref": "茨城県",
    "city": "阿見町",
    "category": "tokuyou",
    "serviceType": "介護老人福祉施設",
    "capacity": 0,
    "openDays": [],
    "openDaysNote": ""
  },
  {
    "id": "872600192",
    "name": "特別養護老人ホームいくり苑那珂",
    "kana": "トクベツヨウゴロウジンホームイクリエンナカ",
    "address": "茨城県那珂市菅谷3799番地6",
    "lat": 36.4318777,
    "lng": 140.5020253,
    "tel": "029-352-0017",
    "url": "http://www.ikurien.com",
    "pref": "茨城県",
    "city": "阿見町",
    "category": "tokuyou",
    "serviceType": "介護老人福祉施設",
    "capacity": 0,
    "openDays": [],
    "openDaysNote": ""
  },
  {
    "id": "873801542",
    "name": "特別養護老人ホーム阿見こなん（従来型）",
    "kana": "トクベツヨウゴロウジンホームアミコナン",
    "address": "茨城県稲敷郡阿見町南平台1-33-10",
    "lat": 36.022113,
    "lng": 140.2551936,
    "tel": "029-879-8588",
    "url": "http://www.seisyuukai.com",
    "pref": "茨城県",
    "city": "阿見町",
    "category": "tokuyou",
    "serviceType": "介護老人福祉施設",
    "capacity": 0,
    "openDays": [],
    "openDaysNote": ""
  },
  {
    "id": "873800213",
    "name": "特別養護老人ホーム阿見翔裕園",
    "kana": "トクベツヨウゴロウジンホームアミショウユウエン",
    "address": "茨城県稲敷郡阿見町阿見字阿見原5137番地",
    "lat": 36.0304998093575,
    "lng": 140.198750931013,
    "tel": "029-840-2881",
    "url": "https://www.genkimuragroup.jp/facilitylist/ami/",
    "pref": "茨城県",
    "city": "阿見町",
    "category": "tokuyou",
    "serviceType": "介護老人福祉施設",
    "capacity": 0,
    "openDays": [],
    "openDaysNote": ""
  },
  {
    "id": "873800510",
    "name": "特別養護老人ホーム　すだちの里",
    "kana": "トクベツヨウゴロウジンホーム　スダチノサト",
    "address": "稲敷市蒲ヶ山77番地",
    "lat": 35.9694731,
    "lng": 140.2751759,
    "tel": "029-893-1515",
    "url": "http://www.sudachi.or.jp",
    "pref": "茨城県",
    "city": "稲敷市",
    "category": "tokuyou",
    "serviceType": "介護老人福祉施設",
    "capacity": 0,
    "openDays": [],
    "openDaysNote": ""
  },
  {
    "id": "873800239",
    "name": "特別養護老人ホーム　水郷荘",
    "kana": "トクベツヨウゴロウジンホームスイゴウソウ",
    "address": "茨城県稲敷市幸田1252",
    "lat": 35.9408101,
    "lng": 140.3869028,
    "tel": "0299-79-2319",
    "url": "http://suigosou.com/",
    "pref": "茨城県",
    "city": "稲敷市",
    "category": "tokuyou",
    "serviceType": "介護老人福祉施設",
    "capacity": null,
    "openDays": [],
    "openDaysNote": ""
  },
  {
    "id": "872900477",
    "name": "特別養護老人ホームトリアネイ",
    "kana": "トクベツヨウゴロウジンホームトリアネイ",
    "address": "茨城県稲敷市江戸崎甲1233-3",
    "lat": 35.9728730365262,
    "lng": 140.315258396246,
    "tel": "029-893-3015",
    "url": "https://trianaei.jp/",
    "pref": "茨城県",
    "city": "稲敷市",
    "category": "tokuyou",
    "serviceType": "介護老人福祉施設",
    "capacity": null,
    "openDays": [],
    "openDaysNote": ""
  },
  {
    "id": "872900485",
    "name": "特別養護老人ホームトリアネイ",
    "kana": "トクベツヨウゴロウジンホームトリアネイ",
    "address": "茨城県稲敷市江戸崎甲1233-3",
    "lat": 35.9730160151026,
    "lng": 140.315273050543,
    "tel": "029-893-3015",
    "url": "https://trianaei.jp/",
    "pref": "茨城県",
    "city": "稲敷市",
    "category": "tokuyou",
    "serviceType": "介護老人福祉施設",
    "capacity": 0,
    "openDays": [],
    "openDaysNote": ""
  },
  {
    "id": "873800221",
    "name": "特別養護老人ホーム宝永館",
    "kana": "トクベツヨウゴロウジンホームホウエイカン",
    "address": "茨城県稲敷市寺内字大久保600番地1",
    "lat": 35.9253351,
    "lng": 140.314258,
    "tel": "0297-87-5188",
    "url": "http://www.houeikan.jp",
    "pref": "茨城県",
    "city": "稲敷市",
    "category": "tokuyou",
    "serviceType": "介護老人福祉施設",
    "capacity": 0,
    "openDays": [],
    "openDaysNote": ""
  },
  {
    "id": "872900311",
    "name": "特別養護老人ホーム宝永館　ユニット",
    "kana": "トクベツヨウゴロウジンホームホウエイカンユニット",
    "address": "寺内600-1",
    "lat": 35.9291012,
    "lng": 140.3128524,
    "tel": "0297-87-5188",
    "url": "http://www.houeikan.jp/",
    "pref": "茨城県",
    "city": "稲敷市",
    "category": "tokuyou",
    "serviceType": "介護老人福祉施設",
    "capacity": 0,
    "openDays": [],
    "openDaysNote": ""
  },
  {
    "id": "873100838",
    "name": "特別養護老人ホーム　けやき園",
    "kana": "トクベツヨウゴロウジンホーム　ケヤキエン",
    "address": "茨城県東茨城郡茨城町下座７５５",
    "lat": 36.2509997,
    "lng": 140.4011878,
    "tel": "029-219-1230",
    "url": "",
    "pref": "茨城県",
    "city": "茨城町",
    "category": "tokuyou",
    "serviceType": "介護老人福祉施設",
    "capacity": null,
    "openDays": [],
    "openDaysNote": ""
  },
  {
    "id": "873101091",
    "name": "特別養護老人ホーム　桜の郷元気",
    "kana": "トクベツヨウゴロウジンホーム　サクラノサトゲンキ",
    "address": "茨城県東茨城郡茨城町桜の郷231－7",
    "lat": 36.3230825,
    "lng": 140.4084197,
    "tel": "029-292-3900",
    "url": "https://www.taijinkai.or.jp/",
    "pref": "茨城県",
    "city": "茨城町",
    "category": "tokuyou",
    "serviceType": "介護老人福祉施設",
    "capacity": 70,
    "openDays": [],
    "openDaysNote": ""
  },
  {
    "id": "873100275",
    "name": "特別養護老人ホームときわ木園",
    "kana": "トクベツヨウゴロウジンホームトキワギエン",
    "address": "東茨城郡茨城町若宮393-6",
    "lat": 36.3087329,
    "lng": 140.4954901,
    "tel": "029-293-6617",
    "url": "www.tokiwagien.jp",
    "pref": "茨城県",
    "city": "茨城町",
    "category": "tokuyou",
    "serviceType": "介護老人福祉施設",
    "capacity": 0,
    "openDays": [],
    "openDaysNote": ""
  },
  {
    "id": "873101455",
    "name": "特別養護老人ホームみどりの杜",
    "kana": "トクベツヨウゴロウジンホームミドリノモリ",
    "address": "茨城県東茨城郡茨城町大字小幡字北山２７６５－４",
    "lat": 36.2644086,
    "lng": 140.395721,
    "tel": "029-219-0310",
    "url": "http://www.tsutsumikai.com",
    "pref": "茨城県",
    "city": "茨城町",
    "category": "tokuyou",
    "serviceType": "介護老人福祉施設",
    "capacity": 0,
    "openDays": [],
    "openDaysNote": ""
  },
  {
    "id": "871000055",
    "name": "特別養護老人ホーム　ラポールしもつま",
    "kana": "トクベツヨウゴロウジンホーム　ラポールシモツマ",
    "address": "下妻市江1827-1",
    "lat": 36.2282531,
    "lng": 139.9356048,
    "tel": "0296-44-7300",
    "url": "http://www.hirama-byouinn.or.jp",
    "pref": "茨城県",
    "city": "下妻市",
    "category": "tokuyou",
    "serviceType": "介護老人福祉施設",
    "capacity": 0,
    "openDays": [],
    "openDaysNote": ""
  },
  {
    "id": "871000048",
    "name": "特別養護老人ホーム　愛宕園",
    "kana": "トクベツヨウゴロウジンホーム　アタゴエン",
    "address": "茨城県下妻市下木戸５４４－１",
    "lat": 36.1929349,
    "lng": 139.9501077,
    "tel": "0296-44-5387",
    "url": "info@atagoen.jp",
    "pref": "茨城県",
    "city": "下妻市",
    "category": "tokuyou",
    "serviceType": "介護老人福祉施設",
    "capacity": 36,
    "openDays": [],
    "openDaysNote": ""
  },
  {
    "id": "871000949",
    "name": "特別養護老人ホーム　愛宕園",
    "kana": "トクベツヨウゴロウジンホーム　アタゴエン",
    "address": "茨城県下妻市下木戸５４４－１",
    "lat": 36.1929349,
    "lng": 139.9501077,
    "tel": "0296-44-5387",
    "url": "http://www.atagoen.jp/",
    "pref": "茨城県",
    "city": "下妻市",
    "category": "tokuyou",
    "serviceType": "介護老人福祉施設",
    "capacity": 0,
    "openDays": [],
    "openDaysNote": ""
  },
  {
    "id": "871000774",
    "name": "特別養護老人ホーム加養の里",
    "kana": "トクベツヨウゴロウジンホウムカヨウノサト",
    "address": "茨城県下妻市加養４９３番地",
    "lat": 36.178053,
    "lng": 139.986112,
    "tel": "0296-30-6191",
    "url": "http://kayounosato.jp/",
    "pref": "茨城県",
    "city": "下妻市",
    "category": "tokuyou",
    "serviceType": "介護老人福祉施設",
    "capacity": 0,
    "openDays": [],
    "openDaysNote": ""
  },
  {
    "id": "874200363",
    "name": "特別養護老人ホーム千代川さくら館",
    "kana": "トクベツヨウゴロウジンホームチヨカワサクラカン",
    "address": "茨城県下妻市五箇５７４番地",
    "lat": 36.144048,
    "lng": 139.928505,
    "tel": "0296-30-1511",
    "url": "",
    "pref": "茨城県",
    "city": "下妻市",
    "category": "tokuyou",
    "serviceType": "介護老人福祉施設",
    "capacity": null,
    "openDays": [],
    "openDaysNote": ""
  },
  {
    "id": "873800924",
    "name": "特別養護老人ホーム　千の風・河内",
    "kana": "トクベツヨウゴロウジンホーム　センノカゼ・カワチ",
    "address": "稲敷郡河内町生坂4627",
    "lat": 35.8900118990975,
    "lng": 140.218650025131,
    "tel": "0297-60-4166",
    "url": "http://www.kenjin.or.jp/sennokaze/kawachi/index.html",
    "pref": "茨城県",
    "city": "河内町",
    "category": "tokuyou",
    "serviceType": "介護老人福祉施設",
    "capacity": 62,
    "openDays": [],
    "openDaysNote": ""
  },
  {
    "id": "873800577",
    "name": "特別養護老人ホームあじさい苑",
    "kana": "トクベツヨウゴロウジンホームアジサイエン",
    "address": "茨城県稲敷郡河内町生板字横間8907番地",
    "lat": 35.8768722,
    "lng": 140.2235007,
    "tel": "0297-84-0311",
    "url": "",
    "pref": "茨城県",
    "city": "河内町",
    "category": "tokuyou",
    "serviceType": "介護老人福祉施設",
    "capacity": 0,
    "openDays": [],
    "openDaysNote": ""
  },
  {
    "id": "871600680",
    "name": "社会福祉法人　聖桜会　すずらんの里",
    "kana": "シャカイフクシホウジン　セイオウカイ　スズランノサト",
    "address": "茨城県笠間市土師1283-5",
    "lat": 36.2994245,
    "lng": 140.2969717,
    "tel": "0299-45-0555",
    "url": "https://kasama-suzuran.com/",
    "pref": "茨城県",
    "city": "笠間市",
    "category": "tokuyou",
    "serviceType": "介護老人福祉施設",
    "capacity": 0,
    "openDays": [],
    "openDaysNote": ""
  },
  {
    "id": "871600060",
    "name": "社会福祉法人尚生会　特別養護老人ホーム　かさまグリーンハウス",
    "kana": "シャカイフクシホウジンショウセイカイトクベツヨウゴロウジンホームカサマグリーンハウス",
    "address": "茨城県笠間市福田3199",
    "lat": 36.4076085,
    "lng": 140.2808796,
    "tel": "0296-72-8134",
    "url": "http://www.shoseikai.com",
    "pref": "茨城県",
    "city": "笠間市",
    "category": "tokuyou",
    "serviceType": "介護老人福祉施設",
    "capacity": 50,
    "openDays": [],
    "openDaysNote": ""
  },
  {
    "id": "873200083",
    "name": "特別養護老人ホーム　すずらんの里",
    "kana": "トクベツヨウゴロウジンホーム　スズランノサト",
    "address": "茨城県笠間市土師１２８３－５",
    "lat": 36.2994852,
    "lng": 140.2969974,
    "tel": "0299-45-0555",
    "url": "https://kasama-suzuran.com/",
    "pref": "茨城県",
    "city": "笠間市",
    "category": "tokuyou",
    "serviceType": "介護老人福祉施設",
    "capacity": 0,
    "openDays": [],
    "openDaysNote": ""
  },
  {
    "id": "871690004",
    "name": "特別養護老人ホーム　みどりの郷福原",
    "kana": "トクベツヨウゴロウジンホーム　ミドリノサトフクハラ",
    "address": "茨城県笠間市福原字新谷59番地1",
    "lat": 36.3464665762009,
    "lng": 140.18447761042,
    "tel": "0296-71-7170",
    "url": "https://w-midorinosato.com/",
    "pref": "茨城県",
    "city": "笠間市",
    "category": "tokuyou",
    "serviceType": "介護老人福祉施設",
    "capacity": 50,
    "openDays": [],
    "openDaysNote": ""
  },
  {
    "id": "871600763",
    "name": "特別養護老人ホーム　笠間陽だまり館",
    "kana": "トクベツヨウゴロウジンホーム　カサマヒダマリカン",
    "address": "南友部１９６６番地１３９",
    "lat": 36.3552400156831,
    "lng": 140.309889740424,
    "tel": "０２９６－７３－６１８１",
    "url": "http://www.heart-pia.com/",
    "pref": "茨城県",
    "city": "笠間市",
    "category": "tokuyou",
    "serviceType": "介護老人福祉施設",
    "capacity": 70,
    "openDays": [],
    "openDaysNote": ""
  },
  {
    "id": "873200125",
    "name": "特別養護老人ホーム　宍戸苑",
    "kana": "トクベツヨウゴロウジンホーム　シシドエン",
    "address": "茨城県笠間市橋爪　４６２－１",
    "lat": 36.339567,
    "lng": 140.2951114,
    "tel": "0296-78-2221",
    "url": "sisidoen.or.jp",
    "pref": "茨城県",
    "city": "笠間市",
    "category": "tokuyou",
    "serviceType": "介護老人福祉施設",
    "capacity": 0,
    "openDays": [],
    "openDaysNote": ""
  },
  {
    "id": "871600144",
    "name": "特別養護老人ホームヴィレッジかさま",
    "kana": "トクベツヨウゴロウジンホームヴィレッジカサマ",
    "address": "茨城県笠間市下市毛１３０１",
    "lat": 36.3606724,
    "lng": 140.2461358,
    "tel": "0296-73-0015",
    "url": "https://www.koujuukai.jp/",
    "pref": "茨城県",
    "city": "笠間市",
    "category": "tokuyou",
    "serviceType": "介護老人福祉施設",
    "capacity": null,
    "openDays": [],
    "openDaysNote": ""
  },
  {
    "id": "871600714",
    "name": "特別養護老人ホームヴィレッジかさま（ユニット部）",
    "kana": "トクベツヨウゴロウジンホームヴィレッジカサマ",
    "address": "下市毛1301",
    "lat": 36.3606724,
    "lng": 140.2461358,
    "tel": "0296-73-0015",
    "url": "https://www.koujuukai.jp/",
    "pref": "茨城県",
    "city": "笠間市",
    "category": "tokuyou",
    "serviceType": "介護老人福祉施設",
    "capacity": null,
    "openDays": [],
    "openDaysNote": ""
  },
  {
    "id": "871900080",
    "name": "指定介護老人福祉施設　博慈園",
    "kana": "シテイカイゴロウジンフクシシセツ　ハクジエン",
    "address": "茨城県牛久市女化町253－2",
    "lat": 35.9477318,
    "lng": 140.1731303,
    "tel": "029-874-4800",
    "url": "http://www.hakujien.or.jp",
    "pref": "茨城県",
    "city": "牛久市",
    "category": "tokuyou",
    "serviceType": "介護老人福祉施設",
    "capacity": 0,
    "openDays": [],
    "openDaysNote": ""
  },
  {
    "id": "871900981",
    "name": "指定介護老人福祉施設　博慈園",
    "kana": "シテイカイゴロウジンフクシシセツ　ハクジエン",
    "address": "茨城県牛久市女化町253-2",
    "lat": 35.9476555,
    "lng": 140.1731994,
    "tel": "029-874-4800",
    "url": "http://www.hakujien.or.jp",
    "pref": "茨城県",
    "city": "牛久市",
    "category": "tokuyou",
    "serviceType": "介護老人福祉施設",
    "capacity": null,
    "openDays": [],
    "openDaysNote": ""
  },
  {
    "id": "871901112",
    "name": "特別養護老人ホーム　グランヴィラ牛久",
    "kana": "トクベツヨウゴロウジンホーム　グランゔィラウシク",
    "address": "茨城県牛久市猪子町892-2",
    "lat": 35.9991777,
    "lng": 140.1413649,
    "tel": "029-817-5111",
    "url": "https://www.jojinkai.com/gv_ushiku/",
    "pref": "茨城県",
    "city": "牛久市",
    "category": "tokuyou",
    "serviceType": "介護老人福祉施設",
    "capacity": 0,
    "openDays": [],
    "openDaysNote": ""
  },
  {
    "id": "871901385",
    "name": "特別養護老人ホーム　こころの里",
    "kana": "トクベツヨウゴロウジンホーム　ココロノサト",
    "address": "茨城県牛久市久野町545",
    "lat": 35.9592292101257,
    "lng": 140.231515148014,
    "tel": "029-875-5206",
    "url": "https://cocorono-sato.com",
    "pref": "茨城県",
    "city": "牛久市",
    "category": "tokuyou",
    "serviceType": "介護老人福祉施設",
    "capacity": null,
    "openDays": [],
    "openDaysNote": ""
  },
  {
    "id": "871900163",
    "name": "特別養護老人ホーム　牛久さくら園",
    "kana": "トクベツヨウゴロウジンホーム　ウシクサクラエン",
    "address": "牛久市上柏田1-18-4",
    "lat": 35.9938758,
    "lng": 140.1524143,
    "tel": "029-878-0711",
    "url": "http://www.wakatake.kai.or.jp/",
    "pref": "茨城県",
    "city": "牛久市",
    "category": "tokuyou",
    "serviceType": "介護老人福祉施設",
    "capacity": 84,
    "openDays": [],
    "openDaysNote": ""
  },
  {
    "id": "871900544",
    "name": "特別養護老人ホーム　元気館",
    "kana": "トクベツヨウゴロウジンホーム　ゲンキカン",
    "address": "茨城県牛久市城中町148-1",
    "lat": 35.9535888,
    "lng": 140.1322003,
    "tel": "029-830-8686",
    "url": "http://ushiku-genkikan.com/",
    "pref": "茨城県",
    "city": "牛久市",
    "category": "tokuyou",
    "serviceType": "介護老人福祉施設",
    "capacity": 0,
    "openDays": [],
    "openDaysNote": ""
  },
  {
    "id": "871900999",
    "name": "特別養護老人ホームひかり",
    "kana": "トクベツヨウゴロウジンホームヒカリ",
    "address": "茨城県牛久市遠山町478-1",
    "lat": 35.9444511,
    "lng": 140.1516547,
    "tel": "029-879-8010",
    "url": "http://tokuyo-hikari.egao.or.jp/",
    "pref": "茨城県",
    "city": "牛久市",
    "category": "tokuyou",
    "serviceType": "介護老人福祉施設",
    "capacity": 70,
    "openDays": [],
    "openDaysNote": ""
  },
  {
    "id": "874300130",
    "name": "特別養護老人ホーム　ファミール境",
    "kana": "トクベツヨウゴロウジンホーム　ファミールサカイ",
    "address": "茨城県猿島郡境町塚崎４８６４",
    "lat": 36.1179163,
    "lng": 139.7799177,
    "tel": "0280-87-7111",
    "url": "http://w3.dreams.ne.jp/famille",
    "pref": "茨城県",
    "city": "境町",
    "category": "tokuyou",
    "serviceType": "介護老人福祉施設",
    "capacity": null,
    "openDays": [],
    "openDaysNote": ""
  },
  {
    "id": "870700077",
    "name": "青嵐荘特別養護老人ホーム",
    "kana": "セイランソウトクベツヨウゴロウジンホーム",
    "address": "茨城県結城市七五三場210-1",
    "lat": 36.2037463,
    "lng": 139.8295359,
    "tel": "0296-35-1785",
    "url": "http://www.houkoukai.or.jp/",
    "pref": "茨城県",
    "city": "結城市",
    "category": "tokuyou",
    "serviceType": "介護老人福祉施設",
    "capacity": null,
    "openDays": [],
    "openDaysNote": ""
  },
  {
    "id": "870700051",
    "name": "特別養護老人ホーム　ヒューマン・ハウス",
    "kana": "トクベツヨウゴロウジンホーム　ヒューマン・ハウス",
    "address": "茨城県結城市大字結城10767-19",
    "lat": 36.3056497,
    "lng": 139.8501214,
    "tel": "0296-34-7101",
    "url": "http://www.josai-hp.com/human",
    "pref": "茨城県",
    "city": "結城市",
    "category": "tokuyou",
    "serviceType": "介護老人福祉施設",
    "capacity": 0,
    "openDays": [],
    "openDaysNote": ""
  },
  {
    "id": "870700549",
    "name": "特別養護老人ホーム　ヒューマン・ハウス",
    "kana": "トクベツヨウゴロウジンホーム　ヒューマン・ハウス",
    "address": "茨城県結城市大字結城10767番地の19",
    "lat": 36.3051862906942,
    "lng": 139.849744502121,
    "tel": "0296-34-7101",
    "url": "https://www.tokuyou-human-house.com/",
    "pref": "茨城県",
    "city": "結城市",
    "category": "tokuyou",
    "serviceType": "介護老人福祉施設",
    "capacity": 100,
    "openDays": [],
    "openDaysNote": ""
  },
  {
    "id": "870700747",
    "name": "特別養護老人ホームたけだ",
    "kana": "トクベツヨウゴロウジンホームタケダ",
    "address": "茨城県結城市大字結城字健田12744番地特別養護老人ホームたけだ 特別養護老人ホームたけだ",
    "lat": 36.2955733290981,
    "lng": 139.883440178533,
    "tel": "0296‐33‐8855",
    "url": "https://takeda-yuki.or.jp",
    "pref": "茨城県",
    "city": "結城市",
    "category": "tokuyou",
    "serviceType": "介護老人福祉施設",
    "capacity": 70,
    "openDays": [],
    "openDaysNote": ""
  },
  {
    "id": "870400207",
    "name": "特別養護老人ホーム　わたらせ",
    "kana": "トクベツヨウゴロウジンホーム　ワタラセ",
    "address": "茨城県古河市大山字西野507番5",
    "lat": 36.147116,
    "lng": 139.714984,
    "tel": "0280-47-0161",
    "url": "http://jyukoukai-watarase.or.jp/",
    "pref": "茨城県",
    "city": "古河市",
    "category": "tokuyou",
    "serviceType": "介護老人福祉施設",
    "capacity": 0,
    "openDays": [],
    "openDaysNote": ""
  },
  {
    "id": "870400041",
    "name": "特別養護老人ホーム　愛光園",
    "kana": "トクベツヨウゴロウジンホーム　アイコウエン",
    "address": "茨城県古河市新久田２５０－４",
    "lat": 36.1694411,
    "lng": 139.7019784,
    "tel": "0280-48-6937",
    "url": "http://aikouen.net/",
    "pref": "茨城県",
    "city": "古河市",
    "category": "tokuyou",
    "serviceType": "介護老人福祉施設",
    "capacity": 0,
    "openDays": [],
    "openDaysNote": ""
  },
  {
    "id": "870401163",
    "name": "特別養護老人ホーム　愛光園",
    "kana": "トクベツヨウゴロウジンホーム　アイコウエン",
    "address": "茨城県古河市新久田250-4",
    "lat": 36.1694411,
    "lng": 139.7019784,
    "tel": "0280-48-6937",
    "url": "http://aikouen.net/",
    "pref": "茨城県",
    "city": "古河市",
    "category": "tokuyou",
    "serviceType": "介護老人福祉施設",
    "capacity": 0,
    "openDays": [],
    "openDaysNote": ""
  },
  {
    "id": "870400892",
    "name": "特別養護老人ホーム　希望の森",
    "kana": "トクベツヨウゴロウジンホーム　キボウノモリ",
    "address": "茨城県古河市上大野1889-1",
    "lat": 36.2223539,
    "lng": 139.7842614,
    "tel": "0280-98-6200",
    "url": "http://www.ai-wa-kai.com/kibounomori",
    "pref": "茨城県",
    "city": "古河市",
    "category": "tokuyou",
    "serviceType": "介護老人福祉施設",
    "capacity": null,
    "openDays": [],
    "openDaysNote": ""
  },
  {
    "id": "870401262",
    "name": "特別養護老人ホーム　四季の郷",
    "kana": "トクベツヨウゴロウジンホーム　シキノサト",
    "address": "茨城県古河市東間中橋198",
    "lat": 36.1944446935862,
    "lng": 139.86361045054,
    "tel": "0280-33-3311",
    "url": "http://w3.dreams.ne.jp/fj5106/",
    "pref": "茨城県",
    "city": "古河市",
    "category": "tokuyou",
    "serviceType": "介護老人福祉施設",
    "capacity": 0,
    "openDays": [],
    "openDaysNote": ""
  },
  {
    "id": "874300742",
    "name": "特別養護老人ホーム　秋明館",
    "kana": "トクベツヨウゴロウジンホーム　シュウメイカン",
    "address": "茨城県古河市諸川２５３０－４",
    "lat": 36.2046568,
    "lng": 139.8164649,
    "tel": "0280-77-3751",
    "url": "https://wahukai.com",
    "pref": "茨城県",
    "city": "古河市",
    "category": "tokuyou",
    "serviceType": "介護老人福祉施設",
    "capacity": 0,
    "openDays": [],
    "openDaysNote": ""
  },
  {
    "id": "870401205",
    "name": "特別養護老人ホーム　白英荘",
    "kana": "トクベツヨウゴロウジンホーム　ハクエイソウ",
    "address": "茨城県古河市小堤１７９６－２",
    "lat": 36.2021594,
    "lng": 139.7638902,
    "tel": "0280-98-4318",
    "url": "http://www.hakueisou.or.jp/index.html",
    "pref": "茨城県",
    "city": "古河市",
    "category": "tokuyou",
    "serviceType": "介護老人福祉施設",
    "capacity": 50,
    "openDays": [],
    "openDaysNote": ""
  },
  {
    "id": "874300122",
    "name": "特別養護老人ホーム　白英荘",
    "kana": "トクベツヨウゴロウジンホーム　ハクエイソウ",
    "address": "茨城県古河市小堤１７９６－２",
    "lat": 36.2022807,
    "lng": 139.7638361,
    "tel": "0280-98-4318",
    "url": "http://www.hakueisou.or.jp/index.html",
    "pref": "茨城県",
    "city": "古河市",
    "category": "tokuyou",
    "serviceType": "介護老人福祉施設",
    "capacity": 50,
    "openDays": [],
    "openDaysNote": ""
  },
  {
    "id": "870401551",
    "name": "特別養護老人ホームみどりの丘",
    "kana": "トクベツヨウゴロウジンホームミドリノオカ",
    "address": "茨城県古河市尾崎4608-1",
    "lat": 36.2193013,
    "lng": 139.8385973,
    "tel": "0280-23-3888",
    "url": "www.s-3273.com",
    "pref": "茨城県",
    "city": "古河市",
    "category": "tokuyou",
    "serviceType": "介護老人福祉施設",
    "capacity": 0,
    "openDays": [],
    "openDaysNote": ""
  },
  {
    "id": "870401148",
    "name": "特別養護老人ホームみどりの里",
    "kana": "トクベツヨウゴロウジンホームミドリノサト",
    "address": "茨城県古河市東山田4796-2",
    "lat": 36.1597244,
    "lng": 139.8312167,
    "tel": "0280-78-1000",
    "url": "https://www.s-3273.com",
    "pref": "茨城県",
    "city": "古河市",
    "category": "tokuyou",
    "serviceType": "介護老人福祉施設",
    "capacity": 0,
    "openDays": [],
    "openDaysNote": ""
  },
  {
    "id": "874300205",
    "name": "特別養護老人ホームみどりの里",
    "kana": "トクベツヨウゴロウジンホームミドリノサト",
    "address": "茨城県古河市東山田4796-2",
    "lat": 36.1597328,
    "lng": 139.8312056,
    "tel": "0280-78-1000",
    "url": "https://www.s-3273.com",
    "pref": "茨城県",
    "city": "古河市",
    "category": "tokuyou",
    "serviceType": "介護老人福祉施設",
    "capacity": 0,
    "openDays": [],
    "openDaysNote": ""
  },
  {
    "id": "874300817",
    "name": "特別養護老人ホーム愛和苑",
    "kana": "トクベツヨウゴロウジンホームアイワエン",
    "address": "古河市駒羽根320-1",
    "lat": 36.1730088,
    "lng": 139.7512213,
    "tel": "0280-93-0234",
    "url": "http://www.aiwaen.or.jp/",
    "pref": "茨城県",
    "city": "古河市",
    "category": "tokuyou",
    "serviceType": "介護老人福祉施設",
    "capacity": 0,
    "openDays": [],
    "openDaysNote": ""
  },
  {
    "id": "874300775",
    "name": "特別養護老人ホーム　きららの杜",
    "kana": "トクベツヨウゴロウジンホーム　キララノモリ",
    "address": "茨城県猿島郡五霞町元栗橋7331-1",
    "lat": 36.1115239,
    "lng": 139.7286114,
    "tel": "0280-80-0888",
    "url": "http://www.kiraranomori.or.jp",
    "pref": "茨城県",
    "city": "五霞町",
    "category": "tokuyou",
    "serviceType": "介護老人福祉施設",
    "capacity": 90,
    "openDays": [],
    "openDaysNote": ""
  },
  {
    "id": "873700116",
    "name": "指定介護老人福祉施設　朝霞荘",
    "kana": "シテイカイゴロウジンフクシシセツ　アサカソウ",
    "address": "茨城県行方市麻生1088－1",
    "lat": 35.9901816419305,
    "lng": 140.483251912303,
    "tel": "0299-72-1610",
    "url": "http://www.sinwakai.or.jp/",
    "pref": "茨城県",
    "city": "行方市",
    "category": "tokuyou",
    "serviceType": "介護老人福祉施設",
    "capacity": 50,
    "openDays": [],
    "openDaysNote": ""
  },
  {
    "id": "873700132",
    "name": "特別養護老人ホーム　玉寿荘",
    "kana": "トクベツヨウゴロウジンホーム　ギョクジュソウ",
    "address": "行方市手賀1854-1",
    "lat": 36.0847135,
    "lng": 140.4335338,
    "tel": "0299-55-3636",
    "url": "care-net.biz/08/gyokujyusou/",
    "pref": "茨城県",
    "city": "行方市",
    "category": "tokuyou",
    "serviceType": "介護老人福祉施設",
    "capacity": 0,
    "openDays": [],
    "openDaysNote": ""
  },
  {
    "id": "873700538",
    "name": "特別養護老人ホームあそうの郷",
    "kana": "トクベツヨウゴロウジンホームアソウノサト",
    "address": "行方市青沼９８１番地２",
    "lat": 36.0261425,
    "lng": 140.5132272,
    "tel": "0299-73-0311",
    "url": "http://www.ai-wa-kai.com",
    "pref": "茨城県",
    "city": "行方市",
    "category": "tokuyou",
    "serviceType": "介護老人福祉施設",
    "capacity": 0,
    "openDays": [],
    "openDaysNote": ""
  },
  {
    "id": "873700298",
    "name": "特別養護老人ホームきたうら",
    "kana": "トクベツヨウゴロウジンホームキタウラ",
    "address": "茨城県行方市山田３３３９－６",
    "lat": 36.081449,
    "lng": 140.5175081,
    "tel": "0291-35-3080",
    "url": "http://www.doaikai.com",
    "pref": "茨城県",
    "city": "行方市",
    "category": "tokuyou",
    "serviceType": "介護老人福祉施設",
    "capacity": null,
    "openDays": [],
    "openDaysNote": ""
  },
  {
    "id": "871400479",
    "name": "指定介護老人福祉施設　特別養護老人ホーム　松籟荘",
    "kana": "シテイカイゴロウジンクフクシシセツ　トクベツヨウゴロウジンホーム　ショウライソウ",
    "address": "茨城県高萩市下手綱１９５１－８",
    "lat": 36.7280924,
    "lng": 140.691017,
    "tel": "０２９３－２４－０２０７",
    "url": "http://www.health-care.or.jp/shourai/index.php",
    "pref": "茨城県",
    "city": "高萩市",
    "category": "tokuyou",
    "serviceType": "介護老人福祉施設",
    "capacity": 0,
    "openDays": [],
    "openDaysNote": ""
  },
  {
    "id": "871400065",
    "name": "指定介護老人福祉施設特別養護老人ホーム松籟荘",
    "kana": "シテイカイゴロウジンフクシシセツトクベツヨウゴロウジンホームショウライソウ",
    "address": "茨城県高萩市下手綱１９５１－８",
    "lat": 36.7280924,
    "lng": 140.691017,
    "tel": "0293-24-0207",
    "url": "http://www.health-care.or.jp/shourai/index.php",
    "pref": "茨城県",
    "city": "高萩市",
    "category": "tokuyou",
    "serviceType": "介護老人福祉施設",
    "capacity": 0,
    "openDays": [],
    "openDaysNote": ""
  },
  {
    "id": "871400339",
    "name": "特別養護老人ホーム　高萩聖孝園",
    "kana": "トクベツヨウゴロウジンホーム　タカハギセイコウエン",
    "address": "茨城県高萩市大字上手綱2番地",
    "lat": 36.7358113,
    "lng": 140.7030163,
    "tel": "0293-44-6222",
    "url": "http://www.aikohkai.or.jp/seikoen/index.html",
    "pref": "茨城県",
    "city": "高萩市",
    "category": "tokuyou",
    "serviceType": "介護老人福祉施設",
    "capacity": 0,
    "openDays": [],
    "openDaysNote": ""
  },
  {
    "id": "871800066",
    "name": "特別養護老人ホーム　ハートフル広侖",
    "kana": "トクベツヨウゴロウジンホーム　ハートフルコウリン",
    "address": "茨城県坂東市小山２５８",
    "lat": 36.0160301,
    "lng": 139.8782338,
    "tel": "0297-38-1111",
    "url": "https://www.heartful-kourin.com/profile.php",
    "pref": "茨城県",
    "city": "坂東市",
    "category": "tokuyou",
    "serviceType": "介護老人福祉施設",
    "capacity": 0,
    "openDays": [],
    "openDaysNote": ""
  },
  {
    "id": "874300213",
    "name": "特別養護老人ホーム　恵愛荘",
    "kana": "トクベツヨウゴロウジンホーム　ケイアイソウ",
    "address": "茨城県坂東市沓掛337",
    "lat": 36.089081,
    "lng": 139.8957734,
    "tel": "0297-44-3320",
    "url": "http://www.keiai-seifu.or.jp",
    "pref": "茨城県",
    "city": "坂東市",
    "category": "tokuyou",
    "serviceType": "介護老人福祉施設",
    "capacity": 100,
    "openDays": [],
    "openDaysNote": ""
  },
  {
    "id": "871800132",
    "name": "特別養護老人ホーム　長寿の里",
    "kana": "トクベツヨウゴロウジンホーム　チョウジュノサト",
    "address": "茨城県坂東市中里1213番地",
    "lat": 36.0228079,
    "lng": 139.9008923,
    "tel": "0297-36-8080",
    "url": "http://www.housikai.or.jp",
    "pref": "茨城県",
    "city": "坂東市",
    "category": "tokuyou",
    "serviceType": "介護老人福祉施設",
    "capacity": 50,
    "openDays": [],
    "openDaysNote": ""
  },
  {
    "id": "872800354",
    "name": "特別養護老人ホーム　長寿の里",
    "kana": "トクベツヨウゴロウジンホーム　チョウジュノサト",
    "address": "茨城県坂東市中里1213番地",
    "lat": 36.0243304,
    "lng": 139.9130741,
    "tel": "0297-36-8080",
    "url": "http://www.housikai.or.jp",
    "pref": "茨城県",
    "city": "坂東市",
    "category": "tokuyou",
    "serviceType": "介護老人福祉施設",
    "capacity": 30,
    "openDays": [],
    "openDaysNote": ""
  },
  {
    "id": "872800461",
    "name": "特別養護老人ホームさしまの家",
    "kana": "トクベツヨウゴロウジンホームサシマノイエ",
    "address": "茨城県坂東市生子1630-1",
    "lat": 36.0950830332012,
    "lng": 139.844701051191,
    "tel": "0280-33-6400",
    "url": "https://jikou-gakuen.jp/elder/",
    "pref": "茨城県",
    "city": "坂東市",
    "category": "tokuyou",
    "serviceType": "介護老人福祉施設",
    "capacity": 40,
    "openDays": [],
    "openDaysNote": ""
  },
  {
    "id": "872800479",
    "name": "特別養護老人ホームさしまの家",
    "kana": "トクベツヨウゴロウジンホームサシマノイエ",
    "address": "茨城県坂東市生子1630-1",
    "lat": 36.0950978219446,
    "lng": 139.844702647329,
    "tel": "0280-33-6400",
    "url": "https://jikou-gakuen.jp/elder/",
    "pref": "茨城県",
    "city": "坂東市",
    "category": "tokuyou",
    "serviceType": "介護老人福祉施設",
    "capacity": 30,
    "openDays": [],
    "openDaysNote": ""
  },
  {
    "id": "872800289",
    "name": "特別養護老人ホーム延寿館",
    "kana": "トクベツヨウゴロウジンホーム　エンジュカン",
    "address": "茨城県坂東市長須１１８８－２",
    "lat": 36.053309,
    "lng": 139.8499593,
    "tel": "0297-35-3715",
    "url": "http://www.enjyukan.or.jp",
    "pref": "茨城県",
    "city": "坂東市",
    "category": "tokuyou",
    "serviceType": "介護老人福祉施設",
    "capacity": 0,
    "openDays": [],
    "openDaysNote": ""
  },
  {
    "id": "874100209",
    "name": "特別養護老人ホーム　サンホーム真壁",
    "kana": "トクベツヨウゴロウジンホーム　サンホームマカベ",
    "address": "茨城県桜川市真壁町下谷貝1449-1",
    "lat": 36.2978365,
    "lng": 140.0604196,
    "tel": "0296-54-0203",
    "url": "https://liberte-ibaraki.com/",
    "pref": "茨城県",
    "city": "桜川市",
    "category": "tokuyou",
    "serviceType": "介護老人福祉施設",
    "capacity": 0,
    "openDays": [],
    "openDaysNote": ""
  },
  {
    "id": "874100423",
    "name": "特別養護老人ホーム　ひだまりの家　やまと",
    "kana": "トクベツヨウゴロウジンホーム　ヒダマリノイエ　ヤマト",
    "address": "茨城県桜川市大国玉４５１４－２",
    "lat": 36.3156651,
    "lng": 140.068535,
    "tel": "0296-20-6511",
    "url": "http://www.hidamarinoie-yamato.jp/",
    "pref": "茨城県",
    "city": "桜川市",
    "category": "tokuyou",
    "serviceType": "介護老人福祉施設",
    "capacity": 50,
    "openDays": [],
    "openDaysNote": ""
  },
  {
    "id": "875100307",
    "name": "特別養護老人ホーム　ひだまりの家やまと",
    "kana": "トツベツヨウゴロウジンホーム　ヒダマリノイエヤマト",
    "address": "茨城県桜川市大国玉４５１４－２",
    "lat": 36.3156651,
    "lng": 140.068535,
    "tel": "0296-20-6511",
    "url": "http://www.hidamarinoie-yamato.jp/",
    "pref": "茨城県",
    "city": "桜川市",
    "category": "tokuyou",
    "serviceType": "介護老人福祉施設",
    "capacity": 30,
    "openDays": [],
    "openDaysNote": ""
  },
  {
    "id": "873200133",
    "name": "特別養護老人ホームさつき荘",
    "kana": "トクベツヨウゴロウジンホームサツキソウ",
    "address": "桜川市富岡203-1",
    "lat": 36.3739004,
    "lng": 140.093805,
    "tel": "0296-75-3221",
    "url": "https://kenseikai.cc",
    "pref": "茨城県",
    "city": "桜川市",
    "category": "tokuyou",
    "serviceType": "介護老人福祉施設",
    "capacity": 100,
    "openDays": [],
    "openDaysNote": ""
  },
  {
    "id": "875100380",
    "name": "特別養護老人ホーム上の原",
    "kana": "トクベツヨウゴロウジンホームウエノハラ",
    "address": "茨城県桜川市上野原新田地154-4",
    "lat": 36.3508942,
    "lng": 140.048368,
    "tel": "0296-71-6888",
    "url": "http://www.u-gaku.or.jp/",
    "pref": "茨城県",
    "city": "桜川市",
    "category": "tokuyou",
    "serviceType": "介護老人福祉施設",
    "capacity": 50,
    "openDays": [],
    "openDaysNote": ""
  },
  {
    "id": "872200118",
    "name": "鹿嶋市特別養護老人ホーム　ウェルポート鹿嶋の郷",
    "kana": "カシマシトクベツヨウゴロウジンホーム　ウェルポートカシマノサト",
    "address": "茨城県鹿嶋市大字宮中４６０３番地１",
    "lat": 35.9832061,
    "lng": 140.6354105,
    "tel": "0299-90-3123",
    "url": "https://welport-kashima.jp",
    "pref": "茨城県",
    "city": "鹿嶋市",
    "category": "tokuyou",
    "serviceType": "介護老人福祉施設",
    "capacity": 50,
    "openDays": [],
    "openDaysNote": ""
  },
  {
    "id": "872200605",
    "name": "社会福祉法人　神和会　特別養護老人ホーム　大野の郷",
    "kana": "シャカイフクシホウジン　シンワカイ　トクベツヨウゴロウジンホーム　オオノノサト",
    "address": "茨城県鹿嶋市大字和字治825番5",
    "lat": 36.0399738609538,
    "lng": 140.612556926598,
    "tel": "0299-78-7881",
    "url": "https://kashimashi.net/oononosato/",
    "pref": "茨城県",
    "city": "鹿嶋市",
    "category": "tokuyou",
    "serviceType": "介護老人福祉施設",
    "capacity": 50,
    "openDays": [],
    "openDaysNote": ""
  },
  {
    "id": "872200423",
    "name": "特別養護老人ホーム　　セ・シボンかしま",
    "kana": "トクベツヨウゴロウジンホーム　　セ・シボンカシマ",
    "address": "茨城県鹿嶋市須賀1350-1",
    "lat": 35.9782791,
    "lng": 140.6235367,
    "tel": "0299-84-1165",
    "url": "http://shifuku.or.jp/index.htm",
    "pref": "茨城県",
    "city": "鹿嶋市",
    "category": "tokuyou",
    "serviceType": "介護老人福祉施設",
    "capacity": 0,
    "openDays": [],
    "openDaysNote": ""
  },
  {
    "id": "872200092",
    "name": "特別養護老人ホーム　松寿園",
    "kana": "トクベツヨウゴロウジンホーム　ショウジュエン",
    "address": "鹿嶋市武井1956-3",
    "lat": 36.0564784,
    "lng": 140.58403,
    "tel": "0299-69-2339",
    "url": "http://matsukura-shojuen.jp/shojuen/",
    "pref": "茨城県",
    "city": "鹿嶋市",
    "category": "tokuyou",
    "serviceType": "介護老人福祉施設",
    "capacity": 72,
    "openDays": [],
    "openDaysNote": ""
  },
  {
    "id": "872200100",
    "name": "特別養護老人ホームサントピア鹿島",
    "kana": "トクベツヨウゴロウジンホームサントピアカシマ",
    "address": "茨城県鹿嶋市宮中５２００",
    "lat": 35.96337,
    "lng": 140.6299365,
    "tel": "0299-83-2311",
    "url": "http/www.suntopia.jp",
    "pref": "茨城県",
    "city": "鹿嶋市",
    "category": "tokuyou",
    "serviceType": "介護老人福祉施設",
    "capacity": null,
    "openDays": [],
    "openDaysNote": ""
  },
  {
    "id": "871700100",
    "name": "特別養護老人ホーム　さらの杜",
    "kana": "トクベツヨウゴロウジンホーム　サラノモリ",
    "address": "茨城県取手市下高井2148",
    "lat": 35.9290276,
    "lng": 140.0278366,
    "tel": "0297-70-2711",
    "url": "http://www.saranomori.net/",
    "pref": "茨城県",
    "city": "取手市",
    "category": "tokuyou",
    "serviceType": "介護老人福祉施設",
    "capacity": null,
    "openDays": [],
    "openDaysNote": ""
  },
  {
    "id": "871701090",
    "name": "特別養護老人ホーム　さらの杜",
    "kana": "トクベツヨウゴロウジンホーム　サラノモリ",
    "address": "下高井2148",
    "lat": 35.9290276,
    "lng": 140.0278366,
    "tel": "0297-70-2711",
    "url": "http://www.saranomori.net/",
    "pref": "茨城県",
    "city": "取手市",
    "category": "tokuyou",
    "serviceType": "介護老人福祉施設",
    "capacity": null,
    "openDays": [],
    "openDaysNote": ""
  },
  {
    "id": "871700878",
    "name": "特別養護老人ホーム　めぐみの杜",
    "kana": "トクベツヨウゴロウジンホーム　メグミノモリ",
    "address": "茨城県取手市稲29番1",
    "lat": 35.9095553,
    "lng": 140.0445858,
    "tel": "0297-84-6155",
    "url": "http://shinwakai-ibaraki.jp/",
    "pref": "茨城県",
    "city": "取手市",
    "category": "tokuyou",
    "serviceType": "介護老人福祉施設",
    "capacity": 0,
    "openDays": [],
    "openDaysNote": ""
  },
  {
    "id": "871700076",
    "name": "特別養護老人ホーム　取手市ふれあいの郷",
    "kana": "トクベツヨウゴロウジンホーム　トリデシフレアイノサト",
    "address": "取手市ゆめみ野3-23-1",
    "lat": 35.9255424,
    "lng": 140.0441963,
    "tel": "0297-78-2525",
    "url": "http://www.torideshi-fureainosato.com",
    "pref": "茨城県",
    "city": "取手市",
    "category": "tokuyou",
    "serviceType": "介護老人福祉施設",
    "capacity": 50,
    "openDays": [],
    "openDaysNote": ""
  },
  {
    "id": "871700365",
    "name": "特別養護老人ホーム　水彩館",
    "kana": "トクベツヨウゴロウジンホーム　スイサイカン",
    "address": "茨城県取手市小文間字谷耕地5720番1",
    "lat": 35.8919777796717,
    "lng": 140.095280203522,
    "tel": "0297-77-1317",
    "url": "http://m.suisaikan.jp/",
    "pref": "茨城県",
    "city": "取手市",
    "category": "tokuyou",
    "serviceType": "介護老人福祉施設",
    "capacity": 0,
    "openDays": [],
    "openDaysNote": ""
  },
  {
    "id": "874400252",
    "name": "特別養護老人ホーム　藤代なごみの郷",
    "kana": "トクベツヨウゴロウジンホーム　フジシロナゴミノサト",
    "address": "茨城県取手市椚木1342‐2",
    "lat": 35.925913,
    "lng": 140.0933633,
    "tel": "0297-82-7530",
    "url": "http:/www.f-nagomi.or.jp",
    "pref": "茨城県",
    "city": "取手市",
    "category": "tokuyou",
    "serviceType": "介護老人福祉施設",
    "capacity": 50,
    "openDays": [],
    "openDaysNote": ""
  },
  {
    "id": "871700910",
    "name": "特別養護老人ホーム・ルロシェ",
    "kana": "トクベツヨウゴロウジンホーム・ルロシェ",
    "address": "茨城県取手市神浦646",
    "lat": 35.886463,
    "lng": 140.1258428,
    "tel": "0297-85-4891",
    "url": "http://le-rocher.jp",
    "pref": "茨城県",
    "city": "取手市",
    "category": "tokuyou",
    "serviceType": "介護老人福祉施設",
    "capacity": 0,
    "openDays": [],
    "openDaysNote": ""
  },
  {
    "id": "871701231",
    "name": "特別養護老人ホーム藤代なごみの郷",
    "kana": "トクベツヨウゴロウジンホームフジシロナゴミノサト",
    "address": "茨城県取手市椚木1342－2",
    "lat": 35.9259384,
    "lng": 140.0934003,
    "tel": "0297－82－7530",
    "url": "http://www.f-nagomi.or.jp/",
    "pref": "茨城県",
    "city": "取手市",
    "category": "tokuyou",
    "serviceType": "介護老人福祉施設",
    "capacity": 90,
    "openDays": [],
    "openDaysNote": ""
  },
  {
    "id": "874400070",
    "name": "特別養護老人ホーム北相寿園",
    "kana": "トクベツヨウゴロウジンホームキタソウジュエン",
    "address": "茨城県取手市岡1476番地",
    "lat": 35.9215606,
    "lng": 140.056434,
    "tel": "0297-85-8304",
    "url": "http://www.soujinkai.com/",
    "pref": "茨城県",
    "city": "取手市",
    "category": "tokuyou",
    "serviceType": "介護老人福祉施設",
    "capacity": 0,
    "openDays": [],
    "openDaysNote": ""
  },
  {
    "id": "872400320",
    "name": "特別養護老人ホーム　七福神",
    "kana": "トクベツヨウゴロウジンホーム　シチフクジン",
    "address": "茨城県守谷市高野１７５５－１",
    "lat": 35.9304957,
    "lng": 139.9848692,
    "tel": "0297-45-3580",
    "url": "http://www.shichi-fukujin.com",
    "pref": "茨城県",
    "city": "守谷市",
    "category": "tokuyou",
    "serviceType": "介護老人福祉施設",
    "capacity": null,
    "openDays": [],
    "openDaysNote": ""
  },
  {
    "id": "872400833",
    "name": "特別養護老人ホームやまゆりの郷",
    "kana": "トクベツヨウゴヤマユリノサト",
    "address": "茨城県守谷市大山新田149-1",
    "lat": 35.9716223335278,
    "lng": 139.964226775116,
    "tel": "0297-45-2520",
    "url": "http:www.yamayurinosato.org",
    "pref": "茨城県",
    "city": "守谷市",
    "category": "tokuyou",
    "serviceType": "介護老人福祉施設",
    "capacity": 70,
    "openDays": [],
    "openDaysNote": ""
  },
  {
    "id": "872401013",
    "name": "特別養護老人ホームやまゆりの郷",
    "kana": "トクベツヨウゴロウジンホームヤマユリノサト",
    "address": "茨城県守谷市大山新田149-1",
    "lat": 35.9721194,
    "lng": 139.964318,
    "tel": "0297-45-2820",
    "url": "http://yamayurinosato.org/",
    "pref": "茨城県",
    "city": "守谷市",
    "category": "tokuyou",
    "serviceType": "介護老人福祉施設",
    "capacity": 40,
    "openDays": [],
    "openDaysNote": ""
  },
  {
    "id": "872400064",
    "name": "特別養護老人ホーム峰林荘",
    "kana": "トクベツヨウゴロウジンホームホウリンソウ",
    "address": "茨城県守谷市野木崎1931",
    "lat": 35.9524867,
    "lng": 139.9581624,
    "tel": "0297-48-3587",
    "url": "http://hourinkai.com/",
    "pref": "茨城県",
    "city": "守谷市",
    "category": "tokuyou",
    "serviceType": "介護老人福祉施設",
    "capacity": 40,
    "openDays": [],
    "openDaysNote": ""
  },
  {
    "id": "873100382",
    "name": "社会福祉法人　青丘　　　　特別養護老人ホーム　青丘園",
    "kana": "シャカイフクシホウジンセイキュウ　　トクベツヨウゴロウジンホームセイキュウエン",
    "address": "茨城県小美玉市橋場美５１９－１",
    "lat": 36.2539706,
    "lng": 140.3750374,
    "tel": "0299-48-3266",
    "url": "http://www.s-seikyu.com/",
    "pref": "茨城県",
    "city": "小美玉市",
    "category": "tokuyou",
    "serviceType": "介護老人福祉施設",
    "capacity": 50,
    "openDays": [],
    "openDaysNote": ""
  },
  {
    "id": "875600355",
    "name": "特別養護老人ホーム　あいおんの里羽鳥",
    "kana": "トクベツヨウゴロウジンホーム　アイオンノサトハトリ",
    "address": "茨城県小美玉市羽刈653-7",
    "lat": 36.2508756351243,
    "lng": 140.305992058475,
    "tel": "0299-56-3123",
    "url": "https://youkou-kai.or.jp/hatori",
    "pref": "茨城県",
    "city": "小美玉市",
    "category": "tokuyou",
    "serviceType": "介護老人福祉施設",
    "capacity": 0,
    "openDays": [],
    "openDaysNote": ""
  },
  {
    "id": "875600496",
    "name": "特別養護老人ホーム　あいおんの里羽鳥多床室",
    "kana": "トクベツヨウゴロウジンホーム　アイオンノサトハトリ　多床室",
    "address": "茨城県小美玉市羽刈653-7",
    "lat": 36.250784787864,
    "lng": 140.305975965221,
    "tel": "0299-56-3123",
    "url": "https://youkou-kai.or.jp/hatori",
    "pref": "茨城県",
    "city": "小美玉市",
    "category": "tokuyou",
    "serviceType": "介護老人福祉施設",
    "capacity": 0,
    "openDays": [],
    "openDaysNote": ""
  },
  {
    "id": "873100952",
    "name": "特別養護老人ホーム　サンホーム竹原",
    "kana": "トクベツヨウゴロウジンホーム　サンホームタケハラ",
    "address": "小美玉市竹原４０５－６",
    "lat": 36.2138302,
    "lng": 140.3303201,
    "tel": "0299-47-1526",
    "url": "http;//www.baikoukai.jp/",
    "pref": "茨城県",
    "city": "小美玉市",
    "category": "tokuyou",
    "serviceType": "介護老人福祉施設",
    "capacity": 0,
    "openDays": [],
    "openDaysNote": ""
  },
  {
    "id": "875600371",
    "name": "特別養護老人ホーム　ルミエ・デ・ソレイユ",
    "kana": "トクベツヨウゴロジンホーム　ルミエ・デ・ソレイユ",
    "address": "茨城県小美玉市山野707-13特別養護老人ホーム　ルミエ・デ・ソレイユ 特別養護老人ホーム　ルミエ・デ・ソレイユ",
    "lat": 36.1687459,
    "lng": 140.3739756,
    "tel": "0299-56-5588",
    "url": "www.syuhaku-lumie.or.jp",
    "pref": "茨城県",
    "city": "小美玉市",
    "category": "tokuyou",
    "serviceType": "介護老人福祉施設",
    "capacity": null,
    "openDays": [],
    "openDaysNote": ""
  },
  {
    "id": "873900161",
    "name": "特別養護老人ホーム　晴風園",
    "kana": "トクベツヨウゴロウジンホーム　セイフウエン",
    "address": "茨城県小美玉市高崎2032番地8",
    "lat": 36.1680398,
    "lng": 140.3083514,
    "tel": "0299-26-7000",
    "url": "",
    "pref": "茨城県",
    "city": "小美玉市",
    "category": "tokuyou",
    "serviceType": "介護老人福祉施設",
    "capacity": 48,
    "openDays": [],
    "openDaysNote": ""
  },
  {
    "id": "875600306",
    "name": "特別養護老人ホーム　晴風園",
    "kana": "トクベツヨウゴロウジンホーム　セイフウエン",
    "address": "茨城県小美玉市高崎2032番地8",
    "lat": 36.1676956047545,
    "lng": 140.308820431352,
    "tel": "0299-26-7000",
    "url": "",
    "pref": "茨城県",
    "city": "小美玉市",
    "category": "tokuyou",
    "serviceType": "介護老人福祉施設",
    "capacity": 80,
    "openDays": [],
    "openDaysNote": ""
  },
  {
    "id": "875600603",
    "name": "特別養護老人ホームくらしテラス小美玉",
    "kana": "トクベツヨウゴロウジンホーム　クラシテラスオミタマ",
    "address": "茨城県小美玉市野田197番地1",
    "lat": 36.1845442,
    "lng": 140.368273,
    "tel": "0299-57-6330",
    "url": "https://www.kurashiterasu-omitama.jp/",
    "pref": "茨城県",
    "city": "小美玉市",
    "category": "tokuyou",
    "serviceType": "介護老人福祉施設",
    "capacity": 0,
    "openDays": [],
    "openDaysNote": ""
  },
  {
    "id": "875600611",
    "name": "特別養護老人ホームくらしテラス小美玉",
    "kana": "トクベツヨウゴロウジンホーム　クラシテラスオミタマ",
    "address": "茨城県小美玉市野田197番地1",
    "lat": 36.1845442,
    "lng": 140.368273,
    "tel": "0299-57-6330",
    "url": "https://www.kurashiterasu-omitama.jp/",
    "pref": "茨城県",
    "city": "小美玉市",
    "category": "tokuyou",
    "serviceType": "介護老人福祉施設",
    "capacity": 0,
    "openDays": [],
    "openDaysNote": ""
  },
  {
    "id": "875600215",
    "name": "特別養護老人ホームほのか",
    "kana": "トクベツヨウゴロウジンホームホノカ",
    "address": "茨城県小美玉市中台145-4",
    "lat": 36.2240343,
    "lng": 140.3161182,
    "tel": "050-3776-9972",
    "url": "http://www.kuonkai.or.jp",
    "pref": "茨城県",
    "city": "小美玉市",
    "category": "tokuyou",
    "serviceType": "介護老人福祉施設",
    "capacity": 50,
    "openDays": [],
    "openDaysNote": ""
  },
  {
    "id": "875600504",
    "name": "特別養護老人ホームほのか",
    "kana": "トクベツヨウゴロウジンホームホノカ",
    "address": "茨城県小美玉市中台145-4",
    "lat": 36.2247754737776,
    "lng": 140.316327002244,
    "tel": "050-3776-9972",
    "url": "http://www.kuonkai.or.jp/",
    "pref": "茨城県",
    "city": "小美玉市",
    "category": "tokuyou",
    "serviceType": "介護老人福祉施設",
    "capacity": 0,
    "openDays": [],
    "openDaysNote": ""
  },
  {
    "id": "873100317",
    "name": "特別養護老人ホーム百里サンハウス",
    "kana": "トクベツヨウゴロウジンホームヒャクリサンハウス",
    "address": "小美玉市下吉影2347-109",
    "lat": 36.2014359,
    "lng": 140.4386477,
    "tel": "0299-54-0029",
    "url": "http://hyakurisunhouse.com/",
    "pref": "茨城県",
    "city": "小美玉市",
    "category": "tokuyou",
    "serviceType": "介護老人福祉施設",
    "capacity": 55,
    "openDays": [],
    "openDaysNote": ""
  },
  {
    "id": "875600314",
    "name": "特別養護老人ホーム百里サンハウス(ユニット型)",
    "kana": "トクベツヨウゴロウジンホームヒャクリサンハウス(ユニットガタ)",
    "address": "茨城県小美玉市下吉影2437-109",
    "lat": 36.1691537661735,
    "lng": 140.429238510776,
    "tel": "0299-54-0029",
    "url": "http://hyakurisunhouse.com/",
    "pref": "茨城県",
    "city": "小美玉市",
    "category": "tokuyou",
    "serviceType": "介護老人福祉施設",
    "capacity": 40,
    "openDays": [],
    "openDaysNote": ""
  },
  {
    "id": "875600553",
    "name": "美野里陽だまり館",
    "kana": "ミノリヒダマリカン",
    "address": "茨城県小美玉市花野井字中丸358番地55",
    "lat": 36.2304642,
    "lng": 140.3094877,
    "tel": "0299-57-6761",
    "url": "http://www.heart⁻pia.com",
    "pref": "茨城県",
    "city": "小美玉市",
    "category": "tokuyou",
    "serviceType": "介護老人福祉施設",
    "capacity": 0,
    "openDays": [],
    "openDaysNote": ""
  },
  {
    "id": "875600561",
    "name": "美野里陽だまり館",
    "kana": "ミノリヒダマリカン",
    "address": "茨城県小美玉市花野井字中丸358番地55",
    "lat": 36.2344790353547,
    "lng": 140.313309080905,
    "tel": "0299-57-6761",
    "url": "http://www.heart⁻pia.com",
    "pref": "茨城県",
    "city": "小美玉市",
    "category": "tokuyou",
    "serviceType": "介護老人福祉施設",
    "capacity": 0,
    "openDays": [],
    "openDaysNote": ""
  },
  {
    "id": "873101836",
    "name": "ケアステーション城里",
    "kana": "ケアステーションシロサト",
    "address": "茨城県東茨城郡城里町上圷624-1",
    "lat": 36.4956106,
    "lng": 140.3743976,
    "tel": "029-297-3201",
    "url": "https://shinaikai.or.jp/",
    "pref": "茨城県",
    "city": "城里町",
    "category": "tokuyou",
    "serviceType": "介護老人福祉施設",
    "capacity": null,
    "openDays": [],
    "openDaysNote": ""
  },
  {
    "id": "873101844",
    "name": "ケアステーション城里",
    "kana": "ケアステーションシロサト",
    "address": "茨城県東茨城郡城里町上圷624-1",
    "lat": 36.4956106,
    "lng": 140.3743976,
    "tel": "029-297-3201",
    "url": "https://shinaikai.or.jp/",
    "pref": "茨城県",
    "city": "城里町",
    "category": "tokuyou",
    "serviceType": "介護老人福祉施設",
    "capacity": 40,
    "openDays": [],
    "openDaysNote": ""
  },
  {
    "id": "873100267",
    "name": "特別養護老人ホーム　グリーンなかさい",
    "kana": "トクベツヨウゴロウジンホーム　グリーンナカサイ",
    "address": "茨城県東茨城郡城里町那珂西1483-3",
    "lat": 36.4669428,
    "lng": 140.3987142,
    "tel": "029-288-7200",
    "url": "",
    "pref": "茨城県",
    "city": "城里町",
    "category": "tokuyou",
    "serviceType": "介護老人福祉施設",
    "capacity": 0,
    "openDays": [],
    "openDaysNote": ""
  },
  {
    "id": "871100384",
    "name": "特別養護老人ホーム　「里の音」",
    "kana": "トクベツヨウゴロウジンホーム　サトノネ",
    "address": "茨城県常総市豊岡町丙３０８０－１",
    "lat": 36.0297315,
    "lng": 139.9690276,
    "tel": "0297-44-5671",
    "url": "",
    "pref": "茨城県",
    "city": "常総市",
    "category": "tokuyou",
    "serviceType": "介護老人福祉施設",
    "capacity": 0,
    "openDays": [],
    "openDaysNote": ""
  },
  {
    "id": "871100442",
    "name": "特別養護老人ホーム　Ｌ・ハーモニー石下",
    "kana": "トクベツヨウゴロウジンホーム　エルハーモニーイシゲ",
    "address": "茨城県常総市原宿１１５５",
    "lat": 36.1345912,
    "lng": 139.9692207,
    "tel": "0297-44-6616",
    "url": "https://www.l-harmony.jp/",
    "pref": "茨城県",
    "city": "常総市",
    "category": "tokuyou",
    "serviceType": "介護老人福祉施設",
    "capacity": 90,
    "openDays": [],
    "openDaysNote": ""
  },
  {
    "id": "871100079",
    "name": "特別養護老人ホーム　よしの荘",
    "kana": "トクベツヨウゴロウジンホーム　ヨシノソウ",
    "address": "常総市上蛇町1888-1",
    "lat": 36.0736523,
    "lng": 140.0013164,
    "tel": "0297-22-7716",
    "url": "http://www.yoshinosou.or.jp/",
    "pref": "茨城県",
    "city": "常総市",
    "category": "tokuyou",
    "serviceType": "介護老人福祉施設",
    "capacity": 0,
    "openDays": [],
    "openDaysNote": ""
  },
  {
    "id": "871180014",
    "name": "特別養護老人ホーム　よしの荘",
    "kana": "トクベツヨウゴロウジンホーム　ヨシノソウ",
    "address": "茨城県常総市上蛇町1888-1",
    "lat": 36.0735717,
    "lng": 140.0011387,
    "tel": "0297－22－7716",
    "url": "http://www.yoshinosou.or.jp/",
    "pref": "茨城県",
    "city": "常総市",
    "category": "tokuyou",
    "serviceType": "介護老人福祉施設",
    "capacity": 0,
    "openDays": [],
    "openDaysNote": ""
  },
  {
    "id": "871180006",
    "name": "特別養護老人ホーム　千の杜",
    "kana": "トクベツヨウゴロウジンホーム　センノモリ",
    "address": "茨城県常総市菅生町1319番地１",
    "lat": 35.9861642,
    "lng": 139.9315639,
    "tel": "0297-44-7085",
    "url": "http://www.mokusei-grp.jp",
    "pref": "茨城県",
    "city": "常総市",
    "category": "tokuyou",
    "serviceType": "介護老人福祉施設",
    "capacity": 50,
    "openDays": [],
    "openDaysNote": ""
  },
  {
    "id": "871100236",
    "name": "特別養護老人ホーム　筑水苑",
    "kana": "トクベツヨウゴロウジンホーム　チクスイエン",
    "address": "茨城県常総市水海道高野町字石橋６７１番地１",
    "lat": 36.0074895,
    "lng": 139.984538,
    "tel": "0297-25-1616",
    "url": "http://www.tikusuien.jp/",
    "pref": "茨城県",
    "city": "常総市",
    "category": "tokuyou",
    "serviceType": "介護老人福祉施設",
    "capacity": 90,
    "openDays": [],
    "openDaysNote": ""
  },
  {
    "id": "874200132",
    "name": "特別養護老人ホームさくら館",
    "kana": "トクベツヨウゴロウジンホーム　サクラカン",
    "address": "茨城県常総市馬場2245番地",
    "lat": 36.1294222,
    "lng": 139.9204324,
    "tel": "0297-43-8611",
    "url": "",
    "pref": "茨城県",
    "city": "常総市",
    "category": "tokuyou",
    "serviceType": "介護老人福祉施設",
    "capacity": null,
    "openDays": [],
    "openDaysNote": ""
  },
  {
    "id": "871100087",
    "name": "特別養護老人ホーム筑波キングス・ガーデン",
    "kana": "トクベツヨウゴロウジンホームツクバキングス・ガーデン",
    "address": "茨城県常総市大生郷町1818-2",
    "lat": 36.0672322,
    "lng": 139.9491301,
    "tel": "0297-24-5139",
    "url": "http://www.kings-garden.or.jp",
    "pref": "茨城県",
    "city": "常総市",
    "category": "tokuyou",
    "serviceType": "介護老人福祉施設",
    "capacity": null,
    "openDays": [],
    "openDaysNote": ""
  },
  {
    "id": "871200317",
    "name": "特別養護老人ホーム　えみの里",
    "kana": "トクベツヨウゴロウジンホーム　エミノサト",
    "address": "茨城県常陸太田市徳田町143",
    "lat": 36.7732189,
    "lng": 140.48294,
    "tel": "0294-70-7151",
    "url": "http://care-net.biz/08/syomakai/",
    "pref": "茨城県",
    "city": "常陸太田市",
    "category": "tokuyou",
    "serviceType": "介護老人福祉施設",
    "capacity": 0,
    "openDays": [],
    "openDaysNote": ""
  },
  {
    "id": "873400154",
    "name": "特別養護老人ホーム　松栄荘",
    "kana": "トクベツヨウゴロウジンホーム　ショウエイソウ",
    "address": "茨城県常陸太田市箕町９１１番地の１",
    "lat": 36.5614579,
    "lng": 140.445039,
    "tel": "0294-76-3011",
    "url": "anshin-sunpia.or.jp",
    "pref": "茨城県",
    "city": "常陸太田市",
    "category": "tokuyou",
    "serviceType": "介護老人福祉施設",
    "capacity": 0,
    "openDays": [],
    "openDaysNote": ""
  },
  {
    "id": "871200457",
    "name": "特別養護老人ホーム　世矢の里",
    "kana": "トクベツヨウゴロウジンホーム　セヤノサト",
    "address": "茨城県常陸太田市亀作町481-1",
    "lat": 36.5263022,
    "lng": 140.5677278,
    "tel": "0294-70-2220",
    "url": "http://seyanosato.org/",
    "pref": "茨城県",
    "city": "常陸太田市",
    "category": "tokuyou",
    "serviceType": "介護老人福祉施設",
    "capacity": 0,
    "openDays": [],
    "openDaysNote": ""
  },
  {
    "id": "871200036",
    "name": "特別養護老人ホーム　西山苑",
    "kana": "トクベツヨウゴロウジンホーム　ニシヤマエン",
    "address": "茨城県常陸太田市木崎二町937番地の２",
    "lat": 36.5313722,
    "lng": 140.5251058,
    "tel": "0294-72-3500",
    "url": "",
    "pref": "茨城県",
    "city": "常陸太田市",
    "category": "tokuyou",
    "serviceType": "介護老人福祉施設",
    "capacity": 0,
    "openDays": [],
    "openDaysNote": ""
  },
  {
    "id": "873400162",
    "name": "特別養護老人ホーム　誠信園",
    "kana": "トクベツヨウゴロウジンホーム　セイシンエン",
    "address": "茨城県常陸太田市和久町864-1",
    "lat": 36.6141303,
    "lng": 140.4792235,
    "tel": "0294-85-1970",
    "url": "http://www.aikouen.net/",
    "pref": "茨城県",
    "city": "常陸太田市",
    "category": "tokuyou",
    "serviceType": "介護老人福祉施設",
    "capacity": 0,
    "openDays": [],
    "openDaysNote": ""
  },
  {
    "id": "871200812",
    "name": "特別養護老人ホーム　藤井ハイム常陸太田",
    "kana": "トクベツヨウゴロウジンホーム　フジイハイムヒタチオオタ",
    "address": "茨城県常陸太田市新宿町1427番地3",
    "lat": 36.546806,
    "lng": 140.5119342,
    "tel": "0294-33-8855",
    "url": "https://www.fujii-hospital.com/hitachioota/hi_index.html",
    "pref": "茨城県",
    "city": "常陸太田市",
    "category": "tokuyou",
    "serviceType": "介護老人福祉施設",
    "capacity": null,
    "openDays": [],
    "openDaysNote": ""
  },
  {
    "id": "873300222",
    "name": "特別養護老人ホ－ム　サングリ－ンピア山方",
    "kana": "トクベツヨウゴロウジンホ-ム　サングリ-ンピアヤマガタ",
    "address": "茨城県常陸大宮市西野内1537-1",
    "lat": 36.6419656,
    "lng": 140.4016234,
    "tel": "0295-57-2100",
    "url": "http://www.masuya-group.com",
    "pref": "茨城県",
    "city": "常陸大宮市",
    "category": "tokuyou",
    "serviceType": "介護老人福祉施設",
    "capacity": 50,
    "openDays": [],
    "openDaysNote": ""
  },
  {
    "id": "873100671",
    "name": "特別養護老人ホーム　御前山フロイデガルテン",
    "kana": "トクベツヨウゴロウジンホーム　ゴゼンヤマフロイデガルテン",
    "address": "茨城県常陸大宮市野口平146-1",
    "lat": 36.5581032,
    "lng": 140.3383384,
    "tel": "0295-54-2555",
    "url": "https://www.hakuyukai-sfg.com/gozenyama.php",
    "pref": "茨城県",
    "city": "常陸大宮市",
    "category": "tokuyou",
    "serviceType": "介護老人福祉施設",
    "capacity": 50,
    "openDays": [],
    "openDaysNote": ""
  },
  {
    "id": "873300172",
    "name": "特別養護老人ホームおがわ",
    "kana": "トクベツヨウゴロウジンホームオガワ",
    "address": "茨城県常陸大宮市上小瀬4425",
    "lat": 36.6086961,
    "lng": 140.3161601,
    "tel": "0295-56-2500",
    "url": "",
    "pref": "茨城県",
    "city": "常陸大宮市",
    "category": "tokuyou",
    "serviceType": "介護老人福祉施設",
    "capacity": 0,
    "openDays": [],
    "openDaysNote": ""
  },
  {
    "id": "873300842",
    "name": "特別養護老人ホームドルフィン",
    "kana": "トクベツヨウゴロウジンホームドルフィン",
    "address": "常陸大宮市泉497-1",
    "lat": 36.528401,
    "lng": 140.4254391,
    "tel": "0295-53-1191",
    "url": "http://www.dolphin-net.or.jp",
    "pref": "茨城県",
    "city": "常陸大宮市",
    "category": "tokuyou",
    "serviceType": "介護老人福祉施設",
    "capacity": 0,
    "openDays": [],
    "openDaysNote": ""
  },
  {
    "id": "873300214",
    "name": "特別養護老人ホームみのり園",
    "kana": "トクベツヨウゴロウジンホームミノリエン",
    "address": "茨城県常陸大宮市鷹巣2243-1",
    "lat": 36.573039,
    "lng": 140.3958825,
    "tel": "0295-53-7878",
    "url": "care-net.biz/08/minorien/",
    "pref": "茨城県",
    "city": "常陸大宮市",
    "category": "tokuyou",
    "serviceType": "介護老人福祉施設",
    "capacity": 0,
    "openDays": [],
    "openDaysNote": ""
  },
  {
    "id": "873300651",
    "name": "特別養護老人ホームみわ",
    "kana": "トクベツヨウゴロウジンホーム　ミワ",
    "address": "茨城県常陸大宮市鷲子２０２３－２",
    "lat": 36.6648195,
    "lng": 140.2430733,
    "tel": "0295-58-2213",
    "url": "bikoukai.com",
    "pref": "茨城県",
    "city": "常陸大宮市",
    "category": "tokuyou",
    "serviceType": "介護老人福祉施設",
    "capacity": 0,
    "openDays": [],
    "openDaysNote": ""
  },
  {
    "id": "873600167",
    "name": "特別養護老人ホーム　しおさい苑",
    "kana": "トクベツヨウゴロウジンホーム　シオサイエン",
    "address": "茨城県神栖市矢田部9416-1",
    "lat": 35.8030906,
    "lng": 140.7862301,
    "tel": "0479-48-1110",
    "url": "",
    "pref": "茨城県",
    "city": "神栖市",
    "category": "tokuyou",
    "serviceType": "介護老人福祉施設",
    "capacity": 0,
    "openDays": [],
    "openDaysNote": ""
  },
  {
    "id": "875200313",
    "name": "特別養護老人ホーム　はまなす",
    "kana": "トクベツヨウゴロウジンホーム　ハマナス",
    "address": "茨城県神栖市日川字石塚4112",
    "lat": 35.861737,
    "lng": 140.693756,
    "tel": "0299-96-6630",
    "url": "",
    "pref": "茨城県",
    "city": "神栖市",
    "category": "tokuyou",
    "serviceType": "介護老人福祉施設",
    "capacity": 0,
    "openDays": [],
    "openDaysNote": ""
  },
  {
    "id": "875200131",
    "name": "特別養護老人ホーム　マリンピア神栖",
    "kana": "トクベツヨウゴロウジンホーム　マリンピアカミス",
    "address": "茨城県神栖市矢田部１２６７８－７",
    "lat": 35.8249027,
    "lng": 140.7628706,
    "tel": "0479-46-7770",
    "url": "http://www.welfara-marinepia.or.jp/",
    "pref": "茨城県",
    "city": "神栖市",
    "category": "tokuyou",
    "serviceType": "介護老人福祉施設",
    "capacity": 0,
    "openDays": [],
    "openDaysNote": ""
  },
  {
    "id": "875200891",
    "name": "特別養護老人ホーム　白寿荘",
    "kana": "トクベツヨウゴロウジンホーム　ハクジュソウ",
    "address": "茨城県神栖市賀２１４８－１１２",
    "lat": 35.9010894048665,
    "lng": 140.624009191402,
    "tel": "０２９９－９２－７４４３",
    "url": "http://www.hakujujikai.or.jp",
    "pref": "茨城県",
    "city": "神栖市",
    "category": "tokuyou",
    "serviceType": "介護老人福祉施設",
    "capacity": 0,
    "openDays": [],
    "openDaysNote": ""
  },
  {
    "id": "873600159",
    "name": "特別養護老人ホーム白寿荘",
    "kana": "トクベツヨウゴロウジンホームハクジュソウ",
    "address": "神栖市賀2148-112",
    "lat": 35.9012241103592,
    "lng": 140.624003826984,
    "tel": "0299-92-7443",
    "url": "http://www.hakujujikai.or.jp/shisetu/kasima-hakujuso.html",
    "pref": "茨城県",
    "city": "神栖市",
    "category": "tokuyou",
    "serviceType": "介護老人福祉施設",
    "capacity": 0,
    "openDays": [],
    "openDaysNote": ""
  },
  {
    "id": "870104130",
    "name": "ケアステーション藤が原",
    "kana": "ケアステーションフジガハラ",
    "address": "茨城県水戸市藤井町1117-1488",
    "lat": 36.4581435,
    "lng": 140.3874379,
    "tel": "029-222-9988",
    "url": "http://www.shinaikai.or.jp",
    "pref": "茨城県",
    "city": "水戸市",
    "category": "tokuyou",
    "serviceType": "介護老人福祉施設",
    "capacity": 0,
    "openDays": [],
    "openDaysNote": ""
  },
  {
    "id": "870105814",
    "name": "ケアステーション梅寿園",
    "kana": "ケアステーション梅寿園",
    "address": "茨城県水戸市見川町1820-10",
    "lat": 36.3556946,
    "lng": 140.4345709,
    "tel": "029-243-5322",
    "url": "http://www.shinaikai.or.jp",
    "pref": "茨城県",
    "city": "水戸市",
    "category": "tokuyou",
    "serviceType": "介護老人福祉施設",
    "capacity": null,
    "openDays": [],
    "openDaysNote": ""
  },
  {
    "id": "870106275",
    "name": "みと東部特別養護老人ホーム",
    "kana": "ミトトウブトクベツヨウゴロウジンホーム",
    "address": "茨城県水戸市酒門町1177-3",
    "lat": 36.3410454,
    "lng": 140.4851036,
    "tel": "029-350-6100",
    "url": "https://swc-jinshinkai.com/",
    "pref": "茨城県",
    "city": "水戸市",
    "category": "tokuyou",
    "serviceType": "介護老人福祉施設",
    "capacity": null,
    "openDays": [],
    "openDaysNote": ""
  },
  {
    "id": "870106283",
    "name": "みと東部特別養護老人ホーム",
    "kana": "ミトトウブトクベツヨウゴロウジンホーム",
    "address": "茨城県水戸市酒門町",
    "lat": 36.3410454,
    "lng": 140.4851036,
    "tel": "029-350-6100",
    "url": "https://swc-jinshinkai.com/",
    "pref": "茨城県",
    "city": "水戸市",
    "category": "tokuyou",
    "serviceType": "介護老人福祉施設",
    "capacity": 0,
    "openDays": [],
    "openDaysNote": ""
  },
  {
    "id": "870102449",
    "name": "介護老人福祉施設　ユーアイの家",
    "kana": "カイゴロウジンフクシシセツ　ユーアイノイエ",
    "address": "茨城県水戸市吉沼町1839-1",
    "lat": 36.3629433,
    "lng": 140.5184146,
    "tel": "029-222-1822",
    "url": "https://www.you-i-mura.com",
    "pref": "茨城県",
    "city": "水戸市",
    "category": "tokuyou",
    "serviceType": "介護老人福祉施設",
    "capacity": 0,
    "openDays": [],
    "openDaysNote": ""
  },
  {
    "id": "870101953",
    "name": "介護老人福祉施設長生園",
    "kana": "カイゴロウジンフクシシセツチョウセイエン",
    "address": "茨城県水戸市堀町1185",
    "lat": 36.4001575052144,
    "lng": 140.428330374869,
    "tel": "029-251-5345",
    "url": "https://hokuyoukai.jp/chouseien/",
    "pref": "茨城県",
    "city": "水戸市",
    "category": "tokuyou",
    "serviceType": "介護老人福祉施設",
    "capacity": 0,
    "openDays": [],
    "openDaysNote": ""
  },
  {
    "id": "870100377",
    "name": "指定介護老人福祉施設　ケアステーション梅寿園",
    "kana": "シテイカイゴロウジンフクシシセツ　ケアステーションバイジュエン",
    "address": "茨城県水戸市見川町1820－10",
    "lat": 36.3557367944561,
    "lng": 140.434530289935,
    "tel": "029-243-5322",
    "url": "http://www.shinaikai.or.jp",
    "pref": "茨城県",
    "city": "水戸市",
    "category": "tokuyou",
    "serviceType": "介護老人福祉施設",
    "capacity": null,
    "openDays": [],
    "openDaysNote": ""
  },
  {
    "id": "870101656",
    "name": "社会福祉法人尚生会　介護老人福祉施設グリーンハウスみと",
    "kana": "シャカイフクシホウジンショウセイカイ　カイゴロウジンフクシシセツグリーンハウスミト",
    "address": "茨城県水戸市塩崎町3503",
    "lat": 36.3377609,
    "lng": 140.5523813,
    "tel": "029-240-5580",
    "url": "http://www.shoseikai.com",
    "pref": "茨城県",
    "city": "水戸市",
    "category": "tokuyou",
    "serviceType": "介護老人福祉施設",
    "capacity": null,
    "openDays": [],
    "openDaysNote": ""
  },
  {
    "id": "870105533",
    "name": "双葉陽だまり館",
    "kana": "フタバヒダマリカン",
    "address": "茨城県水戸市開江町７番地",
    "lat": 36.3950339656315,
    "lng": 140.390377467531,
    "tel": "029-306-7521",
    "url": "www.heart-pia.com",
    "pref": "茨城県",
    "city": "水戸市",
    "category": "tokuyou",
    "serviceType": "介護老人福祉施設",
    "capacity": 0,
    "openDays": [],
    "openDaysNote": ""
  },
  {
    "id": "870106689",
    "name": "特別養護老人ホーム　あいおんの里水戸",
    "kana": "トクベツヨウゴロウジンホーム　アイオンノサトミト",
    "address": "茨城県水戸市河和田町4422-1",
    "lat": 36.3601909895027,
    "lng": 140.399024115869,
    "tel": "029-291-3610",
    "url": "http://www.youkou-kai.or.jp/",
    "pref": "茨城県",
    "city": "水戸市",
    "category": "tokuyou",
    "serviceType": "介護老人福祉施設",
    "capacity": 0,
    "openDays": [],
    "openDaysNote": ""
  },
  {
    "id": "870103553",
    "name": "特別養護老人ホーム　はぎの郷",
    "kana": "トクベツヨウゴロウジンホーム　ハギノサト",
    "address": "茨城県水戸市酒門町2946-3",
    "lat": 36.34112,
    "lng": 140.497658,
    "tel": "029-291-7780",
    "url": "http://www.mokusei-grp.jp/contents/senior_support/haginosato.html",
    "pref": "茨城県",
    "city": "水戸市",
    "category": "tokuyou",
    "serviceType": "介護老人福祉施設",
    "capacity": 50,
    "openDays": [],
    "openDaysNote": ""
  },
  {
    "id": "870100294",
    "name": "特別養護老人ホーム　フォレストヴィラ水戸",
    "kana": "トクベツヨウゴロウジンホーム　フォレストビラミト",
    "address": "茨城県水戸市全隈町1256-7",
    "lat": 36.4211669,
    "lng": 140.3877969,
    "tel": "029-253-6551",
    "url": "www.seirankai-forest.jp/dayservice.html",
    "pref": "茨城県",
    "city": "水戸市",
    "category": "tokuyou",
    "serviceType": "介護老人福祉施設",
    "capacity": null,
    "openDays": [],
    "openDaysNote": ""
  },
  {
    "id": "873100390",
    "name": "特別養護老人ホーム　もみじ館",
    "kana": "トクベツヨウゴトウジンホーム　モミジカン",
    "address": "茨城県水戸市鯉淵町2222-1",
    "lat": 36.3568759,
    "lng": 140.3685892,
    "tel": "029-259-9295",
    "url": "https://hokuyoukai.jp/momiji/",
    "pref": "茨城県",
    "city": "水戸市",
    "category": "tokuyou",
    "serviceType": "介護老人福祉施設",
    "capacity": null,
    "openDays": [],
    "openDaysNote": ""
  },
  {
    "id": "870100328",
    "name": "特別養護老人ホーム　ライフピア青柳",
    "kana": "トクベツヨウゴロウジンホーム　ライフピアアオヤギ",
    "address": "茨城県水戸市青柳町3796",
    "lat": 36.3984414,
    "lng": 140.4778841,
    "tel": "029-224-5855",
    "url": "http://www.koushoukai.or.jp/",
    "pref": "茨城県",
    "city": "水戸市",
    "category": "tokuyou",
    "serviceType": "介護老人福祉施設",
    "capacity": null,
    "openDays": [],
    "openDaysNote": ""
  },
  {
    "id": "870103058",
    "name": "特別養護老人ホーム　桜川陽だまり館",
    "kana": "トクベツヨウゴロウジンホーム　サクラガワヒダマリカン",
    "address": "茨城県水戸市河和田町58番地",
    "lat": 36.3672725,
    "lng": 140.4273373,
    "tel": "029-257-7011",
    "url": "http://www.heart-pia.com/",
    "pref": "茨城県",
    "city": "水戸市",
    "category": "tokuyou",
    "serviceType": "介護老人福祉施設",
    "capacity": 0,
    "openDays": [],
    "openDaysNote": ""
  },
  {
    "id": "870105301",
    "name": "特別養護老人ホーム　祐功の館",
    "kana": "トクベツヨウゴロウジンホーム　ユウコウノヤカタ",
    "address": "茨城県水戸市飯島町1308番1",
    "lat": 36.3666838244753,
    "lng": 140.390766520099,
    "tel": "029-353-7011",
    "url": "http://www.yukonoyakata.com",
    "pref": "茨城県",
    "city": "水戸市",
    "category": "tokuyou",
    "serviceType": "介護老人福祉施設",
    "capacity": null,
    "openDays": [],
    "openDaysNote": ""
  },
  {
    "id": "870101128",
    "name": "特別養護老人ホームアクティブハートさかど",
    "kana": "トクベツヨウゴロウジンホームアクティブハートサカド",
    "address": "茨城県水戸市酒門町4390番",
    "lat": 36.3298517,
    "lng": 140.4718666,
    "tel": "029-248-5511",
    "url": "http://ah-sakado.com/",
    "pref": "茨城県",
    "city": "水戸市",
    "category": "tokuyou",
    "serviceType": "介護老人福祉施設",
    "capacity": 0,
    "openDays": [],
    "openDaysNote": ""
  },
  {
    "id": "870105038",
    "name": "特別養護老人ホームアクティブハートさかど",
    "kana": "トクベツヨウゴロウジンホームアクティブハートサカド",
    "address": "茨城県水戸市酒門町4390番",
    "lat": 36.3297406,
    "lng": 140.4719333,
    "tel": "029-248-5511",
    "url": "http://ah-sakado.com/",
    "pref": "茨城県",
    "city": "水戸市",
    "category": "tokuyou",
    "serviceType": "介護老人福祉施設",
    "capacity": 0,
    "openDays": [],
    "openDaysNote": ""
  },
  {
    "id": "870105152",
    "name": "特別養護老人ホームかさはら",
    "kana": "トクベツヨウゴロウジンホームカサハラ",
    "address": "茨城県水戸市笠原町75-3",
    "lat": 36.3405415,
    "lng": 140.4489065,
    "tel": "029-243-3715",
    "url": "http://kasa-koufukukai.jp",
    "pref": "茨城県",
    "city": "水戸市",
    "category": "tokuyou",
    "serviceType": "介護老人福祉施設",
    "capacity": null,
    "openDays": [],
    "openDaysNote": ""
  },
  {
    "id": "870106085",
    "name": "特別養護老人ホームかたくりの郷",
    "kana": "トクベツヨウゴロウジンホームカタクリノサト",
    "address": "茨城県水戸市大塚町1763-12",
    "lat": 36.3895175898598,
    "lng": 140.392172029732,
    "tel": "029-297-5220",
    "url": "http://www.suisei.or.jp",
    "pref": "茨城県",
    "city": "水戸市",
    "category": "tokuyou",
    "serviceType": "介護老人福祉施設",
    "capacity": 0,
    "openDays": [],
    "openDaysNote": ""
  },
  {
    "id": "870103330",
    "name": "特別養護老人ホームもくせい",
    "kana": "トクベツヨウゴロウジンホーム　モクセイ",
    "address": "茨城県水戸市東原3丁目2-7",
    "lat": 36.3863866,
    "lng": 140.4473837,
    "tel": "029-303-7373",
    "url": "http://hokusuikai.or.jp/mokusei/",
    "pref": "茨城県",
    "city": "水戸市",
    "category": "tokuyou",
    "serviceType": "介護老人福祉施設",
    "capacity": 0,
    "openDays": [],
    "openDaysNote": ""
  },
  {
    "id": "870100476",
    "name": "特別養護老人ホームライフピア河和田",
    "kana": "トクベツヨウゴロウジンホームライフピアカワワダ",
    "address": "水戸市河和田町4126-201",
    "lat": 36.3543031,
    "lng": 140.4043719,
    "tel": "029-257-6411",
    "url": "",
    "pref": "茨城県",
    "city": "水戸市",
    "category": "tokuyou",
    "serviceType": "介護老人福祉施設",
    "capacity": 0,
    "openDays": [],
    "openDaysNote": ""
  },
  {
    "id": "870100393",
    "name": "特別養護老人ホーム愛友園",
    "kana": "トクベツヨウゴロウジンホームアイユウエン",
    "address": "茨城県水戸市緑町３－９－３５",
    "lat": 36.3829971,
    "lng": 140.4434487,
    "tel": "029-221-6157",
    "url": "http://www.aiyuuen.server-shared.com/",
    "pref": "茨城県",
    "city": "水戸市",
    "category": "tokuyou",
    "serviceType": "介護老人福祉施設",
    "capacity": 39,
    "openDays": [],
    "openDaysNote": ""
  },
  {
    "id": "870101821",
    "name": "特別養護老人ホーム森の家ひらす",
    "kana": "トクベツヨウゴロウジンホームモリノイエヒラス",
    "address": "茨城県　水戸市　小吹町　702-1",
    "lat": 36.3392254,
    "lng": 140.4294423,
    "tel": "029-240-3155",
    "url": "http://www",
    "pref": "茨城県",
    "city": "水戸市",
    "category": "tokuyou",
    "serviceType": "介護老人福祉施設",
    "capacity": null,
    "openDays": [],
    "openDaysNote": ""
  },
  {
    "id": "870102795",
    "name": "特別養護老人ホーム東野の家",
    "kana": "トクベツヨウゴロウジンホームトウノノイエ",
    "address": "茨城県水戸市東野町２１５－１",
    "lat": 36.3227496,
    "lng": 140.4519523,
    "tel": "029-247-1551",
    "url": "http://www.tokusenkai.jimusho.jp/",
    "pref": "茨城県",
    "city": "水戸市",
    "category": "tokuyou",
    "serviceType": "介護老人福祉施設",
    "capacity": null,
    "openDays": [],
    "openDaysNote": ""
  },
  {
    "id": "870105848",
    "name": "特別養護老人ホーム欅倶楽部",
    "kana": "トクベツヨウゴロウジンホームケヤキクラブ",
    "address": "茨城県水戸市酒門町3158",
    "lat": 36.340569469421,
    "lng": 140.486632149599,
    "tel": "029-350-2055",
    "url": "http://www.momiyama-kai.org",
    "pref": "茨城県",
    "city": "水戸市",
    "category": "tokuyou",
    "serviceType": "介護老人福祉施設",
    "capacity": 70,
    "openDays": [],
    "openDaysNote": ""
  },
  {
    "id": "870500279",
    "name": "石岡市特別養護老人ホームのぞみ",
    "kana": "イシオカシトクベツヨウゴロウジンホームノゾミ",
    "address": "茨城県石岡市大砂１０５２７－６",
    "lat": 36.2232970141161,
    "lng": 140.250297001327,
    "tel": "0299-27-5501",
    "url": "https://ishioka-keyakikai.or.jp/",
    "pref": "茨城県",
    "city": "石岡市",
    "category": "tokuyou",
    "serviceType": "介護老人福祉施設",
    "capacity": 0,
    "openDays": [],
    "openDaysNote": ""
  },
  {
    "id": "870500147",
    "name": "特別養護老人ホーム　センチュリー石岡",
    "kana": "トクベツヨウゴロウジンホーム　センチュリーイシオカ",
    "address": "茨城県石岡市三村字舘塚6286番地１",
    "lat": 36.1527992,
    "lng": 140.2787274,
    "tel": "0299-27-0001",
    "url": "http://ｗｗｗ.seireikai.jp/",
    "pref": "茨城県",
    "city": "石岡市",
    "category": "tokuyou",
    "serviceType": "介護老人福祉施設",
    "capacity": 114,
    "openDays": [],
    "openDaysNote": ""
  },
  {
    "id": "873900179",
    "name": "特別養護老人ホーム　やさと",
    "kana": "トクベツヨウゴロウジンホーム　ヤサト",
    "address": "茨城県石岡市小倉442-1",
    "lat": 36.2402818,
    "lng": 140.1702095,
    "tel": "0299-43-0811",
    "url": "http://www.taijinkai.or.jp/",
    "pref": "茨城県",
    "city": "石岡市",
    "category": "tokuyou",
    "serviceType": "介護老人福祉施設",
    "capacity": 0,
    "openDays": [],
    "openDaysNote": ""
  },
  {
    "id": "870501129",
    "name": "特別養護老人ホーム　ゆりの里",
    "kana": "トクベツヨウゴロウジンホーム　ユリノサト",
    "address": "茨城県石岡市東石岡3-17-38",
    "lat": 36.1839663,
    "lng": 140.2964837,
    "tel": "0299-57-1311",
    "url": "http://seijokai.net/",
    "pref": "茨城県",
    "city": "石岡市",
    "category": "tokuyou",
    "serviceType": "介護老人福祉施設",
    "capacity": 50,
    "openDays": [],
    "openDaysNote": ""
  },
  {
    "id": "870500881",
    "name": "特別養護老人ホームようよう",
    "kana": "トクベツヨウゴロウジンホームヨウヨウ",
    "address": "茨城県石岡市東石岡3-2-19",
    "lat": 36.1862035556399,
    "lng": 140.293349395106,
    "tel": "0299(56)4545",
    "url": "http://www.sannoudaiyouyou.jp/",
    "pref": "茨城県",
    "city": "石岡市",
    "category": "tokuyou",
    "serviceType": "介護老人福祉施設",
    "capacity": 50,
    "openDays": [],
    "openDaysNote": ""
  },
  {
    "id": "870500634",
    "name": "特別養護老人ホームれもん",
    "kana": "トクベツヨウゴロウジンホームレモン",
    "address": "茨城県石岡市下林3346-1",
    "lat": 36.2273215,
    "lng": 140.2435088,
    "tel": "0299-43-6511",
    "url": "souyuukai-lemon-2006@ec4.technowave.ne.jp",
    "pref": "茨城県",
    "city": "石岡市",
    "category": "tokuyou",
    "serviceType": "介護老人福祉施設",
    "capacity": 0,
    "openDays": [],
    "openDaysNote": ""
  },
  {
    "id": "870501277",
    "name": "特別養護老人ホーム石岡陽だまり館",
    "kana": "トクベツヨウゴロウジンホームイシオカヒダマリカン",
    "address": "茨城県石岡市府中1丁目3番10号特別養護老人ホーム石岡陽だまり館 特別養護老人ホーム石岡陽だまり館",
    "lat": 36.191521,
    "lng": 140.2754475,
    "tel": "0299-35-5601",
    "url": "http://www.heart-pia.com/meguminokai/facility/hidamari_ishioka.html?20191106",
    "pref": "茨城県",
    "city": "石岡市",
    "category": "tokuyou",
    "serviceType": "介護老人福祉施設",
    "capacity": 50,
    "openDays": [],
    "openDaysNote": ""
  },
  {
    "id": "873900674",
    "name": "特別養護老人ホーム談話館",
    "kana": "トクベツヨウゴロウジンホームダンワカン",
    "address": "茨城県石岡市部原７８４番１",
    "lat": 36.2618244749649,
    "lng": 140.224000468262,
    "tel": "0299-36-6611",
    "url": "http://www.bungosou.or.jp/ydanwakan/",
    "pref": "茨城県",
    "city": "石岡市",
    "category": "tokuyou",
    "serviceType": "介護老人福祉施設",
    "capacity": 0,
    "openDays": [],
    "openDaysNote": ""
  },
  {
    "id": "870500055",
    "name": "特別養護老人ホーム明翠苑",
    "kana": "トクベツヨウゴロウジンホームメイスイエン",
    "address": "茨城県石岡市半ノ木１１４８１－１",
    "lat": 36.2344378,
    "lng": 140.2710312,
    "tel": "0299-23-9620",
    "url": "http://tekisuikai.or.jp",
    "pref": "茨城県",
    "city": "石岡市",
    "category": "tokuyou",
    "serviceType": "介護老人福祉施設",
    "capacity": 50,
    "openDays": [],
    "openDaysNote": ""
  },
  {
    "id": "873400428",
    "name": "特別養護老人ホーム　あいおんの丘大子",
    "kana": "トクベツヨウゴロウジンホーム　アイオンノオカダイゴ",
    "address": "茨城県久慈郡大子町初原字前ノ沢294番",
    "lat": 36.7999577219062,
    "lng": 140.318207256389,
    "tel": "0295-78-5023",
    "url": "https://youkou-kai.or.jp/daigo",
    "pref": "茨城県",
    "city": "大子町",
    "category": "tokuyou",
    "serviceType": "介護老人福祉施設",
    "capacity": 0,
    "openDays": [],
    "openDaysNote": ""
  },
  {
    "id": "873400121",
    "name": "特別養護老人ホーム　久慈川荘",
    "kana": "トクベツヨウゴロウジンホーム　クジガワソウ",
    "address": "茨城県久慈郡大子町北田気551-1",
    "lat": 36.7645884,
    "lng": 140.3602237,
    "tel": "0295-72-2323",
    "url": "http://kujigawasou.or.jp/tokuyou.html",
    "pref": "茨城県",
    "city": "大子町",
    "category": "tokuyou",
    "serviceType": "介護老人福祉施設",
    "capacity": 80,
    "openDays": [],
    "openDaysNote": ""
  },
  {
    "id": "873101307",
    "name": "特別養護老人ホーム　うみべの家",
    "kana": "トクベツヨウゴロウジンホーム　ウミベノイエ",
    "address": "茨城県東茨城郡大洗町大貫町255-5",
    "lat": 36.3013386,
    "lng": 140.5612094,
    "tel": "029-264-7310",
    "url": "https://www.umibenoie.com/",
    "pref": "茨城県",
    "city": "大洗町",
    "category": "tokuyou",
    "serviceType": "介護老人福祉施設",
    "capacity": 50,
    "openDays": [],
    "openDaysNote": ""
  },
  {
    "id": "873100333",
    "name": "特別養護老人ホームひぬま苑",
    "kana": "トクベツヨウゴロウジンホームヒヌマエン",
    "address": "茨城県東茨城郡大洗町大貫町3269-1",
    "lat": 36.3053352,
    "lng": 140.554571,
    "tel": "029-267-6617",
    "url": "http://www.hinumaen.sakura.ne.jp/",
    "pref": "茨城県",
    "city": "大洗町",
    "category": "tokuyou",
    "serviceType": "介護老人福祉施設",
    "capacity": 0,
    "openDays": [],
    "openDaysNote": ""
  },
  {
    "id": "872700661",
    "name": "特別養護老人ホーム　あしま",
    "kana": "トクベツヨウゴロウジンホーム　アシマ",
    "address": "下中山３６０番地１",
    "lat": 36.3031308,
    "lng": 139.9859565,
    "tel": "0296-48-9405",
    "url": "http://www.rintokukai.com",
    "pref": "茨城県",
    "city": "筑西市",
    "category": "tokuyou",
    "serviceType": "介護老人福祉施設",
    "capacity": 60,
    "openDays": [],
    "openDaysNote": ""
  },
  {
    "id": "872701180",
    "name": "特別養護老人ホーム　ひまわり苑　本館",
    "kana": "トクベツヨウゴロウジンホーム　ヒマワリエン　ホンカン",
    "address": "茨城県筑西市吉田640-1",
    "lat": 36.2671417,
    "lng": 140.0128195,
    "tel": "0296-52-5088",
    "url": "https://www.himawari-akeno.jp/",
    "pref": "茨城県",
    "city": "筑西市",
    "category": "tokuyou",
    "serviceType": "介護老人福祉施設",
    "capacity": 90,
    "openDays": [],
    "openDaysNote": ""
  },
  {
    "id": "874100548",
    "name": "特別養護老人ホーム　恒幸園",
    "kana": "トクベツヨウゴロウジンホーム　コウコウエン",
    "address": "筑西市向川澄98-1",
    "lat": 36.3292229,
    "lng": 140.012675,
    "tel": "0296-57-7268",
    "url": "http://www.kohtokukai.jp/",
    "pref": "茨城県",
    "city": "筑西市",
    "category": "tokuyou",
    "serviceType": "介護老人福祉施設",
    "capacity": 0,
    "openDays": [],
    "openDaysNote": ""
  },
  {
    "id": "874100167",
    "name": "特別養護老人ホーム　紫雲荘",
    "kana": "トクベツヨウゴロウジンホーム　シウンソウ",
    "address": "茨城県筑西市海老ヶ島１９９９",
    "lat": 36.2426165,
    "lng": 140.03483,
    "tel": "0296-52-5711",
    "url": "http://www.shiun.or.jp",
    "pref": "茨城県",
    "city": "筑西市",
    "category": "tokuyou",
    "serviceType": "介護老人福祉施設",
    "capacity": 50,
    "openDays": [],
    "openDaysNote": ""
  },
  {
    "id": "874100191",
    "name": "特別養護老人ホーム　筑圃苑",
    "kana": "トクベツヨウゴロウジンホーム　ツクホエン",
    "address": "筑西市木戸３５４番地",
    "lat": 36.2450322,
    "lng": 139.9806982,
    "tel": "0296-37-2215",
    "url": "http://ohata-hospital.jp/tsukuhoen/",
    "pref": "茨城県",
    "city": "筑西市",
    "category": "tokuyou",
    "serviceType": "介護老人福祉施設",
    "capacity": 54,
    "openDays": [],
    "openDaysNote": ""
  },
  {
    "id": "872700299",
    "name": "特別養護老人ホーム　中舘園",
    "kana": "トクベツヨウゴロウジンホーム　ナカダテエン",
    "address": "茨城県筑西市八丁台457",
    "lat": 36.3258638,
    "lng": 139.9744152,
    "tel": "0296-23-1880",
    "url": "https://www.nakadateen.com",
    "pref": "茨城県",
    "city": "筑西市",
    "category": "tokuyou",
    "serviceType": "介護老人福祉施設",
    "capacity": 0,
    "openDays": [],
    "openDaysNote": ""
  },
  {
    "id": "872700067",
    "name": "特別養護老人ホームしらとり",
    "kana": "トクベツヨウゴロウジンホームシラトリ",
    "address": "茨城県筑西市上平塚590-1",
    "lat": 36.3198465,
    "lng": 139.9292861,
    "tel": "0296-28-1277",
    "url": "http://www.seihoukai.org/tokuyou/",
    "pref": "茨城県",
    "city": "筑西市",
    "category": "tokuyou",
    "serviceType": "介護老人福祉施設",
    "capacity": 0,
    "openDays": [],
    "openDaysNote": ""
  },
  {
    "id": "872701073",
    "name": "特別養護老人ホームまごころの杜",
    "kana": "トクベツヨウゴロウジンホームマゴコロノモリ",
    "address": "茨城県筑西市西方1667",
    "lat": 36.2888378521954,
    "lng": 139.950725848241,
    "tel": "0296-28-8556",
    "url": "http://sekiyoukai.or.jp/",
    "pref": "茨城県",
    "city": "筑西市",
    "category": "tokuyou",
    "serviceType": "介護老人福祉施設",
    "capacity": null,
    "openDays": [],
    "openDaysNote": ""
  },
  {
    "id": "870600095",
    "name": "特別養護老人ホーム敬心苑",
    "kana": "トクベツヨウゴロウジンホームケイシンエン",
    "address": "茨城県筑西市野殿１５９５－３",
    "lat": 36.2756948,
    "lng": 139.9708615,
    "tel": "0296-25-6886",
    "url": "http://keishinen.hp.gogo.jp",
    "pref": "茨城県",
    "city": "筑西市",
    "category": "tokuyou",
    "serviceType": "介護老人福祉施設",
    "capacity": 53,
    "openDays": [],
    "openDaysNote": ""
  },
  {
    "id": "874100332",
    "name": "特別養護老人ホーム県西せいかん荘",
    "kana": "トクベツヨウゴロウジンホームケンセイセイカンソウ",
    "address": "茨城県筑西市蓬田241",
    "lat": 36.3600451,
    "lng": 140.041555,
    "tel": "0296-57-6531",
    "url": "",
    "pref": "茨城県",
    "city": "筑西市",
    "category": "tokuyou",
    "serviceType": "介護老人福祉施設",
    "capacity": 0,
    "openDays": [],
    "openDaysNote": ""
  },
  {
    "id": "872300272",
    "name": "特別養護老人ホーム　いたこの郷",
    "kana": "トクベツヨウゴロウジンホーム　イタコノサト",
    "address": "潮来市大生字大生原804-556",
    "lat": 35.9858917873938,
    "lng": 140.551588087389,
    "tel": "0299-66-5533",
    "url": "http://www.itakonosato.com",
    "pref": "茨城県",
    "city": "潮来市",
    "category": "tokuyou",
    "serviceType": "介護老人福祉施設",
    "capacity": 70,
    "openDays": [],
    "openDaysNote": ""
  },
  {
    "id": "872300140",
    "name": "特別養護老人ホームあやめ荘",
    "kana": "トクベツヨウゴロウジンホームアヤメソウ",
    "address": "茨城県潮来市水原１５４９番地１",
    "lat": 35.9737114143623,
    "lng": 140.575360662041,
    "tel": "0299-67-5511",
    "url": "http://shifuku.or.jp/ayamesou",
    "pref": "茨城県",
    "city": "潮来市",
    "category": "tokuyou",
    "serviceType": "介護老人福祉施設",
    "capacity": 70,
    "openDays": [],
    "openDaysNote": ""
  },
  {
    "id": "872300132",
    "name": "特別養護老人ホーム福楽園",
    "kana": "トクベツヨウゴロウジンホームフクラクエン",
    "address": "茨城県潮来市上戸１９２１－１",
    "lat": 35.9501777,
    "lng": 140.537275,
    "tel": "0299-64-6767",
    "url": "http://www.fukrakuen.or.jp/",
    "pref": "茨城県",
    "city": "潮来市",
    "category": "tokuyou",
    "serviceType": "介護老人福祉施設",
    "capacity": 0,
    "openDays": [],
    "openDaysNote": ""
  },
  {
    "id": "870300779",
    "name": "特別養護老人ホーム　　やすらぎの園",
    "kana": "トクベツヨウゴロウジンホーム　　ヤスラギノソノ",
    "address": "茨城県土浦市小岩田西二丁目1番49号",
    "lat": 36.0607685,
    "lng": 140.1890048,
    "tel": "029-835-3131",
    "url": "juseikai-yasuraginosono.or.jp",
    "pref": "茨城県",
    "city": "土浦市",
    "category": "tokuyou",
    "serviceType": "介護老人福祉施設",
    "capacity": 0,
    "openDays": [],
    "openDaysNote": ""
  },
  {
    "id": "870302346",
    "name": "特別養護老人ホーム　シルトピア",
    "kana": "トクベツヨウゴロウジンホーム　シルトピア",
    "address": "茨城県土浦市本郷１６７９－１",
    "lat": 36.1565294,
    "lng": 140.1730788,
    "tel": "０２９－８６２－１７１７",
    "url": "http://www.shirutopia.or.jp",
    "pref": "茨城県",
    "city": "土浦市",
    "category": "tokuyou",
    "serviceType": "介護老人福祉施設",
    "capacity": 0,
    "openDays": [],
    "openDaysNote": ""
  },
  {
    "id": "873900088",
    "name": "特別養護老人ホーム　シルトピア",
    "kana": "トクベツヨウゴロウジンホーム　シルトピア",
    "address": "土浦市本郷１６７９－１",
    "lat": 36.1565294,
    "lng": 140.1730788,
    "tel": "029-862-1717",
    "url": "http://www.shirutopia.or.jp",
    "pref": "茨城県",
    "city": "土浦市",
    "category": "tokuyou",
    "serviceType": "介護老人福祉施設",
    "capacity": 0,
    "openDays": [],
    "openDaysNote": ""
  },
  {
    "id": "870301363",
    "name": "特別養護老人ホーム　なごみ",
    "kana": "トクベツヨウゴロウジンホーム　ナゴミ",
    "address": "茨城県土浦市右籾644-1",
    "lat": 36.0505918,
    "lng": 140.1833857,
    "tel": "029-841-7532",
    "url": "http://nagomi-tsuchiura.com/",
    "pref": "茨城県",
    "city": "土浦市",
    "category": "tokuyou",
    "serviceType": "介護老人福祉施設",
    "capacity": 0,
    "openDays": [],
    "openDaysNote": ""
  },
  {
    "id": "870301017",
    "name": "特別養護老人ホーム　はなのえん",
    "kana": "トクベツヨウゴロウジンホーム　ハナノエン",
    "address": "土浦市粟野町1852-1",
    "lat": 36.1403222,
    "lng": 140.1986146,
    "tel": "029-830-0511",
    "url": "http://hananoen.jp/",
    "pref": "茨城県",
    "city": "土浦市",
    "category": "tokuyou",
    "serviceType": "介護老人福祉施設",
    "capacity": 50,
    "openDays": [],
    "openDaysNote": ""
  },
  {
    "id": "870300290",
    "name": "特別養護老人ホーム　もりの家",
    "kana": "トクベツヨウゴロウジンホームモリノイエ",
    "address": "土浦市北荒川沖町８番１号",
    "lat": 36.0369124,
    "lng": 140.1669478,
    "tel": "029-830-4755",
    "url": "http://www.morino-ie.jp/",
    "pref": "茨城県",
    "city": "土浦市",
    "category": "tokuyou",
    "serviceType": "介護老人福祉施設",
    "capacity": null,
    "openDays": [],
    "openDaysNote": ""
  },
  {
    "id": "870300209",
    "name": "特別養護老人ホーム　静霞園",
    "kana": "トクベツヨウゴロウジンホーム　セイカエン",
    "address": "茨城県土浦市東若松町3379番地",
    "lat": 36.1082959,
    "lng": 140.2093979,
    "tel": "029-824-9581",
    "url": "http://www.aishinkai.or.jp",
    "pref": "茨城県",
    "city": "土浦市",
    "category": "tokuyou",
    "serviceType": "介護老人福祉施設",
    "capacity": 60,
    "openDays": [],
    "openDaysNote": ""
  },
  {
    "id": "870302874",
    "name": "特別養護老人ホーム　滝田",
    "kana": "トクベツヨウゴロウジンホーム　タキタ",
    "address": "茨城県土浦市滝田1丁目10-2",
    "lat": 36.0685039557009,
    "lng": 140.216313387311,
    "tel": "029-875-5771",
    "url": "info@tokuyou-takita.com",
    "pref": "茨城県",
    "city": "土浦市",
    "category": "tokuyou",
    "serviceType": "介護老人福祉施設",
    "capacity": null,
    "openDays": [],
    "openDaysNote": ""
  },
  {
    "id": "870300241",
    "name": "特別養護老人ホーム　飛羽ノ園",
    "kana": "トクベツヨウゴロウジンホーム　ヒワノエン",
    "address": "茨城県土浦市小松三丁目１８番１８号",
    "lat": 36.0648962,
    "lng": 140.2021338,
    "tel": "029-826-2941",
    "url": "http://showfukai.com/",
    "pref": "茨城県",
    "city": "土浦市",
    "category": "tokuyou",
    "serviceType": "介護老人福祉施設",
    "capacity": 50,
    "openDays": [],
    "openDaysNote": ""
  },
  {
    "id": "870302387",
    "name": "特別養護老人ホームこほく",
    "kana": "トクベツヨウゴロウジンホームコホク",
    "address": "茨城県土浦市菅谷町タカノス1168-1",
    "lat": 36.0971844,
    "lng": 140.2747139,
    "tel": "029-893-3119",
    "url": "http://www.seisyukai.or.jp/",
    "pref": "茨城県",
    "city": "土浦市",
    "category": "tokuyou",
    "serviceType": "介護老人福祉施設",
    "capacity": 70,
    "openDays": [],
    "openDaysNote": ""
  },
  {
    "id": "873900765",
    "name": "特別養護老人ホーム憩いの里",
    "kana": "トクベツヨウゴロウジンホームイコイノサト",
    "address": "土浦市高岡2315",
    "lat": 36.1302062,
    "lng": 140.1535847,
    "tel": "029-829-3030",
    "url": "http://showfukai.com/",
    "pref": "茨城県",
    "city": "土浦市",
    "category": "tokuyou",
    "serviceType": "介護老人福祉施設",
    "capacity": 70,
    "openDays": [],
    "openDaysNote": ""
  },
  {
    "id": "870300217",
    "name": "特別養護老人ホーム滝の園",
    "kana": "トクベツヨウゴロウジンホームタキノエン",
    "address": "茨城県土浦市宍塚1935番地",
    "lat": 36.0825869,
    "lng": 140.1709468,
    "tel": "029-826-1110",
    "url": "https://kinsuikai.com/",
    "pref": "茨城県",
    "city": "土浦市",
    "category": "tokuyou",
    "serviceType": "介護老人福祉施設",
    "capacity": 0,
    "openDays": [],
    "openDaysNote": ""
  },
  {
    "id": "870301207",
    "name": "特別養護老人ホーム土浦晴山苑",
    "kana": "トクベツヨウゴロウジンホームツチウラセイザンエン",
    "address": "茨城県土浦市田村町２３２１-５",
    "lat": 36.0923574,
    "lng": 140.2526489,
    "tel": "029-828-2322",
    "url": "https://seizan-kai.or.jp/tuchiura/",
    "pref": "茨城県",
    "city": "土浦市",
    "category": "tokuyou",
    "serviceType": "介護老人福祉施設",
    "capacity": 70,
    "openDays": [],
    "openDaysNote": ""
  },
  {
    "id": "873301097",
    "name": "特別養護老人ホーム　オークス東海",
    "kana": "トクベツヨウゴロウジンホーム　オークストウカイ",
    "address": "茨城県那珂郡東海村船場５８８－７",
    "lat": 36.4498096,
    "lng": 140.5465896,
    "tel": "029-306-4165",
    "url": "http://ioaks.com",
    "pref": "茨城県",
    "city": "東海村",
    "category": "tokuyou",
    "serviceType": "介護老人福祉施設",
    "capacity": 90,
    "openDays": [],
    "openDaysNote": ""
  },
  {
    "id": "873301014",
    "name": "特別養護老人ホーム　すみれ",
    "kana": "トクベツヨウゴロウジンホーム　スミレ",
    "address": "茨城県那珂郡東海村船場703-7",
    "lat": 36.4622914,
    "lng": 140.5450088,
    "tel": "029-282-0271",
    "url": "sumire1@intio.or.jp",
    "pref": "茨城県",
    "city": "東海村",
    "category": "tokuyou",
    "serviceType": "介護老人福祉施設",
    "capacity": 0,
    "openDays": [],
    "openDaysNote": ""
  },
  {
    "id": "873300180",
    "name": "特別養護老人ホーム　常陸東海園",
    "kana": "トクベツヨウゴロウジンホーム　ヒタチトウカイエン",
    "address": "茨城県那珂郡東海村村松2804-4",
    "lat": 36.4504138550487,
    "lng": 140.575972118385,
    "tel": "029-282-9500",
    "url": "https://shukutokukaisecond.amebaownd.com/",
    "pref": "茨城県",
    "city": "東海村",
    "category": "tokuyou",
    "serviceType": "介護老人福祉施設",
    "capacity": 0,
    "openDays": [],
    "openDaysNote": ""
  },
  {
    "id": "873300198",
    "name": "特別養護老人ホーム　ゆたか園",
    "kana": "トクベツヨウゴロウジンホーム　ユタカエン",
    "address": "茨城県那珂市後台2042-1",
    "lat": 36.4374202371749,
    "lng": 140.475620143517,
    "tel": "029-298-6399",
    "url": "http://www.houjyunkai.or.jp/",
    "pref": "茨城県",
    "city": "那珂市",
    "category": "tokuyou",
    "serviceType": "介護老人福祉施設",
    "capacity": 70,
    "openDays": [],
    "openDaysNote": ""
  },
  {
    "id": "872600572",
    "name": "特別養護老人ホーム　藤井ハイム那珂　ユニット型",
    "kana": "トクベツヨウゴロウジンホーム　フジイハイムナカ　ユニットガタ",
    "address": "茨城県那珂市瓜連433-2",
    "lat": 36.4993219,
    "lng": 140.4491899,
    "tel": "029-212-5133",
    "url": "http://www.fujii-hospital.com/html/fujiiheim_main.html",
    "pref": "茨城県",
    "city": "那珂市",
    "category": "tokuyou",
    "serviceType": "介護老人福祉施設",
    "capacity": null,
    "openDays": [],
    "openDaysNote": ""
  },
  {
    "id": "872600564",
    "name": "特別養護老人ホーム　藤井ハイム那珂　従来型",
    "kana": "トクベツヨウゴロウジンホーム　フジイハイムナカ　ジュウライガタ",
    "address": "茨城県那珂市瓜連433-2",
    "lat": 36.4993219,
    "lng": 140.4491899,
    "tel": "029-212-5133",
    "url": "http://www.fujii-hospital.com/html/fujiiheim_main.html",
    "pref": "茨城県",
    "city": "那珂市",
    "category": "tokuyou",
    "serviceType": "介護老人福祉施設",
    "capacity": null,
    "openDays": [],
    "openDaysNote": ""
  },
  {
    "id": "873300206",
    "name": "特別養護老人ホームナザレ園",
    "kana": "トクベツヨウゴロウジンホームナザレエン",
    "address": "茨城県那珂市中里342番地3",
    "lat": 36.4851895,
    "lng": 140.4571688,
    "tel": "029-296-0177",
    "url": "http://www.nazareen.or.jp/",
    "pref": "茨城県",
    "city": "那珂市",
    "category": "tokuyou",
    "serviceType": "介護老人福祉施設",
    "capacity": 0,
    "openDays": [],
    "openDaysNote": ""
  },
  {
    "id": "872600549",
    "name": "特別養護老人ホームナザレ園　オリーブ",
    "kana": "トクベツヨウゴロウジンホームナザレエン　オリーブ",
    "address": "中里342番地3",
    "lat": 36.4851895,
    "lng": 140.4571688,
    "tel": "029-296-0177",
    "url": "http://www.nazareen.or.jp/",
    "pref": "茨城県",
    "city": "那珂市",
    "category": "tokuyou",
    "serviceType": "介護老人福祉施設",
    "capacity": 30,
    "openDays": [],
    "openDaysNote": ""
  },
  {
    "id": "872600085",
    "name": "特別養護老人ホームひばりヶ丘",
    "kana": "トクベツヨウゴロウジンホームヒバリガオカ",
    "address": "茨城県那珂市菅谷528",
    "lat": 36.4608436,
    "lng": 140.496139,
    "tel": "029-295-1701",
    "url": "https://seitoukai-ibaraki.com/",
    "pref": "茨城県",
    "city": "那珂市",
    "category": "tokuyou",
    "serviceType": "介護老人福祉施設",
    "capacity": 0,
    "openDays": [],
    "openDaysNote": ""
  },
  {
    "id": "870202520",
    "name": "社会福祉法人　聖愛会　特別養護老人ホーム石名坂聖孝園",
    "kana": "シャカイフクシホウジンセイアイカイトクベツヨウゴロウジンホームイシナザカセイコウエン",
    "address": "茨城県日立市石名坂町2-16-1",
    "lat": 36.5153594,
    "lng": 140.5976886,
    "tel": "0294-32-7211",
    "url": "http://aikohkai.or.jp/ishinazaka/",
    "pref": "茨城県",
    "city": "日立市",
    "category": "tokuyou",
    "serviceType": "介護老人福祉施設",
    "capacity": 70,
    "openDays": [],
    "openDaysNote": ""
  },
  {
    "id": "870200110",
    "name": "特別養護老人ホーム　サン豊浦",
    "kana": "トクベツヨウゴロウジンホーム　サントヨウラ",
    "address": "茨城県日立市川尻町字稲荷作７５８－２７",
    "lat": 36.6602063487171,
    "lng": 140.689541339426,
    "tel": "0294-43-1133",
    "url": "",
    "pref": "茨城県",
    "city": "日立市",
    "category": "tokuyou",
    "serviceType": "介護老人福祉施設",
    "capacity": 0,
    "openDays": [],
    "openDaysNote": ""
  },
  {
    "id": "870201316",
    "name": "特別養護老人ホーム　ひたちの森すこやかビレッジ",
    "kana": "トクベツヨウゴロウジンホーム　ヒタチノモリスコヤカビレッジ",
    "address": "茨城県日立市東滑川町５－１０－３",
    "lat": 36.6163912,
    "lng": 140.6806831,
    "tel": "0294-32-7788",
    "url": "http://www.sukoyakavillage.com",
    "pref": "茨城県",
    "city": "日立市",
    "category": "tokuyou",
    "serviceType": "介護老人福祉施設",
    "capacity": 0,
    "openDays": [],
    "openDaysNote": ""
  },
  {
    "id": "870200870",
    "name": "特別養護老人ホーム　鮎川さくら館",
    "kana": "トクベツヨウゴロウジンホーム　アユカワサクラカン",
    "address": "茨城県日立市国分町三丁目12番10号",
    "lat": 36.5670299,
    "lng": 140.6495296,
    "tel": "0294-36-7300",
    "url": "http://www.syujinkai-kh.or.jp/ayukawasakurakan/",
    "pref": "茨城県",
    "city": "日立市",
    "category": "tokuyou",
    "serviceType": "介護老人福祉施設",
    "capacity": 70,
    "openDays": [],
    "openDaysNote": ""
  },
  {
    "id": "870201423",
    "name": "特別養護老人ホーム　一想園",
    "kana": "トクベツヨウゴロウジンホーム　イッソウエン",
    "address": "茨城県日立市田尻町2-8-10",
    "lat": 36.6336197,
    "lng": 140.6668806,
    "tel": "0294-43-0990",
    "url": "http://www.issoen.jp/",
    "pref": "茨城県",
    "city": "日立市",
    "category": "tokuyou",
    "serviceType": "介護老人福祉施設",
    "capacity": 80,
    "openDays": [],
    "openDaysNote": ""
  },
  {
    "id": "870200128",
    "name": "特別養護老人ホーム　銀砂台",
    "kana": "トクベツヨウゴロウジンホーム　ギンサダイ",
    "address": "茨城県日立市砂沢町字尾ノ作1155番地の1",
    "lat": 36.6563227,
    "lng": 140.6739959,
    "tel": "0294-43-2233",
    "url": "http://www.ginsadai.com",
    "pref": "茨城県",
    "city": "日立市",
    "category": "tokuyou",
    "serviceType": "介護老人福祉施設",
    "capacity": 50,
    "openDays": [],
    "openDaysNote": ""
  },
  {
    "id": "870201142",
    "name": "特別養護老人ホーム　山水苑",
    "kana": "トクベツヨウゴロウジンホーム　サンスイエン",
    "address": "日立市下深萩町１７７０",
    "lat": 36.6320030593504,
    "lng": 140.541938571122,
    "tel": "0294-59-0332",
    "url": "http://sansuien-care.com/",
    "pref": "茨城県",
    "city": "日立市",
    "category": "tokuyou",
    "serviceType": "介護老人福祉施設",
    "capacity": 0,
    "openDays": [],
    "openDaysNote": ""
  },
  {
    "id": "870200524",
    "name": "特別養護老人ホーム　成華園",
    "kana": "トクベツヨウゴロウジンホーム　セイカエン",
    "address": "茨城県日立市久慈町4-19-21",
    "lat": 36.4900586,
    "lng": 140.6100565,
    "tel": "0294-54-2385",
    "url": "http://seikaen-seiwakai.com",
    "pref": "茨城県",
    "city": "日立市",
    "category": "tokuyou",
    "serviceType": "介護老人福祉施設",
    "capacity": null,
    "openDays": [],
    "openDaysNote": ""
  },
  {
    "id": "873500060",
    "name": "特別養護老人ホーム　福祉の森　聖孝園",
    "kana": "トクベツヨウゴロウジンホーム　フクシノモリ　セイコウエン",
    "address": "茨城県日立市十王町高原333-6",
    "lat": 36.6733636,
    "lng": 140.623836,
    "tel": "0294-39-1166",
    "url": "http://www.aikohkai.or.jp",
    "pref": "茨城県",
    "city": "日立市",
    "category": "tokuyou",
    "serviceType": "介護老人福祉施設",
    "capacity": 50,
    "openDays": [],
    "openDaysNote": ""
  },
  {
    "id": "870200540",
    "name": "特別養護老人ホームＭＡＯ",
    "kana": "トクベツヨウゴロウジンホームマオ",
    "address": "茨城県日立市下土木内町字荻町545-1",
    "lat": 36.4969720673736,
    "lng": 140.579857622845,
    "tel": "0294-28-0555",
    "url": "https://care-net.biz/08/mao/",
    "pref": "茨城県",
    "city": "日立市",
    "category": "tokuyou",
    "serviceType": "介護老人福祉施設",
    "capacity": 0,
    "openDays": [],
    "openDaysNote": ""
  },
  {
    "id": "870200995",
    "name": "特別養護老人ホーム金沢弁天園",
    "kana": "トクベツヨウゴロウジンホーム　カネサワベンテンエン",
    "address": "茨城県日立市東金沢町4-16-10",
    "lat": 36.5396775,
    "lng": 140.6284019,
    "tel": "0294-28-7680",
    "url": "http://k-bentenen.com/",
    "pref": "茨城県",
    "city": "日立市",
    "category": "tokuyou",
    "serviceType": "介護老人福祉施設",
    "capacity": null,
    "openDays": [],
    "openDaysNote": ""
  },
  {
    "id": "870200219",
    "name": "特別養護老人ホーム小咲園",
    "kana": "トクベツヨウゴロウジンホームコサクエン",
    "address": "茨城県日立市諏訪町５丁目５番１号",
    "lat": 36.5665839,
    "lng": 140.6196538,
    "tel": "0294-35-9000",
    "url": "https://kosakuen.com",
    "pref": "茨城県",
    "city": "日立市",
    "category": "tokuyou",
    "serviceType": "介護老人福祉施設",
    "capacity": 70,
    "openDays": [],
    "openDaysNote": ""
  },
  {
    "id": "870200102",
    "name": "日立市萬春園",
    "kana": "ヒタチシバンシュンエン",
    "address": "茨城県日立市鮎川町3-2-10",
    "lat": 36.5645876645291,
    "lng": 140.639344110728,
    "tel": "0294-33-6331",
    "url": "https://www.hitachi-jigyoudan.com",
    "pref": "茨城県",
    "city": "日立市",
    "category": "tokuyou",
    "serviceType": "介護老人福祉施設",
    "capacity": 0,
    "openDays": [],
    "openDaysNote": ""
  },
  {
    "id": "874200371",
    "name": "特別養護老人ホーム　玉樹",
    "kana": "トクベツヨウゴロウジンホーム　タマキ",
    "address": "茨城県結城郡八千代町大字菅谷字新田山1021-1",
    "lat": 36.1801687796492,
    "lng": 139.888964123911,
    "tel": "0296-49-3886",
    "url": "http://www.tamaki.or.jp",
    "pref": "茨城県",
    "city": "八千代町",
    "category": "tokuyou",
    "serviceType": "介護老人福祉施設",
    "capacity": 50,
    "openDays": [],
    "openDaysNote": ""
  },
  {
    "id": "874200553",
    "name": "特別養護老人ホームフィオーレ",
    "kana": "トクベツヨウゴロウジンホーム　フィオーレ",
    "address": "茨城県結城郡八千代町栗山229-1",
    "lat": 36.1533351,
    "lng": 139.9063808,
    "tel": "0296-49-2966",
    "url": "https://tsukubakinenkai.or.jp/",
    "pref": "茨城県",
    "city": "八千代町",
    "category": "tokuyou",
    "serviceType": "介護老人福祉施設",
    "capacity": null,
    "openDays": [],
    "openDaysNote": ""
  },
  {
    "id": "873801435",
    "name": "特別養護老人ホームエミール",
    "kana": "トクベツヨウゴロウジンホームエミール",
    "address": "茨城県稲敷郡美浦村信太2842番1",
    "lat": 35.9891532,
    "lng": 140.3146457,
    "tel": "029-896-7061",
    "url": "https://emile-miho.jp",
    "pref": "茨城県",
    "city": "美浦村",
    "category": "tokuyou",
    "serviceType": "介護老人福祉施設",
    "capacity": 40,
    "openDays": [],
    "openDaysNote": ""
  },
  {
    "id": "873801443",
    "name": "特別養護老人ホームエミール",
    "kana": "トクベツヨウゴロウジンホームエミール",
    "address": "茨城県稲敷郡美浦村信太2842番1特別養護老人ホームエミール 特別養護老人ホームエミール",
    "lat": 35.9891532,
    "lng": 140.3146457,
    "tel": "029-896-7061",
    "url": "https://emile-miho.jp",
    "pref": "茨城県",
    "city": "美浦村",
    "category": "tokuyou",
    "serviceType": "介護老人福祉施設",
    "capacity": null,
    "openDays": [],
    "openDaysNote": ""
  },
  {
    "id": "873800593",
    "name": "特別養護老人ホームみほ",
    "kana": "トクベツヨウゴロウジンホームミホ",
    "address": "稲敷郡美浦村受領881",
    "lat": 36.0035652,
    "lng": 140.3122909,
    "tel": "029-891-5561",
    "url": "http://www.seiei-kai.jp/",
    "pref": "茨城県",
    "city": "美浦村",
    "category": "tokuyou",
    "serviceType": "介護老人福祉施設",
    "capacity": 0,
    "openDays": [],
    "openDaysNote": ""
  },
  {
    "id": "873600456",
    "name": "特別養護老人ホーム　うぇるさんて　大洋",
    "kana": "トクベツヨウゴロウジンホーム　ウェルサンテ　タイヨウ",
    "address": "茨城県鉾田市上幡木1512番地4",
    "lat": 36.0818257,
    "lng": 140.6042665,
    "tel": "0291-39-7701",
    "url": "",
    "pref": "茨城県",
    "city": "鉾田市",
    "category": "tokuyou",
    "serviceType": "介護老人福祉施設",
    "capacity": 50,
    "openDays": [],
    "openDaysNote": ""
  },
  {
    "id": "875400145",
    "name": "特別養護老人ホーム　東湖園",
    "kana": "トクベツヨウゴロウジンホーム　トウコエン",
    "address": "茨城県鉾田市安房1670-12",
    "lat": 36.1658448692555,
    "lng": 140.527446844844,
    "tel": "0291-33-6700",
    "url": "http://www.tokoen.hello-net.info/",
    "pref": "茨城県",
    "city": "鉾田市",
    "category": "tokuyou",
    "serviceType": "介護老人福祉施設",
    "capacity": 0,
    "openDays": [],
    "openDaysNote": ""
  },
  {
    "id": "875400129",
    "name": "特別養護老人ホーム　鉾田サンハウス",
    "kana": "トクベツヨウゴロウジンホーム　ホコタサンハウス",
    "address": "鉾田市鳥栖2100-9",
    "lat": 36.1959489,
    "lng": 140.4794442,
    "tel": "0291-34-3050",
    "url": "http://www.hyakurisanhouse.com",
    "pref": "茨城県",
    "city": "鉾田市",
    "category": "tokuyou",
    "serviceType": "介護老人福祉施設",
    "capacity": 49,
    "openDays": [],
    "openDaysNote": ""
  },
  {
    "id": "873600142",
    "name": "特別養護老人ホーム東湖園",
    "kana": "トクベツヨウゴロウジンホームトウコエン",
    "address": "茨城県鉾田市安房１６７０－１２",
    "lat": 36.1655114,
    "lng": 140.5270767,
    "tel": "0291-33-6700",
    "url": "http://www.tokoen.hello-net.info/",
    "pref": "茨城県",
    "city": "鉾田市",
    "category": "tokuyou",
    "serviceType": "介護老人福祉施設",
    "capacity": 0,
    "openDays": [],
    "openDaysNote": ""
  },
  {
    "id": "875400210",
    "name": "特別養護老人ホーム藤の家",
    "kana": "トクベツヨウゴロウジンホームフジノイエ",
    "address": "茨城県鉾田市湯坪2166番8",
    "lat": 36.1780044,
    "lng": 140.5328946,
    "tel": "0291-32-5322",
    "url": "fujinie.com",
    "pref": "茨城県",
    "city": "鉾田市",
    "category": "tokuyou",
    "serviceType": "介護老人福祉施設",
    "capacity": null,
    "openDays": [],
    "openDaysNote": ""
  },
  {
    "id": "875400228",
    "name": "特別養護老人ホーム藤の家",
    "kana": "トクベツヨウゴロウジンホームフジノイエ",
    "address": "湯坪２１６６番８",
    "lat": 36.1779487,
    "lng": 140.5327989,
    "tel": "0291-32-5322",
    "url": "www.fujinoie.com",
    "pref": "茨城県",
    "city": "鉾田市",
    "category": "tokuyou",
    "serviceType": "介護老人福祉施設",
    "capacity": 0,
    "openDays": [],
    "openDaysNote": ""
  },
  {
    "id": "873600084",
    "name": "特別養護老人ホーム樅の木荘",
    "kana": "トクベツヨウゴロウジンホームモミノキソウ",
    "address": "鉾田市樅山500番地1",
    "lat": 36.1990757,
    "lng": 140.5539132,
    "tel": "0291-37-2155",
    "url": "http://www.momiyama-kai.org/",
    "pref": "茨城県",
    "city": "鉾田市",
    "category": "tokuyou",
    "serviceType": "介護老人福祉施設",
    "capacity": 0,
    "openDays": [],
    "openDaysNote": ""
  },
  {
    "id": "871500823",
    "name": "特別養護老人ホーム　あかねサクラ館",
    "kana": "トクベツヨウゴロウジンホーム　アカネサクラカン",
    "address": "関本町関本中２５９－６",
    "lat": 36.8468806253535,
    "lng": 140.777523494659,
    "tel": "0293-24-8855",
    "url": "http://www.akanekai.com/",
    "pref": "茨城県",
    "city": "北茨城市",
    "category": "tokuyou",
    "serviceType": "介護老人福祉施設",
    "capacity": 50,
    "openDays": [],
    "openDaysNote": ""
  },
  {
    "id": "871500351",
    "name": "特別養護老人ホーム　エスコート磯原",
    "kana": "トクベツヨウゴロウジンホーム　エスコートイソハラ",
    "address": "茨城県北茨城市華川町車1145-65",
    "lat": 36.8182424,
    "lng": 140.7397016,
    "tel": "0293-42-8910",
    "url": "https://www.esukouto.jp",
    "pref": "茨城県",
    "city": "北茨城市",
    "category": "tokuyou",
    "serviceType": "介護老人福祉施設",
    "capacity": 90,
    "openDays": [],
    "openDaysNote": ""
  },
  {
    "id": "871500039",
    "name": "特別養護老人ホーム　ときわの杜",
    "kana": "トクベツヨウゴロウジンホーム　トキワノモリ",
    "address": "茨城県北茨城市関本町福田1875-1",
    "lat": 36.8543887,
    "lng": 140.7603904,
    "tel": "0293-46-0631",
    "url": "tokiwanomori.com",
    "pref": "茨城県",
    "city": "北茨城市",
    "category": "tokuyou",
    "serviceType": "介護老人福祉施設",
    "capacity": 0,
    "openDays": [],
    "openDaysNote": ""
  },
  {
    "id": "874400229",
    "name": "特別養護老人ホームやまなみ園",
    "kana": "トクベツヨウゴロウジンホームヤマナミエン",
    "address": "茨城県北相馬郡利根町立木909",
    "lat": 35.8712743,
    "lng": 140.1807807,
    "tel": "0297-61-7000",
    "url": "http://yamanamien.jp/",
    "pref": "茨城県",
    "city": "利根町",
    "category": "tokuyou",
    "serviceType": "介護老人福祉施設",
    "capacity": null,
    "openDays": [],
    "openDaysNote": ""
  },
  {
    "id": "870800984",
    "name": "特別養護老人ホーム　ときわぎ",
    "kana": "トクベツヨウゴロウジンホーム　トキワギ",
    "address": "茨城県龍ケ崎市若柴町1225",
    "lat": 35.9312475768902,
    "lng": 140.148198249738,
    "tel": "0297-66-6000",
    "url": "http://magokoro@tokiwagi‐care.jp",
    "pref": "茨城県",
    "city": "龍ヶ崎市",
    "category": "tokuyou",
    "serviceType": "介護老人福祉施設",
    "capacity": 0,
    "openDays": [],
    "openDaysNote": ""
  },
  {
    "id": "870800067",
    "name": "特別養護老人ホーム　やすらぎの里",
    "kana": "トクベツヨウゴロウジンホーム　ヤスラギノサト",
    "address": "茨城県龍ヶ崎市大徳町字古川4965番地の1",
    "lat": 35.9021707,
    "lng": 140.2009046,
    "tel": "0297-64-3234",
    "url": "http://www.intio.or.jp/yasuragi/index.html",
    "pref": "茨城県",
    "city": "龍ヶ崎市",
    "category": "tokuyou",
    "serviceType": "介護老人福祉施設",
    "capacity": 0,
    "openDays": [],
    "openDaysNote": ""
  },
  {
    "id": "870800927",
    "name": "特別養護老人ホーム　やすらぎの里",
    "kana": "トクベツヨウゴロウジンホーム　ヤスラギノサト",
    "address": "茨城県龍ヶ崎市大徳町字古川4965-1",
    "lat": 35.9021707,
    "lng": 140.2009046,
    "tel": "0297-64-3234",
    "url": "http://www.intio.or.jp/yasuragi/index.html",
    "pref": "茨城県",
    "city": "龍ヶ崎市",
    "category": "tokuyou",
    "serviceType": "介護老人福祉施設",
    "capacity": null,
    "openDays": [],
    "openDaysNote": ""
  },
  {
    "id": "870800935",
    "name": "特別養護老人ホーム　竜成園",
    "kana": "トクベツヨウゴロウジンホーム　リュウセイエン",
    "address": "茨城県龍ヶ崎市半田町1388番地",
    "lat": 35.9204027,
    "lng": 140.2366032,
    "tel": "0297-62-2735",
    "url": "http://www.ryuseien.or.jp",
    "pref": "茨城県",
    "city": "龍ヶ崎市",
    "category": "tokuyou",
    "serviceType": "介護老人福祉施設",
    "capacity": 30,
    "openDays": [],
    "openDaysNote": ""
  },
  {
    "id": "870800083",
    "name": "特別養護老人ホーム　竜成園",
    "kana": "トクベツヨウゴロウジンホーム　リュウセイエン",
    "address": "龍ヶ崎市半田町１３８８番地",
    "lat": 35.9204027,
    "lng": 140.2366032,
    "tel": "0297-62-2735",
    "url": "http://www.ryuseien.or.jp",
    "pref": "茨城県",
    "city": "龍ヶ崎市",
    "category": "tokuyou",
    "serviceType": "介護老人福祉施設",
    "capacity": 75,
    "openDays": [],
    "openDaysNote": ""
  },
  {
    "id": "870800349",
    "name": "特別養護老人ホーム　龍ケ岡",
    "kana": "トクベツヨウゴロウジンホームリュウガオカ",
    "address": "茨城県龍ケ崎市中里１－１－１７",
    "lat": 35.9345253,
    "lng": 140.2030279,
    "tel": "0297-61-1300",
    "url": "http://ryuugaoka.sakura.ne.jp",
    "pref": "茨城県",
    "city": "龍ヶ崎市",
    "category": "tokuyou",
    "serviceType": "介護老人福祉施設",
    "capacity": 110,
    "openDays": [],
    "openDaysNote": ""
  },
  {
    "id": "870801255",
    "name": "特別養護老人ホームリカステ",
    "kana": "トクベツヨウゴロウジンホームリカステ",
    "address": "茨城県龍ケ崎市馴馬町3120",
    "lat": 35.9148117,
    "lng": 140.1823198,
    "tel": "0297-86-6881",
    "url": "https://lycaste.jp",
    "pref": "茨城県",
    "city": "龍ヶ崎市",
    "category": "tokuyou",
    "serviceType": "介護老人福祉施設",
    "capacity": 0,
    "openDays": [],
    "openDaysNote": ""
  }
]