[
  {
    "id": "4271700181",
    "name": "特別養護老人ホーム　壱岐のこころ",
    "kana": "トクベツヨウゴロウジンホーム　イキノココロ",
    "address": "長崎県壱岐市勝本町布気触948番地1",
    "lat": 33.8065569440904,
    "lng": 129.69007129452,
    "tel": "0920-43-0107",
    "url": "https://www.kokoro.ac.jp/gr/ishinkai-iki/",
    "pref": "長崎県",
    "city": "壱岐市",
    "category": "tokuyou",
    "serviceType": "介護老人福祉施設",
    "capacity": 40,
    "openDays": [],
    "openDaysNote": ""
  },
  {
    "id": "4272100449",
    "name": "特別養護老人ホーム　壱岐のこころ",
    "kana": "トクベツヨウゴロウジンホーム　イキノココロ",
    "address": "長崎県壱岐市勝本町布気触948番地1",
    "lat": 33.8065867462184,
    "lng": 129.690072234186,
    "tel": "0920-43-0107",
    "url": "https://www.kokoro.ac.jp/gr/ishinkai-iki/",
    "pref": "長崎県",
    "city": "壱岐市",
    "category": "tokuyou",
    "serviceType": "介護老人福祉施設",
    "capacity": 0,
    "openDays": [],
    "openDaysNote": ""
  },
  {
    "id": "4272100266",
    "name": "特別養護老人ホーム　光の苑",
    "kana": "トクベツヨウゴロウジンホーム　ヒカリノソノ",
    "address": "長崎県壱岐市郷ノ浦町志原西触1066-1",
    "lat": 33.7552554,
    "lng": 129.7144355,
    "tel": "0920-47-1166",
    "url": "http://www.hikarinosono.net/",
    "pref": "長崎県",
    "city": "壱岐市",
    "category": "tokuyou",
    "serviceType": "介護老人福祉施設",
    "capacity": 60,
    "openDays": [],
    "openDaysNote": ""
  },
  {
    "id": "4272100399",
    "name": "特別養護老人ホームハッピーヒルズ（幸せの丘）",
    "kana": "トクベツヨウゴロウジンホームハッピーヒルズ（シアワセノオカ）",
    "address": "長崎県壱岐市芦辺町箱崎大左右触2272番地2",
    "lat": 33.8225007960364,
    "lng": 129.743451489024,
    "tel": "0920－48－4020",
    "url": "http://happyhills.jp/",
    "pref": "長崎県",
    "city": "壱岐市",
    "category": "tokuyou",
    "serviceType": "介護老人福祉施設",
    "capacity": 60,
    "openDays": [],
    "openDaysNote": ""
  },
  {
    "id": "4271400725",
    "name": "特別養護老人ホームうんぜんの里",
    "kana": "トクベツヨウゴロウジンホームウンゼンノサト",
    "address": "長崎県雲仙市瑞穂町古部乙1392-1",
    "lat": 32.8481865445823,
    "lng": 130.215076193918,
    "tel": "0957-77-4011",
    "url": "http://zuikoukai.com",
    "pref": "長崎県",
    "city": "雲仙市",
    "category": "tokuyou",
    "serviceType": "介護老人福祉施設",
    "capacity": 50,
    "openDays": [],
    "openDaysNote": ""
  },
  {
    "id": "4272400708",
    "name": "特別養護老人ホーム愛の里",
    "kana": "トクベツヨウゴロウジンホーム　アイノサト",
    "address": "長崎県雲仙市愛野町乙2288番地4",
    "lat": 32.8026392423844,
    "lng": 130.158533820902,
    "tel": "0957-36-2266",
    "url": "www.hakujukai.com",
    "pref": "長崎県",
    "city": "雲仙市",
    "category": "tokuyou",
    "serviceType": "介護老人福祉施設",
    "capacity": null,
    "openDays": [],
    "openDaysNote": ""
  },
  {
    "id": "4271400733",
    "name": "特別養護老人ホーム湯楽苑",
    "kana": "トクベツヨウゴロウジンホームユラクエン",
    "address": "長崎県雲仙市小浜町北本町217番地",
    "lat": 32.7363097696697,
    "lng": 130.209840516008,
    "tel": "0957-74-3711",
    "url": "http://www.obamakai.com/",
    "pref": "長崎県",
    "city": "雲仙市",
    "category": "tokuyou",
    "serviceType": "介護老人福祉施設",
    "capacity": 0,
    "openDays": [],
    "openDaysNote": ""
  },
  {
    "id": "4271600340",
    "name": "たまんな　ゆうゆう",
    "kana": "タマンナ　ユウユウ",
    "address": "長崎県五島市玉之浦町玉之浦1371-1",
    "lat": 32.6167594,
    "lng": 128.6145149,
    "tel": "0959-75-6023",
    "url": "http://www.u-u-sato.com/",
    "pref": "長崎県",
    "city": "五島市",
    "category": "tokuyou",
    "serviceType": "介護老人福祉施設",
    "capacity": 30,
    "openDays": [],
    "openDaysNote": ""
  },
  {
    "id": "4271600365",
    "name": "介護老人福祉施設　きじの里",
    "kana": "カイゴロウジンフクシシセツ　キジノサト",
    "address": "長崎県五島市岐宿町二本楠３７５番地",
    "lat": 32.6737041,
    "lng": 128.72382,
    "tel": "0959-83-1246",
    "url": "http://syuhoukai.jp/",
    "pref": "長崎県",
    "city": "五島市",
    "category": "tokuyou",
    "serviceType": "介護老人福祉施設",
    "capacity": 0,
    "openDays": [],
    "openDaysNote": ""
  },
  {
    "id": "4270600259",
    "name": "介護老人福祉施設　聖マリアの園",
    "kana": "カイゴロウジンフクシシセツ　セイマリアノソノ",
    "address": "長崎県五島市松山町706番地3",
    "lat": 32.7058709,
    "lng": 128.8379236,
    "tel": "0959-72-6129",
    "url": "seimarianosono.jp",
    "pref": "長崎県",
    "city": "五島市",
    "category": "tokuyou",
    "serviceType": "介護老人福祉施設",
    "capacity": 0,
    "openDays": [],
    "openDaysNote": ""
  },
  {
    "id": "4271600357",
    "name": "小規模特別養護老人ホームみみらくの里",
    "kana": "ショウキボトクベツヨウゴロウジンホームミミラクノサト",
    "address": "長崎県五島市三井楽町濱ノ畔1046番地2",
    "lat": 32.7468726,
    "lng": 128.6911221,
    "tel": "0959-84-3942",
    "url": "https://mimiraku.info",
    "pref": "長崎県",
    "city": "五島市",
    "category": "tokuyou",
    "serviceType": "介護老人福祉施設",
    "capacity": 30,
    "openDays": [],
    "openDaysNote": ""
  },
  {
    "id": "4272200272",
    "name": "只狩荘",
    "kana": "タダカリソウ",
    "address": "長崎県五島市富江町黒瀬585番地",
    "lat": 32.6054481,
    "lng": 128.7459513,
    "tel": "0959-86-2426",
    "url": "http://sayurikai.jp/",
    "pref": "長崎県",
    "city": "五島市",
    "category": "tokuyou",
    "serviceType": "介護老人福祉施設",
    "capacity": 50,
    "openDays": [],
    "openDaysNote": ""
  },
  {
    "id": "4272200637",
    "name": "特別養護老人ホームなるの里",
    "kana": "トクベツヨウゴロウジンホームナルノサト",
    "address": "長崎県五島市奈留町船廻８７９番地１",
    "lat": 32.8445692,
    "lng": 128.9432661,
    "tel": "0959-64-4848",
    "url": "http://narunosato.or.jp/",
    "pref": "長崎県",
    "city": "五島市",
    "category": "tokuyou",
    "serviceType": "介護老人福祉施設",
    "capacity": 0,
    "openDays": [],
    "openDaysNote": ""
  },
  {
    "id": "4270600267",
    "name": "特別養護老人ホーム緑乃園",
    "kana": "トクベツヨウゴロウジンホームミドリノソノ",
    "address": "長崎県五島市野々切町２０３５番地２",
    "lat": 32.649193,
    "lng": 128.8324525,
    "tel": "0959-73-5560",
    "url": "https//:gotowakokai.jp",
    "pref": "長崎県",
    "city": "五島市",
    "category": "tokuyou",
    "serviceType": "介護老人福祉施設",
    "capacity": 0,
    "openDays": [],
    "openDaysNote": ""
  },
  {
    "id": "4271501456",
    "name": "特別養護老人ホーム　あやめの里",
    "kana": "トクベツヨウゴロウジンホーム　アヤメノサト",
    "address": "長崎県北松浦郡佐々町八口免805番地3特別養護老人ホームあやめの里 特別養護老人ホームあやめの里",
    "lat": 33.2559605,
    "lng": 129.6823662,
    "tel": "0956-41-1213",
    "url": "sazagawa.com",
    "pref": "長崎県",
    "city": "佐々町",
    "category": "tokuyou",
    "serviceType": "介護老人福祉施設",
    "capacity": 0,
    "openDays": [],
    "openDaysNote": ""
  },
  {
    "id": "4271500557",
    "name": "特別養護老人ホーム虹の里",
    "kana": "トクベツヨウゴロウジンホームニジノサト",
    "address": "長崎県北松浦郡佐々町八口免８０５番地３",
    "lat": 33.2559605,
    "lng": 129.6823662,
    "tel": "0956-41-1213",
    "url": "http://www.sazagawa.com/ayame/nijinosato.html",
    "pref": "長崎県",
    "city": "佐々町",
    "category": "tokuyou",
    "serviceType": "介護老人福祉施設",
    "capacity": 50,
    "openDays": [],
    "openDaysNote": ""
  },
  {
    "id": "4270200795",
    "name": "あいのうら",
    "kana": "アイノウラ",
    "address": "長崎県佐世保市相浦町６０６番地１",
    "lat": 33.193994,
    "lng": 129.6633426,
    "tel": "0956-48-6001",
    "url": "https://syk.or.jp",
    "pref": "長崎県",
    "city": "佐世保市",
    "category": "tokuyou",
    "serviceType": "介護老人福祉施設",
    "capacity": 0,
    "openDays": [],
    "openDaysNote": ""
  },
  {
    "id": "4270204656",
    "name": "ユニット型特別養護老人ホームやまのたサンタパーク",
    "kana": "ユニットガタトクベツヨウゴロウジンホームヤマノタサンタパーク",
    "address": "長崎県佐世保市瀬戸越一丁目1444-1",
    "lat": 33.2020996,
    "lng": 129.7296669,
    "tel": "0956-76-8841",
    "url": "http://www.yohkohkai.or.jp",
    "pref": "長崎県",
    "city": "佐世保市",
    "category": "tokuyou",
    "serviceType": "介護老人福祉施設",
    "capacity": 0,
    "openDays": [],
    "openDaysNote": ""
  },
  {
    "id": "4270200779",
    "name": "介護老人福祉施設　サンホーム江上",
    "kana": "カイゴロウジンフクシシセツ　サンホームエガミ",
    "address": "長崎県佐世保市江上町4847-6",
    "lat": 33.0699021,
    "lng": 129.7837816,
    "tel": "0956-58-3707",
    "url": "http://koujukai.or.jp/",
    "pref": "長崎県",
    "city": "佐世保市",
    "category": "tokuyou",
    "serviceType": "介護老人福祉施設",
    "capacity": 0,
    "openDays": [],
    "openDaysNote": ""
  },
  {
    "id": "4270200712",
    "name": "介護老人福祉施設　白寿荘",
    "kana": "カイゴロウジンフクシシセツ　ハクジュソウ",
    "address": "長崎県佐世保市鹿子前町９０４－１",
    "lat": 33.1618836,
    "lng": 129.6847803,
    "tel": "0956-28-1181",
    "url": "http://www.hakuzyusou.or.jp/",
    "pref": "長崎県",
    "city": "佐世保市",
    "category": "tokuyou",
    "serviceType": "介護老人福祉施設",
    "capacity": 0,
    "openDays": [],
    "openDaysNote": ""
  },
  {
    "id": "4270200746",
    "name": "社会福祉法人　由起会　ゆずの里",
    "kana": "シャカイフクシホウジン　ユウキカイ　ユズノサト",
    "address": "長崎県佐世保市上柚木町2515番地ゆずの里 ゆずの里",
    "lat": 33.2112107432337,
    "lng": 129.769645788886,
    "tel": "0956-46-0505",
    "url": "http://www.cos-mos.jp",
    "pref": "長崎県",
    "city": "佐世保市",
    "category": "tokuyou",
    "serviceType": "介護老人福祉施設",
    "capacity": 0,
    "openDays": [],
    "openDaysNote": ""
  },
  {
    "id": "4270200753",
    "name": "社会福祉法人寛寿会（海南荘）",
    "kana": "シャカイフクシホウジンカンジュカイ（カイナンソウ）",
    "address": "長崎県佐世保市俵ヶ浦町210番地",
    "lat": 33.1180546,
    "lng": 129.6801833,
    "tel": "0956-28-3038",
    "url": "http://www.kainansou.com/",
    "pref": "長崎県",
    "city": "佐世保市",
    "category": "tokuyou",
    "serviceType": "介護老人福祉施設",
    "capacity": 0,
    "openDays": [],
    "openDaysNote": ""
  },
  {
    "id": "4270200787",
    "name": "特別養護老人ホーム　あそかのもり",
    "kana": "トクベツヨウゴロウジンホウム　アソカノモリ",
    "address": "長崎県佐世保市松瀬町1150番地",
    "lat": 33.219712,
    "lng": 129.7312302,
    "tel": "0956-49-6070",
    "url": "https://www.asoka-sasebo.com/",
    "pref": "長崎県",
    "city": "佐世保市",
    "category": "tokuyou",
    "serviceType": "介護老人福祉施設",
    "capacity": 0,
    "openDays": [],
    "openDaysNote": ""
  },
  {
    "id": "4270203419",
    "name": "特別養護老人ホーム　たけんの",
    "kana": "トクベツヨウゴロウジンホーム　タケンノ",
    "address": "長崎県佐世保市岳野町107-1",
    "lat": 33.2175811,
    "lng": 129.6810125,
    "tel": "0956-49-2020",
    "url": "http://takenno.com/",
    "pref": "長崎県",
    "city": "佐世保市",
    "category": "tokuyou",
    "serviceType": "介護老人福祉施設",
    "capacity": 0,
    "openDays": [],
    "openDaysNote": ""
  },
  {
    "id": "4270202023",
    "name": "特別養護老人ホーム　チューリップ",
    "kana": "トクベツヨウゴロウジンホーム　チューリップ",
    "address": "長崎県佐世保市黒髪町3729番地2",
    "lat": 33.173423,
    "lng": 129.7747415,
    "tel": "0956-20-8800",
    "url": "http://www.tulip.or.jp",
    "pref": "長崎県",
    "city": "佐世保市",
    "category": "tokuyou",
    "serviceType": "介護老人福祉施設",
    "capacity": 50,
    "openDays": [],
    "openDaysNote": ""
  },
  {
    "id": "4271500573",
    "name": "特別養護老人ホーム　パールホーム",
    "kana": "トクベツヨウゴロウジンホーム　パールホーム",
    "address": "長崎県佐世保市世知原町栗迎1番地",
    "lat": 33.2586685004316,
    "lng": 129.746214632402,
    "tel": "0956-76-2315",
    "url": "http://gps-fukusi.jp",
    "pref": "長崎県",
    "city": "佐世保市",
    "category": "tokuyou",
    "serviceType": "介護老人福祉施設",
    "capacity": 50,
    "openDays": [],
    "openDaysNote": ""
  },
  {
    "id": "4270200761",
    "name": "特別養護老人ホーム　やまずみ荘",
    "kana": "トクベツヨウゴロウジンホーム　ヤマズミソウ",
    "address": "長崎県佐世保市山祗町388番地",
    "lat": 33.1687583,
    "lng": 129.7327559,
    "tel": "0956-34-8000",
    "url": "http://www.yamazumiso.or.jp",
    "pref": "長崎県",
    "city": "佐世保市",
    "category": "tokuyou",
    "serviceType": "介護老人福祉施設",
    "capacity": 50,
    "openDays": [],
    "openDaysNote": ""
  },
  {
    "id": "4270202593",
    "name": "特別養護老人ホーム　音羽の浜",
    "kana": "トクベツヨウゴロウジンホーム　オトワノハマ",
    "address": "長崎県佐世保市東浜町123番地",
    "lat": 33.1358536,
    "lng": 129.7368867,
    "tel": "0956-33-0108",
    "url": "http://www.otowanohama.jp/",
    "pref": "長崎県",
    "city": "佐世保市",
    "category": "tokuyou",
    "serviceType": "介護老人福祉施設",
    "capacity": 50,
    "openDays": [],
    "openDaysNote": ""
  },
  {
    "id": "4270201595",
    "name": "特別養護老人ホーム　花ぞ野",
    "kana": "トクベツヨウゴロウジンホーム　ハナゾノ",
    "address": "長崎県佐世保市折橋町54番地34",
    "lat": 33.1847093369349,
    "lng": 129.724015784131,
    "tel": "0956-29-3001",
    "url": "https://www.yourouikuseikai.jp/",
    "pref": "長崎県",
    "city": "佐世保市",
    "category": "tokuyou",
    "serviceType": "介護老人福祉施設",
    "capacity": 60,
    "openDays": [],
    "openDaysNote": ""
  },
  {
    "id": "4271501100",
    "name": "特別養護老人ホーム　啓寿園",
    "kana": "トクベツヨウゴロウジンホーム　ケイジュエン",
    "address": "長崎県佐世保市宇久町平１９０４番地３",
    "lat": 33.2659446,
    "lng": 129.1275764,
    "tel": "0959-57-3888",
    "url": "http://uku-fukujyukai.jp",
    "pref": "長崎県",
    "city": "佐世保市",
    "category": "tokuyou",
    "serviceType": "介護老人福祉施設",
    "capacity": 40,
    "openDays": [],
    "openDaysNote": ""
  },
  {
    "id": "4270200738",
    "name": "特別養護老人ホーム　博仁荘",
    "kana": "トクベツヨウゴロウジンホーム　ハクジンソウ",
    "address": "長崎県佐世保市花高２丁目１番３５号",
    "lat": 33.1439433,
    "lng": 129.8080834,
    "tel": "0956-39-1511",
    "url": "http://sasebo-hakujinkai.or.jp/",
    "pref": "長崎県",
    "city": "佐世保市",
    "category": "tokuyou",
    "serviceType": "介護老人福祉施設",
    "capacity": 50,
    "openDays": [],
    "openDaysNote": ""
  },
  {
    "id": "4271500565",
    "name": "特別養護老人ホームサンフラワー",
    "kana": "トクベツヨウゴロウジンホームサンフラワー",
    "address": "長崎県佐世保市吉井町直谷368番地6",
    "lat": 33.2836939,
    "lng": 129.7043551,
    "tel": "0956-64-4516",
    "url": "http://sunflow19950601.wix.com/sunflower",
    "pref": "長崎県",
    "city": "佐世保市",
    "category": "tokuyou",
    "serviceType": "介護老人福祉施設",
    "capacity": 0,
    "openDays": [],
    "openDaysNote": ""
  },
  {
    "id": "4270204755",
    "name": "特別養護老人ホームファミーユ",
    "kana": "トクベツヨウゴロウジンホームファミーユ",
    "address": "権常寺町1400番地",
    "lat": 33.1326053,
    "lng": 129.8036674,
    "tel": "0956-59-5111",
    "url": "",
    "pref": "長崎県",
    "city": "佐世保市",
    "category": "tokuyou",
    "serviceType": "介護老人福祉施設",
    "capacity": 0,
    "openDays": [],
    "openDaysNote": ""
  },
  {
    "id": "4270200720",
    "name": "特別養護老人ホーム佐世保福寿園",
    "kana": "トクベツヨウゴロウジンホームサセボフクジュエン",
    "address": "長崎県佐世保市針尾西町267番地",
    "lat": 33.0856627213346,
    "lng": 129.748043337821,
    "tel": "0956-58-2386",
    "url": "http://www.hakuaikai-n.com/",
    "pref": "長崎県",
    "city": "佐世保市",
    "category": "tokuyou",
    "serviceType": "介護老人福祉施設",
    "capacity": 70,
    "openDays": [],
    "openDaysNote": ""
  },
  {
    "id": "4270205455",
    "name": "特別養護老人ホーム老福荘",
    "kana": "トクベツヨウゴロウジンホームロウフクソウ",
    "address": "長崎県佐世保市江迎町赤坂282番地24",
    "lat": 33.2968998,
    "lng": 129.640445,
    "tel": "0956-65-2607",
    "url": "http://www.hakujukai.com",
    "pref": "長崎県",
    "city": "佐世保市",
    "category": "tokuyou",
    "serviceType": "介護老人福祉施設",
    "capacity": 0,
    "openDays": [],
    "openDaysNote": ""
  },
  {
    "id": "4271500540",
    "name": "黎明館",
    "kana": "レイメイカン",
    "address": "佐世保市小佐々町西川内175番地1",
    "lat": 33.2157884,
    "lng": 129.6001682,
    "tel": "0956-68-3350",
    "url": "http:reimei-kan.com",
    "pref": "長崎県",
    "city": "佐世保市",
    "category": "tokuyou",
    "serviceType": "介護老人福祉施設",
    "capacity": 50,
    "openDays": [],
    "openDaysNote": ""
  },
  {
    "id": "4271100952",
    "name": "特別養護老人ホーム時津荘",
    "kana": "トクベツヨウゴロウジンホームトギツソウ",
    "address": "長崎県西彼杵郡時津町西時津郷1235番地",
    "lat": 32.8458757,
    "lng": 129.8560347,
    "tel": "095-882-0123",
    "url": "http://www.togitsukai.jp",
    "pref": "長崎県",
    "city": "時津町",
    "category": "tokuyou",
    "serviceType": "介護老人福祉施設",
    "capacity": 30,
    "openDays": [],
    "openDaysNote": ""
  },
  {
    "id": "4271103204",
    "name": "特別養護老人ホーム時津荘ユニット個室",
    "kana": "トクベツヨウゴロウジンホームトギツソウユニットコシツ",
    "address": "長崎県西彼杵郡時津町西時津郷1235番地",
    "lat": 32.8458757,
    "lng": 129.8560347,
    "tel": "095-882-0123",
    "url": "http://www.togitsukai.jp",
    "pref": "長崎県",
    "city": "時津町",
    "category": "tokuyou",
    "serviceType": "介護老人福祉施設",
    "capacity": 40,
    "openDays": [],
    "openDaysNote": ""
  },
  {
    "id": "4271501365",
    "name": "特別養護老人ホーム　養寿園",
    "kana": "トクベツヨウゴロウジンホームヨウジュエン",
    "address": "長崎県北松浦郡小値賀町笛吹郷１７５６番地２",
    "lat": 33.19115,
    "lng": 129.0598325,
    "tel": "0959-56-4141",
    "url": "http://www.chikanosato.sakura.ne.jp/",
    "pref": "長崎県",
    "city": "小値賀町",
    "category": "tokuyou",
    "serviceType": "介護老人福祉施設",
    "capacity": 60,
    "openDays": [],
    "openDaysNote": ""
  },
  {
    "id": "4270800198",
    "name": "介護老人福祉施設　愛光園",
    "kana": "カイゴロウジンフクシシセツ　アイコウエン",
    "address": "長崎県松浦市志佐町浦免270番地",
    "lat": 33.3453427,
    "lng": 129.7174798,
    "tel": "0956-72-0863",
    "url": "",
    "pref": "長崎県",
    "city": "松浦市",
    "category": "tokuyou",
    "serviceType": "介護老人福祉施設",
    "capacity": 60,
    "openDays": [],
    "openDaysNote": ""
  },
  {
    "id": "4270800644",
    "name": "特別養護老人ホーム　いろは島荘",
    "kana": "トクベツヨウゴロウジンホーム　イロハジマソウ",
    "address": "長崎県松浦市福島町塩浜免3002番地",
    "lat": 33.3657634,
    "lng": 129.8236325,
    "tel": "0955-47-4611",
    "url": "http：//www．irohajimasou．com",
    "pref": "長崎県",
    "city": "松浦市",
    "category": "tokuyou",
    "serviceType": "介護老人福祉施設",
    "capacity": 0,
    "openDays": [],
    "openDaysNote": ""
  },
  {
    "id": "4270800727",
    "name": "特別養護老人ホーム　春風荘",
    "kana": "トクベツヨウゴロウジンホーム　シュンプウソウ",
    "address": "長崎県松浦市御厨町里免384番地1",
    "lat": 33.3642660866402,
    "lng": 129.664233025131,
    "tel": "0956-75-2889",
    "url": "https://seizanso-matsuurashi.net",
    "pref": "長崎県",
    "city": "松浦市",
    "category": "tokuyou",
    "serviceType": "介護老人福祉施設",
    "capacity": 30,
    "openDays": [],
    "openDaysNote": ""
  },
  {
    "id": "4270800206",
    "name": "特別養護老人ホーム　青山荘",
    "kana": "トクベツヨウゴロウジンホーム　セイザンソウ",
    "address": "長崎県松浦市御厨町里免395番地1",
    "lat": 33.3649859,
    "lng": 129.6640321,
    "tel": "0956-75-2888",
    "url": "",
    "pref": "長崎県",
    "city": "松浦市",
    "category": "tokuyou",
    "serviceType": "介護老人福祉施設",
    "capacity": 70,
    "openDays": [],
    "openDaysNote": ""
  },
  {
    "id": "4271600415",
    "name": "つつじが丘",
    "kana": "ツツジガオカ",
    "address": "長崎県南松浦郡新上五島町有川郷2369-1",
    "lat": 32.9800434,
    "lng": 129.1099692,
    "tel": "0959-42-0705",
    "url": "http//syuhoukai.jp/",
    "pref": "長崎県",
    "city": "新上五島町",
    "category": "tokuyou",
    "serviceType": "介護老人福祉施設",
    "capacity": 0,
    "openDays": [],
    "openDaysNote": ""
  },
  {
    "id": "4271600407",
    "name": "介護老人福祉施設　つばきの里",
    "kana": "カイゴロウジンフクシシセツ　ツバキノサト",
    "address": "南松浦郡新上五島町浦桑郷1008-5",
    "lat": 32.9876421,
    "lng": 129.0892314,
    "tel": "0959-54-2411",
    "url": "http://syuhoukai.jp/",
    "pref": "長崎県",
    "city": "新上五島町",
    "category": "tokuyou",
    "serviceType": "介護老人福祉施設",
    "capacity": 0,
    "openDays": [],
    "openDaysNote": ""
  },
  {
    "id": "4271601348",
    "name": "介護老人福祉施設　わかまつ",
    "kana": "カイゴロウジンフクシシセツ　ワカマツ",
    "address": "長崎県南松浦郡新上五島町若松郷２８８番地",
    "lat": 32.8872172,
    "lng": 129.0221061,
    "tel": "0959-46-3533",
    "url": "https://www.tokuwaka.net",
    "pref": "長崎県",
    "city": "新上五島町",
    "category": "tokuyou",
    "serviceType": "介護老人福祉施設",
    "capacity": 0,
    "openDays": [],
    "openDaysNote": ""
  },
  {
    "id": "4271601413",
    "name": "特別養護老人ホーム福見の園",
    "kana": "トクベツヨウゴロウジンホームフクミノソノ",
    "address": "長崎県南松浦郡新上五島町岩瀬浦郷31-1",
    "lat": 32.8627683377867,
    "lng": 129.076820585983,
    "tel": "0959-45-2700",
    "url": "http://www.seiwakai-kamigoto.jp/",
    "pref": "長崎県",
    "city": "新上五島町",
    "category": "tokuyou",
    "serviceType": "介護老人福祉施設",
    "capacity": 30,
    "openDays": [],
    "openDaysNote": ""
  },
  {
    "id": "4271600399",
    "name": "芳寿荘",
    "kana": "ホウジュソウ",
    "address": "長崎県南松浦郡新上五島町今里郷６１０番地",
    "lat": 32.9474339,
    "lng": 129.0363866,
    "tel": "0959-52-2501",
    "url": "http://www.houjusou.net/index.html",
    "pref": "長崎県",
    "city": "新上五島町",
    "category": "tokuyou",
    "serviceType": "介護老人福祉施設",
    "capacity": 55,
    "openDays": [],
    "openDaysNote": ""
  },
  {
    "id": "4272300288",
    "name": "特別養護老人ホーム　さいかい",
    "kana": "トクベツヨウゴロウジンホーム　サイカイ",
    "address": "長崎県西海市大島町1876番地59西海医療福祉センター内（４階・５階） 西海医療福祉センター内（４階・５階）",
    "lat": 33.0350599878186,
    "lng": 129.619479525934,
    "tel": "0959-34-2227",
    "url": "http://www.fukuikai.com",
    "pref": "長崎県",
    "city": "西海市",
    "category": "tokuyou",
    "serviceType": "介護老人福祉施設",
    "capacity": 0,
    "openDays": [],
    "openDaysNote": ""
  },
  {
    "id": "4271102107",
    "name": "特別養護老人ホーム　ふるさと",
    "kana": "トクベツヨウゴロウジンホーム　フルサト",
    "address": "長崎県西海市西海町川内郷1484番地",
    "lat": 33.0501836,
    "lng": 129.7289557,
    "tel": "0959-32-0785",
    "url": "http://furusato-saikai.jp/",
    "pref": "長崎県",
    "city": "西海市",
    "category": "tokuyou",
    "serviceType": "介護老人福祉施設",
    "capacity": 70,
    "openDays": [],
    "openDaysNote": ""
  },
  {
    "id": "4271100994",
    "name": "特別養護老人ホーム　海風荘",
    "kana": "トクベツヨウゴロウジンホーム　カイフウソウ",
    "address": "長崎県西海市大瀬戸町瀬戸板浦郷1123番地14",
    "lat": 32.9437934,
    "lng": 129.6382213,
    "tel": "0959-22-0123",
    "url": "https://www.kaifuso.com/",
    "pref": "長崎県",
    "city": "西海市",
    "category": "tokuyou",
    "serviceType": "介護老人福祉施設",
    "capacity": 67,
    "openDays": [],
    "openDaysNote": ""
  },
  {
    "id": "4272300221",
    "name": "風和の里",
    "kana": "フウワノサト",
    "address": "長崎県西海市西彼町鳥加郷２１７１番地",
    "lat": 32.9908876872755,
    "lng": 129.747524385181,
    "tel": "0959-29-7170",
    "url": "https://www.seihikai.jp/",
    "pref": "長崎県",
    "city": "西海市",
    "category": "tokuyou",
    "serviceType": "介護老人福祉施設",
    "capacity": 0,
    "openDays": [],
    "openDaysNote": ""
  },
  {
    "id": "4271200224",
    "name": "特別養護老人ホーム　くじゃくの家",
    "kana": "トクベツヨウゴロウジンホーム　クジャクノイエ",
    "address": "長崎県東彼杵郡川棚町小串郷　３５８ー１",
    "lat": 33.0554603,
    "lng": 129.8329808,
    "tel": "0956-82-5181",
    "url": "http//www.nagasaki-kouseifukusidan.or.jp",
    "pref": "長崎県",
    "city": "川棚町",
    "category": "tokuyou",
    "serviceType": "介護老人福祉施設",
    "capacity": 0,
    "openDays": [],
    "openDaysNote": ""
  },
  {
    "id": "4272000599",
    "name": "特別養護老人ホーム　いづはら",
    "kana": "トクベツヨウゴロウジンホーム　イヅハラ",
    "address": "長崎県対馬市厳原町東里２２３番地３",
    "lat": 34.2040963,
    "lng": 129.2967031,
    "tel": "0920-52-7411",
    "url": "http://www.nagasaki-kouseifukushidan.or.jp/",
    "pref": "長崎県",
    "city": "対馬市",
    "category": "tokuyou",
    "serviceType": "介護老人福祉施設",
    "capacity": 0,
    "openDays": [],
    "openDaysNote": ""
  },
  {
    "id": "4271800189",
    "name": "特別養護老人ホーム　わたづみ",
    "kana": "トクベツヨウゴロウジンホーム　ワタヅミ",
    "address": "長崎県対馬市豊玉町仁位91番地3",
    "lat": 34.3880885,
    "lng": 129.3135741,
    "tel": "0920-58-1601",
    "url": "http://www.koseikai.or.jp/watadumi/",
    "pref": "長崎県",
    "city": "対馬市",
    "category": "tokuyou",
    "serviceType": "介護老人福祉施設",
    "capacity": null,
    "openDays": [],
    "openDaysNote": ""
  },
  {
    "id": "4272000508",
    "name": "特別養護老人ホーム　日吉の里",
    "kana": "トクベツヨウゴロウジンホウム　ヒヨシノサト",
    "address": "長崎県対馬市上県町佐須奈乙１２２７－１特別養護老人ホーム　日吉の里 特別養護老人ホーム　日吉の里",
    "lat": 34.6484128,
    "lng": 129.383646,
    "tel": "0920-84-2346",
    "url": "http://asukafukushikai.com",
    "pref": "長崎県",
    "city": "対馬市",
    "category": "tokuyou",
    "serviceType": "介護老人福祉施設",
    "capacity": 50,
    "openDays": [],
    "openDaysNote": ""
  },
  {
    "id": "4272000557",
    "name": "特別養護老人ホームいづはらⅡ",
    "kana": "トクベツヨウゴロウジンホームイヅハラツー",
    "address": "長崎県対馬市厳原町東里３０３番地１",
    "lat": 34.1978573,
    "lng": 129.2952149,
    "tel": "0920-52-2222",
    "url": "nagasaki-kouseifukushidan.or.jp",
    "pref": "長崎県",
    "city": "対馬市",
    "category": "tokuyou",
    "serviceType": "介護老人福祉施設",
    "capacity": 0,
    "openDays": [],
    "openDaysNote": ""
  },
  {
    "id": "4272000607",
    "name": "特別養護老人ホームひとつばたご",
    "kana": "トクベツヨウゴロウジンホームヒトツバタゴ",
    "address": "長崎県対馬市上対馬町玖須647番地",
    "lat": 34.630732,
    "lng": 129.443073,
    "tel": "0920-86-3399",
    "url": "http://www.koseikai.or.jp/hitotsubatago/",
    "pref": "長崎県",
    "city": "対馬市",
    "category": "tokuyou",
    "serviceType": "介護老人福祉施設",
    "capacity": null,
    "openDays": [],
    "openDaysNote": ""
  },
  {
    "id": "4272000532",
    "name": "特別養護老人ホーム浅茅の丘",
    "kana": "トクベツヨウゴロウジンホームアソウノオカ",
    "address": "長崎県対馬市美津島町鶏知甲738-10",
    "lat": 34.2663000343264,
    "lng": 129.306193521726,
    "tel": "0920-54-3788",
    "url": "http://asuka-fukushi.or.jp",
    "pref": "長崎県",
    "city": "対馬市",
    "category": "tokuyou",
    "serviceType": "介護老人福祉施設",
    "capacity": 50,
    "openDays": [],
    "openDaysNote": ""
  },
  {
    "id": "4270500251",
    "name": "特別養護老人ホーム　きぼうそう",
    "kana": "トクベツヨウゴロウジンホーム　キボウソウ",
    "address": "長崎県大村市池田2丁目1163番地23",
    "lat": 32.9375928,
    "lng": 129.9713809,
    "tel": "0957-20-8800",
    "url": "http://www.kibouso.or.jp",
    "pref": "長崎県",
    "city": "大村市",
    "category": "tokuyou",
    "serviceType": "介護老人福祉施設",
    "capacity": 50,
    "openDays": [],
    "openDaysNote": ""
  },
  {
    "id": "4270500236",
    "name": "特別養護老人ホーム　慈恵荘",
    "kana": "トクベツヨウゴロウジンホーム　ジケイソウ",
    "address": "長崎県大村市東大村2丁目1616番地2",
    "lat": 32.9272968,
    "lng": 129.9969875,
    "tel": "0957-20-7120",
    "url": "https://keikokai.jp/",
    "pref": "長崎県",
    "city": "大村市",
    "category": "tokuyou",
    "serviceType": "介護老人福祉施設",
    "capacity": 0,
    "openDays": [],
    "openDaysNote": ""
  },
  {
    "id": "4270500244",
    "name": "特別養護老人ホーム泉の里",
    "kana": "トクベツヨウゴロウジンホームイズミノサト",
    "address": "長崎県大村市東本町583番地",
    "lat": 32.9087339,
    "lng": 129.9611521,
    "tel": "0957-54-2107",
    "url": "http://www.izuminosato.jp",
    "pref": "長崎県",
    "city": "大村市",
    "category": "tokuyou",
    "serviceType": "介護老人福祉施設",
    "capacity": null,
    "openDays": [],
    "openDaysNote": ""
  },
  {
    "id": "4270102009",
    "name": "エルダーみずほ",
    "kana": "エルダーミズホ",
    "address": "長崎県長崎市岩屋町４５－１",
    "lat": 32.7998018,
    "lng": 129.8485255,
    "tel": "095-860-6320",
    "url": "http://www.mizuhokai.jp",
    "pref": "長崎県",
    "city": "長崎市",
    "category": "tokuyou",
    "serviceType": "介護老人福祉施設",
    "capacity": 0,
    "openDays": [],
    "openDaysNote": ""
  },
  {
    "id": "4270101456",
    "name": "介護老人福祉施設　古賀の里",
    "kana": "カイゴロウジンフクシシセツ　コガノサト",
    "address": "長崎県長崎市古賀町806-2",
    "lat": 32.7971717,
    "lng": 129.9612511,
    "tel": "095-839-2775",
    "url": "http://www.koganosato.jp/",
    "pref": "長崎県",
    "city": "長崎市",
    "category": "tokuyou",
    "serviceType": "介護老人福祉施設",
    "capacity": null,
    "openDays": [],
    "openDaysNote": ""
  },
  {
    "id": "4270109970",
    "name": "介護老人福祉施設　古賀の里",
    "kana": "カイゴロウジンフクシシセツ　コガノサト",
    "address": "長崎県長崎市古賀町806-2",
    "lat": 32.7971717,
    "lng": 129.9612511,
    "tel": "095-839-2775",
    "url": "http://www.koganosato.jp/",
    "pref": "長崎県",
    "city": "長崎市",
    "category": "tokuyou",
    "serviceType": "介護老人福祉施設",
    "capacity": 0,
    "openDays": [],
    "openDaysNote": ""
  },
  {
    "id": "4270101431",
    "name": "介護老人福祉施設　女の都山荘",
    "kana": "カイゴロウジンフクシシセツ　メノトサンソウ",
    "address": "長崎県長崎市女の都１丁目１５９７番地",
    "lat": 32.8009247,
    "lng": 129.879843,
    "tel": "095-845-6888",
    "url": "http://www.rakuroukai.or.jp/",
    "pref": "長崎県",
    "city": "長崎市",
    "category": "tokuyou",
    "serviceType": "介護老人福祉施設",
    "capacity": 0,
    "openDays": [],
    "openDaysNote": ""
  },
  {
    "id": "4270102173",
    "name": "介護老人福祉施設　牧島荘",
    "kana": "カイゴロウジンフクシシセツ　マキシマソウ",
    "address": "長崎県長崎市牧島町9番地1",
    "lat": 32.7498791,
    "lng": 129.9874759,
    "tel": "095-837-0310",
    "url": "http://www.makishima.org",
    "pref": "長崎県",
    "city": "長崎市",
    "category": "tokuyou",
    "serviceType": "介護老人福祉施設",
    "capacity": 50,
    "openDays": [],
    "openDaysNote": ""
  },
  {
    "id": "4270101506",
    "name": "介護老人福祉施設・プライエム横尾",
    "kana": "カイゴロウジンフクシシセツ・プライエムヨコオ",
    "address": "長崎県長崎市横尾3丁目26番1号",
    "lat": 32.8166475,
    "lng": 129.8385728,
    "tel": "095-856-6511",
    "url": "http://www.heisei-kai.or.jp/",
    "pref": "長崎県",
    "city": "長崎市",
    "category": "tokuyou",
    "serviceType": "介護老人福祉施設",
    "capacity": 0,
    "openDays": [],
    "openDaysNote": ""
  },
  {
    "id": "4270101498",
    "name": "介護老人福祉施設喜楽苑",
    "kana": "カイゴロウジンフクシシセツキラクエン",
    "address": "長崎県長崎市竿浦町945番地",
    "lat": 32.6761885,
    "lng": 129.8412018,
    "tel": "095-878-7667",
    "url": "http://www.kirakuen-nagasaki.jp/",
    "pref": "長崎県",
    "city": "長崎市",
    "category": "tokuyou",
    "serviceType": "介護老人福祉施設",
    "capacity": 50,
    "openDays": [],
    "openDaysNote": ""
  },
  {
    "id": "4270101530",
    "name": "指定介護老人福祉施設　恵珠苑",
    "kana": "シテイカイゴロウジンフクシシセツ　ケイジュエン",
    "address": "長崎県長崎市田上2丁目15番12号",
    "lat": 32.726513,
    "lng": 129.8865781,
    "tel": "095-828-1332",
    "url": "http://yuukikai.jp",
    "pref": "長崎県",
    "city": "長崎市",
    "category": "tokuyou",
    "serviceType": "介護老人福祉施設",
    "capacity": 80,
    "openDays": [],
    "openDaysNote": ""
  },
  {
    "id": "4270110036",
    "name": "指定介護老人福祉施設　恵珠苑",
    "kana": "シテイカイゴロウジンフクシシセツ　ケイジュエン",
    "address": "長崎県長崎市田上2丁目15番12号",
    "lat": 32.726513,
    "lng": 129.8865781,
    "tel": "095-828-1332",
    "url": "http://yuukikai.jp",
    "pref": "長崎県",
    "city": "長崎市",
    "category": "tokuyou",
    "serviceType": "介護老人福祉施設",
    "capacity": 0,
    "openDays": [],
    "openDaysNote": ""
  },
  {
    "id": "4270101522",
    "name": "社会福祉法人　はづき会　オレンジの丘",
    "kana": "シャカイフクシホウジン　ハヅキカイ　オレンジノオカ",
    "address": "長崎県長崎市ダイヤランド3丁目31番8号",
    "lat": 32.7026198,
    "lng": 129.8550919,
    "tel": "095-879-3661",
    "url": "http://hazukikai.hp.gogo.jp/pc/",
    "pref": "長崎県",
    "city": "長崎市",
    "category": "tokuyou",
    "serviceType": "介護老人福祉施設",
    "capacity": 50,
    "openDays": [],
    "openDaysNote": ""
  },
  {
    "id": "4271100911",
    "name": "特別養護老人ホーム　　三和荘",
    "kana": "トクベツヨウゴロウジンホーム　　サンワソウ",
    "address": "長崎県長崎市布巻町７９２番地",
    "lat": 32.659559,
    "lng": 129.8290642,
    "tel": "095-892-1001",
    "url": "http://www.minorikai.or.jp/sanwasou/index.html",
    "pref": "長崎県",
    "city": "長崎市",
    "category": "tokuyou",
    "serviceType": "介護老人福祉施設",
    "capacity": 0,
    "openDays": [],
    "openDaysNote": ""
  },
  {
    "id": "4270102074",
    "name": "特別養護老人ホーム　いこいの園",
    "kana": "トクベツヨウゴロウジンホーム　イコイノソノ",
    "address": "長崎県長崎市牧野町2168番地5",
    "lat": 32.7964571,
    "lng": 129.7993959,
    "tel": "095-840-4000",
    "url": "https://kagurakai.or.jp",
    "pref": "長崎県",
    "city": "長崎市",
    "category": "tokuyou",
    "serviceType": "介護老人福祉施設",
    "capacity": 50,
    "openDays": [],
    "openDaysNote": ""
  },
  {
    "id": "4270101548",
    "name": "特別養護老人ホーム　かたふち村",
    "kana": "トクベツヨウゴロウジンホーム　カタフチムラ",
    "address": "長崎県長崎市片淵３丁目５００番地２",
    "lat": 32.7661346,
    "lng": 129.8942069,
    "tel": "095-828-5680",
    "url": "http://www.katafuchimura.or.jp/",
    "pref": "長崎県",
    "city": "長崎市",
    "category": "tokuyou",
    "serviceType": "介護老人福祉施設",
    "capacity": 50,
    "openDays": [],
    "openDaysNote": ""
  },
  {
    "id": "4270110028",
    "name": "特別養護老人ホーム　かたふち村",
    "kana": "トクベツヨウゴロウジンホーム　カタフチムラ",
    "address": "長崎県長崎市片淵３丁目５００番地２",
    "lat": 32.7661346,
    "lng": 129.8942069,
    "tel": "095-828-5680",
    "url": "http://www.katafuchimura.or.jp/",
    "pref": "長崎県",
    "city": "長崎市",
    "category": "tokuyou",
    "serviceType": "介護老人福祉施設",
    "capacity": 0,
    "openDays": [],
    "openDaysNote": ""
  },
  {
    "id": "4270135082",
    "name": "特別養護老人ホーム　ひこばえ",
    "kana": "トクベツヨウゴロウジンホーム　ヒコバエ",
    "address": "長崎県長崎市早坂町1180番地7",
    "lat": 32.734295438173,
    "lng": 129.900327306746,
    "tel": "095-821-7165",
    "url": "http://hikobae-nagasaki.jp",
    "pref": "長崎県",
    "city": "長崎市",
    "category": "tokuyou",
    "serviceType": "介護老人福祉施設",
    "capacity": 50,
    "openDays": [],
    "openDaysNote": ""
  },
  {
    "id": "4271100903",
    "name": "特別養護老人ホーム　永寿園",
    "kana": "トクベツヨウゴロウジンホーム　エイジュエン",
    "address": "長崎県長崎市以下宿町1912番地",
    "lat": 32.6204003,
    "lng": 129.7940646,
    "tel": "095-894-2307",
    "url": "https://care-net.biz/42/eijyu/",
    "pref": "長崎県",
    "city": "長崎市",
    "category": "tokuyou",
    "serviceType": "介護老人福祉施設",
    "capacity": 50,
    "openDays": [],
    "openDaysNote": ""
  },
  {
    "id": "4270104906",
    "name": "特別養護老人ホーム　橘の丘",
    "kana": "トクベツヨウゴロウジンホーム　タチバナノオカ",
    "address": "長崎県長崎市春日町２８４－２",
    "lat": 32.7420293,
    "lng": 129.9529227,
    "tel": "095-839-7330",
    "url": "http://tachibananooka．jp/",
    "pref": "長崎県",
    "city": "長崎市",
    "category": "tokuyou",
    "serviceType": "介護老人福祉施設",
    "capacity": 50,
    "openDays": [],
    "openDaysNote": ""
  },
  {
    "id": "4270106893",
    "name": "特別養護老人ホーム　琴の浦荘",
    "kana": "トクベツヨウゴロウジンホーム　コトノウラソウ",
    "address": "長崎県長崎市琴海戸根町743番地47",
    "lat": 32.8878527153806,
    "lng": 129.791646697484,
    "tel": "095-884-3510",
    "url": "http://www.gounkai.or.jp",
    "pref": "長崎県",
    "city": "長崎市",
    "category": "tokuyou",
    "serviceType": "介護老人福祉施設",
    "capacity": 0,
    "openDays": [],
    "openDaysNote": ""
  },
  {
    "id": "4270101472",
    "name": "特別養護老人ホーム　三重の里",
    "kana": "トクベツヨウゴロウジンホーム　ミエノサト",
    "address": "長崎県長崎市樫山町1470番地",
    "lat": 32.8124402,
    "lng": 129.7346136,
    "tel": "095-850-3221",
    "url": "http://www.mienosato.com/",
    "pref": "長崎県",
    "city": "長崎市",
    "category": "tokuyou",
    "serviceType": "介護老人福祉施設",
    "capacity": 0,
    "openDays": [],
    "openDaysNote": ""
  },
  {
    "id": "4270103064",
    "name": "特別養護老人ホーム　青葉苑",
    "kana": "トクベツヨウゴロウジンホーム　アオバエン",
    "address": "長崎県長崎市戸町4丁目７番１７号",
    "lat": 32.7197101,
    "lng": 129.8613021,
    "tel": "095-898-5557",
    "url": "http://aoba-en.jp",
    "pref": "長崎県",
    "city": "長崎市",
    "category": "tokuyou",
    "serviceType": "介護老人福祉施設",
    "capacity": 0,
    "openDays": [],
    "openDaysNote": ""
  },
  {
    "id": "4271101000",
    "name": "特別養護老人ホーム　椿ヶ丘荘",
    "kana": "トクベツヨウゴロウジンホーム　ツバキガオカソウ",
    "address": "長崎県長崎市神浦丸尾町1553番地",
    "lat": 32.8812952,
    "lng": 129.6881079,
    "tel": "0959-24-0130",
    "url": "http://www.tsubakigaoka.jp/",
    "pref": "長崎県",
    "city": "長崎市",
    "category": "tokuyou",
    "serviceType": "介護老人福祉施設",
    "capacity": 0,
    "openDays": [],
    "openDaysNote": ""
  },
  {
    "id": "4270101464",
    "name": "特別養護老人ホーム　鶴舞苑",
    "kana": "トクベツヨウゴロウジンホーム　カクブエン",
    "address": "長崎県長崎市秋月町３８９番地１",
    "lat": 32.7475712,
    "lng": 129.8514744,
    "tel": "095-862-5282",
    "url": "http://www.nagasaki-kouseifukushidan.or.jp",
    "pref": "長崎県",
    "city": "長崎市",
    "category": "tokuyou",
    "serviceType": "介護老人福祉施設",
    "capacity": 0,
    "openDays": [],
    "openDaysNote": ""
  },
  {
    "id": "4270103759",
    "name": "特別養護老人ホーム　鶴舞苑II",
    "kana": "トクベツヨウゴロウジンホーム　カクブエンツー",
    "address": "長崎県長崎市大谷町４１８番地１",
    "lat": 32.7483184,
    "lng": 129.850955,
    "tel": "095-862-8881",
    "url": "http://www.nagasaki-kouseifukushidan.or.jp/care/subjects/tokuyou/kakubuen2",
    "pref": "長崎県",
    "city": "長崎市",
    "category": "tokuyou",
    "serviceType": "介護老人福祉施設",
    "capacity": 0,
    "openDays": [],
    "openDaysNote": ""
  },
  {
    "id": "4270105168",
    "name": "特別養護老人ホームこえばる",
    "kana": "トクベツヨウゴロウジンホーム　コエバル",
    "address": "長崎県長崎市小江原4丁目1番30号",
    "lat": 32.7836367,
    "lng": 129.8322886,
    "tel": "095-814-8225",
    "url": "http://syuhoukai.jp",
    "pref": "長崎県",
    "city": "長崎市",
    "category": "tokuyou",
    "serviceType": "介護老人福祉施設",
    "capacity": 0,
    "openDays": [],
    "openDaysNote": ""
  },
  {
    "id": "4270101514",
    "name": "特別養護老人ホームサンハイツ",
    "kana": "トクベツヨウゴロウジンホームサンハイツ",
    "address": "長崎県長崎市油木町65番地14",
    "lat": 32.7803067,
    "lng": 129.8441103,
    "tel": "095-843-1215",
    "url": "http://www.sanhaitsu.jp/",
    "pref": "長崎県",
    "city": "長崎市",
    "category": "tokuyou",
    "serviceType": "介護老人福祉施設",
    "capacity": 0,
    "openDays": [],
    "openDaysNote": ""
  },
  {
    "id": "4270109962",
    "name": "特別養護老人ホームサンハイツ",
    "kana": "トクベツヨウゴロウジンホームサンハイツ",
    "address": "長崎県長崎市油木町65番地14",
    "lat": 32.7803067,
    "lng": 129.8441103,
    "tel": "095-843-1215",
    "url": "http://www.sanhaitsu.jp/",
    "pref": "長崎県",
    "city": "長崎市",
    "category": "tokuyou",
    "serviceType": "介護老人福祉施設",
    "capacity": 0,
    "openDays": [],
    "openDaysNote": ""
  },
  {
    "id": "4270101423",
    "name": "特別養護老人ホームなでしこ荘",
    "kana": "トクベツヨウゴロウジンホームナデシコソウ",
    "address": "長崎県長崎市西山台2丁目32番47号",
    "lat": 32.7828966,
    "lng": 129.894398,
    "tel": "095-865-6665",
    "url": "http://www.nadeshikosou.com/",
    "pref": "長崎県",
    "city": "長崎市",
    "category": "tokuyou",
    "serviceType": "介護老人福祉施設",
    "capacity": 55,
    "openDays": [],
    "openDaysNote": ""
  },
  {
    "id": "4270101480",
    "name": "特別養護老人ホームびわの園",
    "kana": "トクベツヨウゴロウジンホームビワノソノ",
    "address": "長崎市茂木町２２２２番地",
    "lat": 32.6995432,
    "lng": 129.9127107,
    "tel": "095-836-2800",
    "url": "http://biwanosono.com",
    "pref": "長崎県",
    "city": "長崎市",
    "category": "tokuyou",
    "serviceType": "介護老人福祉施設",
    "capacity": null,
    "openDays": [],
    "openDaysNote": ""
  },
  {
    "id": "4270105994",
    "name": "特別養護老人ホームプレジールの丘",
    "kana": "トクベツヨウゴロウジンホームプレジールノオカ",
    "address": "長崎県長崎市立山2丁目16番5号",
    "lat": 32.754913,
    "lng": 129.8766281,
    "tel": "095-829-3270",
    "url": "http://www.juyoukai.com/",
    "pref": "長崎県",
    "city": "長崎市",
    "category": "tokuyou",
    "serviceType": "介護老人福祉施設",
    "capacity": 0,
    "openDays": [],
    "openDaysNote": ""
  },
  {
    "id": "4270108048",
    "name": "特別養護老人ホームもくれん",
    "kana": "トクベツヨウゴロウジンホームモクレン",
    "address": "長崎県長崎市戸石町1683番地",
    "lat": 32.7645724,
    "lng": 129.9808176,
    "tel": "095-837-0001",
    "url": "http://www.mokuren.or.jp/",
    "pref": "長崎県",
    "city": "長崎市",
    "category": "tokuyou",
    "serviceType": "介護老人福祉施設",
    "capacity": 50,
    "openDays": [],
    "openDaysNote": ""
  },
  {
    "id": "4270101449",
    "name": "特別養護老人ホーム長崎の家",
    "kana": "トクベツヨウゴロウジンホームナガサキノイエ",
    "address": "長崎県長崎市小江原1丁目36番18号",
    "lat": 32.7855282,
    "lng": 129.8341856,
    "tel": "095-845-1801",
    "url": "https://www.nagaie.com/",
    "pref": "長崎県",
    "city": "長崎市",
    "category": "tokuyou",
    "serviceType": "介護老人福祉施設",
    "capacity": 65,
    "openDays": [],
    "openDaysNote": ""
  },
  {
    "id": "4270103924",
    "name": "望星荘",
    "kana": "ボウセイソウ",
    "address": "長崎県長崎市岩屋町745-4",
    "lat": 32.7948607,
    "lng": 129.8452677,
    "tel": "095-855-8116",
    "url": "https://bouseisou.jp",
    "pref": "長崎県",
    "city": "長崎市",
    "category": "tokuyou",
    "serviceType": "介護老人福祉施設",
    "capacity": 0,
    "openDays": [],
    "openDaysNote": ""
  },
  {
    "id": "4271100945",
    "name": "のぞみの杜　介護老人福祉施設",
    "kana": "ノゾミノモリ　カイゴロウジンフクシシセツ",
    "address": "長崎県西彼杵郡長与町吉無田郷1578",
    "lat": 32.8163345,
    "lng": 129.8863616,
    "tel": "095-887-3333",
    "url": "http://www.nozominomori.or.jp",
    "pref": "長崎県",
    "city": "長与町",
    "category": "tokuyou",
    "serviceType": "介護老人福祉施設",
    "capacity": 50,
    "openDays": [],
    "openDaysNote": ""
  },
  {
    "id": "4271100937",
    "name": "特別養護老人ホーム悠久荘",
    "kana": "トクベツヨウゴロウジンホームユウキュウソウ",
    "address": "長崎県西彼杵郡長与町三根郷592番地",
    "lat": 32.8262607024559,
    "lng": 129.893055752194,
    "tel": "095-865-7220",
    "url": "https://kakuseikai.jp/",
    "pref": "長崎県",
    "city": "長与町",
    "category": "tokuyou",
    "serviceType": "介護老人福祉施設",
    "capacity": 50,
    "openDays": [],
    "openDaysNote": ""
  },
  {
    "id": "4270301148",
    "name": "社会福祉法人幸和会　ユニット型小規模特別養護老人ホームびざん",
    "kana": "シャカイフクシホウジンコウワカイ　ユニットガタショウキボトクベツヨウゴロウジンホームビザン",
    "address": "長崎県島原市緑町８２００番地",
    "lat": 32.7682515,
    "lng": 130.3673648,
    "tel": "0957-64-2205",
    "url": "http://www.shimabara.jp/sh6008845/index.html",
    "pref": "長崎県",
    "city": "島原市",
    "category": "tokuyou",
    "serviceType": "介護老人福祉施設",
    "capacity": 30,
    "openDays": [],
    "openDaysNote": ""
  },
  {
    "id": "4270300587",
    "name": "社会福祉法人幸和会　特別養護老人ホームびざん",
    "kana": "シャカイフクシホウジンコウワカイ　トクベツヨウゴロウジンホームビザン",
    "address": "長崎県島原市緑町８２００番地",
    "lat": 32.7682515,
    "lng": 130.3673648,
    "tel": "0957-64-2205",
    "url": "http://www.shimabara.jp/sh6008845/index.html",
    "pref": "長崎県",
    "city": "島原市",
    "category": "tokuyou",
    "serviceType": "介護老人福祉施設",
    "capacity": 50,
    "openDays": [],
    "openDaysNote": ""
  },
  {
    "id": "4270301304",
    "name": "小規模特別養護老人ホーム淡淡荘",
    "kana": "ショウキボトクベツヨウゴロウジンホームタンタンソウ",
    "address": "長崎県島原市江里町乙2010番地1",
    "lat": 32.8025723,
    "lng": 130.3396563,
    "tel": "0957-62-5328",
    "url": "https://rakuzankai.com/",
    "pref": "長崎県",
    "city": "島原市",
    "category": "tokuyou",
    "serviceType": "介護老人福祉施設",
    "capacity": null,
    "openDays": [],
    "openDaysNote": ""
  },
  {
    "id": "4270300264",
    "name": "特別養護老人ホーム　秩父が浦荘",
    "kana": "トクベツヨウゴロウジンホーム　チチブガウラソウ",
    "address": "長崎県島原市秩父が浦町丁3552番地",
    "lat": 32.7611780228732,
    "lng": 130.369132240475,
    "tel": "0957-63-6266",
    "url": "http://www.chichibukai.or.jp/",
    "pref": "長崎県",
    "city": "島原市",
    "category": "tokuyou",
    "serviceType": "介護老人福祉施設",
    "capacity": 0,
    "openDays": [],
    "openDaysNote": ""
  },
  {
    "id": "4271400717",
    "name": "特別養護老人ホーム　白光苑",
    "kana": "トクベツヨウゴロウジンホーム　ビャッコウエン",
    "address": "長崎県島原市有明町大三東戊７８３－１",
    "lat": 32.8538162,
    "lng": 130.3344734,
    "tel": "0957-68-1818",
    "url": "http://www.shokow-by.or.jp",
    "pref": "長崎県",
    "city": "島原市",
    "category": "tokuyou",
    "serviceType": "介護老人福祉施設",
    "capacity": 0,
    "openDays": [],
    "openDaysNote": ""
  },
  {
    "id": "4270300249",
    "name": "特別養護老人ホーム淡淡荘",
    "kana": "トクベツヨウゴロウジンホームタンタンソウ",
    "address": "長崎県島原市江里町乙2010番地1",
    "lat": 32.8025178,
    "lng": 130.3396594,
    "tel": "0957-62-5328",
    "url": "https://rakuzankai.com/",
    "pref": "長崎県",
    "city": "島原市",
    "category": "tokuyou",
    "serviceType": "介護老人福祉施設",
    "capacity": 0,
    "openDays": [],
    "openDaysNote": ""
  },
  {
    "id": "4271200216",
    "name": "特別養護老人ホーム　もみの木荘",
    "kana": "トクベツヨウゴロウジンホーム　モミノキソウ",
    "address": "長崎県東彼杵郡東彼杵町里郷２４３５番地",
    "lat": 33.0027688,
    "lng": 129.9553036,
    "tel": "0957-47-1231",
    "url": "http://www.mominoki-kai.com/mominokisou/",
    "pref": "長崎県",
    "city": "東彼杵町",
    "category": "tokuyou",
    "serviceType": "介護老人福祉施設",
    "capacity": 0,
    "openDays": [],
    "openDaysNote": ""
  },
  {
    "id": "4271400758",
    "name": "特別養護老人ホーム　玉成園",
    "kana": "トクベツヨウゴロウジンホーム　ギョクセイエン",
    "address": "長崎県南島原市口之津町甲1190番地1",
    "lat": 32.6053298,
    "lng": 130.1880827,
    "tel": "0957-86-2145",
    "url": "https://www.gyokuseien.com",
    "pref": "長崎県",
    "city": "南島原市",
    "category": "tokuyou",
    "serviceType": "介護老人福祉施設",
    "capacity": 0,
    "openDays": [],
    "openDaysNote": ""
  },
  {
    "id": "4271400782",
    "name": "特別養護老人ホームあけぼの荘",
    "kana": "トクベツヨウゴロウジンホームアケボノソウ",
    "address": "長崎県南島原市布津町乙１８６２番地２",
    "lat": 32.694377544898,
    "lng": 130.353022941432,
    "tel": "0957-72-5520",
    "url": "http://k-akebono.com/",
    "pref": "長崎県",
    "city": "南島原市",
    "category": "tokuyou",
    "serviceType": "介護老人福祉施設",
    "capacity": 0,
    "openDays": [],
    "openDaysNote": ""
  },
  {
    "id": "4271400790",
    "name": "特別養護老人ホーム眉山荘",
    "kana": "トクベツヨウゴロウジンホームビザンソウ",
    "address": "長崎県南島原市深江町乙857番地",
    "lat": 32.7244617,
    "lng": 130.3318218,
    "tel": "0957-72-2000",
    "url": "https://kotobukifukushikai.jp/",
    "pref": "長崎県",
    "city": "南島原市",
    "category": "tokuyou",
    "serviceType": "介護老人福祉施設",
    "capacity": 55,
    "openDays": [],
    "openDaysNote": ""
  },
  {
    "id": "4271400766",
    "name": "特別養護老人ホーム有馬荘",
    "kana": "トクベツヨウゴロウジンホームアリマソウ",
    "address": "南島原市北有馬町甲３１８１番地８",
    "lat": 32.6731009,
    "lng": 130.1952466,
    "tel": "0957-84-2500",
    "url": "http//www.heiwa-kai.com",
    "pref": "長崎県",
    "city": "南島原市",
    "category": "tokuyou",
    "serviceType": "介護老人福祉施設",
    "capacity": 0,
    "openDays": [],
    "openDaysNote": ""
  },
  {
    "id": "4271400774",
    "name": "特別養護老人ホーム有宝荘",
    "kana": "トクベツヨウゴロウジンホームユウホウソウ",
    "address": "長崎県南島原市有家町尾上字土橋４０８５番地",
    "lat": 32.7038866577096,
    "lng": 130.303321390213,
    "tel": "0957-82-8300",
    "url": "http://www.yuhoso.jp/",
    "pref": "長崎県",
    "city": "南島原市",
    "category": "tokuyou",
    "serviceType": "介護老人福祉施設",
    "capacity": 85,
    "openDays": [],
    "openDaysNote": ""
  },
  {
    "id": "4272500747",
    "name": "特別養護老人ホーム緑ヶ丘荘",
    "kana": "トクベツヨウゴロウジンホームミドリガオカソウ",
    "address": "長崎県南島原市南有馬町己234番地1",
    "lat": 32.6506718,
    "lng": 130.2463119,
    "tel": "0957-85-2332",
    "url": "http://hakujyukai-kadusa.jp/",
    "pref": "長崎県",
    "city": "南島原市",
    "category": "tokuyou",
    "serviceType": "介護老人福祉施設",
    "capacity": 0,
    "openDays": [],
    "openDaysNote": ""
  },
  {
    "id": "4271200232",
    "name": "社会福祉法人愛隣会　特別養護老人ホームはさみ荘",
    "kana": "シャカイフクシホウジンアイリンカイ　トクベツヨウゴロウジンホームハサミソウ",
    "address": "長崎県東彼杵郡波佐見町稗木場郷794-1",
    "lat": 33.126588,
    "lng": 129.8719842,
    "tel": "0956-85-4598",
    "url": "https://airinkai-hasami.com",
    "pref": "長崎県",
    "city": "波佐見町",
    "category": "tokuyou",
    "serviceType": "介護老人福祉施設",
    "capacity": 31,
    "openDays": [],
    "openDaysNote": ""
  },
  {
    "id": "4271500482",
    "name": "生寿園",
    "kana": "セイジュエン",
    "address": "長崎県平戸市生月町山田免2963-1特別養護老人ホーム 特別養護老人ホーム",
    "lat": 33.3801405,
    "lng": 129.4231493,
    "tel": "0950-53-2804",
    "url": "",
    "pref": "長崎県",
    "city": "平戸市",
    "category": "tokuyou",
    "serviceType": "介護老人福祉施設",
    "capacity": 0,
    "openDays": [],
    "openDaysNote": ""
  },
  {
    "id": "4271500516",
    "name": "特別養護老人ホーム　田平ホーム",
    "kana": "トクベツヨウゴロウジンホーム　タビラホーム",
    "address": "長崎県平戸市田平町山内免２３２番地",
    "lat": 33.3623403,
    "lng": 129.5826002,
    "tel": "0950-57-1966",
    "url": "http://www.tabira-home.or.jp/",
    "pref": "長崎県",
    "city": "平戸市",
    "category": "tokuyou",
    "serviceType": "介護老人福祉施設",
    "capacity": 60,
    "openDays": [],
    "openDaysNote": ""
  },
  {
    "id": "4270700190",
    "name": "特別養護老人ホームわだつみの里",
    "kana": "トクベツヨウゴロウジンホームワダツミノサト",
    "address": "長崎県平戸市辻町１７８",
    "lat": 33.2170798,
    "lng": 129.4260978,
    "tel": "0950-27-2200",
    "url": "",
    "pref": "長崎県",
    "city": "平戸市",
    "category": "tokuyou",
    "serviceType": "介護老人福祉施設",
    "capacity": 0,
    "openDays": [],
    "openDaysNote": ""
  },
  {
    "id": "4270700182",
    "name": "特別養護老人ホーム平戸荘",
    "kana": "トクベツヨウゴロウジンホームヒラドソウ",
    "address": "長崎県平戸市紐差町450番地",
    "lat": 33.2847940091947,
    "lng": 129.475521791402,
    "tel": "0950-28-1155",
    "url": "http://hakujukai.com/",
    "pref": "長崎県",
    "city": "平戸市",
    "category": "tokuyou",
    "serviceType": "介護老人福祉施設",
    "capacity": 50,
    "openDays": [],
    "openDaysNote": ""
  },
  {
    "id": "4271300222",
    "name": "介護老人福祉施設特別養護老人ホーム悠恵荘",
    "kana": "カイゴロウジンフクシシセツトクベツヨウゴロウジンホームユウケイソウ",
    "address": "長崎県諫早市高来町神津倉534番地１",
    "lat": 32.9225868,
    "lng": 130.1382036,
    "tel": "0957-32-2222",
    "url": "http://yukeiso.com/",
    "pref": "長崎県",
    "city": "諫早市",
    "category": "tokuyou",
    "serviceType": "介護老人福祉施設",
    "capacity": 80,
    "openDays": [],
    "openDaysNote": ""
  },
  {
    "id": "4270400387",
    "name": "指定ユニット型介護老人福祉施設善隣荘",
    "kana": "シテイユニットガタカイゴロウジンフクシシセツゼンリンソウ",
    "address": "長崎県諫早市福田町2366番地1",
    "lat": 32.8626279,
    "lng": 130.0560561,
    "tel": "0957-21-1610",
    "url": "https://ryubikai.jp",
    "pref": "長崎県",
    "city": "諫早市",
    "category": "tokuyou",
    "serviceType": "介護老人福祉施設",
    "capacity": 30,
    "openDays": [],
    "openDaysNote": ""
  },
  {
    "id": "4271300206",
    "name": "唐比温泉秀峰荘",
    "kana": "カラコオンセンシュウホウソウ",
    "address": "長崎県諫早市森山町唐比西１２４番地５",
    "lat": 32.7910482,
    "lng": 130.1345531,
    "tel": "0957-36-1777",
    "url": "http://seiwafukushi.jp/carnet/",
    "pref": "長崎県",
    "city": "諫早市",
    "category": "tokuyou",
    "serviceType": "介護老人福祉施設",
    "capacity": 50,
    "openDays": [],
    "openDaysNote": ""
  },
  {
    "id": "4271100929",
    "name": "特別養護老人ホーム　真和荘",
    "kana": "トクベツヨウゴロウジンホーム　シンワソウ",
    "address": "長崎県諫早市多良見町元釜５５６番地",
    "lat": 32.8566431,
    "lng": 129.9312621,
    "tel": "0957-44-1311",
    "url": "http://sinwakai.net/",
    "pref": "長崎県",
    "city": "諫早市",
    "category": "tokuyou",
    "serviceType": "介護老人福祉施設",
    "capacity": 50,
    "openDays": [],
    "openDaysNote": ""
  },
  {
    "id": "4271300214",
    "name": "特別養護老人ホーム　特養いいもり",
    "kana": "トクベツヨウゴロウジンホーム　トクヨウイイモリ",
    "address": "長崎県諫早市飯盛町開48番地",
    "lat": 32.7716982,
    "lng": 130.0242609,
    "tel": "0957-48-2270",
    "url": "http://tokuyou-iimori.jp/",
    "pref": "長崎県",
    "city": "諫早市",
    "category": "tokuyou",
    "serviceType": "介護老人福祉施設",
    "capacity": 0,
    "openDays": [],
    "openDaysNote": ""
  },
  {
    "id": "4270401310",
    "name": "特別養護老人ホームしろみ",
    "kana": "トクベツヨウゴロウジンホームシロミ",
    "address": "長崎県諫早市城見町43番1号",
    "lat": 32.855234,
    "lng": 130.049187,
    "tel": "0957-21-6263",
    "url": "http://shiromi.or.jp/",
    "pref": "長崎県",
    "city": "諫早市",
    "category": "tokuyou",
    "serviceType": "介護老人福祉施設",
    "capacity": 0,
    "openDays": [],
    "openDaysNote": ""
  },
  {
    "id": "4271300230",
    "name": "特別養護老人ホーム小長井希望園",
    "kana": "トクベツヨウゴロウジンホームコナガイキボウエン",
    "address": "長崎県諌早市小長井町井崎１４０６番地",
    "lat": 32.9389016,
    "lng": 130.1830082,
    "tel": "0957-27-6110",
    "url": "kibouen@kzc.biglobe.ne.jp",
    "pref": "長崎県",
    "city": "諫早市",
    "category": "tokuyou",
    "serviceType": "介護老人福祉施設",
    "capacity": 0,
    "openDays": [],
    "openDaysNote": ""
  },
  {
    "id": "4270400379",
    "name": "特別養護老人ホーム天恵荘",
    "kana": "トクベツヨウゴロウジンホームテンケイソウ",
    "address": "長崎県諫早市有喜町537番地5",
    "lat": 32.792493266725,
    "lng": 130.078800220238,
    "tel": "0957-28-2304",
    "url": "http://uki-fukushimura.jp/",
    "pref": "長崎県",
    "city": "諫早市",
    "category": "tokuyou",
    "serviceType": "介護老人福祉施設",
    "capacity": 88,
    "openDays": [],
    "openDaysNote": ""
  }
]