[
  {
    "id": "2072501063",
    "name": "特別養護老人ホーム阿智荘",
    "kana": "トクベツヨウゴロウジンホームアチソウ",
    "address": "下伊那郡阿智村智里４９１地４１",
    "lat": 35.4588325,
    "lng": 137.7125597,
    "tel": "0265-43-2891",
    "url": "",
    "pref": "長野県",
    "city": "阿智村",
    "category": "tokuyou",
    "serviceType": "介護老人福祉施設",
    "capacity": null,
    "openDays": [],
    "openDaysNote": ""
  },
  {
    "id": "2072501394",
    "name": "特別養護老人ホーム阿智荘",
    "kana": "トクベツヨウゴロウジンホームアチソウ",
    "address": "長野県下伊那郡阿智村智里491-41",
    "lat": 35.459588,
    "lng": 137.7137567,
    "tel": "0265-43-2891",
    "url": "http://www.achi-syakyo.or.jp/",
    "pref": "長野県",
    "city": "阿智村",
    "category": "tokuyou",
    "serviceType": "介護老人福祉施設",
    "capacity": 0,
    "openDays": [],
    "openDaysNote": ""
  },
  {
    "id": "2072500917",
    "name": "特別養護老人ホーム阿南荘",
    "kana": "トクベツヨウゴロウジンホームアナンソウ",
    "address": "下伊那郡阿南町北條２４１１",
    "lat": 35.3328815,
    "lng": 137.8342782,
    "tel": "0260-22-2171",
    "url": "http://business3.plala.or.jp/anansou1/",
    "pref": "長野県",
    "city": "阿南町",
    "category": "tokuyou",
    "serviceType": "介護老人福祉施設",
    "capacity": null,
    "openDays": [],
    "openDaysNote": ""
  },
  {
    "id": "2072501410",
    "name": "特別養護老人ホーム阿南荘",
    "kana": "トクベツヨウゴロウジンホームアナンソウ",
    "address": "長野県下伊那郡阿南町北條４１３",
    "lat": 35.3439385,
    "lng": 137.8376304,
    "tel": "0260-22-2171",
    "url": "http://business3.plala.or.jp/anansou1/index.html",
    "pref": "長野県",
    "city": "阿南町",
    "category": "tokuyou",
    "serviceType": "介護老人福祉施設",
    "capacity": 0,
    "openDays": [],
    "openDaysNote": ""
  },
  {
    "id": "2072500198",
    "name": "特別養護老人ホーム赤石寮",
    "kana": "トクベツヨウゴロウジンホームアカイシリョウ",
    "address": "長野県下伊那郡阿南町新野28-4",
    "lat": 35.2722532,
    "lng": 137.7612181,
    "tel": "0260-24-2316",
    "url": "http://kayagakikai-anan.jp/",
    "pref": "長野県",
    "city": "阿南町",
    "category": "tokuyou",
    "serviceType": "介護老人福祉施設",
    "capacity": 65,
    "openDays": [],
    "openDaysNote": ""
  },
  {
    "id": "2074000577",
    "name": "ユニット型指定介護老人福祉施設孝明豊科舘",
    "kana": "ユニットガタシテイカイゴロウジンフクシシセツコウメイトヨシナカン",
    "address": "長野県安曇野市豊科南穂高5771番地",
    "lat": 36.3344188077487,
    "lng": 137.90907894418,
    "tel": "0261-71-2236",
    "url": "http://www.koumei.or.jp/index.html",
    "pref": "長野県",
    "city": "安曇野市",
    "category": "tokuyou",
    "serviceType": "介護老人福祉施設",
    "capacity": 0,
    "openDays": [],
    "openDaysNote": ""
  },
  {
    "id": "2072800747",
    "name": "介護老人福祉施設たきべ野",
    "kana": "カイゴロウジンフクシシセツタキベノ",
    "address": "長野県安曇野市豊科高家5090番地1",
    "lat": 36.2575448,
    "lng": 137.9189351,
    "tel": "0263-71-4165",
    "url": "http://takibeno.or.jp/",
    "pref": "長野県",
    "city": "安曇野市",
    "category": "tokuyou",
    "serviceType": "介護老人福祉施設",
    "capacity": 80,
    "openDays": [],
    "openDaysNote": ""
  },
  {
    "id": "2072700228",
    "name": "孝明舘",
    "kana": "コウメイカン",
    "address": "長野県安曇野市明科七貴３６８１番地",
    "lat": 36.3642992,
    "lng": 137.9036971,
    "tel": "0263-62-5880",
    "url": "http://www.koumei.or.jp",
    "pref": "長野県",
    "city": "安曇野市",
    "category": "tokuyou",
    "serviceType": "介護老人福祉施設",
    "capacity": 64,
    "openDays": [],
    "openDaysNote": ""
  },
  {
    "id": "2074000569",
    "name": "指定介護老人福祉施設孝明豊科舘",
    "kana": "シテイカイゴロウジンフクシシセツコウメイトヨシナカン",
    "address": "長野県安曇野市豊科南穂高5771番地",
    "lat": 36.3340947,
    "lng": 137.9090253,
    "tel": "0263-71-2236",
    "url": "http://www.koumei.or.jp/index.html",
    "pref": "長野県",
    "city": "安曇野市",
    "category": "tokuyou",
    "serviceType": "介護老人福祉施設",
    "capacity": 0,
    "openDays": [],
    "openDaysNote": ""
  },
  {
    "id": "2072800234",
    "name": "小倉メナー",
    "kana": "オグラメナー",
    "address": "長野県安曇野市三郷小倉6079番1",
    "lat": 36.2533634,
    "lng": 137.858012,
    "tel": "0263-77-8800",
    "url": "http://www.nanatsunokane.or.jp",
    "pref": "長野県",
    "city": "安曇野市",
    "category": "tokuyou",
    "serviceType": "介護老人福祉施設",
    "capacity": 90,
    "openDays": [],
    "openDaysNote": ""
  },
  {
    "id": "2072800242",
    "name": "常念荘",
    "kana": "ジョウネンソウ",
    "address": "長野県安曇野市堀金烏川２０４８－２",
    "lat": 36.2998338,
    "lng": 137.8752003,
    "tel": "0263-72-3611",
    "url": "http://www.azuminofukushi.com",
    "pref": "長野県",
    "city": "安曇野市",
    "category": "tokuyou",
    "serviceType": "介護老人福祉施設",
    "capacity": 0,
    "openDays": [],
    "openDaysNote": ""
  },
  {
    "id": "2074001195",
    "name": "特別養護老人ホーム　ライフ穂高",
    "kana": "トクベツヨウゴロウジンホーム　ライフホタカ",
    "address": "長野県安曇野市穂高6571",
    "lat": 36.3368308,
    "lng": 137.8773175,
    "tel": "0263-87-7618",
    "url": "https://koushu-nagano.jp/",
    "pref": "長野県",
    "city": "安曇野市",
    "category": "tokuyou",
    "serviceType": "介護老人福祉施設",
    "capacity": 0,
    "openDays": [],
    "openDaysNote": ""
  },
  {
    "id": "2072800598",
    "name": "特別養護老人ホームあずみの里",
    "kana": "トクベツヨウゴロウジンホームアズミノサト",
    "address": "長野県安曇野市豊科高家5285-11",
    "lat": 36.2474265,
    "lng": 137.9161078,
    "tel": "0263-71-2300",
    "url": "http://www18.ocn.ne.jp/~azumino1/kyouritsufukushikai/index.html",
    "pref": "長野県",
    "city": "安曇野市",
    "category": "tokuyou",
    "serviceType": "介護老人福祉施設",
    "capacity": 0,
    "openDays": [],
    "openDaysNote": ""
  },
  {
    "id": "2072800226",
    "name": "特別養護老人ホーム豊岳荘",
    "kana": "トクベツヨウゴロウジンホームホウガクソウ",
    "address": "長野県安曇野市豊科南穂高817番地1",
    "lat": 36.3059926,
    "lng": 137.9117062,
    "tel": "0263-72-2023",
    "url": "http://azuminofukushi.jp/publics/index/152/",
    "pref": "長野県",
    "city": "安曇野市",
    "category": "tokuyou",
    "serviceType": "介護老人福祉施設",
    "capacity": 0,
    "openDays": [],
    "openDaysNote": ""
  },
  {
    "id": "2070900606",
    "name": "ユニット型特別養護老人ホームみさやま",
    "kana": "ユニットガタトクベツヨウゴロウジンホームミサヤマ",
    "address": "長野県伊那市西箕輪３９００－２５１",
    "lat": 35.8772562201028,
    "lng": 137.931297409756,
    "tel": "０２６５－７２－６５５６",
    "url": "http://www.kamikuku.jp/",
    "pref": "長野県",
    "city": "伊那市",
    "category": "tokuyou",
    "serviceType": "介護老人福祉施設",
    "capacity": 120,
    "openDays": [],
    "openDaysNote": ""
  },
  {
    "id": "2072400639",
    "name": "特別養護老人ホームさくらの里",
    "kana": "トクベツヨウゴロウジンホームサクラノサト",
    "address": "長野県伊那市高遠町勝間220番地",
    "lat": 35.8255336516523,
    "lng": 138.06632956008,
    "tel": "0265-94-1181",
    "url": "https://sakura-v.or.jp/",
    "pref": "長野県",
    "city": "伊那市",
    "category": "tokuyou",
    "serviceType": "介護老人福祉施設",
    "capacity": 91,
    "openDays": [],
    "openDaysNote": ""
  },
  {
    "id": "2072400746",
    "name": "特別養護老人ホームサンハート美和",
    "kana": "トクベツヨウゴロウジンホームサンハートミワ",
    "address": "長野県伊那市長谷非持484番地1",
    "lat": 35.8215912,
    "lng": 138.0965297,
    "tel": "0265-98-2012",
    "url": "http://kamifuku.jp/",
    "pref": "長野県",
    "city": "伊那市",
    "category": "tokuyou",
    "serviceType": "介護老人福祉施設",
    "capacity": 0,
    "openDays": [],
    "openDaysNote": ""
  },
  {
    "id": "2070900598",
    "name": "特別養護老人ホームみさやま",
    "kana": "トクベツヨウゴロウジンホームミサヤマ",
    "address": "長野県伊那市西箕輪3900-251",
    "lat": 35.8772518734524,
    "lng": 137.931313503011,
    "tel": "0265-72-6556",
    "url": "http://www.kamifuku.jp/",
    "pref": "長野県",
    "city": "伊那市",
    "category": "tokuyou",
    "serviceType": "介護老人福祉施設",
    "capacity": 40,
    "openDays": [],
    "openDaysNote": ""
  },
  {
    "id": "2070900655",
    "name": "特別養護老人ホームみすず四恩の家",
    "kana": "トクベツヨウゴロウジンホームミスズシオンノイエ",
    "address": "長野県伊那市美篶7164番地2",
    "lat": 35.8428216,
    "lng": 138.0105385,
    "tel": "0265-72-1016",
    "url": "http://misuzusionnoie.com/",
    "pref": "長野県",
    "city": "伊那市",
    "category": "tokuyou",
    "serviceType": "介護老人福祉施設",
    "capacity": 0,
    "openDays": [],
    "openDaysNote": ""
  },
  {
    "id": "2073500130",
    "name": "特別養護老人ホーム　フランセーズ悠さかえひがし",
    "kana": "トクベツヨウゴロウジンホーム　フランセーズユウサカエヒガシ",
    "address": "長野県下水内郡栄村豊栄2140",
    "lat": 36.9854521729564,
    "lng": 138.52888362209,
    "tel": "0269-87-1150",
    "url": "http://hakuyukai.com/sakae/index.html",
    "pref": "長野県",
    "city": "栄村",
    "category": "tokuyou",
    "serviceType": "介護老人福祉施設",
    "capacity": 0,
    "openDays": [],
    "openDaysNote": ""
  },
  {
    "id": "2073500106",
    "name": "特別養護老人ホームフランセーズ悠さかえ",
    "kana": "トクベツヨウゴロウジンホームフランセーズユウサカエ",
    "address": "長野県下水内郡栄村大字豊栄２１４０番地",
    "lat": 36.9841221,
    "lng": 138.5286679,
    "tel": "0269-87-1150",
    "url": "http://hakuyukai.com/sakae/index.html",
    "pref": "長野県",
    "city": "栄村",
    "category": "tokuyou",
    "serviceType": "介護老人福祉施設",
    "capacity": 0,
    "openDays": [],
    "openDaysNote": ""
  },
  {
    "id": "2071500884",
    "name": "ユニット型特別養護老人ホーム　グレイスフル塩尻",
    "kana": "ユニットガタトクベツヨウゴロウジンホーム　グレイスフルシオジリ",
    "address": "長野県塩尻市大門八番町9-10",
    "lat": 36.1135197,
    "lng": 137.9483162,
    "tel": "0263-51-6211",
    "url": "http://www.e-sunlife.or.jp/",
    "pref": "長野県",
    "city": "塩尻市",
    "category": "tokuyou",
    "serviceType": "介護老人福祉施設",
    "capacity": 90,
    "openDays": [],
    "openDaysNote": ""
  },
  {
    "id": "2071500132",
    "name": "桔梗荘",
    "kana": "キキョウソウ",
    "address": "長野県塩尻市大字広丘郷原１６８３番地１",
    "lat": 36.1265152,
    "lng": 137.9443686,
    "tel": "0263-52-2376",
    "url": "https://aoihato.com",
    "pref": "長野県",
    "city": "塩尻市",
    "category": "tokuyou",
    "serviceType": "介護老人福祉施設",
    "capacity": 0,
    "openDays": [],
    "openDaysNote": ""
  },
  {
    "id": "2071500603",
    "name": "特別養護老人ホームえんれい",
    "kana": "トクベツヨウゴロウジンホームエンレイ",
    "address": "長野県塩尻市大字片丘６７７８番地１",
    "lat": 36.1525105,
    "lng": 137.9982071,
    "tel": "0263-54-7351",
    "url": "http://www.enrei.or.jp/",
    "pref": "長野県",
    "city": "塩尻市",
    "category": "tokuyou",
    "serviceType": "介護老人福祉施設",
    "capacity": 80,
    "openDays": [],
    "openDaysNote": ""
  },
  {
    "id": "2071500892",
    "name": "特別養護老人ホームグレイスフル塩尻",
    "kana": "トクベツヨウゴロウジンホームグレイスフルシオジリ",
    "address": "長野県塩尻市大門八番町9-10",
    "lat": 36.1132466796026,
    "lng": 137.948536141139,
    "tel": "0263-51-6211",
    "url": "https://sun-vision.or.jp/",
    "pref": "長野県",
    "city": "塩尻市",
    "category": "tokuyou",
    "serviceType": "介護老人福祉施設",
    "capacity": 50,
    "openDays": [],
    "openDaysNote": ""
  },
  {
    "id": "2071500991",
    "name": "特別養護老人ホームさじきの里",
    "kana": "トクベツヨウゴロウジンホームサジキノサト",
    "address": "長野県塩尻市桟敷525",
    "lat": 36.1145943,
    "lng": 137.9675981,
    "tel": "0263-88-8081",
    "url": "http://www.kyouritsu-fukushikai.com/facility/shiojiri/index5.php",
    "pref": "長野県",
    "city": "塩尻市",
    "category": "tokuyou",
    "serviceType": "介護老人福祉施設",
    "capacity": 0,
    "openDays": [],
    "openDaysNote": ""
  },
  {
    "id": "2070400748",
    "name": "介護老人福祉施設　松風",
    "kana": "カイゴロウジンフクシシセツ　ショウフウ",
    "address": "長野県岡谷市内山4769-548",
    "lat": 36.0742085,
    "lng": 138.0289993,
    "tel": "0266-21-2200",
    "url": "www.heisei-kai.jp",
    "pref": "長野県",
    "city": "岡谷市",
    "category": "tokuyou",
    "serviceType": "介護老人福祉施設",
    "capacity": 0,
    "openDays": [],
    "openDaysNote": ""
  },
  {
    "id": "2070400219",
    "name": "指定介護老人福祉施設さわらび",
    "kana": "シテイカイゴロウジンフクシシセツサワラビ",
    "address": "長野県岡谷市西山１７２３-１０１",
    "lat": 36.0796903760914,
    "lng": 138.034963779346,
    "tel": "0266-21-1180",
    "url": "http://www.heisei-kai.jp/sisetu/sawarabi/",
    "pref": "長野県",
    "city": "岡谷市",
    "category": "tokuyou",
    "serviceType": "介護老人福祉施設",
    "capacity": 0,
    "openDays": [],
    "openDaysNote": ""
  },
  {
    "id": "2070400078",
    "name": "特別養護老人ホーム洗心荘",
    "kana": "トクベツヨウゴロウジンホームセンシンソウ",
    "address": "長野県岡谷市長地出早二丁目6番33号",
    "lat": 36.092876591438,
    "lng": 138.052293696295,
    "tel": "0266-28-6537",
    "url": "http://yurinkai.or.jp",
    "pref": "長野県",
    "city": "岡谷市",
    "category": "tokuyou",
    "serviceType": "介護老人福祉施設",
    "capacity": 0,
    "openDays": [],
    "openDaysNote": ""
  },
  {
    "id": "2072300151",
    "name": "ハイム天白",
    "kana": "ハイムテンパク",
    "address": "長野県諏訪郡下諏訪町５５７番地２（東町中１）",
    "lat": 36.0812731,
    "lng": 138.0853922,
    "tel": "0266-28-8160",
    "url": "",
    "pref": "長野県",
    "city": "下諏訪町",
    "category": "tokuyou",
    "serviceType": "介護老人福祉施設",
    "capacity": 0,
    "openDays": [],
    "openDaysNote": ""
  },
  {
    "id": "2072300169",
    "name": "特別養護老人ホームグレイスフル下諏訪",
    "kana": "トクベツヨウゴロウジンホームグレイスフルシモスワ",
    "address": "長野県諏訪郡下諏訪町高木９３７５－１",
    "lat": 36.0672207,
    "lng": 138.1067947,
    "tel": "0266-26-8851",
    "url": "http://www.e-sunlife.or.jp/service/",
    "pref": "長野県",
    "city": "下諏訪町",
    "category": "tokuyou",
    "serviceType": "介護老人福祉施設",
    "capacity": 0,
    "openDays": [],
    "openDaysNote": ""
  },
  {
    "id": "2072500164",
    "name": "第二光の園",
    "kana": "ダイニヒカリノソノ",
    "address": "長野県下伊那郡下條村睦沢7098番地8",
    "lat": 35.3938134971777,
    "lng": 137.753272949231,
    "tel": "0260-27-3566",
    "url": "https://hikari-sono.com",
    "pref": "長野県",
    "city": "下條村",
    "category": "tokuyou",
    "serviceType": "介護老人福祉施設",
    "capacity": 60,
    "openDays": [],
    "openDaysNote": ""
  },
  {
    "id": "2071400051",
    "name": "茅野市特別養護老人ホームふれあいの里",
    "kana": "チノシトクベツヨウゴロウジンホームフレアイノサト",
    "address": "茅野市玉川４３００番地９",
    "lat": 35.990419,
    "lng": 138.1776361,
    "tel": "0266-73-8880",
    "url": "http://www.city.chino.lg.jp/ctg/14000010/14000010.html",
    "pref": "長野県",
    "city": "茅野市",
    "category": "tokuyou",
    "serviceType": "介護老人福祉施設",
    "capacity": null,
    "openDays": [],
    "openDaysNote": ""
  },
  {
    "id": "2071400747",
    "name": "諏訪中央病院組合介護老人福祉施設　ふれあいの里",
    "kana": "スワチュウオウビョウインクミアイカイゴロウジンフクシシセツフレアイノサト",
    "address": "長野県茅野市玉川４３００番地9",
    "lat": 35.9904606,
    "lng": 138.1776527,
    "tel": "0266-73-8880",
    "url": "",
    "pref": "長野県",
    "city": "茅野市",
    "category": "tokuyou",
    "serviceType": "介護老人福祉施設",
    "capacity": 0,
    "openDays": [],
    "openDaysNote": ""
  },
  {
    "id": "2071400606",
    "name": "特別養護老人ホームりんどう苑",
    "kana": "トクベツヨウゴロウジンホームリンドウエン",
    "address": "長野県茅野市豊平1907番地１",
    "lat": 36.0182773,
    "lng": 138.1977469,
    "tel": "0266-73-1081",
    "url": "http://taishikai.or.jp",
    "pref": "長野県",
    "city": "茅野市",
    "category": "tokuyou",
    "serviceType": "介護老人福祉施設",
    "capacity": 80,
    "openDays": [],
    "openDaysNote": ""
  },
  {
    "id": "2071400473",
    "name": "特別養護老人ホーム白駒の森",
    "kana": "トクベツヨウゴロウジンホームシラコマノモリ",
    "address": "長野県茅野市ちの3000-1",
    "lat": 35.9921235,
    "lng": 138.151455,
    "tel": "0266-82-7500",
    "url": "http://www.lcv.ne.jp/~komakusa/shirakoma01.html",
    "pref": "長野県",
    "city": "茅野市",
    "category": "tokuyou",
    "serviceType": "介護老人福祉施設",
    "capacity": 72,
    "openDays": [],
    "openDaysNote": ""
  },
  {
    "id": "2072501212",
    "name": "特別養護老人ホーム喬木荘",
    "kana": "トクベツヨウゴロウジンホームタカギソウ",
    "address": "下伊那郡喬木村３２８６番地１",
    "lat": 35.5202497,
    "lng": 137.8840369,
    "tel": "0265-33-4433",
    "url": "",
    "pref": "長野県",
    "city": "喬木村",
    "category": "tokuyou",
    "serviceType": "介護老人福祉施設",
    "capacity": null,
    "openDays": [],
    "openDaysNote": ""
  },
  {
    "id": "2072501444",
    "name": "特別養護老人ホーム喬木荘",
    "kana": "トクベツヨウゴロウジンホームタカギソウ",
    "address": "長野県下伊那郡喬木村阿島3286番地１",
    "lat": 35.5136822,
    "lng": 137.8736999,
    "tel": "０２６５－３３－４４３３",
    "url": "",
    "pref": "長野県",
    "city": "喬木村",
    "category": "tokuyou",
    "serviceType": "介護老人福祉施設",
    "capacity": 0,
    "openDays": [],
    "openDaysNote": ""
  },
  {
    "id": "2071000208",
    "name": "特別養護老人ホームエーデルこまがね",
    "kana": "トクベツヨウゴロウジンホームエーデルコマガネ",
    "address": "長野県駒ヶ根市赤穂14421番地1",
    "lat": 35.7181107,
    "lng": 137.9507004,
    "tel": "0265-82-8821",
    "url": "https://care-net.biz/20/edel-komagane/",
    "pref": "長野県",
    "city": "駒ヶ根市",
    "category": "tokuyou",
    "serviceType": "介護老人福祉施設",
    "capacity": 50,
    "openDays": [],
    "openDaysNote": ""
  },
  {
    "id": "2071000083",
    "name": "特別養護老人ホーム観成園",
    "kana": "トクベツヨウゴロウジンホームカンセイエン",
    "address": "長野県駒ヶ根市赤穂３２１４－１",
    "lat": 35.7356207,
    "lng": 137.9195305,
    "tel": "0265-83-1611",
    "url": "http://inanfukushi.or.jp",
    "pref": "長野県",
    "city": "駒ヶ根市",
    "category": "tokuyou",
    "serviceType": "介護老人福祉施設",
    "capacity": 0,
    "openDays": [],
    "openDaysNote": ""
  },
  {
    "id": "2071000067",
    "name": "特別養護老人ホーム千寿園",
    "kana": "トクベツヨウゴロウジンホームセンジュエン",
    "address": "長野県駒ヶ根市赤穂８１８０番地１２",
    "lat": 35.7130323,
    "lng": 137.9173009,
    "tel": "0265-83-7036",
    "url": "http://kamifuku.jp/publics/index/41",
    "pref": "長野県",
    "city": "駒ヶ根市",
    "category": "tokuyou",
    "serviceType": "介護老人福祉施設",
    "capacity": 0,
    "openDays": [],
    "openDaysNote": ""
  },
  {
    "id": "2072100395",
    "name": "かるいざわ敬老園",
    "kana": "カルイザワケイロウエン",
    "address": "長野県北佐久郡軽井沢町追分１４３６",
    "lat": 36.3432949,
    "lng": 138.550457,
    "tel": "0267-44-1165",
    "url": "http://www.keiroen.or.jp/",
    "pref": "長野県",
    "city": "軽井沢町",
    "category": "tokuyou",
    "serviceType": "介護老人福祉施設",
    "capacity": null,
    "openDays": [],
    "openDaysNote": ""
  },
  {
    "id": "2072300177",
    "name": "アイリス",
    "kana": "アイリス",
    "address": "長野県諏訪郡原村10377-2",
    "lat": 35.9587755974868,
    "lng": 138.188601046256,
    "tel": "0266-72-8300",
    "url": "http://www.iriss.or.jp",
    "pref": "長野県",
    "city": "原村",
    "category": "tokuyou",
    "serviceType": "介護老人福祉施設",
    "capacity": 0,
    "openDays": [],
    "openDaysNote": ""
  },
  {
    "id": "2072100080",
    "name": "きらく苑",
    "kana": "キラクエン",
    "address": "長野県北佐久郡御代田町御代田４１０８－１３７４",
    "lat": 36.3285328902191,
    "lng": 138.52625836071,
    "tel": "0267-32-2525",
    "url": "http://kirakuen.org/",
    "pref": "長野県",
    "city": "御代田町",
    "category": "tokuyou",
    "serviceType": "介護老人福祉施設",
    "capacity": 0,
    "openDays": [],
    "openDaysNote": ""
  },
  {
    "id": "2072100072",
    "name": "佐久広域老人ホーム豊昇園",
    "kana": "サクコウイキロウジンホームホウショウエン",
    "address": "長野県北佐久郡御代田町大字豊昇１８００番地８",
    "lat": 36.3023614,
    "lng": 138.5333877,
    "tel": "0267-32-6367",
    "url": "ｈｏｓｙｏｅｎ＠ａｒｅａｓａｋｕ．ｏｒ．ｊｐ",
    "pref": "長野県",
    "city": "御代田町",
    "category": "tokuyou",
    "serviceType": "介護老人福祉施設",
    "capacity": 0,
    "openDays": [],
    "openDaysNote": ""
  },
  {
    "id": "2073200152",
    "name": "特別養護老人ホーム高山おんせん朝日ホーム",
    "kana": "トクベツヨウゴロウジンホームタカヤマオンセンアサヒホーム",
    "address": "長野県上高井郡高山村大字牧１０５番地",
    "lat": 36.6800038,
    "lng": 138.3754293,
    "tel": "026-242-1055",
    "url": "http://www.dia.janis.or.jp/~asahi-t/",
    "pref": "長野県",
    "city": "高山村",
    "category": "tokuyou",
    "serviceType": "介護老人福祉施設",
    "capacity": 0,
    "openDays": [],
    "openDaysNote": ""
  },
  {
    "id": "2072500792",
    "name": "特別養護老人ホームあさぎりの郷",
    "kana": "トクベツヨウゴロウジンホームアサギリノサト",
    "address": "下伊那郡高森町吉田481-1",
    "lat": 35.5517637,
    "lng": 137.8876976,
    "tel": "0265-34-3630",
    "url": "http://www.ja-naganokai.or.jp/facilities/asagiri/",
    "pref": "長野県",
    "city": "高森町",
    "category": "tokuyou",
    "serviceType": "介護老人福祉施設",
    "capacity": 64,
    "openDays": [],
    "openDaysNote": ""
  },
  {
    "id": "2072501667",
    "name": "特別養護老人ホームあさぎりの郷",
    "kana": "トクベツヨウゴロウジンホーム　アサギリノサト",
    "address": "長野県下伊那郡高森町吉田481-1",
    "lat": 35.5518233,
    "lng": 137.887899,
    "tel": "0265-34-3630",
    "url": "http：//www.ja-naganokai.or.jp",
    "pref": "長野県",
    "city": "高森町",
    "category": "tokuyou",
    "serviceType": "介護老人福祉施設",
    "capacity": 0,
    "openDays": [],
    "openDaysNote": ""
  },
  {
    "id": "2071701177",
    "name": "ユニット型特別養護老人ホーム佐久平愛の郷",
    "kana": "ユニットガタトクベツヨウゴロウジンホームサクダイラメグミノサト",
    "address": "長野県佐久市平賀741",
    "lat": 36.2259624,
    "lng": 138.4923993,
    "tel": "0267-64-5331",
    "url": "http://www.skdf.jp/",
    "pref": "長野県",
    "city": "佐久市",
    "category": "tokuyou",
    "serviceType": "介護老人福祉施設",
    "capacity": 0,
    "openDays": [],
    "openDaysNote": ""
  },
  {
    "id": "2072100106",
    "name": "佐久広域老人ホーム塩名田苑",
    "kana": "サクコウイキロウジンホームシオナダエン",
    "address": "長野県佐久市塩名田５４２番地１",
    "lat": 36.2700564,
    "lng": 138.4207961,
    "tel": "0267-58-0223",
    "url": "http://www.areasaku.or.jp/fukushi/index.html",
    "pref": "長野県",
    "city": "佐久市",
    "category": "tokuyou",
    "serviceType": "介護老人福祉施設",
    "capacity": 0,
    "openDays": [],
    "openDaysNote": ""
  },
  {
    "id": "2071700872",
    "name": "佐久市特別養護老人ホームシルバーランドきしの",
    "kana": "サクシトクベツヨウゴロウジンホームシルバーランドキシノ",
    "address": "長野県佐久市根岸１１３番地１",
    "lat": 36.2394212,
    "lng": 138.428013,
    "tel": "0267-64-6635",
    "url": "http://naganosaiseikai.jp/",
    "pref": "長野県",
    "city": "佐久市",
    "category": "tokuyou",
    "serviceType": "介護老人福祉施設",
    "capacity": 100,
    "openDays": [],
    "openDaysNote": ""
  },
  {
    "id": "2071700088",
    "name": "佐久市特別養護老人ホームシルバーランドみつい",
    "kana": "サクシトクベツヨウゴロウジンホームシルバーランドミツイ",
    "address": "長野県佐久市新子田８６６番地",
    "lat": 36.2579289,
    "lng": 138.5052861,
    "tel": "0267-66-6800",
    "url": "https://www.naganosaiseikai.jp",
    "pref": "長野県",
    "city": "佐久市",
    "category": "tokuyou",
    "serviceType": "介護老人福祉施設",
    "capacity": 80,
    "openDays": [],
    "openDaysNote": ""
  },
  {
    "id": "2071701540",
    "name": "佐久福寿園",
    "kana": "サクフクジュエン",
    "address": "長野県佐久市岩村田４２１３番地",
    "lat": 36.2738968,
    "lng": 138.4867013,
    "tel": "0267-68-3055",
    "url": "http://www.janis.or.jp/users/fukujuen/index.htm",
    "pref": "長野県",
    "city": "佐久市",
    "category": "tokuyou",
    "serviceType": "介護老人福祉施設",
    "capacity": 0,
    "openDays": [],
    "openDaysNote": ""
  },
  {
    "id": "2071701714",
    "name": "特別養護老人ホーム　うすだコスモ苑",
    "kana": "トクベツヨウゴロウジンホーム　ウスダコスモエン",
    "address": "長野県佐久市臼田86番地",
    "lat": 36.1958433538891,
    "lng": 138.478793643517,
    "tel": "０２６７－８２－２２１４",
    "url": "http://www.ja-naganokai.or.jp",
    "pref": "長野県",
    "city": "佐久市",
    "category": "tokuyou",
    "serviceType": "介護老人福祉施設",
    "capacity": null,
    "openDays": [],
    "openDaysNote": ""
  },
  {
    "id": "2071701615",
    "name": "特別養護老人ホーム　うすだコスモ苑",
    "kana": "トクベツヨウゴロウジンホーム　ウスダコスモエン",
    "address": "長野県佐久市臼田86番地",
    "lat": 36.1957264680402,
    "lng": 138.478884838623,
    "tel": "０２６７－８２－２２１４",
    "url": "http;//www.ja-naganokai.or.jp",
    "pref": "長野県",
    "city": "佐久市",
    "category": "tokuyou",
    "serviceType": "介護老人福祉施設",
    "capacity": null,
    "openDays": [],
    "openDaysNote": ""
  },
  {
    "id": "2071700864",
    "name": "特別養護老人ホームさくら苑",
    "kana": "トクベツヨウゴロウジンホームサクラエン",
    "address": "長野県佐久市下小田切50番地１",
    "lat": 36.1908911,
    "lng": 138.4767601,
    "tel": "0267-82-8585",
    "url": "http://www.home-sakuraen.net",
    "pref": "長野県",
    "city": "佐久市",
    "category": "tokuyou",
    "serviceType": "介護老人福祉施設",
    "capacity": 50,
    "openDays": [],
    "openDaysNote": ""
  },
  {
    "id": "2072100437",
    "name": "特別養護老人ホーム結いの家",
    "kana": "トクベツヨウゴロウジンホームユイノイエ",
    "address": "長野県佐久市望月326番地4",
    "lat": 36.2653439,
    "lng": 138.3572085,
    "tel": "0267-54-8176",
    "url": "http://www.yuugen-fukushikai.com",
    "pref": "長野県",
    "city": "佐久市",
    "category": "tokuyou",
    "serviceType": "介護老人福祉施設",
    "capacity": 50,
    "openDays": [],
    "openDaysNote": ""
  },
  {
    "id": "2071701169",
    "name": "特別養護老人ホーム佐久平愛の郷",
    "kana": "トクベツヨウゴロウジンホームサクダイラメグミノサト",
    "address": "長野県佐久市平賀741",
    "lat": 36.2259624,
    "lng": 138.4923993,
    "tel": "0267-64-5331",
    "url": "http://www.skdf.jp/",
    "pref": "長野県",
    "city": "佐久市",
    "category": "tokuyou",
    "serviceType": "介護老人福祉施設",
    "capacity": 0,
    "openDays": [],
    "openDaysNote": ""
  },
  {
    "id": "2072000686",
    "name": "ユニット型特別養護老人ホーム　佐久穂愛の郷",
    "kana": "ユニットガタトクベツヨウゴロウジホーム　サクホメグミノサト",
    "address": "長野県南佐久郡佐久穂町高野町303-1",
    "lat": 36.1609812565318,
    "lng": 138.478353884456,
    "tel": "0267-81-2001",
    "url": "http://www.skdf.jp",
    "pref": "長野県",
    "city": "佐久穂町",
    "category": "tokuyou",
    "serviceType": "介護老人福祉施設",
    "capacity": 0,
    "openDays": [],
    "openDaysNote": ""
  },
  {
    "id": "2072000694",
    "name": "特別養護老人ホーム　佐久穂愛の郷",
    "kana": "トクベツヨウゴロウジンホーム　サクホメグミノサト",
    "address": "長野県南佐久郡佐久穂町高野町303－1",
    "lat": 36.1607820289409,
    "lng": 138.478547003505,
    "tel": "0267－81－2001",
    "url": "http://www.ｓkdf.jp",
    "pref": "長野県",
    "city": "佐久穂町",
    "category": "tokuyou",
    "serviceType": "介護老人福祉施設",
    "capacity": 0,
    "openDays": [],
    "openDaysNote": ""
  },
  {
    "id": "2073100014",
    "name": "特別養護老人ホームさかき美山園",
    "kana": "トクベツヨウゴロウジンホームサカキミヤマエン",
    "address": "長野県埴科郡坂城町大字南条２７２５番地２",
    "lat": 36.4372679,
    "lng": 138.2037165,
    "tel": "0268-82-8182",
    "url": "www.sakakifukusikai.or.jp",
    "pref": "長野県",
    "city": "坂城町",
    "category": "tokuyou",
    "serviceType": "介護老人福祉施設",
    "capacity": 0,
    "openDays": [],
    "openDaysNote": ""
  },
  {
    "id": "2073100162",
    "name": "特別養護老人ホームさかき美里園",
    "kana": "トクベツヨウゴロウジンホームサカキミサトエン",
    "address": "長野県埴科郡坂城町坂城9086番地1",
    "lat": 36.4531351,
    "lng": 138.1911198,
    "tel": "0268-82-0294",
    "url": "http://www.sakakifukushikai.or.jp",
    "pref": "長野県",
    "city": "坂城町",
    "category": "tokuyou",
    "serviceType": "介護老人福祉施設",
    "capacity": 0,
    "openDays": [],
    "openDaysNote": ""
  },
  {
    "id": "2073300069",
    "name": "特別養護老人ホームいで湯の里",
    "kana": "トクベツヨウゴロウジンホームイデユノサト",
    "address": "長野県下高井郡山ノ内町大字佐野７９９－２",
    "lat": 36.7303796,
    "lng": 138.4051251,
    "tel": "0269-33-5565",
    "url": "https://www.hokusin.or.jp/sisetsu/ideyunosato/",
    "pref": "長野県",
    "city": "山ノ内町",
    "category": "tokuyou",
    "serviceType": "介護老人福祉施設",
    "capacity": 0,
    "openDays": [],
    "openDaysNote": ""
  },
  {
    "id": "2072700269",
    "name": "ピアやまがた",
    "kana": "ピアヤマガタ",
    "address": "長野県東筑摩郡山形村４６９９番地１",
    "lat": 36.1573772,
    "lng": 137.8917421,
    "tel": "0263-98-3888",
    "url": "http://www.aoihato.com",
    "pref": "長野県",
    "city": "山形村",
    "category": "tokuyou",
    "serviceType": "介護老人福祉施設",
    "capacity": null,
    "openDays": [],
    "openDaysNote": ""
  },
  {
    "id": "2072000736",
    "name": "特別養護老人ホームこうみの里",
    "kana": "トクベツヨウゴロウジンホームコウミノサト",
    "address": "長野県南佐久郡小海町小海3130番地4",
    "lat": 36.0730750550533,
    "lng": 138.482604028199,
    "tel": "0267-92-4561",
    "url": "http://www.ja-naganokai.or.jp/",
    "pref": "長野県",
    "city": "小海町",
    "category": "tokuyou",
    "serviceType": "介護老人福祉施設",
    "capacity": null,
    "openDays": [],
    "openDaysNote": ""
  },
  {
    "id": "2072000728",
    "name": "特別養護老人ホームこうみの里",
    "kana": "トクベツヨウゴロウジンホームコウミノサト",
    "address": "長野県南佐久郡小海町小海3130番地4",
    "lat": 36.0733864,
    "lng": 138.4819731,
    "tel": "0267-92-4561",
    "url": "http://www.ja-naganokai.or.jp/",
    "pref": "長野県",
    "city": "小海町",
    "category": "tokuyou",
    "serviceType": "介護老人福祉施設",
    "capacity": null,
    "openDays": [],
    "openDaysNote": ""
  },
  {
    "id": "2070800038",
    "name": "菊の園",
    "kana": "キクノソノ",
    "address": "長野県小諸市大字滝原２５７－６",
    "lat": 36.3505355,
    "lng": 138.4117945,
    "tel": "0267-24-5111",
    "url": "http://www.kikunosono.or.jp/",
    "pref": "長野県",
    "city": "小諸市",
    "category": "tokuyou",
    "serviceType": "介護老人福祉施設",
    "capacity": 98,
    "openDays": [],
    "openDaysNote": ""
  },
  {
    "id": "2070800111",
    "name": "特別養護老人ホーム愛灯園",
    "kana": "トクベツヨウゴロウジンホームアイトウエン",
    "address": "長野県小諸市己字高峯143-1",
    "lat": 36.3533472,
    "lng": 138.4483915,
    "tel": "0267-22-8177",
    "url": "http://www.aitouen.org",
    "pref": "長野県",
    "city": "小諸市",
    "category": "tokuyou",
    "serviceType": "介護老人福祉施設",
    "capacity": 66,
    "openDays": [],
    "openDaysNote": ""
  },
  {
    "id": "2073200053",
    "name": "小布施荘",
    "kana": "オブセソウ",
    "address": "長野県上高井郡小布施町大字小布施８５７－５",
    "lat": 36.6894403,
    "lng": 138.3173538,
    "tel": "026-247-4887",
    "url": "http://www.area-nagano.jp/",
    "pref": "長野県",
    "city": "小布施町",
    "category": "tokuyou",
    "serviceType": "介護老人福祉施設",
    "capacity": 0,
    "openDays": [],
    "openDaysNote": ""
  },
  {
    "id": "2072900786",
    "name": "特別養護老人ホーム　ライフ松川",
    "kana": "トクベツヨウゴロウジンホーム　ライフマツカワ",
    "address": "長野県北安曇郡松川村５６２２－３３",
    "lat": 36.404533994324,
    "lng": 137.865869250879,
    "tel": "０２６１－８５－２０１８",
    "url": "http://koushu-nagano.jp/",
    "pref": "長野県",
    "city": "松川村",
    "category": "tokuyou",
    "serviceType": "介護老人福祉施設",
    "capacity": 0,
    "openDays": [],
    "openDaysNote": ""
  },
  {
    "id": "2072501402",
    "name": "特別養護老人ホーム松川荘",
    "kana": "トクベツヨウゴロウジンホームマツカワソウ",
    "address": "長野県下伊那郡松川町元大島2965-1",
    "lat": 35.5972306,
    "lng": 137.9096669,
    "tel": "0265-36-5200",
    "url": "http://matsukawa-shakyo.net/survice.html#kaigo3",
    "pref": "長野県",
    "city": "松川町",
    "category": "tokuyou",
    "serviceType": "介護老人福祉施設",
    "capacity": 50,
    "openDays": [],
    "openDaysNote": ""
  },
  {
    "id": "2072700517",
    "name": "ちくまの",
    "kana": "チクマノ",
    "address": "長野県松本市波田６９１４番地1",
    "lat": 36.2005974,
    "lng": 137.8673609,
    "tel": "0263-92-8885",
    "url": "http://aoihato.com",
    "pref": "長野県",
    "city": "松本市",
    "category": "tokuyou",
    "serviceType": "介護老人福祉施設",
    "capacity": null,
    "openDays": [],
    "openDaysNote": ""
  },
  {
    "id": "2070200239",
    "name": "やまびこの里",
    "kana": "ヤマビコノサト",
    "address": "長野県松本市大字今井4820番地1",
    "lat": 36.1789466,
    "lng": 137.9114048,
    "tel": "0263-85-5711",
    "url": "http://aoihato.com/index.php?id=54",
    "pref": "長野県",
    "city": "松本市",
    "category": "tokuyou",
    "serviceType": "介護老人福祉施設",
    "capacity": 0,
    "openDays": [],
    "openDaysNote": ""
  },
  {
    "id": "2070200759",
    "name": "ゆめの里和田",
    "kana": "ユメノサトワダ",
    "address": "長野県松本市大字和田２２４０-３３",
    "lat": 36.2038908,
    "lng": 137.9158036,
    "tel": "0263-40-3377",
    "url": "https://www.yumenosato.info",
    "pref": "長野県",
    "city": "松本市",
    "category": "tokuyou",
    "serviceType": "介護老人福祉施設",
    "capacity": 80,
    "openDays": [],
    "openDaysNote": ""
  },
  {
    "id": "2072800531",
    "name": "介護老人福祉施設サルビア",
    "kana": "カイゴロウジンフクシシセツサルビア",
    "address": "長野県松本市梓川倭3234番地15",
    "lat": 36.2426825,
    "lng": 137.9123189,
    "tel": "0263-78-7288",
    "url": "http://azusanosato-salvia.jp/",
    "pref": "長野県",
    "city": "松本市",
    "category": "tokuyou",
    "serviceType": "介護老人福祉施設",
    "capacity": 100,
    "openDays": [],
    "openDaysNote": ""
  },
  {
    "id": "2072700244",
    "name": "四賀福寿荘",
    "kana": "シガフクジュソウ",
    "address": "長野県松本市刈谷原町６１３番地",
    "lat": 36.3179738,
    "lng": 137.9958955,
    "tel": "0263-64-2922",
    "url": "https://aoihato.com/",
    "pref": "長野県",
    "city": "松本市",
    "category": "tokuyou",
    "serviceType": "介護老人福祉施設",
    "capacity": 112,
    "openDays": [],
    "openDaysNote": ""
  },
  {
    "id": "2070200213",
    "name": "真寿園",
    "kana": "シンジュエン",
    "address": "長野県松本市寿中２－２０－１",
    "lat": 36.1788929,
    "lng": 137.9686756,
    "tel": "0263-86-6590",
    "url": "https://shinjyuen.net/",
    "pref": "長野県",
    "city": "松本市",
    "category": "tokuyou",
    "serviceType": "介護老人福祉施設",
    "capacity": 0,
    "openDays": [],
    "openDaysNote": ""
  },
  {
    "id": "2070204314",
    "name": "特別養護老人ホーム　ローズガーデン",
    "kana": "トクベツヨウゴロウジンホーム　ローズガーデン",
    "address": "長野県松本市中山6788番地38",
    "lat": 36.1705669838669,
    "lng": 138.006509782803,
    "tel": "0263-57-1801",
    "url": "http://www.rosegarden-s.com/",
    "pref": "長野県",
    "city": "松本市",
    "category": "tokuyou",
    "serviceType": "介護老人福祉施設",
    "capacity": 0,
    "openDays": [],
    "openDaysNote": ""
  },
  {
    "id": "2070200221",
    "name": "特別養護老人ホームうつくしの里",
    "kana": "トクベツヨウゴロウジンホームウツクシノサト",
    "address": "長野県松本市大字里山辺藤井９１０－１",
    "lat": 36.2430960847298,
    "lng": 138.004216745225,
    "tel": "0263-39-2277",
    "url": "http://www.ja-naganokai.or.jp/facilities/utsukushi/index.php",
    "pref": "長野県",
    "city": "松本市",
    "category": "tokuyou",
    "serviceType": "介護老人福祉施設",
    "capacity": 0,
    "openDays": [],
    "openDaysNote": ""
  },
  {
    "id": "2070201856",
    "name": "特別養護老人ホームぬくもりの里島立",
    "kana": "トクベツヨウゴロウジンホームヌクモリノサトシマダチ",
    "address": "長野県松本市島立２８２番地",
    "lat": 36.2310629,
    "lng": 137.9477785,
    "tel": "0263-48-5252",
    "url": "https://www.serita-fukushi.or.jp/facility/shimadachi",
    "pref": "長野県",
    "city": "松本市",
    "category": "tokuyou",
    "serviceType": "介護老人福祉施設",
    "capacity": 80,
    "openDays": [],
    "openDaysNote": ""
  },
  {
    "id": "2070200205",
    "name": "特別養護老人ホーム岡田の里",
    "kana": "トクベツヨウゴロウジンホームオカダノサト",
    "address": "長野県松本市大字岡田下岡田６７７番地1",
    "lat": 36.2631621,
    "lng": 137.9596647,
    "tel": "0263-33-3306",
    "url": "https://aoihato.com/",
    "pref": "長野県",
    "city": "松本市",
    "category": "tokuyou",
    "serviceType": "介護老人福祉施設",
    "capacity": 0,
    "openDays": [],
    "openDaysNote": ""
  },
  {
    "id": "2072600790",
    "name": "特別養護老人ホームグレイスフル上松",
    "kana": "トクベツヨウゴロウジンホームグレイスフルアゲマツ",
    "address": "長野県木曽郡上松町大字上松１８８－１",
    "lat": 35.7852943775935,
    "lng": 137.693001728836,
    "tel": "0264-52-1211",
    "url": "http://www.sun-vision.or.jp",
    "pref": "長野県",
    "city": "上松町",
    "category": "tokuyou",
    "serviceType": "介護老人福祉施設",
    "capacity": 30,
    "openDays": [],
    "openDaysNote": ""
  },
  {
    "id": "2072200195",
    "name": "アザレアンさなだ",
    "kana": "アザレアンサナダ",
    "address": "長野県上田市真田町長７１４１－１",
    "lat": 36.4433461,
    "lng": 138.3057677,
    "tel": "0268-72-2781",
    "url": "http://www.azarean.jp/",
    "pref": "長野県",
    "city": "上田市",
    "category": "tokuyou",
    "serviceType": "介護老人福祉施設",
    "capacity": 30,
    "openDays": [],
    "openDaysNote": ""
  },
  {
    "id": "2070300526",
    "name": "うえだ敬老園",
    "kana": "ウエダケイロウエン",
    "address": "長野県上田市中央3-14-5",
    "lat": 36.4019782,
    "lng": 138.2549801,
    "tel": "0268-28-1165",
    "url": "http://www.keiroen.or.jp/",
    "pref": "長野県",
    "city": "上田市",
    "category": "tokuyou",
    "serviceType": "介護老人福祉施設",
    "capacity": 0,
    "openDays": [],
    "openDaysNote": ""
  },
  {
    "id": "2072200039",
    "name": "しおがわ敬老園",
    "kana": "シオガワケイロウエン",
    "address": "長野県上田市塩川１００１番地",
    "lat": 36.3530189,
    "lng": 138.3098717,
    "tel": "0268-34-6511",
    "url": "http://www.keiroen.or.jp/",
    "pref": "長野県",
    "city": "上田市",
    "category": "tokuyou",
    "serviceType": "介護老人福祉施設",
    "capacity": 70,
    "openDays": [],
    "openDaysNote": ""
  },
  {
    "id": "2070301581",
    "name": "しものごう敬老園",
    "kana": "シモノゴウケイロウエン",
    "address": "長野県上田市下之郷463-1",
    "lat": 36.364029,
    "lng": 138.2166772,
    "tel": "0268-38-1165",
    "url": "http://www.keiroen.or.jp/",
    "pref": "長野県",
    "city": "上田市",
    "category": "tokuyou",
    "serviceType": "介護老人福祉施設",
    "capacity": 50,
    "openDays": [],
    "openDaysNote": ""
  },
  {
    "id": "2070301177",
    "name": "ベルポートまるこ東",
    "kana": "ベルポートマルコヒガシ",
    "address": "長野県上田市中丸子１８９７番地１",
    "lat": 36.3368559,
    "lng": 138.2691845,
    "tel": "0268-43-1600",
    "url": "http://daijukai.or.jp/",
    "pref": "長野県",
    "city": "上田市",
    "category": "tokuyou",
    "serviceType": "介護老人福祉施設",
    "capacity": 0,
    "openDays": [],
    "openDaysNote": ""
  },
  {
    "id": "2070301573",
    "name": "ユニットケア型しものごう敬老園",
    "kana": "ユニットケアガタシモノゴウケイロウエン",
    "address": "長野県上田市下之郷463-1",
    "lat": 36.364029,
    "lng": 138.2166772,
    "tel": "0268-38-1165",
    "url": "http://www.keiroen.or.jp",
    "pref": "長野県",
    "city": "上田市",
    "category": "tokuyou",
    "serviceType": "介護老人福祉施設",
    "capacity": 50,
    "openDays": [],
    "openDaysNote": ""
  },
  {
    "id": "2072200203",
    "name": "依田窪特別養護老人ホーム",
    "kana": "ヨダクボトクベツヨウゴロウジンホーム",
    "address": "長野県上田市下武石776-1番地",
    "lat": 36.2860691,
    "lng": 138.2290013,
    "tel": "0268-85-2218",
    "url": "http://www.yodakubofukushikai.jp/",
    "pref": "長野県",
    "city": "上田市",
    "category": "tokuyou",
    "serviceType": "介護老人福祉施設",
    "capacity": 0,
    "openDays": [],
    "openDaysNote": ""
  },
  {
    "id": "2070300252",
    "name": "室賀の里",
    "kana": "ムロガノサト",
    "address": "長野県上田市上室賀19番地",
    "lat": 36.4032035159822,
    "lng": 138.15930394841,
    "tel": "0268-31-0002",
    "url": "https://shiinomikai.com/",
    "pref": "長野県",
    "city": "上田市",
    "category": "tokuyou",
    "serviceType": "介護老人福祉施設",
    "capacity": 68,
    "openDays": [],
    "openDaysNote": ""
  },
  {
    "id": "2070300484",
    "name": "特別養護老人ホームローマンうえだ",
    "kana": "トクベツヨウゴロウジンホ－ムローマンウエダ",
    "address": "長野県上田市殿城250番地1",
    "lat": 36.402663354175,
    "lng": 138.300769723773,
    "tel": "0268-26-8871",
    "url": "http://roman-ueda.jp/",
    "pref": "長野県",
    "city": "上田市",
    "category": "tokuyou",
    "serviceType": "介護老人福祉施設",
    "capacity": 0,
    "openDays": [],
    "openDaysNote": ""
  },
  {
    "id": "2070302191",
    "name": "特別養護老人ホーム神川苑",
    "kana": "トクベツヨウゴロウジンホーム　カンガワエン",
    "address": "長野県上田市蒼久保1181-6",
    "lat": 36.3772579523702,
    "lng": 138.280931171828,
    "tel": "0268-34-7689",
    "url": "http://nodoka-hidamari.com/",
    "pref": "長野県",
    "city": "上田市",
    "category": "tokuyou",
    "serviceType": "介護老人福祉施設",
    "capacity": null,
    "openDays": [],
    "openDaysNote": ""
  },
  {
    "id": "2070302183",
    "name": "特別養護老人ホーム神川苑",
    "kana": "トクベツヨウゴロウジンホームカンガワエン",
    "address": "長野県上田市蒼久保1181-6",
    "lat": 36.3772449952191,
    "lng": 138.28092580741,
    "tel": "0268-34-7689",
    "url": "http://nodoka-hidamari.com/",
    "pref": "長野県",
    "city": "上田市",
    "category": "tokuyou",
    "serviceType": "介護老人福祉施設",
    "capacity": null,
    "openDays": [],
    "openDaysNote": ""
  },
  {
    "id": "2070300245",
    "name": "別所温泉長寿園",
    "kana": "ベッショオンセンチョウジュエン",
    "address": "長野県上田市別所温泉１８２８番地２",
    "lat": 36.3529822,
    "lng": 138.158899,
    "tel": "0268-38-3160",
    "url": "URL.http://care-net.biz/20/chujuen/",
    "pref": "長野県",
    "city": "上田市",
    "category": "tokuyou",
    "serviceType": "介護老人福祉施設",
    "capacity": 84,
    "openDays": [],
    "openDaysNote": ""
  },
  {
    "id": "2073400232",
    "name": "おらが庵",
    "kana": "オラガアン",
    "address": "長野県上水内郡信濃町柏原３５０",
    "lat": 36.8092783,
    "lng": 138.2048633,
    "tel": "026-255-6600",
    "url": "https://oragakai.jp/",
    "pref": "長野県",
    "city": "信濃町",
    "category": "tokuyou",
    "serviceType": "介護老人福祉施設",
    "capacity": 50,
    "openDays": [],
    "openDaysNote": ""
  },
  {
    "id": "2070600099",
    "name": "すばらしき仲間たち",
    "kana": "スバラシキナカマタチ",
    "address": "長野県諏訪市湖南４８９４－１",
    "lat": 36.0061036,
    "lng": 138.0991984,
    "tel": "0266-57-2111",
    "url": "http://www.seibonokai.com/tokuyo.html",
    "pref": "長野県",
    "city": "諏訪市",
    "category": "tokuyou",
    "serviceType": "介護老人福祉施設",
    "capacity": 0,
    "openDays": [],
    "openDaysNote": ""
  },
  {
    "id": "2070600594",
    "name": "特別養護老人ホームふくろうの森",
    "kana": "トクベツヨウゴロウジンホームフクロウノモリ",
    "address": "長野県諏訪市四賀2398-1",
    "lat": 36.0111669753217,
    "lng": 138.129897532541,
    "tel": "0266-53-5577",
    "url": "http://www.komakusa.or.jp/",
    "pref": "長野県",
    "city": "諏訪市",
    "category": "tokuyou",
    "serviceType": "介護老人福祉施設",
    "capacity": 89,
    "openDays": [],
    "openDaysNote": ""
  },
  {
    "id": "2070700204",
    "name": "グリーンパルベル",
    "kana": "グリーンパルベル",
    "address": "長野県須坂市仁礼町７番地１０",
    "lat": 36.6137439,
    "lng": 138.3386647,
    "tel": "026-215-2662",
    "url": "http://www.greenarum.jp/",
    "pref": "長野県",
    "city": "須坂市",
    "category": "tokuyou",
    "serviceType": "介護老人福祉施設",
    "capacity": 0,
    "openDays": [],
    "openDaysNote": ""
  },
  {
    "id": "2070700055",
    "name": "高齢者総合福祉施設須坂やすらぎの園",
    "kana": "コウレイシャソウゴウフクシシセツスザカヤスラギノソノ",
    "address": "長野県須坂市大字日滝字寺窪２８８７-１",
    "lat": 36.6712536343089,
    "lng": 138.328295320529,
    "tel": "026-246-4600",
    "url": "http://www.valley.ne.jp/~yasuragi/wellcome.html",
    "pref": "長野県",
    "city": "須坂市",
    "category": "tokuyou",
    "serviceType": "介護老人福祉施設",
    "capacity": 0,
    "openDays": [],
    "openDaysNote": ""
  },
  {
    "id": "2070700717",
    "name": "特別養護老人ホーム須坂荘",
    "kana": "トクベツヨウゴロウジンホームスザカソウ",
    "address": "長野県須坂市塩野町951番地",
    "lat": 36.6258482,
    "lng": 138.3344079,
    "tel": "026-248-0839",
    "url": "http://www.greenarum.jp/",
    "pref": "長野県",
    "city": "須坂市",
    "category": "tokuyou",
    "serviceType": "介護老人福祉施設",
    "capacity": null,
    "openDays": [],
    "openDaysNote": ""
  },
  {
    "id": "2072200211",
    "name": "社会福祉法人大樹会　ラポートあおき",
    "kana": "シャカイフクシホウジンダイジュカイラポートアオキ",
    "address": "長野県小県郡青木村大字田沢３４０２－１",
    "lat": 36.3691903,
    "lng": 138.1211764,
    "tel": "0268-49-1111",
    "url": "https://www.daijukai.or.jp/",
    "pref": "長野県",
    "city": "青木村",
    "category": "tokuyou",
    "serviceType": "介護老人福祉施設",
    "capacity": 0,
    "openDays": [],
    "openDaysNote": ""
  },
  {
    "id": "2071800839",
    "name": "特別養護老人ホーム　杏寿荘",
    "kana": "トクベツヨウゴロウジンホーム　キョウジュソウ",
    "address": "長野県千曲市大字倉科79番地",
    "lat": 36.532456,
    "lng": 138.156098,
    "tel": "026-273-4350",
    "url": "https://www.kyojuso.com",
    "pref": "長野県",
    "city": "千曲市",
    "category": "tokuyou",
    "serviceType": "介護老人福祉施設",
    "capacity": 70,
    "openDays": [],
    "openDaysNote": ""
  },
  {
    "id": "2071800151",
    "name": "特別養護老人ホーム　香風園",
    "kana": "トクベツヨウゴロウジンホームコウフウエン",
    "address": "長野県千曲市大字上山田２４５４",
    "lat": 36.4737562,
    "lng": 138.1391714,
    "tel": "026-276-1200",
    "url": "https://www.sensyokai.jp",
    "pref": "長野県",
    "city": "千曲市",
    "category": "tokuyou",
    "serviceType": "介護老人福祉施設",
    "capacity": 40,
    "openDays": [],
    "openDaysNote": ""
  },
  {
    "id": "2071800698",
    "name": "特別養護老人ホームフランセーズ悠こうしょく",
    "kana": "フランセーズユウコウショク",
    "address": "長野県千曲市大字粟佐１１７７番地",
    "lat": 36.539396989971,
    "lng": 138.119491303705,
    "tel": "026-273-6370",
    "url": "http://www.hakuyukai.com/",
    "pref": "長野県",
    "city": "千曲市",
    "category": "tokuyou",
    "serviceType": "介護老人福祉施設",
    "capacity": 0,
    "openDays": [],
    "openDaysNote": ""
  },
  {
    "id": "2073100063",
    "name": "特別養護老人ホーム吉野の里",
    "kana": "トクベツヨウゴロウジンホームヨシノノサト",
    "address": "長野県千曲市大字羽尾３６６番地１",
    "lat": 36.4994915,
    "lng": 138.1101225,
    "tel": "026-275-6886",
    "url": "",
    "pref": "長野県",
    "city": "千曲市",
    "category": "tokuyou",
    "serviceType": "介護老人福祉施設",
    "capacity": 95,
    "openDays": [],
    "openDaysNote": ""
  },
  {
    "id": "2071600098",
    "name": "特別養護老人ホーム森の里",
    "kana": "トクベツヨウゴロウジンホームモリノサト",
    "address": "長野県千曲市大字森字青田1024番地3",
    "lat": 36.5268186048603,
    "lng": 138.148968369,
    "tel": "026-272-7700",
    "url": "http://www.taishikai.or.jp/kaigo/sub01.html",
    "pref": "長野県",
    "city": "千曲市",
    "category": "tokuyou",
    "serviceType": "介護老人福祉施設",
    "capacity": 68,
    "openDays": [],
    "openDaysNote": ""
  },
  {
    "id": "2072501568",
    "name": "特別養護老人ホーム　やすおか荘",
    "kana": "トクベツヨウゴロウジンホーム　ヤスオカソウ",
    "address": "長野県下伊那郡泰阜村7565番地3",
    "lat": 35.3449455071745,
    "lng": 137.847499205408,
    "tel": "0260－25－2331",
    "url": "http://yasuokasyakyo.jp",
    "pref": "長野県",
    "city": "泰阜村",
    "category": "tokuyou",
    "serviceType": "介護老人福祉施設",
    "capacity": 50,
    "openDays": [],
    "openDaysNote": ""
  },
  {
    "id": "2071200048",
    "name": "カトレヤ",
    "kana": "カトレヤ",
    "address": "長野県大町市平1955番地971",
    "lat": 36.5206925889286,
    "lng": 137.804027388361,
    "tel": "0261-23-0722",
    "url": "http://www.syuukoukai.jp",
    "pref": "長野県",
    "city": "大町市",
    "category": "tokuyou",
    "serviceType": "介護老人福祉施設",
    "capacity": 0,
    "openDays": [],
    "openDaysNote": ""
  },
  {
    "id": "2071200592",
    "name": "特別養護老人ホームリーベおおまち",
    "kana": "トクベツヨウゴロウジンホームリーベオオマチ",
    "address": "長野県大町市大町3504番地13",
    "lat": 36.498114284625,
    "lng": 137.853155404894,
    "tel": "0261-29-6515",
    "url": "http://www.kita-alpu.org",
    "pref": "長野県",
    "city": "大町市",
    "category": "tokuyou",
    "serviceType": "介護老人福祉施設",
    "capacity": 50,
    "openDays": [],
    "openDaysNote": ""
  },
  {
    "id": "2071200394",
    "name": "特別養護老人ホーム銀松苑",
    "kana": "トクベツヨウゴロウジンホームギンショウエン",
    "address": "長野県大町市常盤6850-24",
    "lat": 36.476624,
    "lng": 137.8574055,
    "tel": "0261-26-3366",
    "url": "http://www.ginshoen.or.jp/tokuyo/what/",
    "pref": "長野県",
    "city": "大町市",
    "category": "tokuyou",
    "serviceType": "介護老人福祉施設",
    "capacity": 68,
    "openDays": [],
    "openDaysNote": ""
  },
  {
    "id": "2072401355",
    "name": "介護老人福祉施設福寿苑",
    "kana": "カイゴロウジンフクシシセツフクジュエン",
    "address": "長野県上伊那郡辰野町大字伊那富字大原9501番地1",
    "lat": 35.9440777865358,
    "lng": 137.972055533746,
    "tel": "0266-43-3200",
    "url": "http://www.heisei-kai.jp",
    "pref": "長野県",
    "city": "辰野町",
    "category": "tokuyou",
    "serviceType": "介護老人福祉施設",
    "capacity": 0,
    "openDays": [],
    "openDaysNote": ""
  },
  {
    "id": "2072400589",
    "name": "特別養護老人ホームかたくりの里",
    "kana": "トクベツヨウゴロウジンホームカタクリノサト",
    "address": "長野県上伊那郡辰野町大字上島1766番地",
    "lat": 36.0092671,
    "lng": 137.9716032,
    "tel": "0266-47-5161",
    "url": "http://www.kamifuku.jp/",
    "pref": "長野県",
    "city": "辰野町",
    "category": "tokuyou",
    "serviceType": "介護老人福祉施設",
    "capacity": 80,
    "openDays": [],
    "openDaysNote": ""
  },
  {
    "id": "2072900125",
    "name": "特別養護老人ホームライフ",
    "kana": "トクベツヨウゴロウジンホームライフ",
    "address": "長野県北安曇郡池田町会染１４９８－１",
    "lat": 36.4175416,
    "lng": 137.8944977,
    "tel": "0261-61-1818",
    "url": "http://koushu-nagano.jp/",
    "pref": "長野県",
    "city": "池田町",
    "category": "tokuyou",
    "serviceType": "介護老人福祉施設",
    "capacity": 89,
    "openDays": [],
    "openDaysNote": ""
  },
  {
    "id": "2072900067",
    "name": "特別養護老人ホーム高瀬荘",
    "kana": "トクベツヨウゴロウジンホームタカセソウ",
    "address": "長野県北安曇郡池田町大字池田1942-1",
    "lat": 36.428523,
    "lng": 137.8764546,
    "tel": "0261-62-4181",
    "url": "https://takasesou.jp",
    "pref": "長野県",
    "city": "池田町",
    "category": "tokuyou",
    "serviceType": "介護老人福祉施設",
    "capacity": 80,
    "openDays": [],
    "openDaysNote": ""
  },
  {
    "id": "2071100602",
    "name": "ユニット型特別養護老人ホーム　　フランセーズ悠なかの",
    "kana": "ユニットガタトクベツヨウゴロウジンホーム　　フランセーズユウナカノ",
    "address": "長野県中野市片塩58番地23",
    "lat": 36.7452153,
    "lng": 138.3483746,
    "tel": "0269-38-1011",
    "url": "http://www.hakuyukai.com/",
    "pref": "長野県",
    "city": "中野市",
    "category": "tokuyou",
    "serviceType": "介護老人福祉施設",
    "capacity": 54,
    "openDays": [],
    "openDaysNote": ""
  },
  {
    "id": "2071100594",
    "name": "従来型特別養護老人ホーム　フランセーズ悠なかの",
    "kana": "ジュウライガタトクベツヨウゴロウジンホーム　フランセーズユウナカノ",
    "address": "長野県中野市片塩58-23",
    "lat": 36.7452153,
    "lng": 138.3483746,
    "tel": "0269-38-1011",
    "url": "http://www.hakuyukai.com/",
    "pref": "長野県",
    "city": "中野市",
    "category": "tokuyou",
    "serviceType": "介護老人福祉施設",
    "capacity": 36,
    "openDays": [],
    "openDaysNote": ""
  },
  {
    "id": "2071100776",
    "name": "特別養護老人ホーム　高社の家",
    "kana": "トクベツヨウゴロウジンホーム　コウシャノイエ",
    "address": "長野県中野市大字新井353番地",
    "lat": 36.7612278363043,
    "lng": 138.365685855069,
    "tel": "269224120",
    "url": "https://miyuki-f.or.jp/about/",
    "pref": "長野県",
    "city": "中野市",
    "category": "tokuyou",
    "serviceType": "介護老人福祉施設",
    "capacity": 0,
    "openDays": [],
    "openDaysNote": ""
  },
  {
    "id": "2073500072",
    "name": "特別養護老人ホームふるさと苑",
    "kana": "トクベツヨウゴロウジンホームフルサトエン",
    "address": "長野県中野市大字穴田2322番地１",
    "lat": 36.8005162,
    "lng": 138.3246627,
    "tel": "0269-24-3150",
    "url": "http://www.hokusin.or.jp/02work/sisetu/furusato/index.htm",
    "pref": "長野県",
    "city": "中野市",
    "category": "tokuyou",
    "serviceType": "介護老人福祉施設",
    "capacity": 0,
    "openDays": [],
    "openDaysNote": ""
  },
  {
    "id": "2070107681",
    "name": "くめじそう",
    "kana": "久米路荘",
    "address": "長野県長野市信州新町日原東2186番地1",
    "lat": 36.5585686164985,
    "lng": 137.990206109856,
    "tel": "026-262-3222",
    "url": "",
    "pref": "長野県",
    "city": "長野市",
    "category": "tokuyou",
    "serviceType": "介護老人福祉施設",
    "capacity": 0,
    "openDays": [],
    "openDaysNote": ""
  },
  {
    "id": "2070100280",
    "name": "グリーンヒル",
    "kana": "グリーンヒル",
    "address": "長野県長野市篠ノ井布施五明1973番地",
    "lat": 36.574075,
    "lng": 138.1170013,
    "tel": "026-293-6077",
    "url": "http://www.valley.ne.jp/~greenhil/",
    "pref": "長野県",
    "city": "長野市",
    "category": "tokuyou",
    "serviceType": "介護老人福祉施設",
    "capacity": null,
    "openDays": [],
    "openDaysNote": ""
  },
  {
    "id": "2070101536",
    "name": "ジェイエー長野会　特別養護老人ホームりんごの郷",
    "kana": "ジェイエーナガノカイ　トクベツヨウゴロウジンホームリンゴノサト",
    "address": "長野県長野市大字穂保字町裏２０７番地１",
    "lat": 36.6816053446505,
    "lng": 138.269430883105,
    "tel": "026-296-1165",
    "url": "http://www.ja-naganokai.or.jp/facilities/ringo/index.php",
    "pref": "長野県",
    "city": "長野市",
    "category": "tokuyou",
    "serviceType": "介護老人福祉施設",
    "capacity": 20,
    "openDays": [],
    "openDaysNote": ""
  },
  {
    "id": "2070100579",
    "name": "フランセーズ悠",
    "kana": "フランセーズユウ",
    "address": "長野県長野市大字大豆島３６０－３",
    "lat": 36.6313647,
    "lng": 138.2203984,
    "tel": "026-251-1651",
    "url": "http://www.hakuyukai.com",
    "pref": "長野県",
    "city": "長野市",
    "category": "tokuyou",
    "serviceType": "介護老人福祉施設",
    "capacity": 0,
    "openDays": [],
    "openDaysNote": ""
  },
  {
    "id": "2070100504",
    "name": "やすらぎの園",
    "kana": "ヤスラギノソノ",
    "address": "長野県長野市篠ノ井杵淵字新田前２１３番地４",
    "lat": 36.5836567,
    "lng": 138.1829655,
    "tel": "026-293-2600",
    "url": "https://m-yasuragi.com",
    "pref": "長野県",
    "city": "長野市",
    "category": "tokuyou",
    "serviceType": "介護老人福祉施設",
    "capacity": 0,
    "openDays": [],
    "openDaysNote": ""
  },
  {
    "id": "2070108010",
    "name": "ユニット型特別養護老人ホーム栗田の里",
    "kana": "ユニットガタトクベツヨウゴロウジンホームクリタノサト",
    "address": "大字栗田669番地",
    "lat": 36.6376948,
    "lng": 138.1986875,
    "tel": "026-217-1988",
    "url": "https://www.minamifukushi.or.jp/",
    "pref": "長野県",
    "city": "長野市",
    "category": "tokuyou",
    "serviceType": "介護老人福祉施設",
    "capacity": null,
    "openDays": [],
    "openDaysNote": ""
  },
  {
    "id": "2070101551",
    "name": "尚和寮",
    "kana": "ショウワリョウ",
    "address": "長野県長野市松代町東条９４－１",
    "lat": 36.565994,
    "lng": 138.2125535,
    "tel": "０２６－２７８－２６００",
    "url": "http://nagano-shajikyo.or.jp/nsjk/syouwa/",
    "pref": "長野県",
    "city": "長野市",
    "category": "tokuyou",
    "serviceType": "介護老人福祉施設",
    "capacity": 30,
    "openDays": [],
    "openDaysNote": ""
  },
  {
    "id": "2070100512",
    "name": "松寿荘",
    "kana": "ショウジュソウ",
    "address": "長野県長野市上野２丁目１２０番地４",
    "lat": 36.6863763,
    "lng": 138.235016,
    "tel": "026-296-1833",
    "url": "",
    "pref": "長野県",
    "city": "長野市",
    "category": "tokuyou",
    "serviceType": "介護老人福祉施設",
    "capacity": 0,
    "openDays": [],
    "openDaysNote": ""
  },
  {
    "id": "2070100546",
    "name": "真島の里",
    "kana": "マシマノサト",
    "address": "長野県長野市真島町真島字中真島前沖５６３番地の2",
    "lat": 36.6006206368985,
    "lng": 138.206791913075,
    "tel": "026-285-5571",
    "url": "http://www.minamifukushi.or.jp/",
    "pref": "長野県",
    "city": "長野市",
    "category": "tokuyou",
    "serviceType": "介護老人福祉施設",
    "capacity": 90,
    "openDays": [],
    "openDaysNote": ""
  },
  {
    "id": "2070107376",
    "name": "泉平ハイツ",
    "kana": "イズミダイラハイツ",
    "address": "長野県長野市豊野町豊野２２９８－２",
    "lat": 36.72309,
    "lng": 138.2852376,
    "tel": "026-257-5180",
    "url": "http://nagano-swc.com/izumidaira/",
    "pref": "長野県",
    "city": "長野市",
    "category": "tokuyou",
    "serviceType": "介護老人福祉施設",
    "capacity": 74,
    "openDays": [],
    "openDaysNote": ""
  },
  {
    "id": "2070100561",
    "name": "朝日ホーム",
    "kana": "アサヒホーム",
    "address": "長野県長野市大字南堀３－１",
    "lat": 36.6627545,
    "lng": 138.2416878,
    "tel": "026-215-1212",
    "url": "http://highness-life.com/",
    "pref": "長野県",
    "city": "長野市",
    "category": "tokuyou",
    "serviceType": "介護老人福祉施設",
    "capacity": 0,
    "openDays": [],
    "openDaysNote": ""
  },
  {
    "id": "2070105867",
    "name": "特別養護老人ホーム　プリマベーラ",
    "kana": "トクベツヨウゴロウジンホーム　プリマベーラ",
    "address": "長野県長野市大字南長野新田町1106番地1",
    "lat": 36.6504628,
    "lng": 138.185122,
    "tel": "026-231-6511",
    "url": "https://www.keiqkai.jp",
    "pref": "長野県",
    "city": "長野市",
    "category": "tokuyou",
    "serviceType": "介護老人福祉施設",
    "capacity": 80,
    "openDays": [],
    "openDaysNote": ""
  },
  {
    "id": "2070100199",
    "name": "特別養護老人ホーム　大本願ユートピアわかほ",
    "kana": "トクベツヨウゴロウジンホーム　ダイホンガンユートピアワカホ",
    "address": "長野県長野市若穂綿内４４２９特別養護老人ホーム　大本願ユートピアわかほ 特別養護老人ホーム　大本願ユートピアわかほ",
    "lat": 36.6086774,
    "lng": 138.2772947,
    "tel": "026-282-3522",
    "url": "http://www.zenkouji-df.com",
    "pref": "長野県",
    "city": "長野市",
    "category": "tokuyou",
    "serviceType": "介護老人福祉施設",
    "capacity": 50,
    "openDays": [],
    "openDaysNote": ""
  },
  {
    "id": "2070100553",
    "name": "特別養護老人ホームこうほく",
    "kana": "トクベツヨウゴロウジンホームコウホク",
    "address": "長野県長野市稲里町下氷鉋682番地",
    "lat": 36.6076708,
    "lng": 138.1757987,
    "tel": "026-286-5700",
    "url": "http://www.asahi-kouhoku.com/",
    "pref": "長野県",
    "city": "長野市",
    "category": "tokuyou",
    "serviceType": "介護老人福祉施設",
    "capacity": 60,
    "openDays": [],
    "openDaysNote": ""
  },
  {
    "id": "2070101262",
    "name": "特別養護老人ホームサンビラかわなかじま",
    "kana": "トクベツヨウゴロウジンホームサンビラカワナカジマ",
    "address": "長野県長野市川中島町今里　６１０",
    "lat": 36.6106350932001,
    "lng": 138.14779006627,
    "tel": "026-286-1620",
    "url": "http://sunvilla.or.jp/",
    "pref": "長野県",
    "city": "長野市",
    "category": "tokuyou",
    "serviceType": "介護老人福祉施設",
    "capacity": 0,
    "openDays": [],
    "openDaysNote": ""
  },
  {
    "id": "2070104993",
    "name": "特別養護老人ホームフランセーズ悠とみたけ",
    "kana": "トクベツヨウゴロウジンホームフランセーズユウトミタケ",
    "address": "長野県長野市大字富竹118-1",
    "lat": 36.6709703057799,
    "lng": 138.235853919049,
    "tel": "026-217-7575",
    "url": "http://www.hakuyukai.com",
    "pref": "長野県",
    "city": "長野市",
    "category": "tokuyou",
    "serviceType": "介護老人福祉施設",
    "capacity": 0,
    "openDays": [],
    "openDaysNote": ""
  },
  {
    "id": "2070100090",
    "name": "特別養護老人ホームふれあい荘",
    "kana": "トクベツヨウゴロウジンホームフレアイソウ",
    "address": "長野県長野市松代町西寺尾１０００番地",
    "lat": 36.5753305,
    "lng": 138.1964473,
    "tel": "026-278-5600",
    "url": "https://fureaiso.shinshi-fukushi.com/",
    "pref": "長野県",
    "city": "長野市",
    "category": "tokuyou",
    "serviceType": "介護老人福祉施設",
    "capacity": 0,
    "openDays": [],
    "openDaysNote": ""
  },
  {
    "id": "2070104357",
    "name": "特別養護老人ホーム七二会荘",
    "kana": "トクベツヨウゴロウジンホームナニアイソウ",
    "address": "長野県長野市七二会己1857番地",
    "lat": 36.6220109,
    "lng": 138.1003225,
    "tel": "026-229-2373",
    "url": "http://www.kuritahp.or.jp/gp/naniai.php",
    "pref": "長野県",
    "city": "長野市",
    "category": "tokuyou",
    "serviceType": "介護老人福祉施設",
    "capacity": 0,
    "openDays": [],
    "openDaysNote": ""
  },
  {
    "id": "2070101395",
    "name": "特別養護老人ホーム若槻ホーム",
    "kana": "トクベツヨウゴロウジンホームワカツキホーム",
    "address": "長野県長野市田中1464-1",
    "lat": 36.6923586,
    "lng": 138.2272915,
    "tel": "026-251-3500",
    "url": "http://care-net.biz/20/wakatsuki/",
    "pref": "長野県",
    "city": "長野市",
    "category": "tokuyou",
    "serviceType": "介護老人福祉施設",
    "capacity": 60,
    "openDays": [],
    "openDaysNote": ""
  },
  {
    "id": "2070101023",
    "name": "博愛の園",
    "kana": "ハクアイノソノ",
    "address": "長野県長野市浅川東条２９５番地５",
    "lat": 36.6804952,
    "lng": 138.2026587,
    "tel": "026-256-6520",
    "url": "http://w1.avis.ne.jp/~haku2000/",
    "pref": "長野県",
    "city": "長野市",
    "category": "tokuyou",
    "serviceType": "介護老人福祉施設",
    "capacity": 60,
    "openDays": [],
    "openDaysNote": ""
  },
  {
    "id": "2070100272",
    "name": "博仁会桜荘社会福祉総合施設",
    "kana": "ハクジンカイサクラソウシャカイフクシソウゴウシセツ",
    "address": "長野県長野市篠ノ井二ツ柳字大当1535-1",
    "lat": 36.5693341,
    "lng": 138.1290336,
    "tel": "026-293-0088",
    "url": "https://hakujinkai-nagano.or.jp/",
    "pref": "長野県",
    "city": "長野市",
    "category": "tokuyou",
    "serviceType": "介護老人福祉施設",
    "capacity": 0,
    "openDays": [],
    "openDaysNote": ""
  },
  {
    "id": "2070100538",
    "name": "富竹の里",
    "kana": "トミタケノサト",
    "address": "長野県長野市大字富竹１６２１番地",
    "lat": 36.6724390572895,
    "lng": 138.256571346558,
    "tel": "026-296-7383",
    "url": "http://tomitake-carenet.com/",
    "pref": "長野県",
    "city": "長野市",
    "category": "tokuyou",
    "serviceType": "介護老人福祉施設",
    "capacity": 56,
    "openDays": [],
    "openDaysNote": ""
  },
  {
    "id": "2070107863",
    "name": "豊岡荘",
    "kana": "トヨオカソウ",
    "address": "長野県長野市戸隠豊岡1384番地",
    "lat": 36.7068451658024,
    "lng": 138.089400162566,
    "tel": "026-254-3001",
    "url": "http://tokuyou.kowa-fukushi.or.jp/",
    "pref": "長野県",
    "city": "長野市",
    "category": "tokuyou",
    "serviceType": "介護老人福祉施設",
    "capacity": 0,
    "openDays": [],
    "openDaysNote": ""
  },
  {
    "id": "2073400216",
    "name": "豊野清風園",
    "kana": "トヨノセイフウエン",
    "address": "長野県長野市豊野町豊野６５９－１",
    "lat": 36.7111144,
    "lng": 138.2830075,
    "tel": "026-257-4617",
    "url": "http://www.san-ikukai.or.jp",
    "pref": "長野県",
    "city": "長野市",
    "category": "tokuyou",
    "serviceType": "介護老人福祉施設",
    "capacity": 0,
    "openDays": [],
    "openDaysNote": ""
  },
  {
    "id": "2072500909",
    "name": "特別養護老人ホーム天龍荘",
    "kana": "トクベツヨウゴロウジンホームテンリュウソウ",
    "address": "長野県下伊那郡天龍村平岡７７３番地１",
    "lat": 35.2826793,
    "lng": 137.8599363,
    "tel": "0260-32-3356",
    "url": "http://tenryushakyo.info/",
    "pref": "長野県",
    "city": "天龍村",
    "category": "tokuyou",
    "serviceType": "介護老人福祉施設",
    "capacity": 0,
    "openDays": [],
    "openDaysNote": ""
  },
  {
    "id": "2072100114",
    "name": "ケアポートみまき",
    "kana": "ケアポートミマキ",
    "address": "長野県東御市布下６－１",
    "lat": 36.3355255,
    "lng": 138.3615153,
    "tel": "0268-61-6005",
    "url": "http://www.cpmimaki.or.jp",
    "pref": "長野県",
    "city": "東御市",
    "category": "tokuyou",
    "serviceType": "介護老人福祉施設",
    "capacity": 0,
    "openDays": [],
    "openDaysNote": ""
  },
  {
    "id": "2071900308",
    "name": "ユニット型介護老人福祉施設こころ",
    "kana": "ユニットガタ　カイゴロウジンフクシシセツ　ココロ",
    "address": "長野県東御市祢津1098-1",
    "lat": 36.367799,
    "lng": 138.3488818,
    "tel": "0268-64-0556",
    "url": "http://www.chiisagata.jp",
    "pref": "長野県",
    "city": "東御市",
    "category": "tokuyou",
    "serviceType": "介護老人福祉施設",
    "capacity": 90,
    "openDays": [],
    "openDaysNote": ""
  },
  {
    "id": "2072200450",
    "name": "介護老人福祉施設　フォーレスト",
    "kana": "カイゴロウジンフクシシセツ　フォーレスト",
    "address": "長野県東御市常田2-1",
    "lat": 36.3592001,
    "lng": 138.3483821,
    "tel": "0268-64-7200",
    "url": "http://www.chiisagata.jp/forest/index.html",
    "pref": "長野県",
    "city": "東御市",
    "category": "tokuyou",
    "serviceType": "介護老人福祉施設",
    "capacity": 0,
    "openDays": [],
    "openDaysNote": ""
  },
  {
    "id": "2072000173",
    "name": "特別養護老人ホームのべやま",
    "kana": "トクベツヨウゴロウジンホームノベヤマ",
    "address": "長野県南佐久郡南牧村大字野辺山65-3",
    "lat": 35.9602408,
    "lng": 138.46489,
    "tel": "0267-91-1155",
    "url": "http://www.ja-naganokai.or.jp/facilities/nobeyama/index.php",
    "pref": "長野県",
    "city": "南牧村",
    "category": "tokuyou",
    "serviceType": "介護老人福祉施設",
    "capacity": 80,
    "openDays": [],
    "openDaysNote": ""
  },
  {
    "id": "2072400514",
    "name": "特別養護老人ホームコンソール大芝",
    "kana": "トクベツヨウゴロウジンホームコンソールオオシバ",
    "address": "長野県上伊那郡南箕輪村2380-1079",
    "lat": 35.8761702,
    "lng": 137.953211,
    "tel": "0265-72-7474",
    "url": "",
    "pref": "長野県",
    "city": "南箕輪村",
    "category": "tokuyou",
    "serviceType": "介護老人福祉施設",
    "capacity": 0,
    "openDays": [],
    "openDaysNote": ""
  },
  {
    "id": "2072600220",
    "name": "特別養護老人ホーム木曽あすなろ荘",
    "kana": "トクベツヨウゴロウジンホームキソアスナロソウ",
    "address": "長野県木曽郡南木曽町田立１５０番地１",
    "lat": 35.5888203,
    "lng": 137.5595379,
    "tel": "0573-75-4458",
    "url": "http://www.aoihato.jp",
    "pref": "長野県",
    "city": "南木曽町",
    "category": "tokuyou",
    "serviceType": "介護老人福祉施設",
    "capacity": 0,
    "openDays": [],
    "openDaysNote": ""
  },
  {
    "id": "2072900133",
    "name": "白嶺",
    "kana": "ハクレイ",
    "address": "長野県北安曇郡白馬村大字神城22847-2",
    "lat": 36.6640416,
    "lng": 137.8448246,
    "tel": "0261-75-4010",
    "url": "http://www.hakurei-nagano.com/",
    "pref": "長野県",
    "city": "白馬村",
    "category": "tokuyou",
    "serviceType": "介護老人福祉施設",
    "capacity": 0,
    "openDays": [],
    "openDaysNote": ""
  },
  {
    "id": "2073400240",
    "name": "矢筒荘",
    "kana": "ヤヅツソウ",
    "address": "長野県上水内郡飯綱町大字牟礼2227",
    "lat": 36.7484585,
    "lng": 138.2347169,
    "tel": "026-253-6666",
    "url": "http://www.area.-nagano.jp",
    "pref": "長野県",
    "city": "飯綱町",
    "category": "tokuyou",
    "serviceType": "介護老人福祉施設",
    "capacity": 0,
    "openDays": [],
    "openDaysNote": ""
  },
  {
    "id": "2071300517",
    "name": "老人ホームてるさと",
    "kana": "ロウジンホームテルサト",
    "address": "長野県飯山市大字照里2000番地",
    "lat": 36.9077307,
    "lng": 138.3851598,
    "tel": "0269-65-2032",
    "url": "https://www.hokusin.or.jp/shisetsu/terusato/",
    "pref": "長野県",
    "city": "飯山市",
    "category": "tokuyou",
    "serviceType": "介護老人福祉施設",
    "capacity": null,
    "openDays": [],
    "openDaysNote": ""
  },
  {
    "id": "2070501313",
    "name": "シルバーハウスゆめの郷",
    "kana": "シルバーハウスユメノサト",
    "address": "長野県飯田市松尾代田９１０－１",
    "lat": 35.4913196,
    "lng": 137.8282584,
    "tel": "0265-52-4651",
    "url": "http://kayagakikai-iida.jp/publics/index/19/",
    "pref": "長野県",
    "city": "飯田市",
    "category": "tokuyou",
    "serviceType": "介護老人福祉施設",
    "capacity": 0,
    "openDays": [],
    "openDaysNote": ""
  },
  {
    "id": "2070500398",
    "name": "特別養護老人ホーム　ゆい",
    "kana": "トクベツヨウゴロウジンホーム　ユイ",
    "address": "長野県飯田市龍江７１５９番地1",
    "lat": 35.4420892,
    "lng": 137.8212696,
    "tel": "0265-27-4600",
    "url": "http://yuinosato-nagano.or.jp/",
    "pref": "長野県",
    "city": "飯田市",
    "category": "tokuyou",
    "serviceType": "介護老人福祉施設",
    "capacity": 58,
    "openDays": [],
    "openDaysNote": ""
  },
  {
    "id": "2070500844",
    "name": "特別養護老人ホーム「きりしま邸苑」",
    "kana": "トクベツヨウゴロウジンホーム「キリシマテイエン」",
    "address": "長野県飯田市毛賀1681-10",
    "lat": 35.47805064821,
    "lng": 137.840955642328,
    "tel": "0265-26-8700",
    "url": "http://www.kizankai.or.jp/yusuikai",
    "pref": "長野県",
    "city": "飯田市",
    "category": "tokuyou",
    "serviceType": "介護老人福祉施設",
    "capacity": 0,
    "openDays": [],
    "openDaysNote": ""
  },
  {
    "id": "2070501099",
    "name": "特別養護老人ホームかざこしの里",
    "kana": "トクベツヨウゴロウジンホームカザコシノサト",
    "address": "長野県飯田市三日市場２１００",
    "lat": 35.4866283,
    "lng": 137.7960902,
    "tel": "0265-28-2260",
    "url": "http://www.wn-sekizenkai.or.jp",
    "pref": "長野県",
    "city": "飯田市",
    "category": "tokuyou",
    "serviceType": "介護老人福祉施設",
    "capacity": 0,
    "openDays": [],
    "openDaysNote": ""
  },
  {
    "id": "2070502105",
    "name": "特別養護老人ホームやまりきの郷",
    "kana": "トクベツヨウゴロウジンホームヤマリキノサト",
    "address": "長野県飯田市鼎下山1206番地",
    "lat": 35.5057236,
    "lng": 137.8340863,
    "tel": "0265-48-8300",
    "url": "http://yamarikishoujyukai.jp/",
    "pref": "長野県",
    "city": "飯田市",
    "category": "tokuyou",
    "serviceType": "介護老人福祉施設",
    "capacity": 0,
    "openDays": [],
    "openDaysNote": ""
  },
  {
    "id": "2070501701",
    "name": "特別養護老人ホーム遠山荘",
    "kana": "トクベツヨウゴロウジンホームトオヤマソウ",
    "address": "長野県飯田市南信濃和田1550",
    "lat": 35.3185355,
    "lng": 137.9289361,
    "tel": "0260-34-5522",
    "url": "http://www.iidashakyo.or.jp/",
    "pref": "長野県",
    "city": "飯田市",
    "category": "tokuyou",
    "serviceType": "介護老人福祉施設",
    "capacity": 50,
    "openDays": [],
    "openDaysNote": ""
  },
  {
    "id": "2070501941",
    "name": "特別養護老人ホーム笑みの里",
    "kana": "トクベツヨウゴロウジンホームエミノサト",
    "address": "長野県飯田市上郷別府２２３０－８",
    "lat": 35.5153117704632,
    "lng": 137.838928363754,
    "tel": "0265-48-6640",
    "url": "http://www.wn-sekizenkai.or.jp",
    "pref": "長野県",
    "city": "飯田市",
    "category": "tokuyou",
    "serviceType": "介護老人福祉施設",
    "capacity": 80,
    "openDays": [],
    "openDaysNote": ""
  },
  {
    "id": "2070500877",
    "name": "特別養護老人ホーム第二飯田荘",
    "kana": "トクベツヨウゴロウジンホームダイニイイダソウ",
    "address": "長野県飯田市東栄町3171-1",
    "lat": 35.5119424,
    "lng": 137.8372036,
    "tel": "0265-53-6677",
    "url": "is065@iidashakyo.or.jp",
    "pref": "長野県",
    "city": "飯田市",
    "category": "tokuyou",
    "serviceType": "介護老人福祉施設",
    "capacity": 40,
    "openDays": [],
    "openDaysNote": ""
  },
  {
    "id": "2070500885",
    "name": "特別養護老人ホーム飯田荘",
    "kana": "トクベツヨウゴロウジンホームイイダソウ",
    "address": "長野県飯田市東栄町3137番地2",
    "lat": 35.5134004787559,
    "lng": 137.837027653885,
    "tel": "0265-23-7888",
    "url": "",
    "pref": "長野県",
    "city": "飯田市",
    "category": "tokuyou",
    "serviceType": "介護老人福祉施設",
    "capacity": 0,
    "openDays": [],
    "openDaysNote": ""
  },
  {
    "id": "2070501727",
    "name": "特別養護老人ホーム陽だまりの丘",
    "kana": "トクベツヨウゴロウジンホームヒダマリノオカ",
    "address": "長野県飯田市北方3369番地1",
    "lat": 35.5069647,
    "lng": 137.7880649,
    "tel": "0265-48-0806",
    "url": "http://ichiyokai-iida.jp/",
    "pref": "長野県",
    "city": "飯田市",
    "category": "tokuyou",
    "serviceType": "介護老人福祉施設",
    "capacity": 0,
    "openDays": [],
    "openDaysNote": ""
  },
  {
    "id": "2072400233",
    "name": "越百園",
    "kana": "コスモエン",
    "address": "長野県上伊那郡飯島町七久保1338番地1",
    "lat": 35.6522761,
    "lng": 137.9233364,
    "tel": "0265-89-1222",
    "url": "http://kamifuku.jp",
    "pref": "長野県",
    "city": "飯島町",
    "category": "tokuyou",
    "serviceType": "介護老人福祉施設",
    "capacity": 0,
    "openDays": [],
    "openDaysNote": ""
  },
  {
    "id": "2072300326",
    "name": "特別養護老人ホーム紅林荘",
    "kana": "トクベツヨウゴロウジンホームコウリンソウ",
    "address": "長野県諏訪郡富士見町富士見3107番地2",
    "lat": 35.9096107,
    "lng": 138.2284218,
    "tel": "0266-61-2080",
    "url": "http://www.ja-naganokai.or.jp/facilities/kourin/index.php",
    "pref": "長野県",
    "city": "富士見町",
    "category": "tokuyou",
    "serviceType": "介護老人福祉施設",
    "capacity": 80,
    "openDays": [],
    "openDaysNote": ""
  },
  {
    "id": "2072300839",
    "name": "富士見高原医療福祉センター　特別養護老人ホーム　恋月荘",
    "kana": "フジミコウゲンイリョウフクシセンター　トクベツヨウゴロウジンホーム　レンゲツソウ",
    "address": "長野県諏訪郡富士見町境8830",
    "lat": 35.8906915441609,
    "lng": 138.285523880101,
    "tel": "0266-75-5558",
    "url": "http://www.fujimihp.com/",
    "pref": "長野県",
    "city": "富士見町",
    "category": "tokuyou",
    "serviceType": "介護老人福祉施設",
    "capacity": 95,
    "openDays": [],
    "openDaysNote": ""
  },
  {
    "id": "2072700251",
    "name": "サンライフおみ",
    "kana": "サンライフオミ",
    "address": "長野県東筑摩郡麻績村麻２１１７番地１",
    "lat": 36.4480253,
    "lng": 138.0305878,
    "tel": "0263-67-4555",
    "url": "https://www.aoihato.jp",
    "pref": "長野県",
    "city": "麻績村",
    "category": "tokuyou",
    "serviceType": "介護老人福祉施設",
    "capacity": 0,
    "openDays": [],
    "openDaysNote": ""
  },
  {
    "id": "2072401215",
    "name": "特別養護老人ホーム　グレイスフル箕輪",
    "kana": "トクベツヨウゴロウジンホーム　グレイスフルミノワ",
    "address": "長野県上伊那郡箕輪町大字中箕輪6062",
    "lat": 35.9202584456616,
    "lng": 137.94975824008,
    "tel": "0265-75-3881",
    "url": "https://sun-vision.or.jp/",
    "pref": "長野県",
    "city": "箕輪町",
    "category": "tokuyou",
    "serviceType": "介護老人福祉施設",
    "capacity": 0,
    "openDays": [],
    "openDaysNote": ""
  },
  {
    "id": "2072400225",
    "name": "特別養護老人ホームみのわ園",
    "kana": "トクベツヨウゴロウジンホームミノワエン",
    "address": "長野県上伊那郡箕輪町大字三日町１６６０番地３",
    "lat": 35.897156551429,
    "lng": 137.994601296404,
    "tel": "0265-70-6133",
    "url": "http://kamifuku.jp/",
    "pref": "長野県",
    "city": "箕輪町",
    "category": "tokuyou",
    "serviceType": "介護老人福祉施設",
    "capacity": 0,
    "openDays": [],
    "openDaysNote": ""
  },
  {
    "id": "2072600246",
    "name": "なんてんの里",
    "kana": "ナンテンノサト",
    "address": "長野県木曽郡木曽町三岳１００３９番地",
    "lat": 35.8256869,
    "lng": 137.6574754,
    "tel": "0264-46-3335",
    "url": "http://www.aoihato.jp",
    "pref": "長野県",
    "city": "木曽町",
    "category": "tokuyou",
    "serviceType": "介護老人福祉施設",
    "capacity": 0,
    "openDays": [],
    "openDaysNote": ""
  },
  {
    "id": "2072600568",
    "name": "総合福祉施設開田の里",
    "kana": "ソウゴウフクシセツカイダノサト",
    "address": "長野県木曽郡木曽町開田高原西野５２２７－１００",
    "lat": 35.9430188,
    "lng": 137.5703329,
    "tel": "0264-44-1470",
    "url": "http://kaidanosato.kisoji.kiso.nagano.jp/",
    "pref": "長野県",
    "city": "木曽町",
    "category": "tokuyou",
    "serviceType": "介護老人福祉施設",
    "capacity": 0,
    "openDays": [],
    "openDaysNote": ""
  },
  {
    "id": "2072600758",
    "name": "特別養護老人ホームグレイスフル木曽",
    "kana": "トクベツヨウゴロウジンホームグレイスフルキソ",
    "address": "長野県木曽郡木曽町福島２７８１",
    "lat": 35.8392143,
    "lng": 137.6892693,
    "tel": "0264-21-1351",
    "url": "http://www.sun-vision.or.jp",
    "pref": "長野県",
    "city": "木曽町",
    "category": "tokuyou",
    "serviceType": "介護老人福祉施設",
    "capacity": 30,
    "openDays": [],
    "openDaysNote": ""
  },
  {
    "id": "2072600238",
    "name": "特別養護老人ホームサニーヒルきそ",
    "kana": "トクベツヨウゴロウジンホームサニーヒルキソ",
    "address": "長野県木曽郡木祖村大字藪原８４２番地２",
    "lat": 35.944175,
    "lng": 137.7846093,
    "tel": "0264-36-3820",
    "url": "http://www.aoihato.com",
    "pref": "長野県",
    "city": "木祖村",
    "category": "tokuyou",
    "serviceType": "介護老人福祉施設",
    "capacity": 0,
    "openDays": [],
    "openDaysNote": ""
  },
  {
    "id": "2073300077",
    "name": "特別養護老人ホーム望岳荘",
    "kana": "トクベツヨウゴロウジンホームボウガクソウ",
    "address": "長野県下高井郡木島平村大字穂高721番地3",
    "lat": 36.861678,
    "lng": 138.4110568,
    "tel": "0269-82-2359",
    "url": "https://www.hokusin.or.jp/shisetsu/bogakusou/",
    "pref": "長野県",
    "city": "木島平村",
    "category": "tokuyou",
    "serviceType": "介護老人福祉施設",
    "capacity": 0,
    "openDays": [],
    "openDaysNote": ""
  },
  {
    "id": "2073300085",
    "name": "特別養護老人ホーム菜の花苑",
    "kana": "トクベツヨウゴロウジンホームナノハナエン",
    "address": "長野県下高井郡野沢温泉村大字豊郷９８６３番地１",
    "lat": 36.9227965,
    "lng": 138.4390441,
    "tel": "0269-85-4710",
    "url": "http://www.hokusin.or.jp/02work/sisetu/nanohana/",
    "pref": "長野県",
    "city": "野沢温泉村",
    "category": "tokuyou",
    "serviceType": "介護老人福祉施設",
    "capacity": 0,
    "openDays": [],
    "openDaysNote": ""
  },
  {
    "id": "2072100841",
    "name": "介護老人福祉施設すずらん",
    "kana": "カイゴロウジンフクシシセツスズラン",
    "address": "長野県北佐久郡立科町芦田720-1",
    "lat": 36.274048709277,
    "lng": 138.323006682864,
    "tel": "0267-56-1955",
    "url": "http://www.hc-tateshina.jp",
    "pref": "長野県",
    "city": "立科町",
    "category": "tokuyou",
    "serviceType": "介護老人福祉施設",
    "capacity": 74,
    "openDays": [],
    "openDaysNote": ""
  }
]