[
  {
    "id": "272500703",
    "name": "特別養護老人ホーム百石荘",
    "kana": "トクベツヨウゴロウジンホーム　モモイシソウ",
    "address": "青森県上北郡おいらせ町沼端３７０番地１",
    "lat": 40.6121647,
    "lng": 141.4460398,
    "tel": "0178-50-1055",
    "url": "http://www.momoishiso.or.jp",
    "pref": "青森県",
    "city": "おいらせ町",
    "category": "tokuyou",
    "serviceType": "介護老人福祉施設",
    "capacity": 0,
    "openDays": [],
    "openDaysNote": ""
  },
  {
    "id": "272500539",
    "name": "特別養護老人ホーム木崎野荘",
    "kana": "トクベツヨウゴロウジンホームキザキノソウ",
    "address": "青森県上北郡おいらせ町向山東二丁目2-1263",
    "lat": 40.6308337,
    "lng": 141.392063,
    "tel": "0178-56-4131",
    "url": "http://kizakinosou.jp/",
    "pref": "青森県",
    "city": "おいらせ町",
    "category": "tokuyou",
    "serviceType": "介護老人福祉施設",
    "capacity": 0,
    "openDays": [],
    "openDaysNote": ""
  },
  {
    "id": "272100421",
    "name": "特別養護老人ホーム桑寿園",
    "kana": "トクベツヨウゴロウジンホーム　ソウジュエン",
    "address": "青森県つがる市柏桑野木田若宮２５５番地１",
    "lat": 40.7795405,
    "lng": 140.4044913,
    "tel": "0173-25-2115",
    "url": "https://www.hakuyuukai.com",
    "pref": "青森県",
    "city": "つがる市",
    "category": "tokuyou",
    "serviceType": "介護老人福祉施設",
    "capacity": 70,
    "openDays": [],
    "openDaysNote": ""
  },
  {
    "id": "272100504",
    "name": "特別養護老人ホーム柏風園",
    "kana": "トクベツヨウゴロウジンホームハクフウエン",
    "address": "青森県つがる市木造筒木坂鳥谷沢１８－９",
    "lat": 40.9141031,
    "lng": 140.3463304,
    "tel": "0173-45-3006",
    "url": "https://hakufuen.com/",
    "pref": "青森県",
    "city": "つがる市",
    "category": "tokuyou",
    "serviceType": "介護老人福祉施設",
    "capacity": 0,
    "openDays": [],
    "openDaysNote": ""
  },
  {
    "id": "272100520",
    "name": "特別養護老人ホーム明光園",
    "kana": "トクベツヨウゴロウジンホームミョウコウエン",
    "address": "青森県つがる市森田町大館勝山142-3",
    "lat": 40.7788782,
    "lng": 140.2925791,
    "tel": "0173-26-2026",
    "url": "http://www.inkoukai.com",
    "pref": "青森県",
    "city": "つがる市",
    "category": "tokuyou",
    "serviceType": "介護老人福祉施設",
    "capacity": 0,
    "openDays": [],
    "openDaysNote": ""
  },
  {
    "id": "270800725",
    "name": "特別養護老人ホーム　いこいの里",
    "kana": "トクベツヨウゴロウジンホーム　イコイノサト",
    "address": "青森県むつ市脇野沢渡向７３番地１",
    "lat": 41.1449638,
    "lng": 140.8166098,
    "tel": "0175-31-5611",
    "url": "http://www.sakuragikai.or.jp",
    "pref": "青森県",
    "city": "むつ市",
    "category": "tokuyou",
    "serviceType": "介護老人福祉施設",
    "capacity": 0,
    "openDays": [],
    "openDaysNote": ""
  },
  {
    "id": "270800048",
    "name": "特別養護老人ホーム　恵光園",
    "kana": "トクベツヨウゴロウジンホーム　ケイコウエン",
    "address": "青森県むつ市大字奥内字竹立9番地",
    "lat": 41.1995134,
    "lng": 141.2760012,
    "tel": "0175-26-2288",
    "url": "http://keikouen-mutsu.com/",
    "pref": "青森県",
    "city": "むつ市",
    "category": "tokuyou",
    "serviceType": "介護老人福祉施設",
    "capacity": 0,
    "openDays": [],
    "openDaysNote": ""
  },
  {
    "id": "272600115",
    "name": "特別養護老人ホームせせらぎ荘",
    "kana": "トクベツヨウゴロウジンホームセセラギソウ",
    "address": "青森県むつ市川内町獅子畑128番地4",
    "lat": 41.2569248,
    "lng": 140.9855035,
    "tel": "0175-42-3103",
    "url": "www.yachiyo-kai.com",
    "pref": "青森県",
    "city": "むつ市",
    "category": "tokuyou",
    "serviceType": "介護老人福祉施設",
    "capacity": 86,
    "openDays": [],
    "openDaysNote": ""
  },
  {
    "id": "270800147",
    "name": "特別養護老人ホームみちのく荘",
    "kana": "トクベツヨウゴロウジンホームミチノクソウ",
    "address": "青森県むつ市十二林１１番１３号",
    "lat": 41.298198,
    "lng": 141.1864638,
    "tel": "0175-23-1600",
    "url": "https://www.michinokuso.jp/",
    "pref": "青森県",
    "city": "むつ市",
    "category": "tokuyou",
    "serviceType": "介護老人福祉施設",
    "capacity": 60,
    "openDays": [],
    "openDaysNote": ""
  },
  {
    "id": "272600099",
    "name": "特別養護老人ホーム延寿園",
    "kana": "トクベツヨウゴロウジンホームエンジュエン",
    "address": "青森県むつ市大畑町大赤川29番地4",
    "lat": 41.4534808,
    "lng": 141.115581,
    "tel": "0175-34-3297",
    "url": "http://sankeikai-aomori.com/",
    "pref": "青森県",
    "city": "むつ市",
    "category": "tokuyou",
    "serviceType": "介護老人福祉施設",
    "capacity": 52,
    "openDays": [],
    "openDaysNote": ""
  },
  {
    "id": "270800105",
    "name": "特別養護老人ホーム桜木園",
    "kana": "トクベツヨウゴロウジンホームサクラギエン",
    "address": "青森県むつ市中央二丁目23-1",
    "lat": 41.2903600169574,
    "lng": 141.184824017848,
    "tel": "0175-29-1243",
    "url": "http://www.sakuragikai.or.jp/",
    "pref": "青森県",
    "city": "むつ市",
    "category": "tokuyou",
    "serviceType": "介護老人福祉施設",
    "capacity": 60,
    "openDays": [],
    "openDaysNote": ""
  },
  {
    "id": "272500430",
    "name": "特別養護老人ホームなのはな苑",
    "kana": "トクベツヨウゴロウジンホーム",
    "address": "青森県上北郡横浜町字三保野５４番地",
    "lat": 41.081033,
    "lng": 141.2522348,
    "tel": "0175-78-3407",
    "url": "http://kiboukai.com/",
    "pref": "青森県",
    "city": "横浜町",
    "category": "tokuyou",
    "serviceType": "介護老人福祉施設",
    "capacity": 80,
    "openDays": [],
    "openDaysNote": ""
  },
  {
    "id": "272700592",
    "name": "特別養護老人ホーム見心園",
    "kana": "トクベツヨウゴロウジンホームケンシンエン",
    "address": "青森県三戸郡階上町大字赤保内字道仏道添21-12",
    "lat": 40.4463621,
    "lng": 141.623057,
    "tel": "0178-88-3355",
    "url": "https://www.kenshinen.jp",
    "pref": "青森県",
    "city": "階上町",
    "category": "tokuyou",
    "serviceType": "介護老人福祉施設",
    "capacity": 0,
    "openDays": [],
    "openDaysNote": ""
  },
  {
    "id": "272701921",
    "name": "特別養護老人ホーム見心園",
    "kana": "トクベツヨウゴロージンホームケンシンエン",
    "address": "青森県三戸郡階上町大字赤保内字道仏道添21-12",
    "lat": 40.4463621,
    "lng": 141.623057,
    "tel": "0178-88-3355",
    "url": "https://www.kenshinen.jp",
    "pref": "青森県",
    "city": "階上町",
    "category": "tokuyou",
    "serviceType": "介護老人福祉施設",
    "capacity": 0,
    "openDays": [],
    "openDaysNote": ""
  },
  {
    "id": "272000290",
    "name": "特別養護老人ホーム　あんじんの郷",
    "kana": "トクベツヨウゴロウジンホーム　アンジンノサト",
    "address": "青森県東津軽郡外ヶ浜町字平舘野田鳴川２２２－３",
    "lat": 41.1415984,
    "lng": 140.6315693,
    "tel": "0174-31-2121",
    "url": "",
    "pref": "青森県",
    "city": "外ヶ浜町",
    "category": "tokuyou",
    "serviceType": "介護老人福祉施設",
    "capacity": 0,
    "openDays": [],
    "openDaysNote": ""
  },
  {
    "id": "272000092",
    "name": "特別養護老人ホームあじさい",
    "kana": "トクベツヨウゴロウジンホームアジサイ",
    "address": "青森県東津軽郡外ヶ浜町字三厩新町８番地",
    "lat": 41.195044,
    "lng": 140.4347465,
    "tel": "0174-31-7000",
    "url": "http://www.ajisaikai.or.jp",
    "pref": "青森県",
    "city": "外ヶ浜町",
    "category": "tokuyou",
    "serviceType": "介護老人福祉施設",
    "capacity": 0,
    "openDays": [],
    "openDaysNote": ""
  },
  {
    "id": "272700428",
    "name": "ハピネス五戸",
    "kana": "ハピネスゴノヘ",
    "address": "青森県三戸郡五戸町字姥堤34番地1",
    "lat": 40.5314548,
    "lng": 141.2945638,
    "tel": "0178-62-7491",
    "url": "http://family-wf.jp/happiness_gonohe/",
    "pref": "青森県",
    "city": "五戸町",
    "category": "tokuyou",
    "serviceType": "介護老人福祉施設",
    "capacity": 0,
    "openDays": [],
    "openDaysNote": ""
  },
  {
    "id": "272700600",
    "name": "特別養護老人ホームさくら荘",
    "kana": "トクベツヨウゴロウジンホームサクラソウ",
    "address": "青森県三戸郡五戸町大字倉石中市字新山平６４－１",
    "lat": 40.5112313,
    "lng": 141.2617199,
    "tel": "0178-77-2160",
    "url": "https://www.sakuraso.or.jp/",
    "pref": "青森県",
    "city": "五戸町",
    "category": "tokuyou",
    "serviceType": "介護老人福祉施設",
    "capacity": 0,
    "openDays": [],
    "openDaysNote": ""
  },
  {
    "id": "270500135",
    "name": "特別養護老人ホーム　青山荘",
    "kana": "トクベツヨウゴロウジンホーム　セイザンソウ",
    "address": "青森県五所川原市大字金山字盛山42-8",
    "lat": 40.8090506,
    "lng": 140.4992244,
    "tel": "0173-35-4215",
    "url": "http://www.seizanso.or.jp",
    "pref": "青森県",
    "city": "五所川原市",
    "category": "tokuyou",
    "serviceType": "介護老人福祉施設",
    "capacity": 30,
    "openDays": [],
    "openDaysNote": ""
  },
  {
    "id": "270500242",
    "name": "特別養護老人ホームあかね荘",
    "kana": "トクベツヨウゴロウジンホームアカネソウ",
    "address": "青森県五所川原市大字前田野目字長峰１１２番地２",
    "lat": 40.7598739,
    "lng": 140.5564803,
    "tel": "0173-29-3533",
    "url": "http://akanesou.web.fc2.com/",
    "pref": "青森県",
    "city": "五所川原市",
    "category": "tokuyou",
    "serviceType": "介護老人福祉施設",
    "capacity": 0,
    "openDays": [],
    "openDaysNote": ""
  },
  {
    "id": "272400276",
    "name": "特別養護老人ホームあしの園",
    "kana": "トクベツヨウゴロウジンホームアシノエン",
    "address": "青森県五所川原市金木町川倉七夕野84-442",
    "lat": 40.9213926,
    "lng": 140.4563897,
    "tel": "0173-53-2215",
    "url": "",
    "pref": "青森県",
    "city": "五所川原市",
    "category": "tokuyou",
    "serviceType": "介護老人福祉施設",
    "capacity": 50,
    "openDays": [],
    "openDaysNote": ""
  },
  {
    "id": "270501372",
    "name": "特別養護老人ホームすわんの里",
    "kana": "トクベツヨウゴロウジンホームスワンノサト",
    "address": "青森県五所川原市脇元磯辺365番地1",
    "lat": 41.0953911,
    "lng": 140.319449,
    "tel": "0173-62-2622",
    "url": "http://www.takushinkai.or.jp",
    "pref": "青森県",
    "city": "五所川原市",
    "category": "tokuyou",
    "serviceType": "介護老人福祉施設",
    "capacity": null,
    "openDays": [],
    "openDaysNote": ""
  },
  {
    "id": "270500259",
    "name": "特別養護老人ホーム祥光苑",
    "kana": "トクベツヨウゴロウジンホームショウコウエン",
    "address": "青森県五所川原市大字沖飯詰字帯刀３５７番地１",
    "lat": 40.8357852,
    "lng": 140.4525741,
    "tel": "0173-36-3100",
    "url": "http://www1.ocn.ocn.ne.jp/~shoko-en/",
    "pref": "青森県",
    "city": "五所川原市",
    "category": "tokuyou",
    "serviceType": "介護老人福祉施設",
    "capacity": 0,
    "openDays": [],
    "openDaysNote": ""
  },
  {
    "id": "270500994",
    "name": "特別養護老人ホーム青山荘",
    "kana": "トクベツヨウゴロウジンホーム　セイザンソウ",
    "address": "青森県五所川原市大字金山字盛山42-8",
    "lat": 40.8090506,
    "lng": 140.4992244,
    "tel": "0173-35-4215",
    "url": "https://www.seizanso/or.jp",
    "pref": "青森県",
    "city": "五所川原市",
    "category": "tokuyou",
    "serviceType": "介護老人福祉施設",
    "capacity": 50,
    "openDays": [],
    "openDaysNote": ""
  },
  {
    "id": "272200197",
    "name": "介護老人福祉施設　特別養護老人ホーム　松山荘",
    "kana": "カイゴロウジンフクシシセツ　トクベツヨウゴロウジンホーム　ショウザンソウ",
    "address": "青森県弘前市大字一町田字浅井443番地1",
    "lat": 40.6099777660779,
    "lng": 140.419454655272,
    "tel": "0172-82-3500",
    "url": "https://www.gakuyokai.jp/",
    "pref": "青森県",
    "city": "弘前市",
    "category": "tokuyou",
    "serviceType": "介護老人福祉施設",
    "capacity": 75,
    "openDays": [],
    "openDaysNote": ""
  },
  {
    "id": "270200801",
    "name": "弘前特別養護老人ホーム",
    "kana": "ヒロサキトクベツヨウゴロウジンホーム",
    "address": "青森県弘前市自由ヶ丘５－５－３",
    "lat": 40.5822121,
    "lng": 140.4367335,
    "tel": "0172-88-1431",
    "url": "http://tsugarufujimikai.com",
    "pref": "青森県",
    "city": "弘前市",
    "category": "tokuyou",
    "serviceType": "介護老人福祉施設",
    "capacity": 75,
    "openDays": [],
    "openDaysNote": ""
  },
  {
    "id": "270200793",
    "name": "特別養護老人ホーム　　福寿園",
    "kana": "トクベツヨウゴロウジンホウムフクジュエン",
    "address": "青森県弘前市大字福村字新舘添50-8特別養護老人ホーム福寿園 特別養護老人ホーム福寿園",
    "lat": 40.6064283,
    "lng": 140.516434,
    "tel": "0172-28-0900",
    "url": "http://ichiyoukai.jp",
    "pref": "青森県",
    "city": "弘前市",
    "category": "tokuyou",
    "serviceType": "介護老人福祉施設",
    "capacity": 0,
    "openDays": [],
    "openDaysNote": ""
  },
  {
    "id": "270200835",
    "name": "特別養護老人ホーム　おうよう園",
    "kana": "トクベツヨウゴロウジンホーム　オウヨウエン",
    "address": "青森県弘前市大字城南五丁目１３番地１５",
    "lat": 40.5784568335622,
    "lng": 140.460977711639,
    "tel": "0172-36-2074",
    "url": "http://www.oyoen.com/",
    "pref": "青森県",
    "city": "弘前市",
    "category": "tokuyou",
    "serviceType": "介護老人福祉施設",
    "capacity": 50,
    "openDays": [],
    "openDaysNote": ""
  },
  {
    "id": "270200827",
    "name": "特別養護老人ホーム　サンアップルホーム",
    "kana": "トクベツヨウゴロウジンホーム　　サンアップルホーム",
    "address": "弘前市大字高杉字尾上山３５０",
    "lat": 40.6724358,
    "lng": 140.3815809,
    "tel": "0172-97-2111",
    "url": "http://www.sunapplehome.jp/",
    "pref": "青森県",
    "city": "弘前市",
    "category": "tokuyou",
    "serviceType": "介護老人福祉施設",
    "capacity": 80,
    "openDays": [],
    "openDaysNote": ""
  },
  {
    "id": "270200785",
    "name": "特別養護老人ホーム　弘前静光園",
    "kana": "トクベツヨウゴロウジンホーム　ヒロサキセイコウエン",
    "address": "青森県弘前市大字豊原一丁目1番地２特別養護老人ホーム　弘前静光園 特別養護老人ホーム　弘前静光園",
    "lat": 40.5843432,
    "lng": 140.4757088,
    "tel": "0172-33-1181",
    "url": "seikouen＠sh-aiseien.jp",
    "pref": "青森県",
    "city": "弘前市",
    "category": "tokuyou",
    "serviceType": "介護老人福祉施設",
    "capacity": 80,
    "openDays": [],
    "openDaysNote": ""
  },
  {
    "id": "270200587",
    "name": "特別養護老人ホーム　弘前大清水ホーム",
    "kana": "トクベツヨウゴロウジンホームヒロサキオオシミズホーム",
    "address": "青森県弘前市大字清原四丁目9番地2",
    "lat": 40.5780163,
    "lng": 140.4905304,
    "tel": "0172-36-2266",
    "url": "http://www.fujiseiboen.or.jp/",
    "pref": "青森県",
    "city": "弘前市",
    "category": "tokuyou",
    "serviceType": "介護老人福祉施設",
    "capacity": 80,
    "openDays": [],
    "openDaysNote": ""
  },
  {
    "id": "270200819",
    "name": "特別養護老人ホーム　白寿園",
    "kana": "トクベツヨウゴロウジンホーム　ハクジュエン",
    "address": "青森県弘前市大字大沢字稲元3番地2",
    "lat": 40.5581117,
    "lng": 140.5163201,
    "tel": "0172-92-2031",
    "url": "hakujuen-t.or.jp",
    "pref": "青森県",
    "city": "弘前市",
    "category": "tokuyou",
    "serviceType": "介護老人福祉施設",
    "capacity": 0,
    "openDays": [],
    "openDaysNote": ""
  },
  {
    "id": "270200843",
    "name": "特別養護老人ホーム弘前園",
    "kana": "トクベツヨウゴロウジンホームヒロサキエン",
    "address": "青森県弘前市大字鬼沢字山ノ越249番地",
    "lat": 40.6967034,
    "lng": 140.4048475,
    "tel": "0172-99-5050",
    "url": "",
    "pref": "青森県",
    "city": "弘前市",
    "category": "tokuyou",
    "serviceType": "介護老人福祉施設",
    "capacity": null,
    "openDays": [],
    "openDaysNote": ""
  },
  {
    "id": "270200702",
    "name": "特別養護老人ホーム三和園",
    "kana": "トクベツヨウゴロウジンホウムサンワエン",
    "address": "青森県弘前市大字茜町二丁目1番地2",
    "lat": 40.6009185,
    "lng": 140.4465624,
    "tel": "0172-88-8890",
    "url": "http://sanwakai.info/",
    "pref": "青森県",
    "city": "弘前市",
    "category": "tokuyou",
    "serviceType": "介護老人福祉施設",
    "capacity": 0,
    "openDays": [],
    "openDaysNote": ""
  },
  {
    "id": "272200205",
    "name": "特別養護老人ホーム長慶苑",
    "kana": "トクベツヨウゴロウジンホームチョウケイエン",
    "address": "青森県弘前市大字坂市字亀田53番地3",
    "lat": 40.5737391,
    "lng": 140.3799227,
    "tel": "0172-84-1010",
    "url": "http://www.choukeien.or.jp",
    "pref": "青森県",
    "city": "弘前市",
    "category": "tokuyou",
    "serviceType": "介護老人福祉施設",
    "capacity": null,
    "openDays": [],
    "openDaysNote": ""
  },
  {
    "id": "270400021",
    "name": "すみれ特別養護老人ホーム",
    "kana": "スミレトクベツヨウゴロウジンホーム",
    "address": "青森県黒石市馬場尻南５８",
    "lat": 40.6749277,
    "lng": 140.5871866,
    "tel": "0172-53-3018",
    "url": "http://www.sumire-kai.jp/",
    "pref": "青森県",
    "city": "黒石市",
    "category": "tokuyou",
    "serviceType": "介護老人福祉施設",
    "capacity": 60,
    "openDays": [],
    "openDaysNote": ""
  },
  {
    "id": "270400088",
    "name": "黒石特別養護老人ホーム",
    "kana": "クロイシトクベツヨウゴロウジンホーム",
    "address": "青森県黒石市大字赤坂字池田１３６番地",
    "lat": 40.6660795,
    "lng": 140.6100237,
    "tel": "0172-53-3325",
    "url": "http://www.roujinhome-kuroishi.or.jp",
    "pref": "青森県",
    "city": "黒石市",
    "category": "tokuyou",
    "serviceType": "介護老人福祉施設",
    "capacity": null,
    "openDays": [],
    "openDaysNote": ""
  },
  {
    "id": "272000449",
    "name": "特別養護老人ホームなかやま荘",
    "kana": "トクベツヨウゴロウジンホームナカヤマソウ",
    "address": "青森県東津軽郡今別町大字今別字西田２４８番地２０５",
    "lat": 41.1778440221381,
    "lng": 140.479496174904,
    "tel": "0174-35-3961",
    "url": "http://www.soujuen.com/",
    "pref": "青森県",
    "city": "今別町",
    "category": "tokuyou",
    "serviceType": "介護老人福祉施設",
    "capacity": 0,
    "openDays": [],
    "openDaysNote": ""
  },
  {
    "id": "272600586",
    "name": "特別養護老人ホーム　ゆうなぎの里",
    "kana": "トクベツヨウゴロウジンホーム　ユウナギノサト",
    "address": "青森県下北郡佐井村大字佐井字原田５５－２",
    "lat": 41.4552205,
    "lng": 140.8808365,
    "tel": "０１７５－３２－２２２０",
    "url": "htt://mirokuen.com/yuunaginosato/",
    "pref": "青森県",
    "city": "佐井村",
    "category": "tokuyou",
    "serviceType": "介護老人福祉施設",
    "capacity": null,
    "openDays": [],
    "openDaysNote": ""
  },
  {
    "id": "272700337",
    "name": "特別養護老人ホーム鶴亀荘",
    "kana": "トクベツヨウゴロウジンホームツルカメソウ",
    "address": "青森県三戸郡三戸町大字斗内字和田60-1",
    "lat": 40.3625767,
    "lng": 141.2204878,
    "tel": "0179-23-4111",
    "url": "www.keisinkai.com/",
    "pref": "青森県",
    "city": "三戸町",
    "category": "tokuyou",
    "serviceType": "介護老人福祉施設",
    "capacity": 50,
    "openDays": [],
    "openDaysNote": ""
  },
  {
    "id": "270700123",
    "name": "三沢老人ホーム",
    "kana": "ミサワロウジンホーム",
    "address": "青森県三沢市大字三沢字園沢１５６－８",
    "lat": 40.6776353,
    "lng": 141.4112254,
    "tel": "0176-54-2534",
    "url": "http://www.rakuseikai.or.jp/",
    "pref": "青森県",
    "city": "三沢市",
    "category": "tokuyou",
    "serviceType": "介護老人福祉施設",
    "capacity": 60,
    "openDays": [],
    "openDaysNote": ""
  },
  {
    "id": "270700750",
    "name": "三沢老人ホーム",
    "kana": "ミサワロウジンホーム",
    "address": "青森県三沢市大字三沢字園沢156-8",
    "lat": 40.6777282,
    "lng": 141.4113955,
    "tel": "0176-54-2534",
    "url": "https://www.rakuseikai.or.jp/",
    "pref": "青森県",
    "city": "三沢市",
    "category": "tokuyou",
    "serviceType": "介護老人福祉施設",
    "capacity": null,
    "openDays": [],
    "openDaysNote": ""
  },
  {
    "id": "270700172",
    "name": "特別養護老人ホーム　ひばり苑",
    "kana": "トクベツヨウゴロウジンホーム　ヒバリエン",
    "address": "青森県三沢市六川目６丁目２８－６",
    "lat": 40.7723223,
    "lng": 141.4020749,
    "tel": "0176-59-3601",
    "url": "http://www.joukoukai.or.jp",
    "pref": "青森県",
    "city": "三沢市",
    "category": "tokuyou",
    "serviceType": "介護老人福祉施設",
    "capacity": 0,
    "openDays": [],
    "openDaysNote": ""
  },
  {
    "id": "270700560",
    "name": "特別養護老人ホームうるわしの杜",
    "kana": "トクベツヨウゴロウジンホームウルワシノモリ",
    "address": "青森県三沢市千代田町4丁目140-851",
    "lat": 40.6674127,
    "lng": 141.3601583,
    "tel": "0176-53-7773",
    "url": "www.dohjinkai⁻aomori.or.jp/uruwashi",
    "pref": "青森県",
    "city": "三沢市",
    "category": "tokuyou",
    "serviceType": "介護老人福祉施設",
    "capacity": 0,
    "openDays": [],
    "openDaysNote": ""
  },
  {
    "id": "272500695",
    "name": "社会福祉法人美土里会　特別養護老人ホーム美土里荘",
    "kana": "シャカイフクシホウジン　ミドリカイ　トクベツヨウゴロウジンホウム　ミドリソウ",
    "address": "青森県上北郡七戸町字寒水７０－１７",
    "lat": 40.7167849381713,
    "lng": 141.174695896295,
    "tel": "0176-62-2761",
    "url": "http://www.midorikai-gr.or.jp/index.php/business/midorisou",
    "pref": "青森県",
    "city": "七戸町",
    "category": "tokuyou",
    "serviceType": "介護老人福祉施設",
    "capacity": 70,
    "openDays": [],
    "openDaysNote": ""
  },
  {
    "id": "272500729",
    "name": "特別養護老人ホーム天寿園",
    "kana": "トクベツヨウゴロウジンホームテンジュエン",
    "address": "青森県上北郡七戸町字舟場向川久保308番地",
    "lat": 40.7579735,
    "lng": 141.1794073,
    "tel": "0176-68-4888",
    "url": "https://tenjuen.net/",
    "pref": "青森県",
    "city": "七戸町",
    "category": "tokuyou",
    "serviceType": "介護老人福祉施設",
    "capacity": null,
    "openDays": [],
    "openDaysNote": ""
  },
  {
    "id": "272502295",
    "name": "特別養護老人ホーム天寿園みちのかみ",
    "kana": "トクベツヨウゴロウジンホームテンジュエンミチノカミ",
    "address": "青森県上北郡七戸町字道ノ上５２番地４特別養護老人ホーム天寿園みちのかみ 特別養護老人ホーム天寿園みちのかみ",
    "lat": 40.7504841,
    "lng": 141.1483426,
    "tel": "0176-58-5282",
    "url": "www.tenjuen.net/",
    "pref": "青森県",
    "city": "七戸町",
    "category": "tokuyou",
    "serviceType": "介護老人福祉施設",
    "capacity": null,
    "openDays": [],
    "openDaysNote": ""
  },
  {
    "id": "270600208",
    "name": "特別養護老人ホーム　一葉園",
    "kana": "トクベツヨウゴロウジンホーム　イチヨウエン",
    "address": "青森県十和田市元町西五丁目11番31号",
    "lat": 40.6233950085082,
    "lng": 141.198130559137,
    "tel": "0176-27-1218",
    "url": "http://shiseikai-1960.or.jp/",
    "pref": "青森県",
    "city": "十和田市",
    "category": "tokuyou",
    "serviceType": "介護老人福祉施設",
    "capacity": 110,
    "openDays": [],
    "openDaysNote": ""
  },
  {
    "id": "272500323",
    "name": "特別養護老人ホーム　湖楽園",
    "kana": "トクベツヨウゴロウジンホーム　コラクエン",
    "address": "青森県十和田市大字奥瀬字下川目2-9",
    "lat": 40.5849684,
    "lng": 141.0942607,
    "tel": "0176-72-2790",
    "url": "http//www.towadakokai.jp",
    "pref": "青森県",
    "city": "十和田市",
    "category": "tokuyou",
    "serviceType": "介護老人福祉施設",
    "capacity": 0,
    "openDays": [],
    "openDaysNote": ""
  },
  {
    "id": "270600406",
    "name": "特別養護老人ホーム八甲荘",
    "kana": "トクベツヨウゴロウジンホームハッコウソウ",
    "address": "青森県十和田市大字相坂字高清水78番地232",
    "lat": 40.6331999,
    "lng": 141.2611377,
    "tel": "0176-23-5500",
    "url": "http://hakkoudakai.jp",
    "pref": "青森県",
    "city": "十和田市",
    "category": "tokuyou",
    "serviceType": "介護老人福祉施設",
    "capacity": 0,
    "openDays": [],
    "openDaysNote": ""
  },
  {
    "id": "272100645",
    "name": "特別養護老人ホームサンタ園",
    "kana": "トクベツヨウゴロウジンホームサンタエン",
    "address": "青森県西津軽郡深浦町大字岩崎字松原57番地2",
    "lat": 40.5826108575952,
    "lng": 139.925714311114,
    "tel": "0173-77-2020",
    "url": "",
    "pref": "青森県",
    "city": "深浦町",
    "category": "tokuyou",
    "serviceType": "介護老人福祉施設",
    "capacity": 0,
    "openDays": [],
    "openDaysNote": ""
  },
  {
    "id": "272100470",
    "name": "特別養護老人ホームはまなす荘",
    "kana": "トクベツヨウゴロウジンホームハマナスソウ",
    "address": "青森県西津軽郡深浦町大字驫木字津山118番地44",
    "lat": 40.7024267,
    "lng": 139.9816372,
    "tel": "0173-74-4381",
    "url": "ＵＲＬ：http://hamanasusou.com",
    "pref": "青森県",
    "city": "深浦町",
    "category": "tokuyou",
    "serviceType": "介護老人福祉施設",
    "capacity": 0,
    "openDays": [],
    "openDaysNote": ""
  },
  {
    "id": "272200122",
    "name": "特別養護老人ホーム白神荘",
    "kana": "トクベツヨウゴロウジンホームシラカミソウ",
    "address": "青森県中津軽郡西目屋村大字田代字稲元143番地2号",
    "lat": 40.5777800786419,
    "lng": 140.294833146033,
    "tel": "0172-85-3123",
    "url": "http://sanwakai.info/",
    "pref": "青森県",
    "city": "西目屋村",
    "category": "tokuyou",
    "serviceType": "介護老人福祉施設",
    "capacity": 0,
    "openDays": [],
    "openDaysNote": ""
  },
  {
    "id": "270100902",
    "name": "指定介護老人福祉施設　樹の里",
    "kana": "シテイカイゴロウジンフクシシセツ　キノサト",
    "address": "青森市大字諏訪沢字丸山56番地１",
    "lat": 40.8199215,
    "lng": 140.8330766,
    "tel": "017-726-3550",
    "url": "http://www.suwanomorikai.or.jp",
    "pref": "青森県",
    "city": "青森市",
    "category": "tokuyou",
    "serviceType": "介護老人福祉施設",
    "capacity": 0,
    "openDays": [],
    "openDaysNote": ""
  },
  {
    "id": "270100316",
    "name": "鶴ヶ丘苑",
    "kana": "ツルガオカエン",
    "address": "青森県青森市大字新城字平岡746番地",
    "lat": 40.8022334,
    "lng": 140.6650942,
    "tel": "017-788-5872",
    "url": "http://www.keijinkai-ao.jp/turugaoka/",
    "pref": "青森県",
    "city": "青森市",
    "category": "tokuyou",
    "serviceType": "介護老人福祉施設",
    "capacity": 90,
    "openDays": [],
    "openDaysNote": ""
  },
  {
    "id": "270102064",
    "name": "特別養護老人ホーム　かいふう",
    "kana": "トクベツヨウゴロウジンホーム　カイフウ",
    "address": "青森県青森市大字久栗坂字山辺８９－１０",
    "lat": 40.8774682,
    "lng": 140.8523639,
    "tel": "017-737-5080",
    "url": "http://www.keijinkai-ao.jp/",
    "pref": "青森県",
    "city": "青森市",
    "category": "tokuyou",
    "serviceType": "介護老人福祉施設",
    "capacity": 0,
    "openDays": [],
    "openDaysNote": ""
  },
  {
    "id": "270100704",
    "name": "特別養護老人ホーム　雲谷ホーム",
    "kana": "トクベツヨウゴロウジンホーム　モヤホーム",
    "address": "青森市大字雲谷字山吹92番地170",
    "lat": 40.7393953,
    "lng": 140.7837123,
    "tel": "017-728-2910",
    "url": "http://www.moyahomu.com",
    "pref": "青森県",
    "city": "青森市",
    "category": "tokuyou",
    "serviceType": "介護老人福祉施設",
    "capacity": 0,
    "openDays": [],
    "openDaysNote": ""
  },
  {
    "id": "270100407",
    "name": "特別養護老人ホーム　寿幸園",
    "kana": "トクベツヨウゴロウジンホーム　ジュコウエン",
    "address": "青森市大字高田字川瀬186番地１",
    "lat": 40.768016,
    "lng": 140.7236104,
    "tel": "017-739-6473",
    "url": "http://heigenkai.jp",
    "pref": "青森県",
    "city": "青森市",
    "category": "tokuyou",
    "serviceType": "介護老人福祉施設",
    "capacity": 98,
    "openDays": [],
    "openDaysNote": ""
  },
  {
    "id": "270100654",
    "name": "特別養護老人ホーム　正寿園",
    "kana": "トクベツヨウゴロウジンホーム　セイジュエン",
    "address": "青森市大字田茂木野字阿部野６３－２",
    "lat": 40.7669734,
    "lng": 140.8000286,
    "tel": "017-738-3711",
    "url": "http://heigenkai.jp/",
    "pref": "青森県",
    "city": "青森市",
    "category": "tokuyou",
    "serviceType": "介護老人福祉施設",
    "capacity": 0,
    "openDays": [],
    "openDaysNote": ""
  },
  {
    "id": "270101595",
    "name": "特別養護老人ホーム　朝光苑",
    "kana": "トクベツヨウゴロウジンホーム　チョウコウエン",
    "address": "青森県青森市大字横内字亀井２４５番地１",
    "lat": 40.77118,
    "lng": 140.766712,
    "tel": "017-764-5117",
    "url": "http://www.onwakai.or.jp/",
    "pref": "青森県",
    "city": "青森市",
    "category": "tokuyou",
    "serviceType": "介護老人福祉施設",
    "capacity": 0,
    "openDays": [],
    "openDaysNote": ""
  },
  {
    "id": "270100878",
    "name": "特別養護老人ホーム　藤の園",
    "kana": "トクベツヨウゴロウジンホ-ム　フジノソノ",
    "address": "青森県青森市大字駒込字蛍沢　387番地1",
    "lat": 40.7926241,
    "lng": 140.813121,
    "tel": "017-765-5685",
    "url": "http://www.fujiseiboen.or.jp/",
    "pref": "青森県",
    "city": "青森市",
    "category": "tokuyou",
    "serviceType": "介護老人福祉施設",
    "capacity": 60,
    "openDays": [],
    "openDaysNote": ""
  },
  {
    "id": "270100670",
    "name": "特別養護老人ホーム　和幸園",
    "kana": "トクベツヨウゴロウジンホ－ム　ワコウエン",
    "address": "青森市大字矢田字下野尻48-3",
    "lat": 40.8469938,
    "lng": 140.8483237,
    "tel": "017-737-3333",
    "url": "http://www.wakouen.or.jp",
    "pref": "青森県",
    "city": "青森市",
    "category": "tokuyou",
    "serviceType": "介護老人福祉施設",
    "capacity": 0,
    "openDays": [],
    "openDaysNote": ""
  },
  {
    "id": "270103989",
    "name": "特別養護老人ホームつるがさか",
    "kana": "トクベツヨウゴロウジンホームツルガサカ",
    "address": "青森県青森市大字鶴ヶ坂字田川187－94",
    "lat": 40.7873948,
    "lng": 140.6283373,
    "tel": "０１７－７６３－１０５１",
    "url": "http://care-net.biz/02/tsurugasaka/",
    "pref": "青森県",
    "city": "青森市",
    "category": "tokuyou",
    "serviceType": "介護老人福祉施設",
    "capacity": 36,
    "openDays": [],
    "openDaysNote": ""
  },
  {
    "id": "272300104",
    "name": "特別養護老人ホームゆうゆう荘",
    "kana": "トクベツヨウゴロウジンホームユウユウソウ",
    "address": "青森県青森市浪岡大字樽沢字村元３３０－７",
    "lat": 40.7127337,
    "lng": 140.5583066,
    "tel": "0172-62-9201",
    "url": "http://care-net.biz/02/yuyusou/",
    "pref": "青森県",
    "city": "青森市",
    "category": "tokuyou",
    "serviceType": "介護老人福祉施設",
    "capacity": null,
    "openDays": [],
    "openDaysNote": ""
  },
  {
    "id": "270103260",
    "name": "特別養護老人ホーム外ヶ浜荘",
    "kana": "トクベツヨウゴロウジンホームソトガハマソウ",
    "address": "青森県青森市大字奥内字宮田５６４－２",
    "lat": 40.8894424,
    "lng": 140.6717683,
    "tel": "017-761-3040",
    "url": "http://www.seiyu-kai.jp/sotogahamasou/index.html",
    "pref": "青森県",
    "city": "青森市",
    "category": "tokuyou",
    "serviceType": "介護老人福祉施設",
    "capacity": 50,
    "openDays": [],
    "openDaysNote": ""
  },
  {
    "id": "270100241",
    "name": "特別養護老人ホーム三思園",
    "kana": "トクベツヨウゴロウジンホームサンシエン",
    "address": "青森県青森市大字横内字若草1番地1",
    "lat": 40.7848702,
    "lng": 140.7608871,
    "tel": "017-728-1133",
    "url": "https://sanshien.site",
    "pref": "青森県",
    "city": "青森市",
    "category": "tokuyou",
    "serviceType": "介護老人福祉施設",
    "capacity": 50,
    "openDays": [],
    "openDaysNote": ""
  },
  {
    "id": "270104532",
    "name": "特別養護⽼⼈ホーム正寿園",
    "kana": "トクベツヨウゴロウジンホームセイジュエン",
    "address": "⻘森市⼤字⽥茂⽊野字阿部野６３－２",
    "lat": 34.6454938,
    "lng": 135.5150557,
    "tel": "017-738-3711",
    "url": "http://heigenkai.jp/",
    "pref": "青森県",
    "city": "青森市",
    "category": "tokuyou",
    "serviceType": "介護老人福祉施設",
    "capacity": 0,
    "openDays": [],
    "openDaysNote": ""
  },
  {
    "id": "272600255",
    "name": "特別養護老人ホームくろまつ",
    "kana": "トクベツヨウゴロウジンホームクロマツ",
    "address": "青森県下北郡大間町大字大間字大間平２０-７８",
    "lat": 41.5263569,
    "lng": 140.9273841,
    "tel": "0175-37-5111",
    "url": "",
    "pref": "青森県",
    "city": "大間町",
    "category": "tokuyou",
    "serviceType": "介護老人福祉施設",
    "capacity": 0,
    "openDays": [],
    "openDaysNote": ""
  },
  {
    "id": "272300153",
    "name": "特別養護老人ホーム　大鰐ホーム",
    "kana": "トクベツヨウゴロウジンホーム　オオワニホーム",
    "address": "青森県南津軽郡大鰐町大字大鰐字萢頭９－２",
    "lat": 40.5123414,
    "lng": 140.5771466,
    "tel": "0172-47-5036",
    "url": "http://www.owani.com/",
    "pref": "青森県",
    "city": "大鰐町",
    "category": "tokuyou",
    "serviceType": "介護老人福祉施設",
    "capacity": 50,
    "openDays": [],
    "openDaysNote": ""
  },
  {
    "id": "272401167",
    "name": "特別養護老人ホーム　静和園",
    "kana": "トクベツヨウゴロウジンホーム　セイワエン",
    "address": "青森県北津軽郡中泊町大字中里字宝森1番地２特別養護老人ホーム　静和園 特別養護老人ホーム　静和園",
    "lat": 40.9678586,
    "lng": 140.4322926,
    "tel": "0173-57-3101",
    "url": "",
    "pref": "青森県",
    "city": "中泊町",
    "category": "tokuyou",
    "serviceType": "介護老人福祉施設",
    "capacity": 0,
    "openDays": [],
    "openDaysNote": ""
  },
  {
    "id": "272401191",
    "name": "特別養護老人ホーム幸",
    "kana": "トクベツヨウゴロウジンホームコウ",
    "address": "青森県北津軽郡中泊町大字尾別字小谷26番地1",
    "lat": 40.9844848,
    "lng": 140.4296283,
    "tel": "0173-26-5330",
    "url": "https://koumeikai.net/",
    "pref": "青森県",
    "city": "中泊町",
    "category": "tokuyou",
    "serviceType": "介護老人福祉施設",
    "capacity": 0,
    "openDays": [],
    "openDaysNote": ""
  },
  {
    "id": "272400169",
    "name": "特別養護老人ホーム鶴松園",
    "kana": "トクベツヨウゴロウジンホーム　カクショウエン",
    "address": "青森県北津軽郡鶴田町大字廻堰上野尻146番地１",
    "lat": 40.7665694,
    "lng": 140.3957175,
    "tel": "0173-22-6633",
    "url": "http://kakusyou.sakura.ne.jp/",
    "pref": "青森県",
    "city": "鶴田町",
    "category": "tokuyou",
    "serviceType": "介護老人福祉施設",
    "capacity": null,
    "openDays": [],
    "openDaysNote": ""
  },
  {
    "id": "272701806",
    "name": "特別養護老人ホームみろく苑",
    "kana": "トクベツヨウゴロウジンホームミロクエン",
    "address": "青森県三戸郡田子町大字田子字七日市上ノ平60番地特別養護老人ホームみろく苑 特別養護老人ホームみろく苑",
    "lat": 40.3351456,
    "lng": 141.1517835,
    "tel": "0179-32-3699",
    "url": "ｈｔｔｐ：//mirokuen.com/",
    "pref": "青森県",
    "city": "田子町",
    "category": "tokuyou",
    "serviceType": "介護老人福祉施設",
    "capacity": 0,
    "openDays": [],
    "openDaysNote": ""
  },
  {
    "id": "272500356",
    "name": "特別養護老人ホーム　彩香園アルテリーベ",
    "kana": "トクベツヨウゴロウジンホーム　サイコウエンアルテリーベ",
    "address": "青森県上北郡東北町大字大浦字境ノ沢127",
    "lat": 40.7124687,
    "lng": 141.2352488,
    "tel": "0176-56-2111",
    "url": "https://www.akibakai.com",
    "pref": "青森県",
    "city": "東北町",
    "category": "tokuyou",
    "serviceType": "介護老人福祉施設",
    "capacity": 0,
    "openDays": [],
    "openDaysNote": ""
  },
  {
    "id": "272501966",
    "name": "特別養護老人ホーム松風荘",
    "kana": "トクベツヨウゴロウジンホームショウフウソウ",
    "address": "青森県上北郡東北町字乙供１２３番地",
    "lat": 40.766692178081,
    "lng": 141.19408923055,
    "tel": "0175-63-2031",
    "url": "http://keitokukai-1992.com/shoufusou.html",
    "pref": "青森県",
    "city": "東北町",
    "category": "tokuyou",
    "serviceType": "介護老人福祉施設",
    "capacity": 110,
    "openDays": [],
    "openDaysNote": ""
  },
  {
    "id": "272300484",
    "name": "特別養護老人ホーム　さんふじ",
    "kana": "トクベツヨウゴロウジンホーム　サンフジ",
    "address": "青森県南津軽郡藤崎町大字柏木堰字南亀田１番地１",
    "lat": 40.6903766,
    "lng": 140.5130196,
    "tel": "0172-75-3511",
    "url": "",
    "pref": "青森県",
    "city": "藤崎町",
    "category": "tokuyou",
    "serviceType": "介護老人福祉施設",
    "capacity": 0,
    "openDays": [],
    "openDaysNote": ""
  },
  {
    "id": "272300674",
    "name": "特別養護老人ホームときわ",
    "kana": "トクベツヨウゴロウジンホームトキワ",
    "address": "青森県南津軽郡藤崎町大字水木字浅田９５",
    "lat": 40.6780925,
    "lng": 140.5367431,
    "tel": "0172-69-5225",
    "url": "http://www.toueikai.jp/tokiwa-office.html",
    "pref": "青森県",
    "city": "藤崎町",
    "category": "tokuyou",
    "serviceType": "介護老人福祉施設",
    "capacity": 0,
    "openDays": [],
    "openDaysNote": ""
  },
  {
    "id": "272701962",
    "name": "特別養護老人ホーム　ハピネスながわ",
    "kana": "トクベツヨウゴロウジンホーム　ハピネスナガワ",
    "address": "青森県三戸郡南部町大字下名久井字剣吉前川原1-1",
    "lat": 40.441071619758,
    "lng": 141.341836277501,
    "tel": "0178-60-5252",
    "url": "http://family-wf.jp/happiness_nagawa",
    "pref": "青森県",
    "city": "南部町",
    "category": "tokuyou",
    "serviceType": "介護老人福祉施設",
    "capacity": 0,
    "openDays": [],
    "openDaysNote": ""
  },
  {
    "id": "272700543",
    "name": "特別養護老人ホーム　長老園",
    "kana": "トクベツヨウゴロウジンホーム　チョウロウエン",
    "address": "青森県三戸郡南部町大字埖渡字東あかね５-１２５",
    "lat": 40.4582109,
    "lng": 141.3885016,
    "tel": "0178-84-3131",
    "url": "http://chorokai.or.jp/",
    "pref": "青森県",
    "city": "南部町",
    "category": "tokuyou",
    "serviceType": "介護老人福祉施設",
    "capacity": 50,
    "openDays": [],
    "openDaysNote": ""
  },
  {
    "id": "272700584",
    "name": "特別養護老人ホーム三戸老人ホーム",
    "kana": "トクベツヨウゴロウジンホウムサンノヘロウジンホウム",
    "address": "青森県三戸郡南部町大向字仙ノ木平31-1",
    "lat": 40.3983327,
    "lng": 141.2853188,
    "tel": "0179-22-1215",
    "url": "",
    "pref": "青森県",
    "city": "南部町",
    "category": "tokuyou",
    "serviceType": "介護老人福祉施設",
    "capacity": 50,
    "openDays": [],
    "openDaysNote": ""
  },
  {
    "id": "270300288",
    "name": "瑞光園",
    "kana": "ズイコウエン",
    "address": "青森県八戸市大字大久保字大山35番地1",
    "lat": 40.4887400689228,
    "lng": 141.579124174869,
    "tel": "0178-25-0101",
    "url": "https://www.zuikoen.or.jp",
    "pref": "青森県",
    "city": "八戸市",
    "category": "tokuyou",
    "serviceType": "介護老人福祉施設",
    "capacity": 70,
    "openDays": [],
    "openDaysNote": ""
  },
  {
    "id": "270301419",
    "name": "特別養護老人ホーム　サンシャイン",
    "kana": "トクベツヨウゴロウジンホーム　サンシャイン",
    "address": "青森県八戸市東白山台二丁目２番１",
    "lat": 40.4893130086251,
    "lng": 141.471370653878,
    "tel": "0178-23-5050",
    "url": "https://s-tokokai.or.jp/facility/tokubetuyogo/",
    "pref": "青森県",
    "city": "八戸市",
    "category": "tokuyou",
    "serviceType": "介護老人福祉施設",
    "capacity": null,
    "openDays": [],
    "openDaysNote": ""
  },
  {
    "id": "270302623",
    "name": "特別養護老人ホーム　ハピネスやくら",
    "kana": "トクベツヨウゴロウジンホーム　ハピネスヤクラ",
    "address": "青森県八戸市大字八幡字下樋田1番1",
    "lat": 40.4952874,
    "lng": 141.4362432,
    "tel": "0178-70-2540",
    "url": "http://family-wf.jp/happiness_yakura/",
    "pref": "青森県",
    "city": "八戸市",
    "category": "tokuyou",
    "serviceType": "介護老人福祉施設",
    "capacity": 50,
    "openDays": [],
    "openDaysNote": ""
  },
  {
    "id": "270302227",
    "name": "特別養護老人ホーム　ほっとハウス",
    "kana": "トクベツヨウゴロウジンホームホットハウス",
    "address": "青森県八戸市大字尻内町字熊ノ沢35番2号",
    "lat": 40.5220034,
    "lng": 141.4260625,
    "tel": "0178-70-1818",
    "url": "http://tomonokai.jp/",
    "pref": "青森県",
    "city": "八戸市",
    "category": "tokuyou",
    "serviceType": "介護老人福祉施設",
    "capacity": 50,
    "openDays": [],
    "openDaysNote": ""
  },
  {
    "id": "270302128",
    "name": "特別養護老人ホーム　光葉園",
    "kana": "トクベツヨウゴロウジンホーム　コウヨウエン",
    "address": "青森県八戸市大字鮫町字金屎３５番地９０",
    "lat": 40.5140884,
    "lng": 141.5775674,
    "tel": "0178-33-5426",
    "url": "http://www.mirokukai.or.jp/koyoen/",
    "pref": "青森県",
    "city": "八戸市",
    "category": "tokuyou",
    "serviceType": "介護老人福祉施設",
    "capacity": 69,
    "openDays": [],
    "openDaysNote": ""
  },
  {
    "id": "270300650",
    "name": "特別養護老人ホーム　修光園",
    "kana": "トクベツヨウゴロウジンホーム　シュウコウエン",
    "address": "青森県八戸市大字十日市字黒坂３５番地",
    "lat": 40.4828772,
    "lng": 141.5209296,
    "tel": "0178-96-4895",
    "url": "http://www.shukouen.or.jp/",
    "pref": "青森県",
    "city": "八戸市",
    "category": "tokuyou",
    "serviceType": "介護老人福祉施設",
    "capacity": 0,
    "openDays": [],
    "openDaysNote": ""
  },
  {
    "id": "270300866",
    "name": "特別養護老人ホームリハビリパークえんぶり物語",
    "kana": "トクベツヨウゴロウジンホームリハビリパークエンブリモノガタリ",
    "address": "青森県八戸市大字河原木字見立山６番２０９",
    "lat": 40.5415073,
    "lng": 141.4501299,
    "tel": "0178-21-2000",
    "url": "http://www.rehabili-park.com",
    "pref": "青森県",
    "city": "八戸市",
    "category": "tokuyou",
    "serviceType": "介護老人福祉施設",
    "capacity": 70,
    "openDays": [],
    "openDaysNote": ""
  },
  {
    "id": "270300858",
    "name": "特別養護老人ホーム寿楽荘",
    "kana": "トクベツヨウゴロウジンホームジュラクソウ",
    "address": "青森県八戸市大字市川町字夏秋４",
    "lat": 40.5789963213961,
    "lng": 141.446401703705,
    "tel": "0178-52-5151",
    "url": "http://juei-kai.or.jp",
    "pref": "青森県",
    "city": "八戸市",
    "category": "tokuyou",
    "serviceType": "介護老人福祉施設",
    "capacity": 0,
    "openDays": [],
    "openDaysNote": ""
  },
  {
    "id": "270300486",
    "name": "福寿草インスプリング",
    "kana": "フクジュソウインスプリング",
    "address": "青森県八戸市大字妙字西平6番地２７",
    "lat": 40.4891572,
    "lng": 141.5440824,
    "tel": "0178-25-1021",
    "url": "http://fukujuso.or.jp/",
    "pref": "青森県",
    "city": "八戸市",
    "category": "tokuyou",
    "serviceType": "介護老人福祉施設",
    "capacity": 56,
    "openDays": [],
    "openDaysNote": ""
  },
  {
    "id": "270304124",
    "name": "福寿草インスプリング",
    "kana": "フクジュソウインスプリング",
    "address": "青森県八戸市大字妙字西平6番地２７",
    "lat": 40.4893089,
    "lng": 141.5440952,
    "tel": "0178-25-1021",
    "url": "http://www.fukujuso.or.jp/",
    "pref": "青森県",
    "city": "八戸市",
    "category": "tokuyou",
    "serviceType": "介護老人福祉施設",
    "capacity": 30,
    "openDays": [],
    "openDaysNote": ""
  },
  {
    "id": "272400318",
    "name": "特別養護老人ホーム　鶴住荘",
    "kana": "トクベツヨウゴロウジンホーム　ツルズミソウ",
    "address": "青森県北津軽郡板柳町大字野中字鶴住102番地2",
    "lat": 40.7220886,
    "lng": 140.4508185,
    "tel": "0172-73-3197",
    "url": "http://turuzumikai.jp",
    "pref": "青森県",
    "city": "板柳町",
    "category": "tokuyou",
    "serviceType": "介護老人福祉施設",
    "capacity": 80,
    "openDays": [],
    "openDaysNote": ""
  },
  {
    "id": "272300542",
    "name": "特別養護老人ホーム　さわやか園",
    "kana": "トクベツヨウゴロウジンホーム　サワヤカエン",
    "address": "青森県平川市日沼樋田８５",
    "lat": 40.6203461,
    "lng": 140.5165641,
    "tel": "0172-43-5432",
    "url": "http://www.sawayakaen.net/",
    "pref": "青森県",
    "city": "平川市",
    "category": "tokuyou",
    "serviceType": "介護老人福祉施設",
    "capacity": 50,
    "openDays": [],
    "openDaysNote": ""
  },
  {
    "id": "272300443",
    "name": "特別養護老人ホーム緑青園",
    "kana": "トクベツヨウゴロウジンホームリョクショウエン",
    "address": "青森県平川市沖館和田84番地",
    "lat": 40.5748561,
    "lng": 140.5709031,
    "tel": "0172-44-7588",
    "url": "http://ryokufu.or.jp/",
    "pref": "青森県",
    "city": "平川市",
    "category": "tokuyou",
    "serviceType": "介護老人福祉施設",
    "capacity": 75,
    "openDays": [],
    "openDaysNote": ""
  },
  {
    "id": "272000100",
    "name": "特別養護老人ホーム　清風荘",
    "kana": "トクベツヨウゴロウジンホーム　セイフウソウ",
    "address": "青森県東津軽郡平内町大字小湊字薬師堂63番地23",
    "lat": 40.9092896,
    "lng": 140.9531697,
    "tel": "017-755-5531",
    "url": "http://www.s-care.jp/",
    "pref": "青森県",
    "city": "平内町",
    "category": "tokuyou",
    "serviceType": "介護老人福祉施設",
    "capacity": 0,
    "openDays": [],
    "openDaysNote": ""
  },
  {
    "id": "272000431",
    "name": "特別養護老人ホーム夜越山倶楽部",
    "kana": "トクベツヨウゴロウジンホームヨゴシヤマクラブ",
    "address": "青森県東津軽郡平内町浜子字堀替７７番地３",
    "lat": 40.92646,
    "lng": 140.9910336,
    "tel": "017-755-6600",
    "url": "https://koujinkai-seifu.com",
    "pref": "青森県",
    "city": "平内町",
    "category": "tokuyou",
    "serviceType": "介護老人福祉施設",
    "capacity": 0,
    "openDays": [],
    "openDaysNote": ""
  },
  {
    "id": "272000274",
    "name": "特別養護老人ホーム　蓬生園",
    "kana": "トクベツヨウゴロウジンホーム　ホウセイエン",
    "address": "青森県東津軽郡蓬田村大字郷沢字浜田３９７番地",
    "lat": 40.9900592,
    "lng": 140.6477158,
    "tel": "0174-27-3445",
    "url": "http://www.watona-ru.com/houseien",
    "pref": "青森県",
    "city": "蓬田村",
    "category": "tokuyou",
    "serviceType": "介護老人福祉施設",
    "capacity": 50,
    "openDays": [],
    "openDaysNote": ""
  },
  {
    "id": "272502246",
    "name": "特別養護老人ホーム野辺地ホーム",
    "kana": "トクベツヨウゴロウジンホームノヘジホーム",
    "address": "青森県上北郡野辺地町字枇杷野51番地26特別養護老人ホーム野辺地ホーム 特別養護老人ホーム野辺地ホーム",
    "lat": 40.855604708047,
    "lng": 141.100698996635,
    "tel": "0175-73-1371",
    "url": "http://mirokuen.com/nohejihome/",
    "pref": "青森県",
    "city": "野辺地町",
    "category": "tokuyou",
    "serviceType": "介護老人福祉施設",
    "capacity": 0,
    "openDays": [],
    "openDaysNote": ""
  },
  {
    "id": "272500612",
    "name": "特別養護老人ホ－ム　ぼんてん荘",
    "kana": "トクベツヨウゴロウジンホーム　ボンテンソウ",
    "address": "青森県上北郡六ヶ所村大字出戸字棚沢１３０番１６",
    "lat": 41.0061387,
    "lng": 141.3690015,
    "tel": "0175-72-3886",
    "url": "http://syouryokushikai.com/",
    "pref": "青森県",
    "city": "六ヶ所村",
    "category": "tokuyou",
    "serviceType": "介護老人福祉施設",
    "capacity": 0,
    "openDays": [],
    "openDaysNote": ""
  },
  {
    "id": "272501198",
    "name": "特別養護老人ホーム　メープル",
    "kana": "トクベツヨウゴロウジンホーム　メープル",
    "address": "青森県上北郡六戸町大字上吉田字長谷85番地11",
    "lat": 40.5931894,
    "lng": 141.3394791,
    "tel": "0176-70-1115",
    "url": "http://meipuru.or.jp/",
    "pref": "青森県",
    "city": "六戸町",
    "category": "tokuyou",
    "serviceType": "介護老人福祉施設",
    "capacity": 0,
    "openDays": [],
    "openDaysNote": ""
  },
  {
    "id": "272100496",
    "name": "特別養護老人ホーム　つくし荘",
    "kana": "トクベツヨウゴロウジンホーム　ツクシソウ",
    "address": "青森県西津軽郡鯵ヶ沢町大字北浮田町字今須87番地1",
    "lat": 40.790002,
    "lng": 140.2535674,
    "tel": "0173-72-7111",
    "url": "http://www.aomoritsukushikai.com/",
    "pref": "青森県",
    "city": "鰺ヶ沢町",
    "category": "tokuyou",
    "serviceType": "介護老人福祉施設",
    "capacity": 0,
    "openDays": [],
    "openDaysNote": ""
  }
]