[
  {
    "id": "2270400068",
    "name": "伊豆高原十字の園",
    "kana": "イズコウゲンジュウジノソノ",
    "address": "伊東市八幡野１０２８番地の４",
    "lat": 34.8752683,
    "lng": 139.1164826,
    "tel": "0557-54-1613",
    "url": "http://www.jyuji.or.jp/ito_city/izukougen/",
    "pref": "静岡県",
    "city": "伊東市",
    "category": "tokuyou",
    "serviceType": "介護老人福祉施設",
    "capacity": 0,
    "openDays": [],
    "openDaysNote": ""
  },
  {
    "id": "2270400316",
    "name": "特別養護老人ホーム　うさみの園",
    "kana": "トクベツヨウゴロウジンホーム　ウサミノソノ",
    "address": "伊東市宇佐美2403-1",
    "lat": 35.0010242,
    "lng": 139.0658602,
    "tel": "0557-47-6200",
    "url": "http://www.kansekien.com",
    "pref": "静岡県",
    "city": "伊東市",
    "category": "tokuyou",
    "serviceType": "介護老人福祉施設",
    "capacity": 0,
    "openDays": [],
    "openDaysNote": ""
  },
  {
    "id": "2270401025",
    "name": "特別養護老人ホーム　伊豆の瞳",
    "kana": "トクベツヨウゴロウジンホーム　イズノヒトミ",
    "address": "静岡県伊東市吉田821-19",
    "lat": 34.9317485,
    "lng": 139.1076129,
    "tel": "0557-45-5566",
    "url": "http://hakujukai-gp.jp/",
    "pref": "静岡県",
    "city": "伊東市",
    "category": "tokuyou",
    "serviceType": "介護老人福祉施設",
    "capacity": 0,
    "openDays": [],
    "openDaysNote": ""
  },
  {
    "id": "2270401280",
    "name": "特別養護老人ホーム　伊豆の瞳プラス",
    "kana": "イズノヒトミプラス",
    "address": "静岡県伊東市吉田８２１―１９",
    "lat": 34.9321904965503,
    "lng": 139.107206924467,
    "tel": "0557-45-5566",
    "url": "https://www.hakuju-kai.com/",
    "pref": "静岡県",
    "city": "伊東市",
    "category": "tokuyou",
    "serviceType": "介護老人福祉施設",
    "capacity": 0,
    "openDays": [],
    "openDaysNote": ""
  },
  {
    "id": "2270400050",
    "name": "特別養護老人ホーム　奥野苑",
    "kana": "トクベツヨウゴロウジンホーム　オクノエン",
    "address": "伊東市荻７７２－１",
    "lat": 34.9371691,
    "lng": 139.074248,
    "tel": "0557-38-2225",
    "url": "http://www.h2.dion.ne.jp/~ikoi/",
    "pref": "静岡県",
    "city": "伊東市",
    "category": "tokuyou",
    "serviceType": "介護老人福祉施設",
    "capacity": 0,
    "openDays": [],
    "openDaysNote": ""
  },
  {
    "id": "2270400043",
    "name": "特別養護老人ホーム　城ヶ崎いこいの園",
    "kana": "トクベツヨウゴロウジンホーム　ジョウガサキイコイノソノ",
    "address": "伊東市富戸1219番地の5",
    "lat": 34.9135226,
    "lng": 139.1363758,
    "tel": "0557-51-0888",
    "url": "http://www.ikoinosato.jp/",
    "pref": "静岡県",
    "city": "伊東市",
    "category": "tokuyou",
    "serviceType": "介護老人福祉施設",
    "capacity": 50,
    "openDays": [],
    "openDaysNote": ""
  },
  {
    "id": "2270300086",
    "name": "社会福祉法人　春風会　ぬくもりの里",
    "kana": "シャカイフクシホウジンシュンプウカイ　ヌクモリノサト",
    "address": "伊豆の国市田京1259-29",
    "lat": 35.0081584,
    "lng": 138.9711376,
    "tel": "0558-76-6700",
    "url": "http://www.shunpuukai.com/",
    "pref": "静岡県",
    "city": "伊豆の国市",
    "category": "tokuyou",
    "serviceType": "介護老人福祉施設",
    "capacity": 0,
    "openDays": [],
    "openDaysNote": ""
  },
  {
    "id": "2270300474",
    "name": "特別養護老人ホーム　いちごの里",
    "kana": "トクベツヨウゴロウジンホーム　イチゴノサト",
    "address": "伊豆の国市北江間４５－１",
    "lat": 35.0579124,
    "lng": 138.9324205,
    "tel": "055-947-5947",
    "url": "http//www.wbs.ne.jp./bt/ayamekai",
    "pref": "静岡県",
    "city": "伊豆の国市",
    "category": "tokuyou",
    "serviceType": "介護老人福祉施設",
    "capacity": null,
    "openDays": [],
    "openDaysNote": ""
  },
  {
    "id": "2270800184",
    "name": "特別養護老人ホーム韮山・ぶなの森",
    "kana": "トクベツヨウゴロウジンホームニラヤマ・ブナノモリ",
    "address": "伊豆の国市韮山山木391-1",
    "lat": 35.0629431,
    "lng": 138.9613741,
    "tel": "055-940-0027",
    "url": "http://www.buna-no-mori.jp",
    "pref": "静岡県",
    "city": "伊豆の国市",
    "category": "tokuyou",
    "serviceType": "介護老人福祉施設",
    "capacity": 80,
    "openDays": [],
    "openDaysNote": ""
  },
  {
    "id": "2270700269",
    "name": "ユニット型特別養護老人ホーム　天城の杜",
    "kana": "ユニットガタトクベツヨウゴロウジンホーム　アマギノモリ",
    "address": "静岡県伊豆市湯ヶ島９３９番４１",
    "lat": 34.8693131,
    "lng": 138.9213688,
    "tel": "0558-75-8660",
    "url": "http://www.swc-aisei.or.jp/",
    "pref": "静岡県",
    "city": "伊豆市",
    "category": "tokuyou",
    "serviceType": "介護老人福祉施設",
    "capacity": 0,
    "openDays": [],
    "openDaysNote": ""
  },
  {
    "id": "2270300094",
    "name": "伊豆中央ケアセンター",
    "kana": "イズチュウオウ　ケアセンター",
    "address": "伊豆市大野304",
    "lat": 34.9838142,
    "lng": 138.977754,
    "tel": "0558-72-8111",
    "url": "http://www.shunpuukai.com",
    "pref": "静岡県",
    "city": "伊豆市",
    "category": "tokuyou",
    "serviceType": "介護老人福祉施設",
    "capacity": 0,
    "openDays": [],
    "openDaysNote": ""
  },
  {
    "id": "2270300052",
    "name": "土肥ホーム",
    "kana": "トイホーム",
    "address": "伊豆市小土肥７８７－２",
    "lat": 34.923828,
    "lng": 138.7913119,
    "tel": "0558-98-2900",
    "url": "http://www.shinai-kai.jp/toihome/",
    "pref": "静岡県",
    "city": "伊豆市",
    "category": "tokuyou",
    "serviceType": "介護老人福祉施設",
    "capacity": null,
    "openDays": [],
    "openDaysNote": ""
  },
  {
    "id": "2270700251",
    "name": "特別養護老人ホーム　天城の杜",
    "kana": "トクベツヨウゴロウジンホーム　アマギノモリ",
    "address": "静岡県伊豆市湯ヶ島939番41",
    "lat": 34.8693131,
    "lng": 138.9213688,
    "tel": "0558-75-8660",
    "url": "http://www.swc-aisei.or.jp/",
    "pref": "静岡県",
    "city": "伊豆市",
    "category": "tokuyou",
    "serviceType": "介護老人福祉施設",
    "capacity": 30,
    "openDays": [],
    "openDaysNote": ""
  },
  {
    "id": "2270700160",
    "name": "特別養護老人ホーム中伊豆",
    "kana": "トクベツヨウゴロウジンホームナカイズ",
    "address": "伊豆市八幡123",
    "lat": 34.9575315,
    "lng": 139.0002664,
    "tel": "0558-75-2525",
    "url": "http://www.wbs.ne.jp/bt/ayamekai/",
    "pref": "静岡県",
    "city": "伊豆市",
    "category": "tokuyou",
    "serviceType": "介護老人福祉施設",
    "capacity": 0,
    "openDays": [],
    "openDaysNote": ""
  },
  {
    "id": "2270200179",
    "name": "介護老人福祉施設　みくらの里",
    "kana": "カイゴロウジンフクシシセツ　ミクラノサト",
    "address": "下田市吉佐美１０８６番地",
    "lat": 34.6719507,
    "lng": 138.9140279,
    "tel": "0558-27-3000",
    "url": "http://www.shiyuukai.or.jp",
    "pref": "静岡県",
    "city": "下田市",
    "category": "tokuyou",
    "serviceType": "介護老人福祉施設",
    "capacity": 0,
    "openDays": [],
    "openDaysNote": ""
  },
  {
    "id": "2270200047",
    "name": "特別養護老人ホーム　梓の里",
    "kana": "トクベツヨウゴロウジンホーム　アズサノサト",
    "address": "下田市加増野181番地の1",
    "lat": 34.7194836,
    "lng": 138.8758931,
    "tel": "0558-28-1172",
    "url": "http://www.shiyuukai.or.jp/",
    "pref": "静岡県",
    "city": "下田市",
    "category": "tokuyou",
    "serviceType": "介護老人福祉施設",
    "capacity": 80,
    "openDays": [],
    "openDaysNote": ""
  },
  {
    "id": "2270100338",
    "name": "特別養護老人ホーム　サンシニア河津",
    "kana": "トクベツヨウゴロウジンホーム　サンシニアカワヅ",
    "address": "賀茂郡河津町田中520-1",
    "lat": 34.7553022,
    "lng": 138.9936456,
    "tel": "0558-32-3201",
    "url": "http://www.sunsenior-kawazu.jp/",
    "pref": "静岡県",
    "city": "河津町",
    "category": "tokuyou",
    "serviceType": "介護老人福祉施設",
    "capacity": 0,
    "openDays": [],
    "openDaysNote": ""
  },
  {
    "id": "2276100035",
    "name": "大東苑",
    "kana": "ダイトウエン",
    "address": "掛川市下土方3584番地の1",
    "lat": 34.6903472,
    "lng": 138.043141,
    "tel": "0537-74-5111",
    "url": "http://daitofukushikai.com/",
    "pref": "静岡県",
    "city": "掛川市",
    "category": "tokuyou",
    "serviceType": "介護老人福祉施設",
    "capacity": 0,
    "openDays": [],
    "openDaysNote": ""
  },
  {
    "id": "2276100431",
    "name": "特別養護老人ホーム　くにやす苑",
    "kana": "トクベツヨウゴロウジンホーム　クニヤスエン",
    "address": "掛川市国安１７１７－１",
    "lat": 34.6564432,
    "lng": 138.0664208,
    "tel": "0537-63-3131",
    "url": "http://daitofukushikai.com/",
    "pref": "静岡県",
    "city": "掛川市",
    "category": "tokuyou",
    "serviceType": "介護老人福祉施設",
    "capacity": 0,
    "openDays": [],
    "openDaysNote": ""
  },
  {
    "id": "2276200017",
    "name": "特別養護老人ホーム　さやの家",
    "kana": "トクベツヨウゴロウジンホーム　サヤノイエ",
    "address": "掛川市長谷1673",
    "lat": 34.7695638,
    "lng": 137.9903465,
    "tel": "0537-21-1340",
    "url": "http://www.tenryu-kohseikai.or.jp",
    "pref": "静岡県",
    "city": "掛川市",
    "category": "tokuyou",
    "serviceType": "介護老人福祉施設",
    "capacity": 0,
    "openDays": [],
    "openDaysNote": ""
  },
  {
    "id": "2277400384",
    "name": "特別養護老人ホーム　さやの家",
    "kana": "トクベツヨウゴロウジンホーム　サヤノイエ",
    "address": "掛川市長谷1673",
    "lat": 34.7695638,
    "lng": 137.9903465,
    "tel": "0537-21-1340",
    "url": "http://www.tenryu-kohseikai.or.jp",
    "pref": "静岡県",
    "city": "掛川市",
    "category": "tokuyou",
    "serviceType": "介護老人福祉施設",
    "capacity": 0,
    "openDays": [],
    "openDaysNote": ""
  },
  {
    "id": "2277400723",
    "name": "特別養護老人ホーム　ラスール掛川",
    "kana": "トクベツヨウゴロウジンホーム　ラスールカケガワ",
    "address": "静岡県掛川市杉谷南1-1-20特別養護老人ホーム　ラスール掛川 特別養護老人ホーム　ラスール掛川",
    "lat": 34.760440663913,
    "lng": 138.028091598148,
    "tel": "0537-29-7327",
    "url": "momoha-bloom.or.jp/lasoeur.html",
    "pref": "静岡県",
    "city": "掛川市",
    "category": "tokuyou",
    "serviceType": "介護老人福祉施設",
    "capacity": 100,
    "openDays": [],
    "openDaysNote": ""
  },
  {
    "id": "2277400509",
    "name": "特別養護老人ホームおおすか苑（ユニット型）",
    "kana": "トクベツヨウゴロウジンホームオオスカエン（ユニットガタ）",
    "address": "静岡県掛川市大渕4895番地",
    "lat": 34.6686712,
    "lng": 138.016149,
    "tel": "0537-48-5365",
    "url": "www.oosukaen.or.jp",
    "pref": "静岡県",
    "city": "掛川市",
    "category": "tokuyou",
    "serviceType": "介護老人福祉施設",
    "capacity": 0,
    "openDays": [],
    "openDaysNote": ""
  },
  {
    "id": "2277400491",
    "name": "特別養護老人ホームおおすか苑(従来型)",
    "kana": "トクベツヨウゴロウジンホームオオスカエン（ジュウライガタ）",
    "address": "静岡県掛川市大渕４８９５番地おおすか苑 おおすか苑",
    "lat": 34.6686712,
    "lng": 138.016149,
    "tel": "０５３７－４８－５３６５",
    "url": "http://www.oosukaen.or.jp",
    "pref": "静岡県",
    "city": "掛川市",
    "category": "tokuyou",
    "serviceType": "介護老人福祉施設",
    "capacity": 0,
    "openDays": [],
    "openDaysNote": ""
  },
  {
    "id": "2276200033",
    "name": "特別養護老人ホームかけがわ苑",
    "kana": "トクベツヨウゴロウジンホームカケガワエン",
    "address": "静岡県掛川市大池６４８番地",
    "lat": 34.7748248974843,
    "lng": 137.987903718385,
    "tel": "0537-24-5527",
    "url": "http://www.kake-en.or.jp",
    "pref": "静岡県",
    "city": "掛川市",
    "category": "tokuyou",
    "serviceType": "介護老人福祉施設",
    "capacity": 80,
    "openDays": [],
    "openDaysNote": ""
  },
  {
    "id": "2277400137",
    "name": "特別養護老人ホーム掛川福祉ノ郷",
    "kana": "トクベツヨウゴロウジンホームカケガワフクシノサト",
    "address": "掛川市上西郷７９２１－１",
    "lat": 34.8186229,
    "lng": 138.0235782,
    "tel": "0537-28-1211",
    "url": "http://www.daizen-f.com/",
    "pref": "静岡県",
    "city": "掛川市",
    "category": "tokuyou",
    "serviceType": "介護老人福祉施設",
    "capacity": 0,
    "openDays": [],
    "openDaysNote": ""
  },
  {
    "id": "2276800089",
    "name": "特別養護老人ホーム　喜久の園",
    "kana": "トクベツヨウゴロウジンホーム　キクノソノ",
    "address": "菊川市仲島二丁目4番地の16",
    "lat": 34.7543884,
    "lng": 138.0926477,
    "tel": "0537-37-1231",
    "url": "http://www.hakuo.or.jp/",
    "pref": "静岡県",
    "city": "菊川市",
    "category": "tokuyou",
    "serviceType": "介護老人福祉施設",
    "capacity": 0,
    "openDays": [],
    "openDaysNote": ""
  },
  {
    "id": "2276800105",
    "name": "特別養護老人ホーム　松秀園",
    "kana": "トクベツヨウゴロウジンホームショウシュウエン",
    "address": "菊川市高橋2774-1",
    "lat": 34.6741009,
    "lng": 138.1064639,
    "tel": "0537-63-1100",
    "url": "http:www.washoukai.or.jp",
    "pref": "静岡県",
    "city": "菊川市",
    "category": "tokuyou",
    "serviceType": "介護老人福祉施設",
    "capacity": 0,
    "openDays": [],
    "openDaysNote": ""
  },
  {
    "id": "2276100092",
    "name": "特別養護老人ホーム松寿園",
    "kana": "トクベツヨウゴロウジンホームショウジュエン",
    "address": "静岡県菊川市棚草1261",
    "lat": 34.7032381,
    "lng": 138.1046711,
    "tel": "0537-73-5230",
    "url": "http://washoukai.or.jp/",
    "pref": "静岡県",
    "city": "菊川市",
    "category": "tokuyou",
    "serviceType": "介護老人福祉施設",
    "capacity": 50,
    "openDays": [],
    "openDaysNote": ""
  },
  {
    "id": "2275500615",
    "name": "特別養護老人ホーム住吉杉の子園",
    "kana": "トクベツヨウゴロウジンホーム　スミヨシスギノコエン",
    "address": "榛原郡吉田町住吉３２３９番地",
    "lat": 34.7523579,
    "lng": 138.2513426,
    "tel": "0548-34-5088",
    "url": "http://s-suginoko.or.jp",
    "pref": "静岡県",
    "city": "吉田町",
    "category": "tokuyou",
    "serviceType": "介護老人福祉施設",
    "capacity": 0,
    "openDays": [],
    "openDaysNote": ""
  },
  {
    "id": "2275500011",
    "name": "特別養護老人ホーム片岡杉の子園",
    "kana": "トクベツヨウゴロウジンホームカタオカスギノコエン",
    "address": "榛原郡吉田町片岡2895番地",
    "lat": 34.7720524,
    "lng": 138.2413909,
    "tel": "0548-32-0201",
    "url": "http://s-suginoko.or.jp/",
    "pref": "静岡県",
    "city": "吉田町",
    "category": "tokuyou",
    "serviceType": "介護老人福祉施設",
    "capacity": 50,
    "openDays": [],
    "openDaysNote": ""
  },
  {
    "id": "2278400011",
    "name": "光湖苑",
    "kana": "コウコエン",
    "address": "湖西市新所岡崎梅田入会地17-20",
    "lat": 34.7158398,
    "lng": 137.5012671,
    "tel": "053-577-4511",
    "url": "http://m-hamanakokai.jp/",
    "pref": "静岡県",
    "city": "湖西市",
    "category": "tokuyou",
    "serviceType": "介護老人福祉施設",
    "capacity": 0,
    "openDays": [],
    "openDaysNote": ""
  },
  {
    "id": "2278400136",
    "name": "特別養護老人ホーム　湖西白萩",
    "kana": "トクベツヨウゴロウジンホーム　コサイシラハギ",
    "address": "湖西市太田450-1",
    "lat": 34.7553658,
    "lng": 137.510673,
    "tel": "053-573-2000",
    "url": "http://www.jihian.or.jp",
    "pref": "静岡県",
    "city": "湖西市",
    "category": "tokuyou",
    "serviceType": "介護老人福祉施設",
    "capacity": 80,
    "openDays": [],
    "openDaysNote": ""
  },
  {
    "id": "2278400276",
    "name": "特別養護老人ホーム恵翔苑",
    "kana": "トクベツヨウゴロウジンホームケイショウエン",
    "address": "湖西市新居町中之郷3636番地21",
    "lat": 34.709818,
    "lng": 137.5574708,
    "tel": "０５３－５９５－１１１１",
    "url": "http://juhoukai.jp",
    "pref": "静岡県",
    "city": "湖西市",
    "category": "tokuyou",
    "serviceType": "介護老人福祉施設",
    "capacity": 0,
    "openDays": [],
    "openDaysNote": ""
  },
  {
    "id": "2278200049",
    "name": "特別養護老人ホーム燦光",
    "kana": "トクベツヨウゴロウジンホームサンコウ",
    "address": "湖西市新居町新居1800番地の1",
    "lat": 34.6861375,
    "lng": 137.5762528,
    "tel": "053-594-5655",
    "url": "http://shinwakai-shizuoka.or.jp",
    "pref": "静岡県",
    "city": "湖西市",
    "category": "tokuyou",
    "serviceType": "介護老人福祉施設",
    "capacity": 80,
    "openDays": [],
    "openDaysNote": ""
  },
  {
    "id": "2276100100",
    "name": "特別養護老人ホーム　　　東海清風園",
    "kana": "トクベツヨウゴロウジンホーム　トウカイセイフウエン",
    "address": "御前崎市池新田４０９４",
    "lat": 34.6417085,
    "lng": 138.1318904,
    "tel": "0537-86-3286",
    "url": "http://www.san-ikukai.or.jp/",
    "pref": "静岡県",
    "city": "御前崎市",
    "category": "tokuyou",
    "serviceType": "介護老人福祉施設",
    "capacity": 0,
    "openDays": [],
    "openDaysNote": ""
  },
  {
    "id": "2275500060",
    "name": "特別養護老人ホーム　灯光園",
    "kana": "トクベツヨウゴロウジンホーム　トウコウエン",
    "address": "御前崎市御前崎３５－３７",
    "lat": 34.6005881,
    "lng": 138.2228649,
    "tel": "0548-63-3729",
    "url": "http://toukouen.sakura.ne.jp/",
    "pref": "静岡県",
    "city": "御前崎市",
    "category": "tokuyou",
    "serviceType": "介護老人福祉施設",
    "capacity": 0,
    "openDays": [],
    "openDaysNote": ""
  },
  {
    "id": "2271200053",
    "name": "御殿場十字の園",
    "kana": "ゴテンバジュウジノソノ",
    "address": "御殿場市深沢1465番地の１",
    "lat": 35.3122431,
    "lng": 138.9596253,
    "tel": "0550-83-1999",
    "url": "http://www.jyuji.or.jp/",
    "pref": "静岡県",
    "city": "御殿場市",
    "category": "tokuyou",
    "serviceType": "介護老人福祉施設",
    "capacity": 0,
    "openDays": [],
    "openDaysNote": ""
  },
  {
    "id": "2271200046",
    "name": "指定介護老人福祉施設　オレンジシャトー富岳",
    "kana": "シテイカイゴロウジンフクシシセツ　オレンジシャトーフガク",
    "address": "静岡県御殿場市神山１９２５番地の１１９３",
    "lat": 35.2347848,
    "lng": 138.9023532,
    "tel": "0550-87-5550",
    "url": "http://www.fugakukai.com/",
    "pref": "静岡県",
    "city": "御殿場市",
    "category": "tokuyou",
    "serviceType": "介護老人福祉施設",
    "capacity": 50,
    "openDays": [],
    "openDaysNote": ""
  },
  {
    "id": "2271200533",
    "name": "特別養護老人ホーム　すずらん",
    "kana": "トクベツヨウゴロウジンホーム　スズラン",
    "address": "上小林字西野原1527-19",
    "lat": 35.3435627,
    "lng": 138.9028097,
    "tel": "0550-78-7900",
    "url": "www.hakuyu-kai.or.jp/suzuran.",
    "pref": "静岡県",
    "city": "御殿場市",
    "category": "tokuyou",
    "serviceType": "介護老人福祉施設",
    "capacity": 60,
    "openDays": [],
    "openDaysNote": ""
  },
  {
    "id": "2271200541",
    "name": "特別養護老人ホーム　すずらん",
    "kana": "トクベツヨウゴロウジンホーム　スズラン",
    "address": "上小林字西野原1527-19",
    "lat": 35.3449629262875,
    "lng": 138.897616943347,
    "tel": "0550-78-7900",
    "url": "www.hakuyu-kai.or.jp/suzuran.",
    "pref": "静岡県",
    "city": "御殿場市",
    "category": "tokuyou",
    "serviceType": "介護老人福祉施設",
    "capacity": 90,
    "openDays": [],
    "openDaysNote": ""
  },
  {
    "id": "2271200814",
    "name": "特別養護老人ホーム　ふじあざみ",
    "kana": "トクベツヨウゴロウジンホーム　フジアザミ",
    "address": "静岡県御殿場市印野字程塚1549番地の1",
    "lat": 35.3060284,
    "lng": 138.8095665,
    "tel": "0550-80-0077",
    "url": "http://www.hakuyu-kai.or.jp/fujiazami/",
    "pref": "静岡県",
    "city": "御殿場市",
    "category": "tokuyou",
    "serviceType": "介護老人福祉施設",
    "capacity": 0,
    "openDays": [],
    "openDaysNote": ""
  },
  {
    "id": "2271200806",
    "name": "特別養護老人ホームふじあざみ",
    "kana": "トクベツヨウゴロウジンホーム　フジアザミ",
    "address": "静岡県御殿場市印野字程塚1549番地の1",
    "lat": 35.3060284,
    "lng": 138.8095665,
    "tel": "0550-80-0077",
    "url": "http://www.hakuyu-kai.or.jp/fujiazami/",
    "pref": "静岡県",
    "city": "御殿場市",
    "category": "tokuyou",
    "serviceType": "介護老人福祉施設",
    "capacity": 0,
    "openDays": [],
    "openDaysNote": ""
  },
  {
    "id": "2271200277",
    "name": "特別養護老人ホーム白雪",
    "kana": "トクベツヨウゴロウジンホームシラユキ",
    "address": "御殿場市川島田字南原２７０番地",
    "lat": 35.2946678,
    "lng": 138.9258125,
    "tel": "0550-82-7601",
    "url": "http://www.hakuyu-kai.or.jp/shirayuki/",
    "pref": "静岡県",
    "city": "御殿場市",
    "category": "tokuyou",
    "serviceType": "介護老人福祉施設",
    "capacity": 0,
    "openDays": [],
    "openDaysNote": ""
  },
  {
    "id": "2270600915",
    "name": "玉澍園",
    "kana": "ギョクジュエン",
    "address": "静岡県三島市玉沢80番地",
    "lat": 35.122264,
    "lng": 138.9601645,
    "tel": "０５５－９７３－００１１",
    "url": "http://www.syahuku-izu.jp",
    "pref": "静岡県",
    "city": "三島市",
    "category": "tokuyou",
    "serviceType": "介護老人福祉施設",
    "capacity": 0,
    "openDays": [],
    "openDaysNote": ""
  },
  {
    "id": "2270600022",
    "name": "特別養護老人ホ－ム御寿園",
    "kana": "トクベツヨウゴロウジンホ－ムミソノ",
    "address": "三島市御園５８０番地",
    "lat": 35.0782403,
    "lng": 138.9235293,
    "tel": "055-977-6200",
    "url": "daijoukai.com",
    "pref": "静岡県",
    "city": "三島市",
    "category": "tokuyou",
    "serviceType": "介護老人福祉施設",
    "capacity": 86,
    "openDays": [],
    "openDaysNote": ""
  },
  {
    "id": "2270600337",
    "name": "特別養護老人ホーム　北上の郷",
    "kana": "トクベツヨウゴロウジンホーム　キタウエノサト",
    "address": "三島市徳倉1148番地の2",
    "lat": 35.1496854,
    "lng": 138.9187537,
    "tel": "055-980-5040",
    "url": "http://www.kitauenosato.or.jp/",
    "pref": "静岡県",
    "city": "三島市",
    "category": "tokuyou",
    "serviceType": "介護老人福祉施設",
    "capacity": 0,
    "openDays": [],
    "openDaysNote": ""
  },
  {
    "id": "2270600345",
    "name": "特別養護老人ホーム「ふるさとの丘」",
    "kana": "トクベツヨウゴロウジンホームフルサトノオカ",
    "address": "三島市徳倉208-1",
    "lat": 35.1425974,
    "lng": 138.923295,
    "tel": "055-988-3535",
    "url": "http://www.furusatonooka.or.jp/",
    "pref": "静岡県",
    "city": "三島市",
    "category": "tokuyou",
    "serviceType": "介護老人福祉施設",
    "capacity": 0,
    "openDays": [],
    "openDaysNote": ""
  },
  {
    "id": "2270600261",
    "name": "特別養護老人ホームあかなすの里",
    "kana": "トクベツヨウゴロウジンホームアカナスノサト",
    "address": "三島市玉川４２５－１",
    "lat": 35.1055398,
    "lng": 138.9138523,
    "tel": "055-981-4816",
    "url": "http://akanasuno55.wix.com/akanasunosato",
    "pref": "静岡県",
    "city": "三島市",
    "category": "tokuyou",
    "serviceType": "介護老人福祉施設",
    "capacity": 0,
    "openDays": [],
    "openDaysNote": ""
  },
  {
    "id": "2270600667",
    "name": "特別養護老人ホームいづテラス",
    "kana": "トクベツヨウゴロウジンホームイヅテラス",
    "address": "三島市松本２９２－１",
    "lat": 35.0924162,
    "lng": 138.9173882,
    "tel": "055-982-5111",
    "url": "http://www.wellnesscare.or.jp/",
    "pref": "静岡県",
    "city": "三島市",
    "category": "tokuyou",
    "serviceType": "介護老人福祉施設",
    "capacity": 70,
    "openDays": [],
    "openDaysNote": ""
  },
  {
    "id": "2270601210",
    "name": "特別養護老人ホーム南二日町",
    "kana": "トクベツヨウゴロウジンホームミナミフツカマチ",
    "address": "静岡県三島市南二日町5番41号",
    "lat": 35.1091678162168,
    "lng": 138.923166452254,
    "tel": "055-983-1200",
    "url": "http://kashokai.or.jp",
    "pref": "静岡県",
    "city": "三島市",
    "category": "tokuyou",
    "serviceType": "介護老人福祉施設",
    "capacity": 0,
    "openDays": [],
    "openDaysNote": ""
  },
  {
    "id": "2271301166",
    "name": "特別養護老人ホーム徳風園",
    "kana": "トクベツヨウゴロウジンホームトクフウエン",
    "address": "静岡県駿東郡小山町小山255-2",
    "lat": 35.3558078,
    "lng": 138.987684,
    "tel": "0550-76-3388",
    "url": "http://jukohkai.moon.bindcloud.jp/",
    "pref": "静岡県",
    "city": "小山町",
    "category": "tokuyou",
    "serviceType": "介護老人福祉施設",
    "capacity": 0,
    "openDays": [],
    "openDaysNote": ""
  },
  {
    "id": "2270100262",
    "name": "松崎十字の園",
    "kana": "マツザキジュウジノソノ",
    "address": "静岡県賀茂郡松崎町江奈１５７",
    "lat": 34.7569576,
    "lng": 138.780562,
    "tel": "0558-43-3131",
    "url": "http://www.jyuji.or.jp/matsuzaki_city/",
    "pref": "静岡県",
    "city": "松崎町",
    "category": "tokuyou",
    "serviceType": "介護老人福祉施設",
    "capacity": 0,
    "openDays": [],
    "openDaysNote": ""
  },
  {
    "id": "2271100972",
    "name": "介護老人福祉施設　みはるの丘浮島",
    "kana": "カイゴロウジンフクシシセツ　ミハルノオカウキシマ",
    "address": "沼津市平沼９２９-１",
    "lat": 35.149157,
    "lng": 138.7812466,
    "tel": "055-969-3355",
    "url": "http://www.shunpuukai.com",
    "pref": "静岡県",
    "city": "沼津市",
    "category": "tokuyou",
    "serviceType": "介護老人福祉施設",
    "capacity": 80,
    "openDays": [],
    "openDaysNote": ""
  },
  {
    "id": "2271100030",
    "name": "介護老人福祉施設　沼津フジビューホーム",
    "kana": "ヌマヅフジビューホーム",
    "address": "沼津市大岡字柏葉尾3571番地の1",
    "lat": 35.1389310638313,
    "lng": 138.882097010312,
    "tel": "055-926-8500",
    "url": "https://care-net.biz/22/suruga/",
    "pref": "静岡県",
    "city": "沼津市",
    "category": "tokuyou",
    "serviceType": "介護老人福祉施設",
    "capacity": 0,
    "openDays": [],
    "openDaysNote": ""
  },
  {
    "id": "2271100147",
    "name": "社会福祉法人　春風会　あしたかホーム",
    "kana": "シャカイフクシホウジン　シュンプウカイ",
    "address": "沼津市東椎路1742-1",
    "lat": 35.1273474,
    "lng": 138.8313829,
    "tel": "055-967-1166",
    "url": "http://www.shunpuukai.com",
    "pref": "静岡県",
    "city": "沼津市",
    "category": "tokuyou",
    "serviceType": "介護老人福祉施設",
    "capacity": 0,
    "openDays": [],
    "openDaysNote": ""
  },
  {
    "id": "2271102127",
    "name": "社会福祉法人　春風会　ニューあしたかホーム",
    "kana": "シャカイフクシホウジン　シュンプウカイ　ニューアシタカホーム",
    "address": "沼津市東椎路1742-1",
    "lat": 35.1273474,
    "lng": 138.8313829,
    "tel": "055-967-1166",
    "url": "http://www.shunpuukai.com",
    "pref": "静岡県",
    "city": "沼津市",
    "category": "tokuyou",
    "serviceType": "介護老人福祉施設",
    "capacity": 0,
    "openDays": [],
    "openDaysNote": ""
  },
  {
    "id": "2271100568",
    "name": "特別養護老人ホ－ム　和みの郷",
    "kana": "トクベツヨウゴロウジンホ-ム　ナゴミノサト",
    "address": "沼津市大平1538-1",
    "lat": 35.0750318,
    "lng": 138.9045731,
    "tel": "055-935-5252",
    "url": "http://www.shinai-kai.jp/nagomi/",
    "pref": "静岡県",
    "city": "沼津市",
    "category": "tokuyou",
    "serviceType": "介護老人福祉施設",
    "capacity": 80,
    "openDays": [],
    "openDaysNote": ""
  },
  {
    "id": "2271100113",
    "name": "特別養護老人ホーム　ひだまりの郷",
    "kana": "トクベツヨウゴロウジンホーム　ヒダマリノサト",
    "address": "沼津市内浦重須624",
    "lat": 35.0174992,
    "lng": 138.8838118,
    "tel": "055-946-1700",
    "url": "",
    "pref": "静岡県",
    "city": "沼津市",
    "category": "tokuyou",
    "serviceType": "介護老人福祉施設",
    "capacity": 0,
    "openDays": [],
    "openDaysNote": ""
  },
  {
    "id": "2271101764",
    "name": "特別養護老人ホーム　一本松",
    "kana": "トクベツヨウゴロウジンホーム　イッポンマツ",
    "address": "沼津市一本松175",
    "lat": 35.1297619,
    "lng": 138.7747693,
    "tel": "055-969-3377",
    "url": "http://www.daijoukai.com/",
    "pref": "静岡県",
    "city": "沼津市",
    "category": "tokuyou",
    "serviceType": "介護老人福祉施設",
    "capacity": 80,
    "openDays": [],
    "openDaysNote": ""
  },
  {
    "id": "2271101509",
    "name": "特別養護老人ホーム　陽光園",
    "kana": "トクベツヨウゴロウジンホーム　ヨウコウエン",
    "address": "沼津市岡宮字下松沢1417番地の1",
    "lat": 35.13151196051,
    "lng": 138.863321205804,
    "tel": "055-924-5665",
    "url": "http://hakujukai-gp.jp/",
    "pref": "静岡県",
    "city": "沼津市",
    "category": "tokuyou",
    "serviceType": "介護老人福祉施設",
    "capacity": 0,
    "openDays": [],
    "openDaysNote": ""
  },
  {
    "id": "2271100097",
    "name": "特別養護老人ホームぬまづホーム",
    "kana": "トクベツヨウゴロウジンホームヌマヅホーム",
    "address": "沼津市下香貫猪沼981-2",
    "lat": 35.0814889,
    "lng": 138.8828723,
    "tel": "055-934-1821",
    "url": "http://www.shinai-kai.jp/numazuhome/",
    "pref": "静岡県",
    "city": "沼津市",
    "category": "tokuyou",
    "serviceType": "介護老人福祉施設",
    "capacity": 70,
    "openDays": [],
    "openDaysNote": ""
  },
  {
    "id": "2271102051",
    "name": "特別養護老人ホーム高砂",
    "kana": "トクベツヨウゴロウジンホームタカサゴ",
    "address": "静岡県沼津市高砂町１－５",
    "lat": 35.1304096,
    "lng": 138.8569446,
    "tel": "055-941-5681",
    "url": "http://www.hakuyu-kai.or.jp/takasago/facility",
    "pref": "静岡県",
    "city": "沼津市",
    "category": "tokuyou",
    "serviceType": "介護老人福祉施設",
    "capacity": 0,
    "openDays": [],
    "openDaysNote": ""
  },
  {
    "id": "2271102879",
    "name": "特別養護老人ホーム炉暖の郷",
    "kana": "トクベツヨウゴロウジンホームロダンノサト",
    "address": "静岡県沼津市足高字尾上24-24",
    "lat": 35.147653259341,
    "lng": 138.845809920116,
    "tel": "055-927-3939",
    "url": "http://www.rodankai.com/pc/index.html",
    "pref": "静岡県",
    "city": "沼津市",
    "category": "tokuyou",
    "serviceType": "介護老人福祉施設",
    "capacity": 0,
    "openDays": [],
    "openDaysNote": ""
  },
  {
    "id": "2271100808",
    "name": "特別養護老人ホーム炉暖の郷",
    "kana": "トクベツヨウゴロウジンホームロダンノサト",
    "address": "沼津市足高字尾上２４－２４",
    "lat": 35.1475304420063,
    "lng": 138.845820648952,
    "tel": "055-927-3939",
    "url": "http://www.rodankai.com./pc/",
    "pref": "静岡県",
    "city": "沼津市",
    "category": "tokuyou",
    "serviceType": "介護老人福祉施設",
    "capacity": 0,
    "openDays": [],
    "openDaysNote": ""
  },
  {
    "id": "2275101281",
    "name": "ユニット型特別養護老人ホーム高麓",
    "kana": "ユニットガタトクベツヨウゴロウジンホームコウロク",
    "address": "静岡県焼津市坂本385番地の1",
    "lat": 34.8910122,
    "lng": 138.3095133,
    "tel": "054-628-0070",
    "url": "http://www.kouroku.com/",
    "pref": "静岡県",
    "city": "焼津市",
    "category": "tokuyou",
    "serviceType": "介護老人福祉施設",
    "capacity": 0,
    "openDays": [],
    "openDaysNote": ""
  },
  {
    "id": "2275100184",
    "name": "特別養護老人ホーム　つばさ",
    "kana": "トクベツヨウゴロウジンホーム　ツバサ",
    "address": "焼津市田尻北７９２－１",
    "lat": 34.8343994,
    "lng": 138.3300583,
    "tel": "054-656-0656",
    "url": "http://www.tubasa.or.jp",
    "pref": "静岡県",
    "city": "焼津市",
    "category": "tokuyou",
    "serviceType": "介護老人福祉施設",
    "capacity": 50,
    "openDays": [],
    "openDaysNote": ""
  },
  {
    "id": "2275100648",
    "name": "特別養護老人ホーム　つばさ豊田",
    "kana": "トクベツヨウゴロウジンホーム　ツバサトヨダ",
    "address": "焼津市保福島１２０２",
    "lat": 34.8692533,
    "lng": 138.2876917,
    "tel": "054-628-3355",
    "url": "http:/tubasatoyoda.jp/",
    "pref": "静岡県",
    "city": "焼津市",
    "category": "tokuyou",
    "serviceType": "介護老人福祉施設",
    "capacity": 50,
    "openDays": [],
    "openDaysNote": ""
  },
  {
    "id": "2275100044",
    "name": "特別養護老人ホーム　高麓",
    "kana": "トクベツヨウゴロウジンホーム　コウロク",
    "address": "焼津市坂本385-1",
    "lat": 34.8910122,
    "lng": 138.3095133,
    "tel": "054-628-0070",
    "url": "http://www.kouroku.com/",
    "pref": "静岡県",
    "city": "焼津市",
    "category": "tokuyou",
    "serviceType": "介護老人福祉施設",
    "capacity": 0,
    "openDays": [],
    "openDaysNote": ""
  },
  {
    "id": "2275101455",
    "name": "特別養護老人ホーム　大富陽光園",
    "kana": "トクベツヨウゴロウジンホーム　オオトミヨウコウエン",
    "address": "静岡県焼津市三右衛門新田675-1",
    "lat": 34.8463620422065,
    "lng": 138.292678078707,
    "tel": "054-623-6066",
    "url": "https://www.hakuju-kai.com/",
    "pref": "静岡県",
    "city": "焼津市",
    "category": "tokuyou",
    "serviceType": "介護老人福祉施設",
    "capacity": 0,
    "openDays": [],
    "openDaysNote": ""
  },
  {
    "id": "2275100069",
    "name": "特別養護老人ホームあおい荘",
    "kana": "トクベツヨウゴロウジンホームアオイソウ",
    "address": "焼津市一色４３５番地",
    "lat": 34.8239092,
    "lng": 138.3147773,
    "tel": "054-623-9002",
    "url": "https://www.aoiso.net",
    "pref": "静岡県",
    "city": "焼津市",
    "category": "tokuyou",
    "serviceType": "介護老人福祉施設",
    "capacity": 0,
    "openDays": [],
    "openDaysNote": ""
  },
  {
    "id": "2275200018",
    "name": "特別養護老人ホーム大井川睦園",
    "kana": "トクベツヨウゴロウジンホームオオイガワムツミエン",
    "address": "静岡県焼津市高新田2326番58",
    "lat": 34.8021234,
    "lng": 138.3127287,
    "tel": "054-639-7804",
    "url": "https://www.mutumien.jp",
    "pref": "静岡県",
    "city": "焼津市",
    "category": "tokuyou",
    "serviceType": "介護老人福祉施設",
    "capacity": 80,
    "openDays": [],
    "openDaysNote": ""
  },
  {
    "id": "2275100077",
    "name": "特別養護老人ホーム福聚荘",
    "kana": "トクベツヨウゴロウジンホームフクジュソウ",
    "address": "静岡県焼津市大島649",
    "lat": 34.8214597,
    "lng": 138.2822261,
    "tel": "054-623-1455",
    "url": "http://www.eiikukai.jp/",
    "pref": "静岡県",
    "city": "焼津市",
    "category": "tokuyou",
    "serviceType": "介護老人福祉施設",
    "capacity": 40,
    "openDays": [],
    "openDaysNote": ""
  },
  {
    "id": "2276300023",
    "name": "森町愛光園",
    "kana": "モリマチアイコウエン",
    "address": "周智郡森町一宮３１５０番地",
    "lat": 34.8255416,
    "lng": 137.8916947,
    "tel": "0538-89-7031",
    "url": "http://www.seirei.or.jp/elderlyhome/morimachi/",
    "pref": "静岡県",
    "city": "森町",
    "category": "tokuyou",
    "serviceType": "介護老人福祉施設",
    "capacity": 0,
    "openDays": [],
    "openDaysNote": ""
  },
  {
    "id": "2271400026",
    "name": "社会福祉法人　富岳会　富岳一ノ瀬荘",
    "kana": "シャカイフクシホウジン　フガクカイ　フガクイチノセソウ",
    "address": "裾野市茶畑1707番地の3",
    "lat": 35.1734303,
    "lng": 138.9395734,
    "tel": "055-993-8033",
    "url": "http://fugakukai.com/",
    "pref": "静岡県",
    "city": "裾野市",
    "category": "tokuyou",
    "serviceType": "介護老人福祉施設",
    "capacity": 0,
    "openDays": [],
    "openDaysNote": ""
  },
  {
    "id": "2271400216",
    "name": "特別養護老人ホーム　茶畑ヒルズ",
    "kana": "トクベツヨウゴロウジンホーム　チャバタケヒルズ",
    "address": "裾野市茶畑1428-1",
    "lat": 35.1759658,
    "lng": 138.928394,
    "tel": "055-995-0011",
    "url": "http://kashokai.or.jp",
    "pref": "静岡県",
    "city": "裾野市",
    "category": "tokuyou",
    "serviceType": "介護老人福祉施設",
    "capacity": 70,
    "openDays": [],
    "openDaysNote": ""
  },
  {
    "id": "2271400455",
    "name": "特別養護老人ホーム　富岳ダイヤモンドライフすその",
    "kana": "トクベツヨウゴロウジンホーム　フガクダイヤモンドライフスソノ",
    "address": "静岡県裾野市須山2949２丁目１番地、２番地、３番地、５番地、３丁目１番地、２番地、３番地、５番地、６番地、７番地 ２丁目１番地、２番地、３番地、５番地、３丁目１番地、２番地、３番地、５番地、６番地、７番地",
    "lat": 35.2578856,
    "lng": 138.8608941,
    "tel": "055-965-1122",
    "url": "fugaku-dls@fugakukai.com",
    "pref": "静岡県",
    "city": "裾野市",
    "category": "tokuyou",
    "serviceType": "介護老人福祉施設",
    "capacity": 100,
    "openDays": [],
    "openDaysNote": ""
  },
  {
    "id": "2271300101",
    "name": "特別養護老人ホーム　柿田川ホーム",
    "kana": "トクベツヨウゴロウジンホーム　カキタガワホーム",
    "address": "駿東郡清水町戸田54番地11",
    "lat": 35.0979323,
    "lng": 138.9123664,
    "tel": "055-983-2180",
    "url": "https://kakita-home.jp",
    "pref": "静岡県",
    "city": "清水町",
    "category": "tokuyou",
    "serviceType": "介護老人福祉施設",
    "capacity": 80,
    "openDays": [],
    "openDaysNote": ""
  },
  {
    "id": "2271300176",
    "name": "特別養護老人ホームかわせみ",
    "kana": "トクベツヨウゴロウジンホーム　カワセミ",
    "address": "駿東郡清水町的場188－6",
    "lat": 35.0870889,
    "lng": 138.9068282,
    "tel": "055-984-3377",
    "url": "http://www.kawasemi.or.jp",
    "pref": "静岡県",
    "city": "清水町",
    "category": "tokuyou",
    "serviceType": "介護老人福祉施設",
    "capacity": 100,
    "openDays": [],
    "openDaysNote": ""
  },
  {
    "id": "2270100122",
    "name": "特別養護老人ホーム　ヒューマンヴィラ伊豆",
    "kana": "トクベツヨウゴロウジンホームヒューマンウ゛ィライズ",
    "address": "賀茂郡西伊豆町宇久須２０３０－１",
    "lat": 34.8411511,
    "lng": 138.8030406,
    "tel": "0558-55-2200",
    "url": "https://www.syuuseikai.or.jp/facility02/",
    "pref": "静岡県",
    "city": "西伊豆町",
    "category": "tokuyou",
    "serviceType": "介護老人福祉施設",
    "capacity": 0,
    "openDays": [],
    "openDaysNote": ""
  },
  {
    "id": "2270100247",
    "name": "特別養護老人ホーム　太陽の里",
    "kana": "トクベツヨウゴロウジンホーム　タイヨウノサト",
    "address": "静岡県賀茂郡西伊豆町仁科１１３４",
    "lat": 34.772526,
    "lng": 138.7764394,
    "tel": "0558-52-6200",
    "url": "http://www.shiyuukai.or.jp/",
    "pref": "静岡県",
    "city": "西伊豆町",
    "category": "tokuyou",
    "serviceType": "介護老人福祉施設",
    "capacity": 30,
    "openDays": [],
    "openDaysNote": ""
  },
  {
    "id": "2274100219",
    "name": "晃の園",
    "kana": "ヒカリノソノ",
    "address": "静岡市葵区富沢1542番地の39",
    "lat": 35.0197261,
    "lng": 138.2601749,
    "tel": "054-270-1210",
    "url": "http://www.surugakai.net/hikari/",
    "pref": "静岡県",
    "city": "静岡市葵区",
    "category": "tokuyou",
    "serviceType": "介護老人福祉施設",
    "capacity": 0,
    "openDays": [],
    "openDaysNote": ""
  },
  {
    "id": "2274100201",
    "name": "特別養護老人ホーム　カリタス21",
    "kana": "トクベツヨウゴロウジンホーム　カリタスニジュウイチ",
    "address": "静岡市葵区桂山723番地の6",
    "lat": 35.1116913,
    "lng": 138.3440516,
    "tel": "054-292-2882",
    "url": "http://www.c-katura.com",
    "pref": "静岡県",
    "city": "静岡市葵区",
    "category": "tokuyou",
    "serviceType": "介護老人福祉施設",
    "capacity": 100,
    "openDays": [],
    "openDaysNote": ""
  },
  {
    "id": "2274100060",
    "name": "特別養護老人ホーム　りんどう",
    "kana": "トクベツヨウゴロウジンホーム　リンドウ",
    "address": "静岡市葵区水見色360",
    "lat": 35.0366165,
    "lng": 138.2886238,
    "tel": "054-270-1236",
    "url": "http://www.warashinafukushikai.or.jp",
    "pref": "静岡県",
    "city": "静岡市葵区",
    "category": "tokuyou",
    "serviceType": "介護老人福祉施設",
    "capacity": 0,
    "openDays": [],
    "openDaysNote": ""
  },
  {
    "id": "2274205430",
    "name": "特別養護老人ホーム　羽鳥の森",
    "kana": "トクベツヨウゴロウジンホーム　ハトリノモリ",
    "address": "静岡市葵区羽鳥７丁目６番３８号",
    "lat": 34.9906024,
    "lng": 138.3345248,
    "tel": "054-277-3750",
    "url": "https://www.hakuju-kai.com/",
    "pref": "静岡県",
    "city": "静岡市葵区",
    "category": "tokuyou",
    "serviceType": "介護老人福祉施設",
    "capacity": 0,
    "openDays": [],
    "openDaysNote": ""
  },
  {
    "id": "2274100102",
    "name": "特別養護老人ホーム　楽寿の園",
    "kana": "トクベツヨウゴロウジンホーム　ラクジュノソノ",
    "address": "静岡県静岡市葵区与左衛門新田７４－６",
    "lat": 35.027303,
    "lng": 138.3689572,
    "tel": "054-296-1111",
    "url": "http://www.rakuju.or.jp",
    "pref": "静岡県",
    "city": "静岡市葵区",
    "category": "tokuyou",
    "serviceType": "介護老人福祉施設",
    "capacity": 156,
    "openDays": [],
    "openDaysNote": ""
  },
  {
    "id": "2274100896",
    "name": "特別養護老人ホーム　吉津園",
    "kana": "トクベツヨウゴロウジンホーム　ヨシヅエン",
    "address": "静岡市葵区吉津１９９番地",
    "lat": 34.9795657,
    "lng": 138.3096866,
    "tel": "054-278-5566",
    "url": "http://www.yoshizuen.or.jp",
    "pref": "静岡県",
    "city": "静岡市葵区",
    "category": "tokuyou",
    "serviceType": "介護老人福祉施設",
    "capacity": 80,
    "openDays": [],
    "openDaysNote": ""
  },
  {
    "id": "2274100078",
    "name": "特別養護老人ホーム　厚生苑清流の郷",
    "kana": "トクベツヨウゴロウジンホーム　コウセイエンセイリュウノサト",
    "address": "静岡市葵区柳町185-5",
    "lat": 34.9794814573691,
    "lng": 138.362751552579,
    "tel": "054-272-0255",
    "url": "https://www.shizuoka-kosei.or.jp",
    "pref": "静岡県",
    "city": "静岡市葵区",
    "category": "tokuyou",
    "serviceType": "介護老人福祉施設",
    "capacity": 0,
    "openDays": [],
    "openDaysNote": ""
  },
  {
    "id": "2274209069",
    "name": "特別養護老人ホームきずなの街",
    "kana": "トクベツヨウゴロウジンホームキズナノマチ",
    "address": "静岡県静岡市葵区辰起町9-11",
    "lat": 34.985556,
    "lng": 138.3637983,
    "tel": "054-250-2200",
    "url": "http//kizuna-m.net/",
    "pref": "静岡県",
    "city": "静岡市葵区",
    "category": "tokuyou",
    "serviceType": "介護老人福祉施設",
    "capacity": 100,
    "openDays": [],
    "openDaysNote": ""
  },
  {
    "id": "2274201918",
    "name": "特別養護老人ホーム厚生苑新緑の郷",
    "kana": "トクベツヨウゴロウジンホーム　コウセイエン　シンリョクノサト",
    "address": "静岡市葵区北番町６６－２",
    "lat": 34.9797615,
    "lng": 138.3685385,
    "tel": "054-275-5100",
    "url": "https://www.shizuoka-kosei.or.jp",
    "pref": "静岡県",
    "city": "静岡市葵区",
    "category": "tokuyou",
    "serviceType": "介護老人福祉施設",
    "capacity": 0,
    "openDays": [],
    "openDaysNote": ""
  },
  {
    "id": "2274208178",
    "name": "特別養護老人ホーム薬師の園",
    "kana": "トクベツヨウゴロウジンホームヤクシノソノ",
    "address": "静岡市葵区薬師１１番地の１特別養護老人ホーム薬師の園 特別養護老人ホーム薬師の園",
    "lat": 35.0257914318354,
    "lng": 138.410175423804,
    "tel": "(054)655-6577",
    "url": "https://yakushinosono.com/",
    "pref": "静岡県",
    "city": "静岡市葵区",
    "category": "tokuyou",
    "serviceType": "介護老人福祉施設",
    "capacity": 50,
    "openDays": [],
    "openDaysNote": ""
  },
  {
    "id": "2274100169",
    "name": "特別養護老人ホーム竜爪園",
    "kana": "トクベツヨウゴロウジンホームリュウソウエン",
    "address": "静岡市葵区長尾89-1",
    "lat": 35.0381501,
    "lng": 138.4275824,
    "tel": "054-265-3838",
    "url": "http://www.love.or.jp",
    "pref": "静岡県",
    "city": "静岡市葵区",
    "category": "tokuyou",
    "serviceType": "介護老人福祉施設",
    "capacity": 140,
    "openDays": [],
    "openDaysNote": ""
  },
  {
    "id": "2274100045",
    "name": "麻機園",
    "kana": "アサハタエン",
    "address": "静岡県静岡市葵区東５２７－１",
    "lat": 35.0241675,
    "lng": 138.3976852,
    "tel": "054-247-8739",
    "url": "https://www.sakura.or.jp",
    "pref": "静岡県",
    "city": "静岡市葵区",
    "category": "tokuyou",
    "serviceType": "介護老人福祉施設",
    "capacity": 0,
    "openDays": [],
    "openDaysNote": ""
  },
  {
    "id": "2274207766",
    "name": "まごころタウン＊静岡",
    "kana": "マゴコロタウンシズオカ",
    "address": "弥生町4-26",
    "lat": 35.0041400965747,
    "lng": 138.436590950911,
    "tel": "054-267-3131",
    "url": "http://www.magokoro-w.com/",
    "pref": "静岡県",
    "city": "静岡市駿河区",
    "category": "tokuyou",
    "serviceType": "介護老人福祉施設",
    "capacity": 104,
    "openDays": [],
    "openDaysNote": ""
  },
  {
    "id": "2274205679",
    "name": "小鹿なでしこ苑",
    "kana": "オシカナデシコエン",
    "address": "静岡市駿河区小鹿402-1",
    "lat": 34.9710246,
    "lng": 138.4254086,
    "tel": "054-260-4165",
    "url": "http://nadeshiko.konjiki.jp/",
    "pref": "静岡県",
    "city": "静岡市駿河区",
    "category": "tokuyou",
    "serviceType": "介護老人福祉施設",
    "capacity": 0,
    "openDays": [],
    "openDaysNote": ""
  },
  {
    "id": "2274100763",
    "name": "特別養護老人ホーム　丸子の里",
    "kana": "トクベツヨウゴロウジンホーム　マリコノサト",
    "address": "静岡市駿河区丸子3000番地の1",
    "lat": 34.9493366,
    "lng": 138.3297682,
    "tel": "054-257-6515",
    "url": "http;//www.marokonosato.org",
    "pref": "静岡県",
    "city": "静岡市駿河区",
    "category": "tokuyou",
    "serviceType": "介護老人福祉施設",
    "capacity": 0,
    "openDays": [],
    "openDaysNote": ""
  },
  {
    "id": "2274201249",
    "name": "特別養護老人ホーム　小坂の郷",
    "kana": "トクベツヨウゴロウジンホーム　オサカノサト",
    "address": "静岡市駿河区小坂1106番地の1",
    "lat": 34.925187,
    "lng": 138.3499776,
    "tel": "054-258-5115",
    "url": "http://osakanosato.com",
    "pref": "静岡県",
    "city": "静岡市駿河区",
    "category": "tokuyou",
    "serviceType": "介護老人福祉施設",
    "capacity": 140,
    "openDays": [],
    "openDaysNote": ""
  },
  {
    "id": "2274100094",
    "name": "特別養護老人ホーム　小鹿苑",
    "kana": "トクベツヨウゴロウジンホームオシカエン",
    "address": "静岡県静岡市駿河区小鹿一丁目１番２４号",
    "lat": 34.9756405,
    "lng": 138.4141595,
    "tel": "054-284-0021",
    "url": "https://www.oshikaen.jp",
    "pref": "静岡県",
    "city": "静岡市駿河区",
    "category": "tokuyou",
    "serviceType": "介護老人福祉施設",
    "capacity": 0,
    "openDays": [],
    "openDaysNote": ""
  },
  {
    "id": "2274100391",
    "name": "特別養護老人ホームなごみ",
    "kana": "トクベツヨウゴロウジンホームナゴミ",
    "address": "静岡市駿河区中島２５８０－１",
    "lat": 34.9338975,
    "lng": 138.4002898,
    "tel": "054-286-2626",
    "url": "http://www.wayou-fukushikai.jp/",
    "pref": "静岡県",
    "city": "静岡市駿河区",
    "category": "tokuyou",
    "serviceType": "介護老人福祉施設",
    "capacity": 0,
    "openDays": [],
    "openDaysNote": ""
  },
  {
    "id": "2274207196",
    "name": "特別養護老人ホーム久能の里",
    "kana": "トクベツヨウゴロウジンホームクノウノサト",
    "address": "根古屋289番地の１",
    "lat": 34.9623676,
    "lng": 138.4703412,
    "tel": "054-237-8876",
    "url": "https://sunpuaoikai.or.jp/kunou/",
    "pref": "静岡県",
    "city": "静岡市駿河区",
    "category": "tokuyou",
    "serviceType": "介護老人福祉施設",
    "capacity": 60,
    "openDays": [],
    "openDaysNote": ""
  },
  {
    "id": "2274101217",
    "name": "特別養護老人ホーム久能の里",
    "kana": "トクベツヨウゴロウジンホームクノウノサト",
    "address": "静岡市駿河区根古屋289-1",
    "lat": 34.9623648,
    "lng": 138.4704356,
    "tel": "054-237-8876",
    "url": "https://sunpuaoikai.or.jp/kunou/",
    "pref": "静岡県",
    "city": "静岡市駿河区",
    "category": "tokuyou",
    "serviceType": "介護老人福祉施設",
    "capacity": 0,
    "openDays": [],
    "openDaysNote": ""
  },
  {
    "id": "2274100193",
    "name": "特別養護老人ホーム聖ヨゼフの園",
    "kana": "トクベツヨウゴロウジンホームセイヨゼフノソノ",
    "address": "静岡市駿河区八幡4-6-9",
    "lat": 34.9680298,
    "lng": 138.3974029,
    "tel": "054-282-1871",
    "url": "http://www.joseph-seibofukushikai.jp/",
    "pref": "静岡県",
    "city": "静岡市駿河区",
    "category": "tokuyou",
    "serviceType": "介護老人福祉施設",
    "capacity": 0,
    "openDays": [],
    "openDaysNote": ""
  },
  {
    "id": "2274201892",
    "name": "特別養護老人ホーム登呂の家",
    "kana": "トクベツヨウゴロウジンホームトロノイエ",
    "address": "静岡市駿河区登呂３丁目４－１",
    "lat": 34.958956,
    "lng": 138.4064135,
    "tel": "054-203-3363",
    "url": "http://www.tenryu-kohseikai.or.jp/senior/toro/",
    "pref": "静岡県",
    "city": "静岡市駿河区",
    "category": "tokuyou",
    "serviceType": "介護老人福祉施設",
    "capacity": 80,
    "openDays": [],
    "openDaysNote": ""
  },
  {
    "id": "2273200010",
    "name": "介護老人福祉施設巴の園",
    "kana": "カイゴロウジンフクシシセツトモエノソノ",
    "address": "静岡市清水区万世町1丁目1番３０号",
    "lat": 35.0131271,
    "lng": 138.4869889,
    "tel": "054-354-1527",
    "url": "http://www.seiunkai-t.or.jp/",
    "pref": "静岡県",
    "city": "静岡市清水区",
    "category": "tokuyou",
    "serviceType": "介護老人福祉施設",
    "capacity": 0,
    "openDays": [],
    "openDaysNote": ""
  },
  {
    "id": "2274207238",
    "name": "介護老人福祉施設巴の園和郷",
    "kana": "カイゴロウジンフクシシセツトモエノソノナゴミノサト",
    "address": "静岡市清水区万世町1-1-30",
    "lat": 35.0131271,
    "lng": 138.4869889,
    "tel": "054-354-1527",
    "url": "http://seiunkai-t.or.jp",
    "pref": "静岡県",
    "city": "静岡市清水区",
    "category": "tokuyou",
    "serviceType": "介護老人福祉施設",
    "capacity": 0,
    "openDays": [],
    "openDaysNote": ""
  },
  {
    "id": "2274204151",
    "name": "特別養護老人ホーム　いはらの里",
    "kana": "トクベツヨウゴロウジンホーム　イハラノサト",
    "address": "静岡市清水区庵原町578-1",
    "lat": 35.0455451,
    "lng": 138.4743976,
    "tel": "054-366-3653",
    "url": "http://ihara.ja-shizuoka.or.jp/",
    "pref": "静岡県",
    "city": "静岡市清水区",
    "category": "tokuyou",
    "serviceType": "介護老人福祉施設",
    "capacity": 122,
    "openDays": [],
    "openDaysNote": ""
  },
  {
    "id": "2273200044",
    "name": "特別養護老人ホーム　羽衣の園",
    "kana": "トクベツヨウゴロウジンホーム　ハゴロモノソノ",
    "address": "静岡市清水区折戸5丁目18番36号",
    "lat": 34.9900601,
    "lng": 138.5185612,
    "tel": "054-335-3353",
    "url": "http://www.hagoromono-sono.jp",
    "pref": "静岡県",
    "city": "静岡市清水区",
    "category": "tokuyou",
    "serviceType": "介護老人福祉施設",
    "capacity": 0,
    "openDays": [],
    "openDaysNote": ""
  },
  {
    "id": "2273100038",
    "name": "特別養護老人ホーム　好日の園",
    "kana": "トクベツヨウゴロウジンホーム　コウジツノソノ",
    "address": "静岡市清水区蒲原神沢１３５９－１",
    "lat": 35.1157909,
    "lng": 138.5716256,
    "tel": "054-385-6500",
    "url": "https://www.koujitsu6500.jp",
    "pref": "静岡県",
    "city": "静岡市清水区",
    "category": "tokuyou",
    "serviceType": "介護老人福祉施設",
    "capacity": 0,
    "openDays": [],
    "openDaysNote": ""
  },
  {
    "id": "2273200325",
    "name": "特別養護老人ホーム　柏尾の里",
    "kana": "トクベツヨウゴロウジンホーム　カシオノサト",
    "address": "静岡市清水区柏尾の里387-2",
    "lat": 35.0384651,
    "lng": 138.4409037,
    "tel": "054-347-5261",
    "url": "http://www.shimizufukushikai/com",
    "pref": "静岡県",
    "city": "静岡市清水区",
    "category": "tokuyou",
    "serviceType": "介護老人福祉施設",
    "capacity": 0,
    "openDays": [],
    "openDaysNote": ""
  },
  {
    "id": "2273200283",
    "name": "特別養護老人ホーム　白扇閣",
    "kana": "トクベツヨウゴロウジンホーム　ハクセンカク",
    "address": "静岡市清水区承元寺町１３４１番地",
    "lat": 35.0820418756181,
    "lng": 138.51957020741,
    "tel": "054-369-2258",
    "url": "http://hakusenkaku.jp",
    "pref": "静岡県",
    "city": "静岡市清水区",
    "category": "tokuyou",
    "serviceType": "介護老人福祉施設",
    "capacity": 0,
    "openDays": [],
    "openDaysNote": ""
  },
  {
    "id": "2273100046",
    "name": "特別養護老人ホーム　浜石の郷　(従来型)",
    "kana": "トクベツヨウゴロウジンホーム　ハマイシノサト　（ジュウライガタ）",
    "address": "静岡市清水区由比阿僧189番地の１",
    "lat": 35.1150325362949,
    "lng": 138.556242042853,
    "tel": "054-377-1177",
    "url": "http://www.jishoukai.com/",
    "pref": "静岡県",
    "city": "静岡市清水区",
    "category": "tokuyou",
    "serviceType": "介護老人福祉施設",
    "capacity": 50,
    "openDays": [],
    "openDaysNote": ""
  },
  {
    "id": "2273200028",
    "name": "特別養護老人ホームあすなろの家",
    "kana": "トクベツヨウゴロウジンホームアスナロノイエ",
    "address": "静岡市清水区山原８７１－２",
    "lat": 35.0448892,
    "lng": 138.4618903,
    "tel": "054-363-2046",
    "url": "http://www.s-asunaro.net/",
    "pref": "静岡県",
    "city": "静岡市清水区",
    "category": "tokuyou",
    "serviceType": "介護老人福祉施設",
    "capacity": 50,
    "openDays": [],
    "openDaysNote": ""
  },
  {
    "id": "2274202668",
    "name": "特別養護老人ホームこもれび",
    "kana": "トクベツヨウゴロウジンホームコモレビ",
    "address": "静岡市清水区吉原1731",
    "lat": 35.0832623,
    "lng": 138.4644061,
    "tel": "054-343-0155",
    "url": "http://www.t-komorebi.com/",
    "pref": "静岡県",
    "city": "静岡市清水区",
    "category": "tokuyou",
    "serviceType": "介護老人福祉施設",
    "capacity": 0,
    "openDays": [],
    "openDaysNote": ""
  },
  {
    "id": "2274204250",
    "name": "特別養護老人ホームベイコート清水",
    "kana": "トクベツヨウゴロウジンホームベイコートシミズ",
    "address": "静岡県静岡市清水区折戸487番地の5",
    "lat": 34.9970546107915,
    "lng": 138.513750533066,
    "tel": "054-337-2255",
    "url": "http://www4.tokai.or.jp/baycoat/",
    "pref": "静岡県",
    "city": "静岡市清水区",
    "category": "tokuyou",
    "serviceType": "介護老人福祉施設",
    "capacity": 49,
    "openDays": [],
    "openDaysNote": ""
  },
  {
    "id": "2274200671",
    "name": "特別養護老人ホームレジデンス花",
    "kana": "トクベツヨウゴロウジンホーム　レジデンスハナ",
    "address": "静岡市清水区中河内２７１７",
    "lat": 35.1336029,
    "lng": 138.472371,
    "tel": "054-343-2121",
    "url": "http://hanazonokai.com",
    "pref": "静岡県",
    "city": "静岡市清水区",
    "category": "tokuyou",
    "serviceType": "介護老人福祉施設",
    "capacity": 100,
    "openDays": [],
    "openDaysNote": ""
  },
  {
    "id": "2274208665",
    "name": "特別養護老人ホーム高部陽光園",
    "kana": "トクベツヨウゴロウジンホームタカベヨウコウエン",
    "address": "静岡県静岡市清水区押切997-1",
    "lat": 35.028066,
    "lng": 138.4542998,
    "tel": "054-348-3261",
    "url": "https://www.hakuju-kai.com/",
    "pref": "静岡県",
    "city": "静岡市清水区",
    "category": "tokuyou",
    "serviceType": "介護老人福祉施設",
    "capacity": 100,
    "openDays": [],
    "openDaysNote": ""
  },
  {
    "id": "2274207642",
    "name": "特別養護老人ホーム浜石の郷(ユニット型)",
    "kana": "トクベツヨウゴロウジンホームハマイシノサト（ユニットガタ）",
    "address": "静岡県静岡市清水区由比阿僧189番地の1",
    "lat": 35.11523,
    "lng": 138.5568214,
    "tel": "054-377-1177",
    "url": "http://www.jisyoukai.com",
    "pref": "静岡県",
    "city": "静岡市清水区",
    "category": "tokuyou",
    "serviceType": "介護老人福祉施設",
    "capacity": 40,
    "openDays": [],
    "openDaysNote": ""
  },
  {
    "id": "2274208566",
    "name": "特別養護老人ホーム蜂ヶ谷園",
    "kana": "トクベツヨウゴロウジンホームハチガヤエン",
    "address": "蜂ヶ谷460-7",
    "lat": 35.0407491,
    "lng": 138.4572752,
    "tel": "054-367-0300",
    "url": "http://sunpuaoikai.or.jp/hachigaya/",
    "pref": "静岡県",
    "city": "静岡市清水区",
    "category": "tokuyou",
    "serviceType": "介護老人福祉施設",
    "capacity": 96,
    "openDays": [],
    "openDaysNote": ""
  },
  {
    "id": "2274200134",
    "name": "特別養護老人ホーム有度の里",
    "kana": "トクベツヨウゴロウジンホームウドノサト",
    "address": "静岡市清水区長崎新田３１１",
    "lat": 35.0166922,
    "lng": 138.4483505,
    "tel": "054-344-7711",
    "url": "http://www.udonosato.com/",
    "pref": "静岡県",
    "city": "静岡市清水区",
    "category": "tokuyou",
    "serviceType": "介護老人福祉施設",
    "capacity": null,
    "openDays": [],
    "openDaysNote": ""
  },
  {
    "id": "2275500466",
    "name": "特別養護老人ホーム　あかいしの郷",
    "kana": "トクベツヨウゴロウジンホウム　アカイシノサト",
    "address": "榛原郡川根本町徳山1620番地の１",
    "lat": 35.0750412,
    "lng": 138.1159658,
    "tel": "0547-57-1234",
    "url": "https://kojinkai-fukushi.com/akaishinosato/",
    "pref": "静岡県",
    "city": "川根本町",
    "category": "tokuyou",
    "serviceType": "介護老人福祉施設",
    "capacity": 50,
    "openDays": [],
    "openDaysNote": ""
  },
  {
    "id": "2275500888",
    "name": "特別養護老人ホーム　あかいしの郷（ユニット型）",
    "kana": "トクベツヨウゴロウジンホウム　アカイシノサト（ユニットガタ）",
    "address": "静岡県榛原郡川根本町徳山1620番地の1",
    "lat": 35.075119,
    "lng": 138.1160381,
    "tel": "0547-57-1234",
    "url": "https://kojinkai-fukushi.com/akaishinosato/",
    "pref": "静岡県",
    "city": "川根本町",
    "category": "tokuyou",
    "serviceType": "介護老人福祉施設",
    "capacity": 30,
    "openDays": [],
    "openDaysNote": ""
  },
  {
    "id": "2276400104",
    "name": "介護老人福祉施設　萩の花",
    "kana": "カイゴロウジンフクシシセツ　ハギノハナ",
    "address": "袋井市高尾1439-1",
    "lat": 34.7327284,
    "lng": 137.9293125,
    "tel": "0538-45-3007",
    "url": "http://koshikai.or.jp",
    "pref": "静岡県",
    "city": "袋井市",
    "category": "tokuyou",
    "serviceType": "介護老人福祉施設",
    "capacity": 0,
    "openDays": [],
    "openDaysNote": ""
  },
  {
    "id": "2276600042",
    "name": "紫雲の園",
    "kana": "シウンノソノ",
    "address": "袋井市浅名１５７７－１",
    "lat": 34.7131144,
    "lng": 137.9373015,
    "tel": "0538-23-4710",
    "url": "http://www.sanpo-kai.jp/",
    "pref": "静岡県",
    "city": "袋井市",
    "category": "tokuyou",
    "serviceType": "介護老人福祉施設",
    "capacity": 90,
    "openDays": [],
    "openDaysNote": ""
  },
  {
    "id": "2276400138",
    "name": "特別養護老人ホーム　ディアコニア",
    "kana": "トクベツヨウゴロウジンホーム　ディアコニア",
    "address": "袋井市山崎5902番地の167",
    "lat": 34.7090543,
    "lng": 137.9740924,
    "tel": "0538-23-0380",
    "url": "http//www.denmark-bokujyo.or.jp",
    "pref": "静岡県",
    "city": "袋井市",
    "category": "tokuyou",
    "serviceType": "介護老人福祉施設",
    "capacity": 80,
    "openDays": [],
    "openDaysNote": ""
  },
  {
    "id": "2276400039",
    "name": "特別養護老人ホーム　明和苑",
    "kana": "トクベツヨウゴロウジンホームメイワエン",
    "address": "袋井市宇刈８５０－１",
    "lat": 34.7923073,
    "lng": 137.9222454,
    "tel": "0538-49-1555",
    "url": "http:www.meiwakai.jp",
    "pref": "静岡県",
    "city": "袋井市",
    "category": "tokuyou",
    "serviceType": "介護老人福祉施設",
    "capacity": 0,
    "openDays": [],
    "openDaysNote": ""
  },
  {
    "id": "2277300451",
    "name": "特別養護老人ホーム袋井ゆうあいの里",
    "kana": "トクベツヨウゴロウジンホームフクロイユウアイノサト",
    "address": "静岡県袋井市小山1410-1",
    "lat": 34.7500841611947,
    "lng": 137.88904138001,
    "tel": "0538-45-2311",
    "url": "http://www.enchu-fukushikai.or.jp/",
    "pref": "静岡県",
    "city": "袋井市",
    "category": "tokuyou",
    "serviceType": "介護老人福祉施設",
    "capacity": 0,
    "openDays": [],
    "openDaysNote": ""
  },
  {
    "id": "2276400237",
    "name": "特別養護老人ホーム萬松の里",
    "kana": "トクベツヨウゴロウジンホームバンショウノサト",
    "address": "袋井市久能2914-4",
    "lat": 34.7770619,
    "lng": 137.9214987,
    "tel": "0538-48-5111",
    "url": "http://www.banshoukai.com/",
    "pref": "静岡県",
    "city": "袋井市",
    "category": "tokuyou",
    "serviceType": "介護老人福祉施設",
    "capacity": 0,
    "openDays": [],
    "openDaysNote": ""
  },
  {
    "id": "2271300028",
    "name": "ながいずみホーム",
    "kana": "ナガイズミホーム",
    "address": "静岡県駿東郡長泉町元長窪８８８－６９",
    "lat": 35.1685992,
    "lng": 138.8656908,
    "tel": "055-989-0250",
    "url": "http//www.nagaizumi-home.jp",
    "pref": "静岡県",
    "city": "長泉町",
    "category": "tokuyou",
    "serviceType": "介護老人福祉施設",
    "capacity": 0,
    "openDays": [],
    "openDaysNote": ""
  },
  {
    "id": "2271300201",
    "name": "特別養護老人ホーム　さつき園",
    "kana": "トクベツヨウゴロウジンホーム　サツキエン",
    "address": "静岡県駿東郡長泉町下土狩４５７番地の２",
    "lat": 35.1279239,
    "lng": 138.8993946,
    "tel": "055-989-2121",
    "url": "http://www.satsukien.or.jp/",
    "pref": "静岡県",
    "city": "長泉町",
    "category": "tokuyou",
    "serviceType": "介護老人福祉施設",
    "capacity": null,
    "openDays": [],
    "openDaysNote": ""
  },
  {
    "id": "2275400014",
    "name": "永福荘",
    "kana": "エイフクソウ",
    "address": "島田市大草１０番地",
    "lat": 34.8601328,
    "lng": 138.1803383,
    "tel": "0547-37-1023",
    "url": "https://www.eifukuso.or.jp",
    "pref": "静岡県",
    "city": "島田市",
    "category": "tokuyou",
    "serviceType": "介護老人福祉施設",
    "capacity": 54,
    "openDays": [],
    "openDaysNote": ""
  },
  {
    "id": "2275400196",
    "name": "特別養護老人ホーム　あすか",
    "kana": "トクベツヨウゴロウジンホーム　アスカ",
    "address": "島田市中河町326番地の１",
    "lat": 34.8395576,
    "lng": 138.1773576,
    "tel": "0547-33-2111",
    "url": "http://care-net.biz/22/asuka/",
    "pref": "静岡県",
    "city": "島田市",
    "category": "tokuyou",
    "serviceType": "介護老人福祉施設",
    "capacity": 70,
    "openDays": [],
    "openDaysNote": ""
  },
  {
    "id": "2275400378",
    "name": "特別養護老人ホーム　かなや",
    "kana": "トクベツヨウゴロウジンホーム　カナヤ",
    "address": "静岡県島田市島５３６番１",
    "lat": 34.841987,
    "lng": 138.1268265,
    "tel": "0547-47-2255",
    "url": "https://www.tokuyou-kanaya.com",
    "pref": "静岡県",
    "city": "島田市",
    "category": "tokuyou",
    "serviceType": "介護老人福祉施設",
    "capacity": 50,
    "openDays": [],
    "openDaysNote": ""
  },
  {
    "id": "2275400436",
    "name": "特別養護老人ホーム　ほたるの丘",
    "kana": "トクベツヨウゴロウジンホーム　ホタルノオカ",
    "address": "静岡県島田市阪本2449番地の2",
    "lat": 34.8061811,
    "lng": 138.2073712,
    "tel": "0547-30-0808",
    "url": "www.hotaru-oka.com",
    "pref": "静岡県",
    "city": "島田市",
    "category": "tokuyou",
    "serviceType": "介護老人福祉施設",
    "capacity": 100,
    "openDays": [],
    "openDaysNote": ""
  },
  {
    "id": "2275500151",
    "name": "特別養護老人ホーム　本田山荘",
    "kana": "トクベツヨウゴロウジンホーム　ホンデンヤマソウ",
    "address": "島田市牛尾1102番地の1",
    "lat": 34.850786,
    "lng": 138.1283956,
    "tel": "0547-45-2022",
    "url": "http://hondenyamaso.jp/",
    "pref": "静岡県",
    "city": "島田市",
    "category": "tokuyou",
    "serviceType": "介護老人福祉施設",
    "capacity": 0,
    "openDays": [],
    "openDaysNote": ""
  },
  {
    "id": "2275500482",
    "name": "特別養護老人ホームとこは",
    "kana": "トクベツヨウゴロウジンホームトコハ",
    "address": "静岡県島田市川根町家山4168番地の1",
    "lat": 34.919951,
    "lng": 138.0825944,
    "tel": "0547-58-5000",
    "url": "http://www.tokohafukushikai.or.jp",
    "pref": "静岡県",
    "city": "島田市",
    "category": "tokuyou",
    "serviceType": "介護老人福祉施設",
    "capacity": 50,
    "openDays": [],
    "openDaysNote": ""
  },
  {
    "id": "2275400972",
    "name": "特別養護老人ホームひぎり",
    "kana": "トクベツヨウゴロウジンホームヒギリ",
    "address": "静岡県島田市島829-2",
    "lat": 34.8387179,
    "lng": 138.1226881,
    "tel": "0547-47-1100",
    "url": "http://www.youshoukai.or.jp",
    "pref": "静岡県",
    "city": "島田市",
    "category": "tokuyou",
    "serviceType": "介護老人福祉施設",
    "capacity": 70,
    "openDays": [],
    "openDaysNote": ""
  },
  {
    "id": "2275400022",
    "name": "特別養護老人ホームみどりの園",
    "kana": "トクベツヨウゴロウジンホームミドリノソノ",
    "address": "島田市中河375番地の１",
    "lat": 34.8073841,
    "lng": 138.2356218,
    "tel": "0547-38-7111",
    "url": "http://care-net.biz/22/midori/",
    "pref": "静岡県",
    "city": "島田市",
    "category": "tokuyou",
    "serviceType": "介護老人福祉施設",
    "capacity": 0,
    "openDays": [],
    "openDaysNote": ""
  },
  {
    "id": "2270100023",
    "name": "湯ヶ岡の郷",
    "kana": "ユガオカノサト",
    "address": "静岡県賀茂郡東伊豆町白田1200",
    "lat": 34.808521,
    "lng": 139.0405765,
    "tel": "0557-22-1100",
    "url": "http://www.yugaokanosato.jp",
    "pref": "静岡県",
    "city": "東伊豆町",
    "category": "tokuyou",
    "serviceType": "介護老人福祉施設",
    "capacity": null,
    "openDays": [],
    "openDaysNote": ""
  },
  {
    "id": "2275301865",
    "name": "ユニット型亀寿の郷指定介護老人福祉施設",
    "kana": "ユニットガタキジュノサトシテイカイゴロウジンフクシシセツ",
    "address": "静岡県藤枝市岡部町内谷１３３４番地の４",
    "lat": 34.9085128,
    "lng": 138.28970752209,
    "tel": "054-667-5000",
    "url": "http://hadukikai.jp/kijyunosato/",
    "pref": "静岡県",
    "city": "藤枝市",
    "category": "tokuyou",
    "serviceType": "介護老人福祉施設",
    "capacity": null,
    "openDays": [],
    "openDaysNote": ""
  },
  {
    "id": "2275300065",
    "name": "介護老人福祉施設　開寿園",
    "kana": "カイゴロウジンフクシシセツ　カイジュエン",
    "address": "藤枝市中ノ合252番地の1",
    "lat": 34.904734,
    "lng": 138.2503617,
    "tel": "054-638-2237",
    "url": "http://www.fusuikai.jp",
    "pref": "静岡県",
    "city": "藤枝市",
    "category": "tokuyou",
    "serviceType": "介護老人福祉施設",
    "capacity": 0,
    "openDays": [],
    "openDaysNote": ""
  },
  {
    "id": "2275300073",
    "name": "介護老人福祉施設　第2開寿園",
    "kana": "カイゴロウジンフクシシセツ　ダイニカイジュエン",
    "address": "藤枝市青南町1-12-13",
    "lat": 34.8363586,
    "lng": 138.2406271,
    "tel": "054-636-6680",
    "url": "http://www.fusuikai.jp/",
    "pref": "静岡県",
    "city": "藤枝市",
    "category": "tokuyou",
    "serviceType": "介護老人福祉施設",
    "capacity": null,
    "openDays": [],
    "openDaysNote": ""
  },
  {
    "id": "2275301808",
    "name": "介護老人福祉施設開寿園ユニット葉梨",
    "kana": "カイゴロウジンフクシシセツカイジュエンユニットハナシ",
    "address": "静岡県藤枝市中ノ合２５２－１",
    "lat": 34.9048828,
    "lng": 138.2505889,
    "tel": "０５４－６３８－２２３７",
    "url": "http://www.fusuikai.jp",
    "pref": "静岡県",
    "city": "藤枝市",
    "category": "tokuyou",
    "serviceType": "介護老人福祉施設",
    "capacity": null,
    "openDays": [],
    "openDaysNote": ""
  },
  {
    "id": "2275200026",
    "name": "亀寿の郷指定介護老人福祉施設",
    "kana": "キジュノサトシテイカイゴロウジンフクシシセツ",
    "address": "静岡県藤枝市岡部町内谷１３３４番地の４",
    "lat": 34.9085002188736,
    "lng": 138.289700453967,
    "tel": "054-667-5000",
    "url": "http://hadukikai.jp/kijyunosato/",
    "pref": "静岡県",
    "city": "藤枝市",
    "category": "tokuyou",
    "serviceType": "介護老人福祉施設",
    "capacity": 0,
    "openDays": [],
    "openDaysNote": ""
  },
  {
    "id": "2275300818",
    "name": "特別養護老人ホームきらら藤枝",
    "kana": "トクベツヨウゴロウジンホームキララフジエダ",
    "address": "藤枝市八幡198番地",
    "lat": 34.8856595,
    "lng": 138.2745982,
    "tel": "054-646-6766",
    "url": "http://www.kenminkouseikai.net.",
    "pref": "静岡県",
    "city": "藤枝市",
    "category": "tokuyou",
    "serviceType": "介護老人福祉施設",
    "capacity": 70,
    "openDays": [],
    "openDaysNote": ""
  },
  {
    "id": "2275300172",
    "name": "特別養護老人ホームふじトピア",
    "kana": "トクベツヨウゴロウジンホウムフジトピア",
    "address": "藤枝市時ヶ谷417番地2",
    "lat": 34.8858675,
    "lng": 138.2586499,
    "tel": "054-638-5252",
    "url": "https://fujitopia.jp/",
    "pref": "静岡県",
    "city": "藤枝市",
    "category": "tokuyou",
    "serviceType": "介護老人福祉施設",
    "capacity": 70,
    "openDays": [],
    "openDaysNote": ""
  },
  {
    "id": "2275300446",
    "name": "特別養護老人ホーム愛華の郷",
    "kana": "トクベツヨウゴロウジンホームアイカノサト",
    "address": "静岡県藤枝市大東町58番地",
    "lat": 34.8248331,
    "lng": 138.2624004,
    "tel": "054-634-1131",
    "url": "http://aikanosato.com/",
    "pref": "静岡県",
    "city": "藤枝市",
    "category": "tokuyou",
    "serviceType": "介護老人福祉施設",
    "capacity": 100,
    "openDays": [],
    "openDaysNote": ""
  },
  {
    "id": "2275301196",
    "name": "特別養護老人ホーム菜の花",
    "kana": "トクベツヨウゴロウジンホームナノハナ",
    "address": "藤枝市内瀬戸194番地の1",
    "lat": 34.8530013,
    "lng": 138.2337829,
    "tel": "054-646-7087",
    "url": "http://seikeikai.info/",
    "pref": "静岡県",
    "city": "藤枝市",
    "category": "tokuyou",
    "serviceType": "介護老人福祉施設",
    "capacity": 70,
    "openDays": [],
    "openDaysNote": ""
  },
  {
    "id": "2270100825",
    "name": "介護老人福祉施設エクレシア南伊豆",
    "kana": "カイゴロウジンフクシシセツエクレシアミナミイズ",
    "address": "静岡県賀茂郡南伊豆町加納７９２番地",
    "lat": 34.6554305,
    "lng": 138.8554243,
    "tel": "0558-36-3113",
    "url": "http://www.shiyuukai.or.jp",
    "pref": "静岡県",
    "city": "南伊豆町",
    "category": "tokuyou",
    "serviceType": "介護老人福祉施設",
    "capacity": 90,
    "openDays": [],
    "openDaysNote": ""
  },
  {
    "id": "2270100080",
    "name": "特別養護老人ホーム　みなとの園",
    "kana": "トクベツヨウゴロウジンホウム　ミナトノソノ",
    "address": "賀茂郡南伊豆町湊６３８－１",
    "lat": 34.6396641,
    "lng": 138.8932039,
    "tel": "0558-62-8111",
    "url": "http://www.shiyuukai.or.jp/",
    "pref": "静岡県",
    "city": "南伊豆町",
    "category": "tokuyou",
    "serviceType": "介護老人福祉施設",
    "capacity": 0,
    "openDays": [],
    "openDaysNote": ""
  },
  {
    "id": "2270500057",
    "name": "特別養護老人ホーム　姫の沢荘",
    "kana": "トクベツヨウゴロウジンホーム　ヒメノサワソウ",
    "address": "熱海市西熱海町２丁目２４－８",
    "lat": 35.1142629,
    "lng": 139.0499065,
    "tel": "0557-85-2233",
    "url": "http://www.ideyunosono.or.jp",
    "pref": "静岡県",
    "city": "熱海市",
    "category": "tokuyou",
    "serviceType": "介護老人福祉施設",
    "capacity": 0,
    "openDays": [],
    "openDaysNote": ""
  },
  {
    "id": "2270500065",
    "name": "特別養護老人ホーム海光園",
    "kana": "トクベツヨウゴロウジンホーム　カイコウエン",
    "address": "熱海市上多賀1016-10",
    "lat": 35.0708125,
    "lng": 139.0662994,
    "tel": "0557-67-1971",
    "url": "https://www.kaikoukai-atami.org/",
    "pref": "静岡県",
    "city": "熱海市",
    "category": "tokuyou",
    "serviceType": "介護老人福祉施設",
    "capacity": 80,
    "openDays": [],
    "openDaysNote": ""
  },
  {
    "id": "2270500313",
    "name": "特別養護老人ホーム熱海伊豆海の郷",
    "kana": "トクベツヨウゴロウジンホームアタミイズミノサト",
    "address": "熱海市伊豆山７１７－１",
    "lat": 35.1165021,
    "lng": 139.0847366,
    "tel": "0557-80-5600",
    "url": "http://www.s-koseikai.jp/",
    "pref": "静岡県",
    "city": "熱海市",
    "category": "tokuyou",
    "serviceType": "介護老人福祉施設",
    "capacity": 0,
    "openDays": [],
    "openDaysNote": ""
  },
  {
    "id": "2270300151",
    "name": "みどりが丘ホーム",
    "kana": "ミドリガオカホーム",
    "address": "田方郡函南町大竹20-15",
    "lat": 35.1157311,
    "lng": 138.9617368,
    "tel": "055-978-0577",
    "url": "http://nihonminsei.jp/",
    "pref": "静岡県",
    "city": "函南町",
    "category": "tokuyou",
    "serviceType": "介護老人福祉施設",
    "capacity": 0,
    "openDays": [],
    "openDaysNote": ""
  },
  {
    "id": "2270300656",
    "name": "特別養護老人ホーム　函南・ぶなの森",
    "kana": "トクベツヨウゴロウジンホーム　カンナミ　ブナノモリ",
    "address": "田方郡函南町仁田２８４－５",
    "lat": 35.075966,
    "lng": 138.9410448,
    "tel": "055-970-1127",
    "url": "http://www.buna-no-mori.jp",
    "pref": "静岡県",
    "city": "函南町",
    "category": "tokuyou",
    "serviceType": "介護老人福祉施設",
    "capacity": 80,
    "openDays": [],
    "openDaysNote": ""
  },
  {
    "id": "2270300078",
    "name": "特別養護老人ホーム伊豆白寿園",
    "kana": "トクベツヨウゴロウジンホームイズハクジュエン",
    "address": "田方郡函南町平井７５０",
    "lat": 35.0889449,
    "lng": 138.9546963,
    "tel": "055-978-7511",
    "url": "https://kyosaifukushikai.jp",
    "pref": "静岡県",
    "city": "函南町",
    "category": "tokuyou",
    "serviceType": "介護老人福祉施設",
    "capacity": 70,
    "openDays": [],
    "openDaysNote": ""
  },
  {
    "id": "2276900186",
    "name": "介護老人福祉施設梅香の里",
    "kana": "カイゴロウジンフクシシセツバイカノサト",
    "address": "磐田市下野部363-1",
    "lat": 34.8350333,
    "lng": 137.8464401,
    "tel": "0539-63-5030",
    "url": "http://www.hashoukai.jp",
    "pref": "静岡県",
    "city": "磐田市",
    "category": "tokuyou",
    "serviceType": "介護老人福祉施設",
    "capacity": 50,
    "openDays": [],
    "openDaysNote": ""
  },
  {
    "id": "2276600059",
    "name": "社会福祉法人　丹穂会　福寿荘",
    "kana": "シャカイフクシホウジン　　タンスイカイ　フクジュソウ",
    "address": "磐田市宇兵衛新田１８７",
    "lat": 34.6752565,
    "lng": 137.8607924,
    "tel": "0538-58-3111",
    "url": "",
    "pref": "静岡県",
    "city": "磐田市",
    "category": "tokuyou",
    "serviceType": "介護老人福祉施設",
    "capacity": 0,
    "openDays": [],
    "openDaysNote": ""
  },
  {
    "id": "2276900624",
    "name": "特別養護老人ﾎｰﾑ遠州の園",
    "kana": "トクベツヨウゴロウジンホームエンシュウノソノ",
    "address": "大久保522-1",
    "lat": 34.7676777,
    "lng": 137.8533116,
    "tel": "0538-38-2145",
    "url": "www.tohtoumi-kouseien.or.jp/",
    "pref": "静岡県",
    "city": "磐田市",
    "category": "tokuyou",
    "serviceType": "介護老人福祉施設",
    "capacity": 0,
    "openDays": [],
    "openDaysNote": ""
  },
  {
    "id": "2276900228",
    "name": "特別養護老人ホーム　西之島の郷",
    "kana": "トクベツヨウゴロウジンホーム　ニシノシマノサト",
    "address": "磐田市西之島26番地1",
    "lat": 34.6984537,
    "lng": 137.8798032,
    "tel": "0538-39-4165",
    "url": "http://saishinkai.or.jp/nishinoshima",
    "pref": "静岡県",
    "city": "磐田市",
    "category": "tokuyou",
    "serviceType": "介護老人福祉施設",
    "capacity": 80,
    "openDays": [],
    "openDaysNote": ""
  },
  {
    "id": "2276901036",
    "name": "特別養護老人ホーム　第二白寿園",
    "kana": "トクベツヨウゴロウジンホーム　ダイニハクジュエン",
    "address": "静岡県磐田市掛塚　3160-1",
    "lat": 34.6638972,
    "lng": 137.8039582,
    "tel": "0538-31-3380",
    "url": "http://www.hakuju.jp/index.php",
    "pref": "静岡県",
    "city": "磐田市",
    "category": "tokuyou",
    "serviceType": "介護老人福祉施設",
    "capacity": 40,
    "openDays": [],
    "openDaysNote": ""
  },
  {
    "id": "2276900582",
    "name": "特別養護老人ホーム　中泉の里",
    "kana": "トクベツヨウゴロウジンホーム　ナカイズミノサト",
    "address": "磐田市中泉2414-1",
    "lat": 34.7141815,
    "lng": 137.8446113,
    "tel": "0538-36-1131",
    "url": "http://nakaizuminosato.web.fc2.com/",
    "pref": "静岡県",
    "city": "磐田市",
    "category": "tokuyou",
    "serviceType": "介護老人福祉施設",
    "capacity": 0,
    "openDays": [],
    "openDaysNote": ""
  },
  {
    "id": "2276900590",
    "name": "特別養護老人ホーム　中泉の里第２",
    "kana": "トクベツヨウゴロウジンホーム　ナカイズミノサトダイニ",
    "address": "磐田市中泉2414-1",
    "lat": 34.7141815,
    "lng": 137.8446113,
    "tel": "0538-36-1131",
    "url": "http://nakaizuminosato.web.fc2.com/",
    "pref": "静岡県",
    "city": "磐田市",
    "category": "tokuyou",
    "serviceType": "介護老人福祉施設",
    "capacity": 0,
    "openDays": [],
    "openDaysNote": ""
  },
  {
    "id": "2276700032",
    "name": "特別養護老人ホーム遠州の園",
    "kana": "トクベツヨウゴロウジンホームエンシュウノソノ",
    "address": "磐田市大久保522-1",
    "lat": 34.7677614417701,
    "lng": 137.853249065993,
    "tel": "0538-38-2145",
    "url": "http://www.tohtoumi-kouseien.or.jp",
    "pref": "静岡県",
    "city": "磐田市",
    "category": "tokuyou",
    "serviceType": "介護老人福祉施設",
    "capacity": 0,
    "openDays": [],
    "openDaysNote": ""
  },
  {
    "id": "2276700181",
    "name": "特別養護老人ホーム西貝の郷",
    "kana": "トクベツヨウゴロウジンホームニシカイノサト",
    "address": "磐田市西貝塚2111番地1",
    "lat": 34.7177928,
    "lng": 137.8724751,
    "tel": "0538-21-3933",
    "url": "http://www.saishinkai.or.jp",
    "pref": "静岡県",
    "city": "磐田市",
    "category": "tokuyou",
    "serviceType": "介護老人福祉施設",
    "capacity": 80,
    "openDays": [],
    "openDaysNote": ""
  },
  {
    "id": "2276700024",
    "name": "特別養護老人ホーム第二遠州の園",
    "kana": "トクベツヨウゴロウジンホームダイニエンシュウノソノ",
    "address": "磐田市鮫島１８０４－１",
    "lat": 34.6678015,
    "lng": 137.8478854,
    "tel": "0538-34-1165",
    "url": "https://www.tohtoumi-kouseien.or.jp/",
    "pref": "静岡県",
    "city": "磐田市",
    "category": "tokuyou",
    "serviceType": "介護老人福祉施設",
    "capacity": 0,
    "openDays": [],
    "openDaysNote": ""
  },
  {
    "id": "2276600034",
    "name": "特別養護老人ホーム白寿園",
    "kana": "トクベツヨウゴロウジンホームハクジュエン",
    "address": "磐田市掛塚3172番地",
    "lat": 34.6642444,
    "lng": 137.8039387,
    "tel": "0538-66-5231",
    "url": "http://www.hakuju.jp",
    "pref": "静岡県",
    "city": "磐田市",
    "category": "tokuyou",
    "serviceType": "介護老人福祉施設",
    "capacity": 70,
    "openDays": [],
    "openDaysNote": ""
  },
  {
    "id": "2276600075",
    "name": "特別養護老人ホーム豊仙苑",
    "kana": "トクベツヨウゴロウジンホームホウセンエン",
    "address": "磐田市敷地83番地8",
    "lat": 34.8218302,
    "lng": 137.8611671,
    "tel": "0539-62-6158",
    "url": "http://www.housenen.or.jp/",
    "pref": "静岡県",
    "city": "磐田市",
    "category": "tokuyou",
    "serviceType": "介護老人福祉施設",
    "capacity": 50,
    "openDays": [],
    "openDaysNote": ""
  },
  {
    "id": "2276900053",
    "name": "特別養護老人ホーム豊田ゆうあいの里",
    "kana": "トクベツヨウゴロウジンホームトヨダユウアイノサト",
    "address": "静岡県磐田市下万能700番地",
    "lat": 34.7150751,
    "lng": 137.8310708,
    "tel": "0538-39-3370",
    "url": "http://www.enchu-fukushikai.or.jp/",
    "pref": "静岡県",
    "city": "磐田市",
    "category": "tokuyou",
    "serviceType": "介護老人福祉施設",
    "capacity": 0,
    "openDays": [],
    "openDaysNote": ""
  },
  {
    "id": "2276600018",
    "name": "特別養護老人ホーム豊田一空園",
    "kana": "トクベツヨウゴロウジンホームトヨダイックウエン",
    "address": "磐田市東原207-1",
    "lat": 34.743222,
    "lng": 137.8443881,
    "tel": "0538-36-5115",
    "url": "http://hashoukai.or.jp",
    "pref": "静岡県",
    "city": "磐田市",
    "category": "tokuyou",
    "serviceType": "介護老人福祉施設",
    "capacity": 0,
    "openDays": [],
    "openDaysNote": ""
  },
  {
    "id": "2277100265",
    "name": "さぎの宮寮",
    "kana": "サギノミヤリョウ",
    "address": "浜松市東区小池町３８番地の1",
    "lat": 34.754028,
    "lng": 137.7640018,
    "tel": "053-434-5710",
    "url": "http：/houeikai5710.ｊｐ",
    "pref": "静岡県",
    "city": "浜松市中央区",
    "category": "tokuyou",
    "serviceType": "介護老人福祉施設",
    "capacity": 0,
    "openDays": [],
    "openDaysNote": ""
  },
  {
    "id": "2277103434",
    "name": "まほら舞阪",
    "kana": "マホラマイサカ",
    "address": "静岡県浜松市中央区舞阪町弁天島３４８１番地の２６",
    "lat": 34.6950291,
    "lng": 137.5908318,
    "tel": "053-597-2000",
    "url": "http://www.seiyuu-kai.com/",
    "pref": "静岡県",
    "city": "浜松市中央区",
    "category": "tokuyou",
    "serviceType": "介護老人福祉施設",
    "capacity": 50,
    "openDays": [],
    "openDaysNote": ""
  },
  {
    "id": "2277201931",
    "name": "ユニット型特別養護老人ホーム山崎園",
    "kana": "ユニットガタトクベツヨウゴロウジンホームヤマザキエン",
    "address": "静岡県浜松市中央区雄踏町山崎２８２９番地",
    "lat": 34.7171902,
    "lng": 137.627202,
    "tel": "０５３－５９７－２５８６",
    "url": "https://www.sankoukai.or.jp/",
    "pref": "静岡県",
    "city": "浜松市中央区",
    "category": "tokuyou",
    "serviceType": "介護老人福祉施設",
    "capacity": 0,
    "openDays": [],
    "openDaysNote": ""
  },
  {
    "id": "2277100349",
    "name": "指定介護老人福祉施設　第二砂丘寮",
    "kana": "シテイカイゴロウジンフクシシセツ　ダイニスナオカリョウ",
    "address": "静岡県浜松市南区田尻町１１８２番地指定介護老人福祉施設　第二砂丘寮 指定介護老人福祉施設　第二砂丘寮",
    "lat": 34.6669014,
    "lng": 137.7232551,
    "tel": "053-442-2531",
    "url": "https://mitsuwakai-sunaoka.jp/",
    "pref": "静岡県",
    "city": "浜松市中央区",
    "category": "tokuyou",
    "serviceType": "介護老人福祉施設",
    "capacity": 81,
    "openDays": [],
    "openDaysNote": ""
  },
  {
    "id": "2277100067",
    "name": "指定介護老人福祉施設　芳川の里",
    "kana": "シテイカイゴロウジンフクシシセツ　ホウガワノサト",
    "address": "浜松市中央区石原町739",
    "lat": 34.688178,
    "lng": 137.7693063,
    "tel": "053-426-1500",
    "url": "https://www.tanpopo-kai.jp/",
    "pref": "静岡県",
    "city": "浜松市中央区",
    "category": "tokuyou",
    "serviceType": "介護老人福祉施設",
    "capacity": 50,
    "openDays": [],
    "openDaysNote": ""
  },
  {
    "id": "2277100331",
    "name": "静光園",
    "kana": "セイコウエン",
    "address": "浜松市中央区小沢渡町1300-1",
    "lat": 34.6854813,
    "lng": 137.6781281,
    "tel": "053-445-1300",
    "url": "http://www.hikarinosono.or.jp",
    "pref": "静岡県",
    "city": "浜松市中央区",
    "category": "tokuyou",
    "serviceType": "介護老人福祉施設",
    "capacity": 130,
    "openDays": [],
    "openDaysNote": ""
  },
  {
    "id": "2277203796",
    "name": "第三静光園あかり",
    "kana": "ダイサンセイコウエンアカリ",
    "address": "静岡県浜松市中央区根洗町681番地の4",
    "lat": 34.7959145998428,
    "lng": 137.698012344705,
    "tel": "053-436-8888",
    "url": "http://http://www.hikarinosono.or.jp/age/service/#anchor_3",
    "pref": "静岡県",
    "city": "浜松市中央区",
    "category": "tokuyou",
    "serviceType": "介護老人福祉施設",
    "capacity": 0,
    "openDays": [],
    "openDaysNote": ""
  },
  {
    "id": "2277100109",
    "name": "第三静光園いこい",
    "kana": "ダイサンセイコウエンイコイ",
    "address": "浜松市中央区根洗町681-4",
    "lat": 34.7962482,
    "lng": 137.698422604894,
    "tel": "053-436-8888",
    "url": "http://www.hikarinosono.or.jp/age/service/#anchor_3",
    "pref": "静岡県",
    "city": "浜松市中央区",
    "category": "tokuyou",
    "serviceType": "介護老人福祉施設",
    "capacity": 0,
    "openDays": [],
    "openDaysNote": ""
  },
  {
    "id": "2277100240",
    "name": "特別養護老人ホ－ム浜名湖園",
    "kana": "トクベツヨウゴロウジンホームハマナコエン",
    "address": "浜松市中央区古人見町1212番地老人ホーム浜名湖園 老人ホーム浜名湖園",
    "lat": 34.7300085,
    "lng": 137.6375032,
    "tel": "053-485-4116",
    "url": "https://www.hamanakoen.net",
    "pref": "静岡県",
    "city": "浜松市中央区",
    "category": "tokuyou",
    "serviceType": "介護老人福祉施設",
    "capacity": 80,
    "openDays": [],
    "openDaysNote": ""
  },
  {
    "id": "2277101479",
    "name": "特別養護老人ホーム　グリーンヒルズ東山",
    "kana": "トクベツヨウゴロウジンホームグリーンヒルズヒガシヤマ",
    "address": "大山町2958番地の1",
    "lat": 34.7737614,
    "lng": 137.6810862,
    "tel": "053-414-6001",
    "url": "http://www.keiseikai6001.or.jp",
    "pref": "静岡県",
    "city": "浜松市中央区",
    "category": "tokuyou",
    "serviceType": "介護老人福祉施設",
    "capacity": 140,
    "openDays": [],
    "openDaysNote": ""
  },
  {
    "id": "2277204281",
    "name": "特別養護老人ホーム　ケアホーム三方原",
    "kana": "トクベツヨウゴロウジンホーム　ケアホームミカタバラ",
    "address": "東三方町239",
    "lat": 34.7828067,
    "lng": 137.723359,
    "tel": "053-439-0777",
    "url": "http://www.siawase-k.com/wp/",
    "pref": "静岡県",
    "city": "浜松市中央区",
    "category": "tokuyou",
    "serviceType": "介護老人福祉施設",
    "capacity": 0,
    "openDays": [],
    "openDaysNote": ""
  },
  {
    "id": "2277102171",
    "name": "特別養護老人ホーム　ふるさと庵",
    "kana": "トクベツヨウゴロウジンホーム　フルサトアン",
    "address": "静岡県浜松市中央区豊岡町273-2",
    "lat": 34.7904084,
    "lng": 137.7241893,
    "tel": "053-438-5785",
    "url": "http://www.yuutainosato.com",
    "pref": "静岡県",
    "city": "浜松市中央区",
    "category": "tokuyou",
    "serviceType": "介護老人福祉施設",
    "capacity": 0,
    "openDays": [],
    "openDaysNote": ""
  },
  {
    "id": "2277100083",
    "name": "特別養護老人ホーム　一空園",
    "kana": "カイゴロウジンフクシシセツ　イックウエン",
    "address": "静岡県浜松市東区安新町38-1",
    "lat": 34.72618318821,
    "lng": 137.790227048549,
    "tel": "053-421-3173",
    "url": "http://www.hashoukai.jp",
    "pref": "静岡県",
    "city": "浜松市中央区",
    "category": "tokuyou",
    "serviceType": "介護老人福祉施設",
    "capacity": 0,
    "openDays": [],
    "openDaysNote": ""
  },
  {
    "id": "2277204745",
    "name": "特別養護老人ホーム　宇布見の里",
    "kana": "トクベツヨウゴロウジンホーム　ウブミノサト",
    "address": "静岡県浜松市中央区雄踏町宇布見9481-1社会福祉施設　宇布見の里 社会福祉施設　宇布見の里",
    "lat": 34.7068770097279,
    "lng": 137.628731792448,
    "tel": "053-401-3280",
    "url": "http://www.ubuminosato.jp",
    "pref": "静岡県",
    "city": "浜松市中央区",
    "category": "tokuyou",
    "serviceType": "介護老人福祉施設",
    "capacity": 70,
    "openDays": [],
    "openDaysNote": ""
  },
  {
    "id": "2277102097",
    "name": "特別養護老人ホーム　舘山寺の里",
    "kana": "トクベツヨウゴロウジンホーム　カンザンジノサト",
    "address": "浜松市中央区舘山寺町463-1",
    "lat": 34.7607909537099,
    "lng": 137.619432611639,
    "tel": "053-487-3050",
    "url": "http://kanzanji-no-sato.shoeikai.or.jp/",
    "pref": "静岡県",
    "city": "浜松市中央区",
    "category": "tokuyou",
    "serviceType": "介護老人福祉施設",
    "capacity": 130,
    "openDays": [],
    "openDaysNote": ""
  },
  {
    "id": "2277100174",
    "name": "特別養護老人ホーム　三幸の園",
    "kana": "トクベツヨウゴロウジンホーム　ミユキノソノ",
    "address": "浜松市中央区大平台一丁目３４番３０号",
    "lat": 34.718683,
    "lng": 137.6828291,
    "tel": "053-485-1136",
    "url": "https://www.sankoukai.or.jp/",
    "pref": "静岡県",
    "city": "浜松市中央区",
    "category": "tokuyou",
    "serviceType": "介護老人福祉施設",
    "capacity": 110,
    "openDays": [],
    "openDaysNote": ""
  },
  {
    "id": "2278200106",
    "name": "特別養護老人ホーム　山崎園",
    "kana": "トクベツヨウゴロウジンホーム　ヤマザキエン",
    "address": "静岡県浜松市中央区雄踏町山崎２８２９番地",
    "lat": 34.7172096,
    "lng": 137.6271937,
    "tel": "０５３－５９７－２５８６",
    "url": "https://www.sankoukai.or.jp/",
    "pref": "静岡県",
    "city": "浜松市中央区",
    "category": "tokuyou",
    "serviceType": "介護老人福祉施設",
    "capacity": 50,
    "openDays": [],
    "openDaysNote": ""
  },
  {
    "id": "2277201949",
    "name": "特別養護老人ホーム　神田ふるさと庵",
    "kana": "トクベツヨウゴロウジンホーム　カンダフルサトアン",
    "address": "神田町510-1",
    "lat": 34.6900092,
    "lng": 137.7187188,
    "tel": "053-441-4165",
    "url": "http://www.yuutainosato.com",
    "pref": "静岡県",
    "city": "浜松市中央区",
    "category": "tokuyou",
    "serviceType": "介護老人福祉施設",
    "capacity": 100,
    "openDays": [],
    "openDaysNote": ""
  },
  {
    "id": "2277102733",
    "name": "特別養護老人ホーム　第二長上苑",
    "kana": "トクベツヨウゴロウジンホーム　ダイニナガカミエン",
    "address": "浜松市中央区中田町５９０番地",
    "lat": 34.7364517,
    "lng": 137.759648,
    "tel": "053-411-0022",
    "url": "https://www.nanakeikai.jp/",
    "pref": "静岡県",
    "city": "浜松市中央区",
    "category": "tokuyou",
    "serviceType": "介護老人福祉施設",
    "capacity": 80,
    "openDays": [],
    "openDaysNote": ""
  },
  {
    "id": "2277204075",
    "name": "特別養護老人ホーム　天竜厚生会城北の家",
    "kana": "トクベツヨウゴロウジンホーム　テンリュウコウセイカイジョウホクノイエ",
    "address": "静岡県浜松市中央区城北１丁目２４番５号天竜厚生会城北の家 天竜厚生会城北の家",
    "lat": 34.7218238567387,
    "lng": 137.723593110976,
    "tel": "053-412-0030",
    "url": "https://www.tenryu-kohseikai.or.jp/",
    "pref": "静岡県",
    "city": "浜松市中央区",
    "category": "tokuyou",
    "serviceType": "介護老人福祉施設",
    "capacity": 0,
    "openDays": [],
    "openDaysNote": ""
  },
  {
    "id": "2277202608",
    "name": "特別養護老人ホーム　白梅下石田ホーム",
    "kana": "トクベツヨウゴロウジンホーム　シラウメシモイシダホーム",
    "address": "下石田町1588-1",
    "lat": 34.7344725137432,
    "lng": 137.783037679523,
    "tel": "053-422-2800",
    "url": "https://www.shiraume.or.jp/",
    "pref": "静岡県",
    "city": "浜松市中央区",
    "category": "tokuyou",
    "serviceType": "介護老人福祉施設",
    "capacity": 0,
    "openDays": [],
    "openDaysNote": ""
  },
  {
    "id": "2277100133",
    "name": "特別養護老人ホーム　白萩荘",
    "kana": "トクベツヨウゴロウジンホーム　シラハギソウ",
    "address": "浜松市中央区鴨江3丁目6番12号",
    "lat": 34.7060626499972,
    "lng": 137.714731859525,
    "tel": "053-456-4738",
    "url": "http://www.jihian.or.jp",
    "pref": "静岡県",
    "city": "浜松市中央区",
    "category": "tokuyou",
    "serviceType": "介護老人福祉施設",
    "capacity": 0,
    "openDays": [],
    "openDaysNote": ""
  },
  {
    "id": "2277100158",
    "name": "特別養護老人ホーム　和合愛光園",
    "kana": "トクベツヨウゴロウジンホーム　ワゴウアイコウエン",
    "address": "浜松市中央区和合町555番地",
    "lat": 34.7422639,
    "lng": 137.7014929,
    "tel": "053-478-0800",
    "url": "http://www.seirei.or.jp/elderlyhome/wagou/index.html",
    "pref": "静岡県",
    "city": "浜松市中央区",
    "category": "tokuyou",
    "serviceType": "介護老人福祉施設",
    "capacity": 0,
    "openDays": [],
    "openDaysNote": ""
  },
  {
    "id": "2277205353",
    "name": "特別養護老人ホーム　和合愛光園",
    "kana": "トクベツヨウゴロウジンホーム　ワゴウアイコウエン",
    "address": "浜松市中央区和合町555番地",
    "lat": 34.7422678,
    "lng": 137.7013475,
    "tel": "053-478-0800",
    "url": "http://www.seirei.or.jp/elderlyhome/wagou/index.html",
    "pref": "静岡県",
    "city": "浜松市中央区",
    "category": "tokuyou",
    "serviceType": "介護老人福祉施設",
    "capacity": null,
    "openDays": [],
    "openDaysNote": ""
  },
  {
    "id": "2277202616",
    "name": "特別養護老人ホームあづきもち",
    "kana": "トクベツヨウゴロウジンホームアヅキモチ",
    "address": "小豆餅三丁目20番22号特別養護老人ホームあづきもち 特別養護老人ホームあづきもち",
    "lat": 34.7541299844194,
    "lng": 137.729156530688,
    "tel": "053-439-3911",
    "url": "http://www.jikeikai.info/",
    "pref": "静岡県",
    "city": "浜松市中央区",
    "category": "tokuyou",
    "serviceType": "介護老人福祉施設",
    "capacity": 0,
    "openDays": [],
    "openDaysNote": ""
  },
  {
    "id": "2277103327",
    "name": "特別養護老人ホームおおしま",
    "kana": "トクベツヨウゴロウジンホームオオシマ",
    "address": "浜松市中央区大島町891番地",
    "lat": 34.7649914,
    "lng": 137.7790777,
    "tel": "053-431-1111",
    "url": "http://www.youshoukai.or.jp",
    "pref": "静岡県",
    "city": "浜松市中央区",
    "category": "tokuyou",
    "serviceType": "介護老人福祉施設",
    "capacity": 80,
    "openDays": [],
    "openDaysNote": ""
  },
  {
    "id": "2277100117",
    "name": "特別養護老人ホームやすらぎの里",
    "kana": "トクベツヨウゴロウジンホームヤスラギノサト",
    "address": "静岡県浜松市中央区大山町１５０５番地の１",
    "lat": 34.7802938,
    "lng": 137.6770806,
    "tel": "053-486-0581",
    "url": "http://www.seiyuu-kai.com/",
    "pref": "静岡県",
    "city": "浜松市中央区",
    "category": "tokuyou",
    "serviceType": "介護老人福祉施設",
    "capacity": 80,
    "openDays": [],
    "openDaysNote": ""
  },
  {
    "id": "2277201980",
    "name": "特別養護老人ホーム葵の里",
    "kana": "トクベツヨウゴロウジンホームアオイノサト",
    "address": "静岡県浜松市中区葵西六丁目１０番６２号",
    "lat": 34.7682260732629,
    "lng": 137.70112883373,
    "tel": "053-420-2220",
    "url": "https://www.kouwakai-swc.com",
    "pref": "静岡県",
    "city": "浜松市中央区",
    "category": "tokuyou",
    "serviceType": "介護老人福祉施設",
    "capacity": 96,
    "openDays": [],
    "openDaysNote": ""
  },
  {
    "id": "2277204760",
    "name": "特別養護老人ホーム湖東の杜",
    "kana": "トクベツヨウゴロウジンホームコトウノモリ",
    "address": "静岡県浜松市中央区湖東町1074湖東の杜 湖東の杜",
    "lat": 34.761082,
    "lng": 137.6609551,
    "tel": "053-486-3586",
    "url": "https://www.kotou-no-mori.jp",
    "pref": "静岡県",
    "city": "浜松市中央区",
    "category": "tokuyou",
    "serviceType": "介護老人福祉施設",
    "capacity": 90,
    "openDays": [],
    "openDaysNote": ""
  },
  {
    "id": "2277203804",
    "name": "特別養護老人ホーム上大瀬",
    "kana": "トクベツヨウゴロウジンホームカミオオセ",
    "address": "静岡県浜松市中央区大島町959-1",
    "lat": 34.7662136,
    "lng": 137.7819635,
    "tel": "053-431-1010",
    "url": "http://www.youshoukai.or.jp/",
    "pref": "静岡県",
    "city": "浜松市中央区",
    "category": "tokuyou",
    "serviceType": "介護老人福祉施設",
    "capacity": 90,
    "openDays": [],
    "openDaysNote": ""
  },
  {
    "id": "2277100141",
    "name": "特別養護老人ホーム神久呂の園",
    "kana": "トクベツヨウゴロウジンホームカクロノソノ",
    "address": "静岡県浜松市中央区神ケ谷町6611番地",
    "lat": 34.7302315,
    "lng": 137.6783457,
    "tel": "053-485-6320",
    "url": "http://tootsu.jp",
    "pref": "静岡県",
    "city": "浜松市中央区",
    "category": "tokuyou",
    "serviceType": "介護老人福祉施設",
    "capacity": 80,
    "openDays": [],
    "openDaysNote": ""
  },
  {
    "id": "2277100299",
    "name": "特別養護老人ホーム西島寮",
    "kana": "トクベツヨウゴロウジンホームニシジマリョウ",
    "address": "浜松市中央区西島町101番地",
    "lat": 34.672094,
    "lng": 137.7641345,
    "tel": "053-425-2000",
    "url": "http://www.jikeikai.info",
    "pref": "静岡県",
    "city": "浜松市中央区",
    "category": "tokuyou",
    "serviceType": "介護老人福祉施設",
    "capacity": 80,
    "openDays": [],
    "openDaysNote": ""
  },
  {
    "id": "2277200586",
    "name": "特別養護老人ホーム第二南風",
    "kana": "トクベツヨウゴロウジンホームダイニミナミカゼ",
    "address": "静岡県浜松市中央区倉松町598番地",
    "lat": 34.6752914484799,
    "lng": 137.697072214156,
    "tel": "053-449-8170",
    "url": "http://www.h-minamikaze.com",
    "pref": "静岡県",
    "city": "浜松市中央区",
    "category": "tokuyou",
    "serviceType": "介護老人福祉施設",
    "capacity": 0,
    "openDays": [],
    "openDaysNote": ""
  },
  {
    "id": "2277100018",
    "name": "特別養護老人ホーム朝霧の園",
    "kana": "トクベツヨウゴロウジンホームアサギリノソノ",
    "address": "浜松市西区庄和町2476-1",
    "lat": 34.7315706,
    "lng": 137.6045404,
    "tel": "053-487-2202",
    "url": "http://www.asagirinosono.hybs.jp/",
    "pref": "静岡県",
    "city": "浜松市中央区",
    "category": "tokuyou",
    "serviceType": "介護老人福祉施設",
    "capacity": 90,
    "openDays": [],
    "openDaysNote": ""
  },
  {
    "id": "2277204315",
    "name": "特別養護老人ホーム藤乃花",
    "kana": "トクベツヨウゴロウジンホームフジノハナ",
    "address": "静岡県浜松市中央区幸四丁目21番1号",
    "lat": 34.74395,
    "lng": 137.7299357,
    "tel": "053-472-1187",
    "url": "http://www.fujihanakai.com",
    "pref": "静岡県",
    "city": "浜松市中央区",
    "category": "tokuyou",
    "serviceType": "介護老人福祉施設",
    "capacity": 0,
    "openDays": [],
    "openDaysNote": ""
  },
  {
    "id": "2277101636",
    "name": "特別養護老人ホーム南風",
    "kana": "トクベツヨウゴロウジンホームミナミカゼ",
    "address": "静岡県浜松市中央区倉松町593番地",
    "lat": 34.6758996,
    "lng": 137.6969489,
    "tel": "053-449-8101",
    "url": "http://www.h-minamikaze.com",
    "pref": "静岡県",
    "city": "浜松市中央区",
    "category": "tokuyou",
    "serviceType": "介護老人福祉施設",
    "capacity": 0,
    "openDays": [],
    "openDaysNote": ""
  },
  {
    "id": "2277203275",
    "name": "浜松中央長上苑",
    "kana": "ハママツチュウオウナガカミエン",
    "address": "静岡県浜松市中央区中島二丁目7番1号",
    "lat": 34.7015858292188,
    "lng": 137.746000837295,
    "tel": "053-411-5550",
    "url": "https://www.nanakeikai.jp/",
    "pref": "静岡県",
    "city": "浜松市中央区",
    "category": "tokuyou",
    "serviceType": "介護老人福祉施設",
    "capacity": 0,
    "openDays": [],
    "openDaysNote": ""
  },
  {
    "id": "2277204786",
    "name": "特別養護老人ホーム　みさくぼの里",
    "kana": "トクベツヨウゴロウジンホーム　ミサクボノサト",
    "address": "静岡県浜松市天竜区水窪町奥領家2356番地の4",
    "lat": 35.1533639,
    "lng": 137.8668821,
    "tel": "053-982-1248",
    "url": "http://www.misakubo1010.com/",
    "pref": "静岡県",
    "city": "浜松市天竜区",
    "category": "tokuyou",
    "serviceType": "介護老人福祉施設",
    "capacity": null,
    "openDays": [],
    "openDaysNote": ""
  },
  {
    "id": "2276600083",
    "name": "特別養護老人ホームさくまの里",
    "kana": "トクベツヨウゴロウジンホームサクマノサト",
    "address": "静岡県浜松市天竜区佐久間町中部18-15",
    "lat": 35.0835611,
    "lng": 137.7998841,
    "tel": "053-965-1855",
    "url": "http://www.seirei.or.jp/rel/sakuma/",
    "pref": "静岡県",
    "city": "浜松市天竜区",
    "category": "tokuyou",
    "serviceType": "介護老人福祉施設",
    "capacity": 64,
    "openDays": [],
    "openDaysNote": ""
  },
  {
    "id": "2276300031",
    "name": "特別養護老人ホーム秋葉の苑",
    "kana": "トクベツヨウゴロウジンホームアキハノソノ",
    "address": "浜松市天竜区春野町堀之内７１",
    "lat": 34.9550664,
    "lng": 137.8908759,
    "tel": "053-985-0301",
    "url": "https://akihanosono.webu.jp",
    "pref": "静岡県",
    "city": "浜松市天竜区",
    "category": "tokuyou",
    "serviceType": "介護老人福祉施設",
    "capacity": 0,
    "openDays": [],
    "openDaysNote": ""
  },
  {
    "id": "2276500051",
    "name": "特別養護老人ホーム百々山",
    "kana": "トクベツヨウゴロウジンホームモモヤマ",
    "address": "静岡県浜松市天竜区渡ヶ島217-3",
    "lat": 34.8569393,
    "lng": 137.7963558,
    "tel": "053-583-1134",
    "url": "http://www.tenryu-kohseikai.or.jp/senior/momoyama/",
    "pref": "静岡県",
    "city": "浜松市天竜区",
    "category": "tokuyou",
    "serviceType": "介護老人福祉施設",
    "capacity": 160,
    "openDays": [],
    "openDaysNote": ""
  },
  {
    "id": "2278100066",
    "name": "いなさ愛光園",
    "kana": "イナサアイコウエン",
    "address": "静岡県浜松市浜名区引佐町東黒田37番2号",
    "lat": 34.8867108,
    "lng": 137.6627308,
    "tel": "053-544-0781",
    "url": "http://www.seirei.or.jp/elderlyhome/inasa",
    "pref": "静岡県",
    "city": "浜松市浜名区",
    "category": "tokuyou",
    "serviceType": "介護老人福祉施設",
    "capacity": 0,
    "openDays": [],
    "openDaysNote": ""
  },
  {
    "id": "2277102221",
    "name": "ケアホームしあわせ",
    "kana": "ケアホームシアワセ",
    "address": "静岡県浜松市浜名区都田町9220-1",
    "lat": 34.8171726,
    "lng": 137.7433145,
    "tel": "053-428-5551",
    "url": "http://www.siawase-k.com/",
    "pref": "静岡県",
    "city": "浜松市浜名区",
    "category": "tokuyou",
    "serviceType": "介護老人福祉施設",
    "capacity": 88,
    "openDays": [],
    "openDaysNote": ""
  },
  {
    "id": "2277201972",
    "name": "ユニット型特別養護老人ホーム　多喜の園",
    "kana": "ユニットガタトクベツヨウゴロウジンホーム　タキノソノ",
    "address": "浜松市浜名区中瀬3829-1",
    "lat": 34.8202684557015,
    "lng": 137.812089448549,
    "tel": "053-588-4115",
    "url": "http://www.daizen-f.com",
    "pref": "静岡県",
    "city": "浜松市浜名区",
    "category": "tokuyou",
    "serviceType": "介護老人福祉施設",
    "capacity": 0,
    "openDays": [],
    "openDaysNote": ""
  },
  {
    "id": "2277201485",
    "name": "介護老人福祉施設　きじの里",
    "kana": "カイゴロウジンフクシシセツ　キジノサト",
    "address": "染地台五丁目４番３号",
    "lat": 34.7914567,
    "lng": 137.7501203,
    "tel": "053-585-3333",
    "url": "sougou.kijinosato@peach.ocn.ne.jp",
    "pref": "静岡県",
    "city": "浜松市浜名区",
    "category": "tokuyou",
    "serviceType": "介護老人福祉施設",
    "capacity": 80,
    "openDays": [],
    "openDaysNote": ""
  },
  {
    "id": "2277100257",
    "name": "介護老人福祉施設　しあわせの園",
    "kana": "カイゴロウジンフクシシセツ　シアワセノソノ",
    "address": "浜松市北区都田町1854番地",
    "lat": 34.8191237,
    "lng": 137.7164891,
    "tel": "053-428-2189",
    "url": "http://www.siawase-k.com",
    "pref": "静岡県",
    "city": "浜松市浜名区",
    "category": "tokuyou",
    "serviceType": "介護老人福祉施設",
    "capacity": 30,
    "openDays": [],
    "openDaysNote": ""
  },
  {
    "id": "2277204877",
    "name": "介護老人福祉施設　引佐みやまの里",
    "kana": "カイゴロウジンフクシシセツ　イナサミヤマノサト",
    "address": "静岡県浜松市浜名区引佐町奥山1576-81",
    "lat": 34.8465151412031,
    "lng": 137.619688736246,
    "tel": "053-528-4050",
    "url": "http:www.inasa-miyama.jp",
    "pref": "静岡県",
    "city": "浜松市浜名区",
    "category": "tokuyou",
    "serviceType": "介護老人福祉施設",
    "capacity": 70,
    "openDays": [],
    "openDaysNote": ""
  },
  {
    "id": "2277100125",
    "name": "介護老人福祉施設　第二九重荘",
    "kana": "カイゴロウジンフクシシセツ　ダイニココノエソウ",
    "address": "浜松市北区都田町16-5",
    "lat": 34.809872,
    "lng": 137.7143257,
    "tel": "053-428-2136",
    "url": "http://www.jihian.or.jp",
    "pref": "静岡県",
    "city": "浜松市浜名区",
    "category": "tokuyou",
    "serviceType": "介護老人福祉施設",
    "capacity": 0,
    "openDays": [],
    "openDaysNote": ""
  },
  {
    "id": "2277202624",
    "name": "介護老人福祉施設　第二九重荘（ユニット型）",
    "kana": "カイゴロウジンフクシシセツ　ダイニココノエソウ（ユニットガタ）",
    "address": "都田町16-5",
    "lat": 34.809872,
    "lng": 137.7143257,
    "tel": "053-428-2136",
    "url": "http://www.jihian.or.jp/facilities/dainikokonoe_unit.php",
    "pref": "静岡県",
    "city": "浜松市浜名区",
    "category": "tokuyou",
    "serviceType": "介護老人福祉施設",
    "capacity": 0,
    "openDays": [],
    "openDaysNote": ""
  },
  {
    "id": "2278300039",
    "name": "特別養護老人ホーム　翠松苑",
    "kana": "トクベツヨウゴロウジンホーム　スイショウエン",
    "address": "浜松市浜名区於呂4201-6",
    "lat": 34.8551914986464,
    "lng": 137.793735112828,
    "tel": "053-583-1135",
    "url": "http://www.tenryu-kohseikai.or.jp/senior/suisyouen/",
    "pref": "静岡県",
    "city": "浜松市浜名区",
    "category": "tokuyou",
    "serviceType": "介護老人福祉施設",
    "capacity": 80,
    "openDays": [],
    "openDaysNote": ""
  },
  {
    "id": "2278300062",
    "name": "特別養護老人ホーム　多喜の園",
    "kana": "トウベツヨウゴロウジンホーム　タキノソノ",
    "address": "浜松市浜名区中瀬3829-1",
    "lat": 34.8203080908308,
    "lng": 137.81162274418,
    "tel": "053-588-4115",
    "url": "http://www.daizen-f.com",
    "pref": "静岡県",
    "city": "浜松市浜名区",
    "category": "tokuyou",
    "serviceType": "介護老人福祉施設",
    "capacity": 0,
    "openDays": [],
    "openDaysNote": ""
  },
  {
    "id": "2277205072",
    "name": "特別養護老人ホーム　鶴寿の里",
    "kana": "トクベツヨウゴロウジンホーム　カクジュノサト",
    "address": "静岡県浜松市浜名区平口2438 2438",
    "lat": 34.7950492954857,
    "lng": 137.767347526062,
    "tel": "053-581-8571",
    "url": "www.houyu-kai.com",
    "pref": "静岡県",
    "city": "浜松市浜名区",
    "category": "tokuyou",
    "serviceType": "介護老人福祉施設",
    "capacity": 45,
    "openDays": [],
    "openDaysNote": ""
  },
  {
    "id": "2278300278",
    "name": "特別養護老人ホームしんぱらの家",
    "kana": "トクベツヨウゴロウジンホームシンパラノイエ",
    "address": "浜松市浜名区新原４０９２－２",
    "lat": 34.8128108,
    "lng": 137.7723898,
    "tel": "053-584-1077",
    "url": "http://www.tenryu-kohseikai.or.jp/senior/shinpara",
    "pref": "静岡県",
    "city": "浜松市浜名区",
    "category": "tokuyou",
    "serviceType": "介護老人福祉施設",
    "capacity": 80,
    "openDays": [],
    "openDaysNote": ""
  },
  {
    "id": "2278100231",
    "name": "特別養護老人ホームみずうみ",
    "kana": "トクベツヨウゴロウジンホームミズウミ",
    "address": "浜松市浜名区三ヶ日町三ヶ日1148-2",
    "lat": 34.8022402,
    "lng": 137.5523638,
    "tel": "053-528-0300",
    "url": "https://matsukaze.uh-oh.jp",
    "pref": "静岡県",
    "city": "浜松市浜名区",
    "category": "tokuyou",
    "serviceType": "介護老人福祉施設",
    "capacity": null,
    "openDays": [],
    "openDaysNote": ""
  },
  {
    "id": "2277205080",
    "name": "特別養護老人ホーム細江の苑",
    "kana": "トクベツヨウゴロウジンホームホソエノソノ",
    "address": "静岡県浜松市浜名区細江町中川7500-1",
    "lat": 34.8068479952748,
    "lng": 137.66189968962,
    "tel": "053-522-3322",
    "url": "http://www.daichi-hosoe.jp/",
    "pref": "静岡県",
    "city": "浜松市浜名区",
    "category": "tokuyou",
    "serviceType": "介護老人福祉施設",
    "capacity": 0,
    "openDays": [],
    "openDaysNote": ""
  },
  {
    "id": "2278100058",
    "name": "浜松十字の園",
    "kana": "ハママツジュウジノソノ",
    "address": "浜松市浜名区細江町中川7220-11",
    "lat": 34.7918903,
    "lng": 137.6945089,
    "tel": "053-436-9535",
    "url": "http://www.jyuji.or.jp/hamamatsu/",
    "pref": "静岡県",
    "city": "浜松市浜名区",
    "category": "tokuyou",
    "serviceType": "介護老人福祉施設",
    "capacity": 0,
    "openDays": [],
    "openDaysNote": ""
  },
  {
    "id": "2277201998",
    "name": "浜北愛光園",
    "kana": "ハマキタアイコウエン",
    "address": "浜松市浜北区高薗208-2",
    "lat": 34.7862272,
    "lng": 137.8120004,
    "tel": "053-584-0700",
    "url": "http://www.seirei.or.jp/elderlyhome",
    "pref": "静岡県",
    "city": "浜松市浜名区",
    "category": "tokuyou",
    "serviceType": "介護老人福祉施設",
    "capacity": 0,
    "openDays": [],
    "openDaysNote": ""
  },
  {
    "id": "2278300047",
    "name": "浜北愛光園",
    "kana": "ハマキタアイコウエン",
    "address": "静岡県浜松市浜名区高薗２０８－２",
    "lat": 34.7862022,
    "lng": 137.8119893,
    "tel": "053-584-0700",
    "url": "http://www.seirei.or.jp/elderlyhome/hamakita/",
    "pref": "静岡県",
    "city": "浜松市浜名区",
    "category": "tokuyou",
    "serviceType": "介護老人福祉施設",
    "capacity": 0,
    "openDays": [],
    "openDaysNote": ""
  },
  {
    "id": "2272100021",
    "name": "特別養護老人ホーム　高原荘",
    "kana": "トクベツヨウゴロウジンホーム　タカハラソウ",
    "address": "静岡県富士宮市貫戸１０３番地の２",
    "lat": 35.20357218384,
    "lng": 138.623205884656,
    "tel": "0544-23-0486",
    "url": "http://www.takaharasou.jp/",
    "pref": "静岡県",
    "city": "富士宮市",
    "category": "tokuyou",
    "serviceType": "介護老人福祉施設",
    "capacity": 80,
    "openDays": [],
    "openDaysNote": ""
  },
  {
    "id": "2272100179",
    "name": "特別養護老人ホーム　星の郷",
    "kana": "トクベツヨウゴロウジンホーム　ホシノサト",
    "address": "静岡県富士宮市星山1058番",
    "lat": 35.20432,
    "lng": 138.6180881,
    "tel": "0544-23-3302",
    "url": "http://www.hoshi-no-sato.co.jp/",
    "pref": "静岡県",
    "city": "富士宮市",
    "category": "tokuyou",
    "serviceType": "介護老人福祉施設",
    "capacity": null,
    "openDays": [],
    "openDaysNote": ""
  },
  {
    "id": "2272200011",
    "name": "特別養護老人ホーム　百恵の郷",
    "kana": "トクベツヨウゴロウジンホームモモエノサト",
    "address": "静岡県富士宮市大鹿窪143-1",
    "lat": 35.2533794,
    "lng": 138.5566954,
    "tel": "0544-67-0655",
    "url": "http://www.s-koseikai.jp/",
    "pref": "静岡県",
    "city": "富士宮市",
    "category": "tokuyou",
    "serviceType": "介護老人福祉施設",
    "capacity": 0,
    "openDays": [],
    "openDaysNote": ""
  },
  {
    "id": "2272100013",
    "name": "特別養護老人ホーム　富士宮荘",
    "kana": "トクベツヨウゴロウジンホーム　フジノミヤソウ",
    "address": "静岡県富士宮市上井出２０２９－１",
    "lat": 35.3092847,
    "lng": 138.6071565,
    "tel": "0544-54-1351",
    "url": "http://www.fujikoseikai.or.jp/fujinomiyasou/",
    "pref": "静岡県",
    "city": "富士宮市",
    "category": "tokuyou",
    "serviceType": "介護老人福祉施設",
    "capacity": 0,
    "openDays": [],
    "openDaysNote": ""
  },
  {
    "id": "2272100062",
    "name": "特別養護老人ホームしらいと",
    "kana": "トクベツヨウゴロウジンホームシライト",
    "address": "富士宮市上井出１２８５－１",
    "lat": 35.310226,
    "lng": 138.5962797,
    "tel": "0544-54-0168",
    "url": "https://www.tenryu-kohseikai.or.jp/kourei/shiraito/",
    "pref": "静岡県",
    "city": "富士宮市",
    "category": "tokuyou",
    "serviceType": "介護老人福祉施設",
    "capacity": 0,
    "openDays": [],
    "openDaysNote": ""
  },
  {
    "id": "2272101193",
    "name": "特別養護老人ホーム楓の丘",
    "kana": "トクベツヨウゴロウジンホームカエデノオカ",
    "address": "富士宮市羽鮒２５０５－１",
    "lat": 35.2142483,
    "lng": 138.5825022,
    "tel": "0544-65-3800",
    "url": "http://s-koseikai.jp/",
    "pref": "静岡県",
    "city": "富士宮市",
    "category": "tokuyou",
    "serviceType": "介護老人福祉施設",
    "capacity": 100,
    "openDays": [],
    "openDaysNote": ""
  },
  {
    "id": "2272300977",
    "name": "特別養護老人ホーム　ヴィラージュ富士",
    "kana": "トクベツヨウゴロウジンホーム　ウ゛ィラージュフジ",
    "address": "富士市厚原359-8",
    "lat": 35.180249,
    "lng": 138.6571856,
    "tel": "0545-73-1188",
    "url": "https://www.syuuseikai.or.jp/facility04/",
    "pref": "静岡県",
    "city": "富士市",
    "category": "tokuyou",
    "serviceType": "介護老人福祉施設",
    "capacity": 80,
    "openDays": [],
    "openDaysNote": ""
  },
  {
    "id": "2273100186",
    "name": "特別養護老人ホーム　シャローム富士川",
    "kana": "トクベツヨウゴロウジンホーム　シャロームフジカワ",
    "address": "富士市北松野１０７１",
    "lat": 35.1892038,
    "lng": 138.5877575,
    "tel": "0545-56-3300",
    "url": "http://www.fujikoseikai.or.jp/shalorm/index.html",
    "pref": "静岡県",
    "city": "富士市",
    "category": "tokuyou",
    "serviceType": "介護老人福祉施設",
    "capacity": 80,
    "openDays": [],
    "openDaysNote": ""
  },
  {
    "id": "2272300092",
    "name": "特別養護老人ホーム　すどの杜",
    "kana": "トクベツヨウゴロウジンホーム　スドノモリ",
    "address": "富士市増川510-1",
    "lat": 35.1584442,
    "lng": 138.7469323,
    "tel": "0545-39-0061",
    "url": "http://www.miyoshikai.or.jp",
    "pref": "静岡県",
    "city": "富士市",
    "category": "tokuyou",
    "serviceType": "介護老人福祉施設",
    "capacity": 0,
    "openDays": [],
    "openDaysNote": ""
  },
  {
    "id": "2272300613",
    "name": "特別養護老人ホーム　加島の郷",
    "kana": "トクベツヨウゴロウジンホーム　カジマノサト",
    "address": "富士市水戸島本町7番8号",
    "lat": 35.147309751161,
    "lng": 138.648576715869,
    "tel": "0545-65-1165",
    "url": "http;//kajimanosato.com/",
    "pref": "静岡県",
    "city": "富士市",
    "category": "tokuyou",
    "serviceType": "介護老人福祉施設",
    "capacity": 0,
    "openDays": [],
    "openDaysNote": ""
  },
  {
    "id": "2272303138",
    "name": "特別養護老人ホーム　加島の郷",
    "kana": "トクベツヨウゴロウジンホーム　カジマノサト",
    "address": "静岡県富士市水戸島本町7番8号",
    "lat": 35.1472296,
    "lng": 138.6486099,
    "tel": "0545-65-1165",
    "url": "http;//kajimanosato.com/",
    "pref": "静岡県",
    "city": "富士市",
    "category": "tokuyou",
    "serviceType": "介護老人福祉施設",
    "capacity": null,
    "openDays": [],
    "openDaysNote": ""
  },
  {
    "id": "2272300076",
    "name": "特別養護老人ホーム　鑑石園",
    "kana": "トクベツヨウゴロウジンホーム　カンセキエン",
    "address": "富士市原田1350-16",
    "lat": 35.1717869,
    "lng": 138.7135853,
    "tel": "0545-52-0016",
    "url": "https://kansekien.com",
    "pref": "静岡県",
    "city": "富士市",
    "category": "tokuyou",
    "serviceType": "介護老人福祉施設",
    "capacity": 0,
    "openDays": [],
    "openDaysNote": ""
  },
  {
    "id": "2272300027",
    "name": "特別養護老人ホーム　天間荘",
    "kana": "トクベツヨウゴロウジンホーム　テンマソウ",
    "address": "静岡県富士市天間1602",
    "lat": 35.2066206,
    "lng": 138.6480916,
    "tel": "0545-71-4350",
    "url": "http://shinai-kai.jp/",
    "pref": "静岡県",
    "city": "富士市",
    "category": "tokuyou",
    "serviceType": "介護老人福祉施設",
    "capacity": 80,
    "openDays": [],
    "openDaysNote": ""
  },
  {
    "id": "2272300050",
    "name": "特別養護老人ホーム　富士楽寿園",
    "kana": "トクベツヨウゴロウジンホーム　フジラクジュエン",
    "address": "富士市大淵4632-1",
    "lat": 35.2538712,
    "lng": 138.7189248,
    "tel": "0545-35-0498",
    "url": "http://www.seishinkai.info",
    "pref": "静岡県",
    "city": "富士市",
    "category": "tokuyou",
    "serviceType": "介護老人福祉施設",
    "capacity": 56,
    "openDays": [],
    "openDaysNote": ""
  },
  {
    "id": "2272303310",
    "name": "特別養護老人ホーム　富士楽寿園",
    "kana": "トクベツヨウゴロウジンホーム　フジラクジュエン",
    "address": "静岡県富士市大淵2087-1",
    "lat": 35.2283202821193,
    "lng": 138.685687669814,
    "tel": "0545-35-0498",
    "url": "https://www.seishinkai.info/",
    "pref": "静岡県",
    "city": "富士市",
    "category": "tokuyou",
    "serviceType": "介護老人福祉施設",
    "capacity": 0,
    "openDays": [],
    "openDaysNote": ""
  },
  {
    "id": "2272300852",
    "name": "特別養護老人ホームみぎわ園",
    "kana": "トクベツヨウゴロウジンホームミギワエン",
    "address": "富士市今泉2210なし なし",
    "lat": 35.1723721,
    "lng": 138.6861746,
    "tel": "0545-55-1800",
    "url": "http://www.fuyoukai.org",
    "pref": "静岡県",
    "city": "富士市",
    "category": "tokuyou",
    "serviceType": "介護老人福祉施設",
    "capacity": 60,
    "openDays": [],
    "openDaysNote": ""
  },
  {
    "id": "2272300118",
    "name": "特別養護老人ホーム岩本園",
    "kana": "トクベツヨウゴロウジンホームイワモトエン",
    "address": "富士市岩本１１８４－１",
    "lat": 35.1800705,
    "lng": 138.6328427,
    "tel": "0545-61-7490",
    "url": "http://gakuyoukai.or.jp",
    "pref": "静岡県",
    "city": "富士市",
    "category": "tokuyou",
    "serviceType": "介護老人福祉施設",
    "capacity": 0,
    "openDays": [],
    "openDaysNote": ""
  },
  {
    "id": "2272302684",
    "name": "特別養護老人ホーム月のあかり",
    "kana": "トクベツヨウゴロウジンホームツキノアカリ",
    "address": "富士市大淵８４７番地4",
    "lat": 35.202848182992,
    "lng": 138.697900066501,
    "tel": "0545-35-4567",
    "url": "http://s-koseikai.jp/tsukinoakari/index.html",
    "pref": "静岡県",
    "city": "富士市",
    "category": "tokuyou",
    "serviceType": "介護老人福祉施設",
    "capacity": 80,
    "openDays": [],
    "openDaysNote": ""
  },
  {
    "id": "2272302114",
    "name": "特別養護老人ホーム富士まかど",
    "kana": "トクベツヨウゴロウジンホーム　フジマカド",
    "address": "静岡県富士市間門226番の1",
    "lat": 35.1872241,
    "lng": 138.7242864,
    "tel": "0545-39-2600",
    "url": "https://kansekien.com./makado/",
    "pref": "静岡県",
    "city": "富士市",
    "category": "tokuyou",
    "serviceType": "介護老人福祉施設",
    "capacity": 0,
    "openDays": [],
    "openDaysNote": ""
  },
  {
    "id": "2275500425",
    "name": "相良清風園",
    "kana": "サガラセイフウエン",
    "address": "牧之原市西萩間695-6",
    "lat": 34.7346175,
    "lng": 138.1558011,
    "tel": "0548-55-0550",
    "url": "https://www.san-ikukai.or.jp/tokai/sagara/",
    "pref": "静岡県",
    "city": "牧之原市",
    "category": "tokuyou",
    "serviceType": "介護老人福祉施設",
    "capacity": 50,
    "openDays": [],
    "openDaysNote": ""
  },
  {
    "id": "2275500714",
    "name": "特別養護老人ホーム　うたしあ",
    "kana": "トクベツヨウゴロウジンホーム　ウタシア",
    "address": "静岡県牧之原市道場43番地",
    "lat": 34.7300774,
    "lng": 138.2178283,
    "tel": "0548-22-7077",
    "url": "https://utashia.or.jp",
    "pref": "静岡県",
    "city": "牧之原市",
    "category": "tokuyou",
    "serviceType": "介護老人福祉施設",
    "capacity": 90,
    "openDays": [],
    "openDaysNote": ""
  },
  {
    "id": "2275800015",
    "name": "特別養護老人ホーム海山荘",
    "kana": "トクベツヨウゴロウジンホームカイザンソウ",
    "address": "牧之原市片浜1013番地の1",
    "lat": 34.7180489,
    "lng": 138.2125355,
    "tel": "0548-53-1230",
    "url": "http：//kaizansou.com/",
    "pref": "静岡県",
    "city": "牧之原市",
    "category": "tokuyou",
    "serviceType": "介護老人福祉施設",
    "capacity": 60,
    "openDays": [],
    "openDaysNote": ""
  },
  {
    "id": "2275800270",
    "name": "特別養護老人ホーム聖ルカホーム",
    "kana": "トクベツヨウゴロウジンホームセイルカホーム",
    "address": "静岡県牧之原市坂口2766番地1",
    "lat": 34.7820868,
    "lng": 138.1965476,
    "tel": "0548-29-1101",
    "url": "http://www.yamabatogakuen.jp/seiruka.html",
    "pref": "静岡県",
    "city": "牧之原市",
    "category": "tokuyou",
    "serviceType": "介護老人福祉施設",
    "capacity": 70,
    "openDays": [],
    "openDaysNote": ""
  }
]