[
  {
    "id": "3771100264",
    "name": "さざんか荘特別養護老人ホーム",
    "kana": "サザンカソウトクベツヨウゴロウジンホーム",
    "address": "香川県さぬき市大川町田面360番地",
    "lat": 34.2532461,
    "lng": 134.2559539,
    "tel": "0879-43-0555",
    "url": "http://www.o-kouiki.jp/sazankasou/",
    "pref": "香川県",
    "city": "さぬき市",
    "category": "tokuyou",
    "serviceType": "介護老人福祉施設",
    "capacity": 50,
    "openDays": [],
    "openDaysNote": ""
  },
  {
    "id": "3771100637",
    "name": "介護老人福祉施設さわやかホーム",
    "kana": "カイゴロウジンフクシシセツ　サワヤカホーム",
    "address": "香川県さぬき市津田町津田２２０７番地",
    "lat": 34.2944693,
    "lng": 134.2389743,
    "tel": "0879-42-1160",
    "url": "https://sawayakakaigo.or.jp/",
    "pref": "香川県",
    "city": "さぬき市",
    "category": "tokuyou",
    "serviceType": "介護老人福祉施設",
    "capacity": 30,
    "openDays": [],
    "openDaysNote": ""
  },
  {
    "id": "3771100397",
    "name": "特別養護老人ホーム　ゆたか荘",
    "kana": "トクベツヨウゴロウジンホーム　ユタカソウ",
    "address": "香川県さぬき市昭和562-4",
    "lat": 34.2467745,
    "lng": 134.166707,
    "tel": "0879-23-6511",
    "url": "https://nagaofukushikai.jp/",
    "pref": "香川県",
    "city": "さぬき市",
    "category": "tokuyou",
    "serviceType": "介護老人福祉施設",
    "capacity": 50,
    "openDays": [],
    "openDaysNote": ""
  },
  {
    "id": "3771100165",
    "name": "特別養護老人ホーム　香東園",
    "kana": "トクベツヨウゴロウジンホーム　コウトウエン",
    "address": "香川県さぬき市寒川町石田西６８０番地１",
    "lat": 34.2755751763417,
    "lng": 134.195864031352,
    "tel": "0879-43-2557",
    "url": "http://www.koutouen.com/",
    "pref": "香川県",
    "city": "さぬき市",
    "category": "tokuyou",
    "serviceType": "介護老人福祉施設",
    "capacity": 0,
    "openDays": [],
    "openDaysNote": ""
  },
  {
    "id": "3771100298",
    "name": "特別養護老人ホーム志度玉浦園",
    "kana": "トクベツヨウゴロウジンホームシドタマウラエン",
    "address": "香川県さぬき市志度1610-1",
    "lat": 34.319239,
    "lng": 134.1943278,
    "tel": "087-894-5868",
    "url": "http://www.tamauraen.or.jp",
    "pref": "香川県",
    "city": "さぬき市",
    "category": "tokuyou",
    "serviceType": "介護老人福祉施設",
    "capacity": 80,
    "openDays": [],
    "openDaysNote": ""
  },
  {
    "id": "3771600735",
    "name": "特別養護老人ホームやすらぎ荘",
    "kana": "トウベツヨウゴロウジンホームヤスラギソウ",
    "address": "香川県仲多度郡まんのう町川東１５０２－１",
    "lat": 34.1113914,
    "lng": 133.9782994,
    "tel": "0877-84-2201",
    "url": "http://www.seiyuukai.jp/",
    "pref": "香川県",
    "city": "まんのう町",
    "category": "tokuyou",
    "serviceType": "介護老人福祉施設",
    "capacity": 30,
    "openDays": [],
    "openDaysNote": ""
  },
  {
    "id": "3771600271",
    "name": "特別養護老人ホーム仲南荘",
    "kana": "トクベツヨウゴロウジンホームチュウナンソウ",
    "address": "香川県仲多度郡まんのう町帆山505",
    "lat": 34.1543836,
    "lng": 133.8442856,
    "tel": "0877-77-2011",
    "url": "https://www.seiyuukai.jp/",
    "pref": "香川県",
    "city": "まんのう町",
    "category": "tokuyou",
    "serviceType": "介護老人福祉施設",
    "capacity": 50,
    "openDays": [],
    "openDaysNote": ""
  },
  {
    "id": "3771600263",
    "name": "特別養護老人ホーム満濃荘",
    "kana": "トクベツヨウゴロウジンホームマンノウソウ",
    "address": "香川県仲多度郡まんのう町長尾１１０２",
    "lat": 34.1950398,
    "lng": 133.8555007,
    "tel": "0877-79-3011",
    "url": "http://www.seiyuukai.jp/",
    "pref": "香川県",
    "city": "まんのう町",
    "category": "tokuyou",
    "serviceType": "介護老人福祉施設",
    "capacity": 0,
    "openDays": [],
    "openDaysNote": ""
  },
  {
    "id": "3771500240",
    "name": "特別養護老人ホーム　楽々苑",
    "kana": "トクベツヨウゴロウジンホーム　ラクラクエン",
    "address": "香川県綾歌郡綾川町滝宮380番地",
    "lat": 34.2489753829633,
    "lng": 133.924973663229,
    "tel": "087-876-1158",
    "url": "https://rakurakuen-kagawa.or.jp",
    "pref": "香川県",
    "city": "綾川町",
    "category": "tokuyou",
    "serviceType": "介護老人福祉施設",
    "capacity": 90,
    "openDays": [],
    "openDaysNote": ""
  },
  {
    "id": "3771500232",
    "name": "特別養護老人ホーム　松林荘",
    "kana": "トクベツヨウゴロウジンホーム　ショウリンソウ",
    "address": "香川県綾歌郡綾川町山田下山王435番地4",
    "lat": 34.2298995059951,
    "lng": 133.960090065559,
    "tel": "087-878-2188",
    "url": "https://syourinsou.com",
    "pref": "香川県",
    "city": "綾川町",
    "category": "tokuyou",
    "serviceType": "介護老人福祉施設",
    "capacity": 106,
    "openDays": [],
    "openDaysNote": ""
  },
  {
    "id": "3771500273",
    "name": "特別養護老人ホーム寿楽荘",
    "kana": "トクベツヨウゴロウジンホームジュラクソウ",
    "address": "香川県綾歌郡宇多津町１７０番地１",
    "lat": 34.3088148,
    "lng": 133.8211189,
    "tel": "0877-49-3388",
    "url": "http://www.utazufukushikai.or.jp/",
    "pref": "香川県",
    "city": "宇多津町",
    "category": "tokuyou",
    "serviceType": "介護老人福祉施設",
    "capacity": 100,
    "openDays": [],
    "openDaysNote": ""
  },
  {
    "id": "3770500118",
    "name": "介護保険施設特別養護老人ホーム　楽陽荘",
    "kana": "カイゴホケンシセツトクベツヨウゴロウジンホーム　ラクヨウソウ",
    "address": "香川県観音寺市柞田町甲1936番地",
    "lat": 34.1182435194359,
    "lng": 133.660241375549,
    "tel": "0875-25-8720",
    "url": "http://www.rakuyousou.com/",
    "pref": "香川県",
    "city": "観音寺市",
    "category": "tokuyou",
    "serviceType": "介護老人福祉施設",
    "capacity": 70,
    "openDays": [],
    "openDaysNote": ""
  },
  {
    "id": "3770500860",
    "name": "広域型特別養護老人ホーム　ネムの木",
    "kana": "コウイキガタトクベツヨウゴロウジンホーム　ネムノキ",
    "address": "香川県観音寺市豊浜町姫浜41-1",
    "lat": 34.0880405,
    "lng": 133.6381586,
    "tel": "0875-82-9070",
    "url": "http://www.koushi-f.or.jp",
    "pref": "香川県",
    "city": "観音寺市",
    "category": "tokuyou",
    "serviceType": "介護老人福祉施設",
    "capacity": 50,
    "openDays": [],
    "openDaysNote": ""
  },
  {
    "id": "3770500332",
    "name": "特別養護老人ホーム　長寿苑",
    "kana": "トクベツヨウゴロウジンホーム　チョウジュエン",
    "address": "香川県観音寺市木之郷町499番地62",
    "lat": 34.1063966,
    "lng": 133.6919403,
    "tel": "0875-57-1101",
    "url": "http://care-net.biz./37/choujuen/",
    "pref": "香川県",
    "city": "観音寺市",
    "category": "tokuyou",
    "serviceType": "介護老人福祉施設",
    "capacity": 50,
    "openDays": [],
    "openDaysNote": ""
  },
  {
    "id": "3770500100",
    "name": "特別養護老人ホーム　豊恩荘",
    "kana": "トクベツヨウゴロウジンホーム　ホウオンソウ",
    "address": "香川県観音寺市茂木町四丁目６番２号",
    "lat": 34.1327101,
    "lng": 133.6599367,
    "tel": "0875-25-6369",
    "url": "https://haneikai.or.jp/",
    "pref": "香川県",
    "city": "観音寺市",
    "category": "tokuyou",
    "serviceType": "介護老人福祉施設",
    "capacity": 50,
    "openDays": [],
    "openDaysNote": ""
  },
  {
    "id": "3771700428",
    "name": "特別養護老人ホームとよはま荘",
    "kana": "トクベツヨウゴロウジンホームトヨハマソウ",
    "address": "観音寺市豊浜町和田浜1575-1",
    "lat": 34.0711231,
    "lng": 133.6367176,
    "tel": "0875-52-3488",
    "url": "",
    "pref": "香川県",
    "city": "観音寺市",
    "category": "tokuyou",
    "serviceType": "介護老人福祉施設",
    "capacity": 50,
    "openDays": [],
    "openDaysNote": ""
  },
  {
    "id": "3771701012",
    "name": "特別養護老人ホームひうち",
    "kana": "トクベツヨウゴロウジンホーム　ヒウチ",
    "address": "香川県観音寺市大野原町内野々597番地",
    "lat": 34.0605882,
    "lng": 133.6996013,
    "tel": "0875-54-5601",
    "url": "http://onoharahukushi.com/houkoku.html",
    "pref": "香川県",
    "city": "観音寺市",
    "category": "tokuyou",
    "serviceType": "介護老人福祉施設",
    "capacity": 50,
    "openDays": [],
    "openDaysNote": ""
  },
  {
    "id": "3771500265",
    "name": "紅山荘",
    "kana": "ベニヤマソウ",
    "address": "香川県丸亀市飯山町上法軍寺2600番地",
    "lat": 34.2386595,
    "lng": 133.8666512,
    "tel": "0877-98-2781",
    "url": "http://www.beniyama.jp",
    "pref": "香川県",
    "city": "丸亀市",
    "category": "tokuyou",
    "serviceType": "介護老人福祉施設",
    "capacity": 110,
    "openDays": [],
    "openDaysNote": ""
  },
  {
    "id": "3770200271",
    "name": "特別養護老人ホーム　シャローム",
    "kana": "トクベツヨウゴロウジンホーム　シャローム",
    "address": "丸亀市垂水町１６－５０",
    "lat": 34.2212752,
    "lng": 133.8362761,
    "tel": "0877-28-1303",
    "url": "",
    "pref": "香川県",
    "city": "丸亀市",
    "category": "tokuyou",
    "serviceType": "介護老人福祉施設",
    "capacity": 50,
    "openDays": [],
    "openDaysNote": ""
  },
  {
    "id": "3770200164",
    "name": "特別養護老人ホーム　青の山荘",
    "kana": "トクベツヨウゴロウジンホーム　アオノヤマソウ",
    "address": "香川県丸亀市土器町東四丁目77番地",
    "lat": 34.2925419,
    "lng": 133.8203861,
    "tel": "0877-25-1200",
    "url": "https://houjyuen.web.fc2.com/page9.html",
    "pref": "香川県",
    "city": "丸亀市",
    "category": "tokuyou",
    "serviceType": "介護老人福祉施設",
    "capacity": 0,
    "openDays": [],
    "openDaysNote": ""
  },
  {
    "id": "3770201683",
    "name": "特別養護老人ホーム　宝樹リノ",
    "kana": "トクベツヨウゴロウジンホーム　ホウジュリノ",
    "address": "香川県丸亀市綾歌町栗熊東782番地",
    "lat": 34.2364301316052,
    "lng": 133.886782608212,
    "tel": "0877-86-1010",
    "url": "http://www.hojuen-aonoyama.jp",
    "pref": "香川県",
    "city": "丸亀市",
    "category": "tokuyou",
    "serviceType": "介護老人福祉施設",
    "capacity": 80,
    "openDays": [],
    "openDaysNote": ""
  },
  {
    "id": "3770200131",
    "name": "特別養護老人ホームたるみ荘",
    "kana": "トクベツヨウゴロウジンホームタルミソウ",
    "address": "香川県丸亀市垂水町1353番地",
    "lat": 34.2339017,
    "lng": 133.8293733,
    "tel": "0877-28-9002",
    "url": "http://www.tarumisou.com/",
    "pref": "香川県",
    "city": "丸亀市",
    "category": "tokuyou",
    "serviceType": "介護老人福祉施設",
    "capacity": 0,
    "openDays": [],
    "openDaysNote": ""
  },
  {
    "id": "3770200503",
    "name": "特別養護老人ホーム今津荘",
    "kana": "トクベツヨウゴロウジンホームイマヅソウ",
    "address": "香川県丸亀市今津町186-1",
    "lat": 34.2753633,
    "lng": 133.7839714,
    "tel": "0877-58-2611",
    "url": "http://www.utazufukushikai.or.jp/",
    "pref": "香川県",
    "city": "丸亀市",
    "category": "tokuyou",
    "serviceType": "介護老人福祉施設",
    "capacity": 50,
    "openDays": [],
    "openDaysNote": ""
  },
  {
    "id": "3770200115",
    "name": "特別養護老人ホーム珠光園",
    "kana": "トクベツヨウゴロウジンホウムジュコウエン",
    "address": "香川県丸亀市飯野町東二甲911番地1",
    "lat": 34.2699500947617,
    "lng": 133.834398626318,
    "tel": "0877-23-2775",
    "url": "http://www.jukoen.jp",
    "pref": "香川県",
    "city": "丸亀市",
    "category": "tokuyou",
    "serviceType": "介護老人福祉施設",
    "capacity": 61,
    "openDays": [],
    "openDaysNote": ""
  },
  {
    "id": "3771600552",
    "name": "特別養護老人ホーム　クレールみどり",
    "kana": "トクベツヨウゴロウジンホーム　クレールミドリ",
    "address": "香川県仲多度郡琴平町苗田字中森402番地1",
    "lat": 34.2007408,
    "lng": 133.8140338,
    "tel": "0877-75-5577",
    "url": "http://www.keishoukai.jp/",
    "pref": "香川県",
    "city": "琴平町",
    "category": "tokuyou",
    "serviceType": "介護老人福祉施設",
    "capacity": 30,
    "openDays": [],
    "openDaysNote": ""
  },
  {
    "id": "3770100513",
    "name": "シオンの丘ホーム",
    "kana": "シオンノオカホーム",
    "address": "高松市香西北町260番地",
    "lat": 34.354258,
    "lng": 133.9951389,
    "tel": "087-881-4531",
    "url": "http://www.bokuyoukai.or.jp/qhm/",
    "pref": "香川県",
    "city": "高松市",
    "category": "tokuyou",
    "serviceType": "介護老人福祉施設",
    "capacity": 0,
    "openDays": [],
    "openDaysNote": ""
  },
  {
    "id": "3770106726",
    "name": "特別養護老人ホーム　アイムの杜",
    "kana": "トクベツヨウゴロウジンホーム　アイムノモリ",
    "address": "高松市国分寺町新居1339-3",
    "lat": 34.2983373223162,
    "lng": 133.960002606668,
    "tel": "087-864-9031",
    "url": "http://www.hiiragikai.com",
    "pref": "香川県",
    "city": "高松市",
    "category": "tokuyou",
    "serviceType": "介護老人福祉施設",
    "capacity": 40,
    "openDays": [],
    "openDaysNote": ""
  },
  {
    "id": "3770104762",
    "name": "特別養護老人ホーム　あかね",
    "kana": "トクベツヨウゴロウジンホーム　アカネ",
    "address": "香川県高松市西町4番1号",
    "lat": 34.3466316,
    "lng": 134.0278886,
    "tel": "087-834-1165",
    "url": "http://www.sw-akane.jp",
    "pref": "香川県",
    "city": "高松市",
    "category": "tokuyou",
    "serviceType": "介護老人福祉施設",
    "capacity": 50,
    "openDays": [],
    "openDaysNote": ""
  },
  {
    "id": "3771300260",
    "name": "特別養護老人ホーム　あじの里",
    "kana": "トクベツヨウゴロウジンホーム　アジノサト",
    "address": "香川県高松市庵治町4151番地7",
    "lat": 34.3795414,
    "lng": 134.1438573,
    "tel": "087-870-3500",
    "url": "http://yoyokai.or.jp/",
    "pref": "香川県",
    "city": "高松市",
    "category": "tokuyou",
    "serviceType": "介護老人福祉施設",
    "capacity": 60,
    "openDays": [],
    "openDaysNote": ""
  },
  {
    "id": "3770101198",
    "name": "特別養護老人ホーム　エデンの丘",
    "kana": "トクベツヨウゴロウジンホーム　エデンノオカ",
    "address": "香川県高松市鶴市町1770番地4",
    "lat": 34.3372237,
    "lng": 134.0162727,
    "tel": "087-812-3455",
    "url": "http://www.bokuyoukai.or.jp/qhm/",
    "pref": "香川県",
    "city": "高松市",
    "category": "tokuyou",
    "serviceType": "介護老人福祉施設",
    "capacity": 60,
    "openDays": [],
    "openDaysNote": ""
  },
  {
    "id": "3770101537",
    "name": "特別養護老人ホーム　おりいぶ荘",
    "kana": "トクベツヨウゴロウジンホーム　オリイブソウ",
    "address": "香川県高松市太田下町2020番地1",
    "lat": 34.3043471,
    "lng": 134.0389735,
    "tel": "087-815-1800",
    "url": "https://hatsukikai.or.jp/",
    "pref": "香川県",
    "city": "高松市",
    "category": "tokuyou",
    "serviceType": "介護老人福祉施設",
    "capacity": 0,
    "openDays": [],
    "openDaysNote": ""
  },
  {
    "id": "3770100539",
    "name": "特別養護老人ホーム　さぬき",
    "kana": "トクベツヨウゴロウジンホーム　サヌキ",
    "address": "高松市宮脇町2丁目37番21号",
    "lat": 34.33751,
    "lng": 134.0298302,
    "tel": "087-831-4451",
    "url": "http://www.sanuki-sha.or.jp",
    "pref": "香川県",
    "city": "高松市",
    "category": "tokuyou",
    "serviceType": "介護老人福祉施設",
    "capacity": 87,
    "openDays": [],
    "openDaysNote": ""
  },
  {
    "id": "3771400177",
    "name": "特別養護老人ホーム　さんさん荘",
    "kana": "トクベツヨウゴロウジンホーム　サンサンソウ",
    "address": "香川県高松市香川町川内原1003-1",
    "lat": 34.2317736,
    "lng": 134.0504075,
    "tel": "087-879-0123",
    "url": "https://www.sansan-kai.com/",
    "pref": "香川県",
    "city": "高松市",
    "category": "tokuyou",
    "serviceType": "介護老人福祉施設",
    "capacity": 0,
    "openDays": [],
    "openDaysNote": ""
  },
  {
    "id": "3770100554",
    "name": "特別養護老人ホーム　はなぞの園",
    "kana": "トクベツヨウゴロウジンホーム　ハナゾノエン",
    "address": "香川県高松市上福岡町2004番地1",
    "lat": 34.3309392,
    "lng": 134.0607765,
    "tel": "087-837-0006",
    "url": "http://www.hanazono.or.jp",
    "pref": "香川県",
    "city": "高松市",
    "category": "tokuyou",
    "serviceType": "介護老人福祉施設",
    "capacity": 50,
    "openDays": [],
    "openDaysNote": ""
  },
  {
    "id": "3770102998",
    "name": "特別養護老人ホーム　一宮の里",
    "kana": "トクベツヨウゴロウジンホーム　イチノミヤノサト",
    "address": "香川県高松市一宮町875番地",
    "lat": 34.2915428,
    "lng": 134.0293772,
    "tel": "087-886-8168",
    "url": "https://www.kishokai.com",
    "pref": "香川県",
    "city": "高松市",
    "category": "tokuyou",
    "serviceType": "介護老人福祉施設",
    "capacity": 50,
    "openDays": [],
    "openDaysNote": ""
  },
  {
    "id": "3770100349",
    "name": "特別養護老人ホーム　岡本荘",
    "kana": "トクベツヨウゴロウジンホーム　オカモトソウ",
    "address": "香川県高松市岡本町527番地1",
    "lat": 34.266109,
    "lng": 133.9949149,
    "tel": "087-885-2828",
    "url": "http://www.koutouen.com/",
    "pref": "香川県",
    "city": "高松市",
    "category": "tokuyou",
    "serviceType": "介護老人福祉施設",
    "capacity": 0,
    "openDays": [],
    "openDaysNote": ""
  },
  {
    "id": "3770100521",
    "name": "特別養護老人ホーム　弘恩苑",
    "kana": "トクベツヨウゴロウジンホーム　コウオンエン",
    "address": "高松市前田西町683番地7",
    "lat": 34.3069363,
    "lng": 134.1087772,
    "tel": "087-847-9555",
    "url": "https://www.kouzenkai.jp",
    "pref": "香川県",
    "city": "高松市",
    "category": "tokuyou",
    "serviceType": "介護老人福祉施設",
    "capacity": 0,
    "openDays": [],
    "openDaysNote": ""
  },
  {
    "id": "3770102956",
    "name": "特別養護老人ホーム　高松さんさん荘",
    "kana": "トクベツヨウゴロウジンホーム　タカマツサンサンソウ",
    "address": "高松市西植田町４２１２－１",
    "lat": 34.2316879,
    "lng": 134.070722,
    "tel": "087-849-1333",
    "url": "http:/www.sansan-kai.com/takamatsu/index.html",
    "pref": "香川県",
    "city": "高松市",
    "category": "tokuyou",
    "serviceType": "介護老人福祉施設",
    "capacity": 0,
    "openDays": [],
    "openDaysNote": ""
  },
  {
    "id": "3770103582",
    "name": "特別養護老人ホーム　法寿苑",
    "kana": "トクベツヨウゴロウジンホーム　ホウジュエン",
    "address": "香川県高松市木太町3308番地",
    "lat": 34.3278117,
    "lng": 134.0752447,
    "tel": "087-832-5500",
    "url": "https://www.kouzenkai.jp/",
    "pref": "香川県",
    "city": "高松市",
    "category": "tokuyou",
    "serviceType": "介護老人福祉施設",
    "capacity": 0,
    "openDays": [],
    "openDaysNote": ""
  },
  {
    "id": "3770100497",
    "name": "特別養護老人ホーム　竜雲舜虹苑",
    "kana": "トクベツヨウゴロウジンホーム　リュウウンシュンコウエン",
    "address": "香川県高松市仏生山町甲3100番地2",
    "lat": 34.2650823,
    "lng": 134.04741,
    "tel": "087-888-5800",
    "url": "URL:http://www.ryuungakuen.or.jp",
    "pref": "香川県",
    "city": "高松市",
    "category": "tokuyou",
    "serviceType": "介護老人福祉施設",
    "capacity": 0,
    "openDays": [],
    "openDaysNote": ""
  },
  {
    "id": "3770101750",
    "name": "特別養護老人ホーム　逅里苑",
    "kana": "トクベツヨウゴロウジンホーム　コウリエン",
    "address": "香川県高松市屋島東町408－1",
    "lat": 34.3592748,
    "lng": 134.1115041,
    "tel": "087-844-8500",
    "url": "http://www.syurikai.com",
    "pref": "香川県",
    "city": "高松市",
    "category": "tokuyou",
    "serviceType": "介護老人福祉施設",
    "capacity": 60,
    "openDays": [],
    "openDaysNote": ""
  },
  {
    "id": "3770105835",
    "name": "特別養護老人ホームあん樹苑",
    "kana": "トクベツヨウゴロウジンホームアンジュエン",
    "address": "高松市香川町浅野1414番地",
    "lat": 34.2528091,
    "lng": 134.0371948,
    "tel": "087-879-3344",
    "url": "http://hatsukikai.or.jp",
    "pref": "香川県",
    "city": "高松市",
    "category": "tokuyou",
    "serviceType": "介護老人福祉施設",
    "capacity": 0,
    "openDays": [],
    "openDaysNote": ""
  },
  {
    "id": "3770109662",
    "name": "特別養護老人ホームきたまち苑",
    "kana": "トクベツヨウゴロウジンホームキタマチエン",
    "address": "木太町5113番地15",
    "lat": 34.3085167680625,
    "lng": 134.067186442853,
    "tel": "087-802-8100",
    "url": "https://hatsukikai.or.jp",
    "pref": "香川県",
    "city": "高松市",
    "category": "tokuyou",
    "serviceType": "介護老人福祉施設",
    "capacity": 50,
    "openDays": [],
    "openDaysNote": ""
  },
  {
    "id": "3770100331",
    "name": "特別養護老人ホームさくら荘",
    "kana": "トクベツヨウゴロウジンホームサクラソウ",
    "address": "高松市林町76番地14",
    "lat": 34.2942428,
    "lng": 134.0662774,
    "tel": "087-868-0700",
    "url": "https://hatsukikai.or.jp",
    "pref": "香川県",
    "city": "高松市",
    "category": "tokuyou",
    "serviceType": "介護老人福祉施設",
    "capacity": 50,
    "openDays": [],
    "openDaysNote": ""
  },
  {
    "id": "3770108193",
    "name": "特別養護老人ホームさくら荘（ユニット型）",
    "kana": "トクベツヨウゴロウジンホームサクラソウ（ユニットガタ）",
    "address": "高松市林町76番地14",
    "lat": 34.2942428,
    "lng": 134.0662774,
    "tel": "087-868-0700",
    "url": "https://hatsukikai.or.jp",
    "pref": "香川県",
    "city": "高松市",
    "category": "tokuyou",
    "serviceType": "介護老人福祉施設",
    "capacity": 30,
    "openDays": [],
    "openDaysNote": ""
  },
  {
    "id": "3770100547",
    "name": "特別養護老人ホームサマリヤ",
    "kana": "トクベツヨウゴロウジンホームサマリヤ",
    "address": "香川県高松市松並町573-1",
    "lat": 34.3168012140179,
    "lng": 134.028011757069,
    "tel": "087-815-1165",
    "url": "https://www.samariya.or.jp/",
    "pref": "香川県",
    "city": "高松市",
    "category": "tokuyou",
    "serviceType": "介護老人福祉施設",
    "capacity": 80,
    "openDays": [],
    "openDaysNote": ""
  },
  {
    "id": "3770100273",
    "name": "特別養護老人ホームすみれ荘",
    "kana": "トクベツヨウゴロウジンホームスミレソウ",
    "address": "高松市十川西町1234番地1",
    "lat": 34.2599762,
    "lng": 134.0997289,
    "tel": "087-848-0800",
    "url": "https://hatsukikai.or.jp/",
    "pref": "香川県",
    "city": "高松市",
    "category": "tokuyou",
    "serviceType": "介護老人福祉施設",
    "capacity": 0,
    "openDays": [],
    "openDaysNote": ""
  },
  {
    "id": "3750180188",
    "name": "特別養護老人ホームナウラテラス",
    "kana": "トクベツヨウゴロウジンホームナウラテラス",
    "address": "香川県高松市松福町一丁目12番3号",
    "lat": 34.342531,
    "lng": 134.0599796,
    "tel": "087-802-2650",
    "url": "https://hatsukikai.or.jp",
    "pref": "香川県",
    "city": "高松市",
    "category": "tokuyou",
    "serviceType": "介護老人福祉施設",
    "capacity": 0,
    "openDays": [],
    "openDaysNote": ""
  },
  {
    "id": "3770103889",
    "name": "特別養護老人ホームなでしこ香川",
    "kana": "トクベツヨウゴロウジンホームナデシコカガワ",
    "address": "香川高松市多肥上町１４２３番地1",
    "lat": 34.2945788,
    "lng": 134.0581228,
    "tel": "087-815-2000",
    "url": "http://www.saiseikai.or.jp",
    "pref": "香川県",
    "city": "高松市",
    "category": "tokuyou",
    "serviceType": "介護老人福祉施設",
    "capacity": 50,
    "openDays": [],
    "openDaysNote": ""
  },
  {
    "id": "3770104044",
    "name": "特別養護老人ホーム玉藻荘",
    "kana": "トクベツヨウゴロウジンホームタマモソウ",
    "address": "高松市北浜町７番10号",
    "lat": 34.3502513,
    "lng": 134.0560901,
    "tel": "087-811-4450",
    "url": "http://www.sanuki-sha.or.jp/sanuki/index.html",
    "pref": "香川県",
    "city": "高松市",
    "category": "tokuyou",
    "serviceType": "介護老人福祉施設",
    "capacity": 0,
    "openDays": [],
    "openDaysNote": ""
  },
  {
    "id": "3770100562",
    "name": "特別養護老人ホーム香色苑",
    "kana": "トクベツヨウゴロウジンホームコウシキエン",
    "address": "香川県高松市高松町1350番地22",
    "lat": 34.3326058,
    "lng": 134.1200172,
    "tel": "087-844-9090",
    "url": "http://www.kouzenkai.jp",
    "pref": "香川県",
    "city": "高松市",
    "category": "tokuyou",
    "serviceType": "介護老人福祉施設",
    "capacity": 0,
    "openDays": [],
    "openDaysNote": ""
  },
  {
    "id": "3771300138",
    "name": "特別養護老人ホーム守里苑",
    "kana": "トクベツヨウゴロウジンホームシュリエン",
    "address": "高松市牟礼町大町２５５５－２",
    "lat": 34.3317032,
    "lng": 134.1278664,
    "tel": "087-845-4417",
    "url": "http://syurikai.com",
    "pref": "香川県",
    "city": "高松市",
    "category": "tokuyou",
    "serviceType": "介護老人福祉施設",
    "capacity": 0,
    "openDays": [],
    "openDaysNote": ""
  },
  {
    "id": "3771400318",
    "name": "特別養護老人ホーム扇寿",
    "kana": "トクベツヨウゴロウジンホウムセンジュ",
    "address": "香川県高松市香南町横井492-1特別養護老人ホーム扇寿 特別養護老人ホーム扇寿",
    "lat": 34.2448793,
    "lng": 134.0119035,
    "tel": "087-815-8231",
    "url": "care-net.biz/37/senjyu",
    "pref": "香川県",
    "city": "高松市",
    "category": "tokuyou",
    "serviceType": "介護老人福祉施設",
    "capacity": 0,
    "openDays": [],
    "openDaysNote": ""
  },
  {
    "id": "3770100356",
    "name": "特別養護老人ホーム大寿苑",
    "kana": "トクベツヨウゴロウジンホームダイジュエン",
    "address": "香川県高松市鬼無町鬼無882番地2",
    "lat": 34.3182532,
    "lng": 133.9859071,
    "tel": "087-881-6565",
    "url": "http://www.daijyuan.com/",
    "pref": "香川県",
    "city": "高松市",
    "category": "tokuyou",
    "serviceType": "介護老人福祉施設",
    "capacity": 80,
    "openDays": [],
    "openDaysNote": ""
  },
  {
    "id": "3770300048",
    "name": "聖マルチンの園　介護老人福祉施設",
    "kana": "セイマルチンノソノ　カイゴロウジンフクシシセツ",
    "address": "香川県坂出市沖の浜1番5号",
    "lat": 34.3253560565079,
    "lng": 133.843503883467,
    "tel": "0877-46-3776",
    "url": "",
    "pref": "香川県",
    "city": "坂出市",
    "category": "tokuyou",
    "serviceType": "介護老人福祉施設",
    "capacity": 50,
    "openDays": [],
    "openDaysNote": ""
  },
  {
    "id": "3770300568",
    "name": "特別養護老人ホーム　きやま",
    "kana": "トクベツヨウゴロウジンホーム　キヤマ",
    "address": "香川県坂出市川津町1986番地8",
    "lat": 34.2933307,
    "lng": 133.8708078,
    "tel": "0877-45-0007",
    "url": "http://www.kbn.ne.jp/home/kym0007/",
    "pref": "香川県",
    "city": "坂出市",
    "category": "tokuyou",
    "serviceType": "介護老人福祉施設",
    "capacity": 0,
    "openDays": [],
    "openDaysNote": ""
  },
  {
    "id": "3770300592",
    "name": "特別養護老人ホームグランドガーデン",
    "kana": "トクベツヨウゴロウジンホーム　グランドガーデン",
    "address": "香川県坂出市加茂町628番地6",
    "lat": 34.3077689,
    "lng": 133.9099521,
    "tel": "0877-56-3370",
    "url": "http://www.kbn.ne.jp/home/neuronis/grand/",
    "pref": "香川県",
    "city": "坂出市",
    "category": "tokuyou",
    "serviceType": "介護老人福祉施設",
    "capacity": 0,
    "openDays": [],
    "openDaysNote": ""
  },
  {
    "id": "3770300212",
    "name": "特別養護老人ホーム愛生苑",
    "kana": "トクベツヨウゴロウジンホーム　アイセイエン",
    "address": "香川県坂出市西庄町79番地1",
    "lat": 34.3200524,
    "lng": 133.8809921,
    "tel": "0877-45-8880",
    "url": "http://ryokusei.byoinnavi.jp",
    "pref": "香川県",
    "city": "坂出市",
    "category": "tokuyou",
    "serviceType": "介護老人福祉施設",
    "capacity": 50,
    "openDays": [],
    "openDaysNote": ""
  },
  {
    "id": "3770300162",
    "name": "特別養護老人ホーム松ヶ浦荘",
    "kana": "トクベツヨウゴロウジンホーム　マツガウラソウ",
    "address": "香川県坂出市大屋冨町３１００番地１３",
    "lat": 34.3556199,
    "lng": 133.8940615,
    "tel": "0877-47-3121",
    "url": "http://www.shouju.or.jp/",
    "pref": "香川県",
    "city": "坂出市",
    "category": "tokuyou",
    "serviceType": "介護老人福祉施設",
    "capacity": 50,
    "openDays": [],
    "openDaysNote": ""
  },
  {
    "id": "3771700410",
    "name": "特別養護老人ホーム　たくま荘",
    "kana": "トクベツヨウゴロウジンホーム　タクマソウ",
    "address": "香川県三豊市詫間町詫間7732番地60",
    "lat": 34.2142801,
    "lng": 133.6692613,
    "tel": "0875-83-6261",
    "url": "http://www.takumaso.com",
    "pref": "香川県",
    "city": "三豊市",
    "category": "tokuyou",
    "serviceType": "介護老人福祉施設",
    "capacity": 80,
    "openDays": [],
    "openDaysNote": ""
  },
  {
    "id": "3771700402",
    "name": "特別養護老人ホーム　とよなか荘",
    "kana": "トクベツヨウゴロウジンホーム　トヨナカソウ",
    "address": "香川県三豊市豊中町笠田竹田697-1",
    "lat": 34.1554374,
    "lng": 133.6955468,
    "tel": "0875-56-6300",
    "url": "http://www.toyonakasou.jp/",
    "pref": "香川県",
    "city": "三豊市",
    "category": "tokuyou",
    "serviceType": "介護老人福祉施設",
    "capacity": 50,
    "openDays": [],
    "openDaysNote": ""
  },
  {
    "id": "3771700824",
    "name": "特別養護老人ホーム　諶之丞の丘",
    "kana": "トクベツヨウゴロウジンホーム　ジンノジョウノオカ",
    "address": "香川県三豊市財田町財田上1112番地1",
    "lat": 34.1062784,
    "lng": 133.7962862,
    "tel": "0875-67-2500",
    "url": "jinnojyounooka@basil.ocn.ne.jp",
    "pref": "香川県",
    "city": "三豊市",
    "category": "tokuyou",
    "serviceType": "介護老人福祉施設",
    "capacity": 50,
    "openDays": [],
    "openDaysNote": ""
  },
  {
    "id": "3770800302",
    "name": "特別養護老人ホームクレール高瀬",
    "kana": "トクベツヨウゴロウジンホームクレールタカセ",
    "address": "香川県三豊市高瀬町新名2035番地",
    "lat": 34.1991976,
    "lng": 133.7262621,
    "tel": "0875-72-3340",
    "url": "http://keishoukai-group.net/",
    "pref": "香川県",
    "city": "三豊市",
    "category": "tokuyou",
    "serviceType": "介護老人福祉施設",
    "capacity": 50,
    "openDays": [],
    "openDaysNote": ""
  },
  {
    "id": "3771700998",
    "name": "特別養護老人ホームにお荘",
    "kana": "トクベツヨウゴロウジンホームニオソウ",
    "address": "香川県三豊市仁尾町仁尾辛42番地3",
    "lat": 34.1930606,
    "lng": 133.6434753,
    "tel": "0875-82-5051",
    "url": "http://care-net.biz/37/niosou/",
    "pref": "香川県",
    "city": "三豊市",
    "category": "tokuyou",
    "serviceType": "介護老人福祉施設",
    "capacity": 50,
    "openDays": [],
    "openDaysNote": ""
  },
  {
    "id": "3771700329",
    "name": "特別養護老人ホームふたな荘",
    "kana": "トクベツヨウゴロウジンホームフタナソウ",
    "address": "香川県三豊市山本町辻2210",
    "lat": 34.1078992,
    "lng": 133.7234152,
    "tel": "0875-63-2182",
    "url": "http://www.keishoukai.jp/",
    "pref": "香川県",
    "city": "三豊市",
    "category": "tokuyou",
    "serviceType": "介護老人福祉施設",
    "capacity": 55,
    "openDays": [],
    "openDaysNote": ""
  },
  {
    "id": "3771700725",
    "name": "特別養護老人ホームみの",
    "kana": "トクベツヨウゴロウジンホームミノ",
    "address": "香川県三豊市三野町大見乙91-12",
    "lat": 34.2266288,
    "lng": 133.7206251,
    "tel": "0875-72-6270",
    "url": "http://minofukushikai.sun-age.or.jp",
    "pref": "香川県",
    "city": "三豊市",
    "category": "tokuyou",
    "serviceType": "介護老人福祉施設",
    "capacity": 0,
    "openDays": [],
    "openDaysNote": ""
  },
  {
    "id": "3770800443",
    "name": "特別養護老人ホーム優楽荘",
    "kana": "トクベツヨウゴロウジンホームユウラクソウ",
    "address": "香川県三豊市山本町辻585番地",
    "lat": 34.1190951,
    "lng": 133.7203263,
    "tel": "0875-63-1083",
    "url": "http://business4.plala.or.jp/aikou/index.html",
    "pref": "香川県",
    "city": "三豊市",
    "category": "tokuyou",
    "serviceType": "介護老人福祉施設",
    "capacity": 50,
    "openDays": [],
    "openDaysNote": ""
  },
  {
    "id": "3770800229",
    "name": "特別養護老人ホーム壽苑",
    "kana": "トクベツヨウゴロウジンホームコトブキエン",
    "address": "香川県三豊市高瀬町上高瀬712番地3",
    "lat": 34.1984061,
    "lng": 133.7262566,
    "tel": "0875-56-2522",
    "url": "http://houjyukai.info/",
    "pref": "香川県",
    "city": "三豊市",
    "category": "tokuyou",
    "serviceType": "介護老人福祉施設",
    "capacity": 50,
    "openDays": [],
    "openDaysNote": ""
  },
  {
    "id": "3771300526",
    "name": "特別養護老人ホーム　みき山荘",
    "kana": "トクベツヨウゴロウジンホーム　ミキサンソウ",
    "address": "香川県木田郡三木町大字井戸３８番地１",
    "lat": 34.241053,
    "lng": 134.156647,
    "tel": "087-890-3122",
    "url": "http://www.kitafuku.jp/",
    "pref": "香川県",
    "city": "三木町",
    "category": "tokuyou",
    "serviceType": "介護老人福祉施設",
    "capacity": 90,
    "openDays": [],
    "openDaysNote": ""
  },
  {
    "id": "3771300120",
    "name": "特別養護老人ホーム　白山山荘",
    "kana": "トクベツヨウゴロウジンホーム　ハクザンサンソウ",
    "address": "香川県木田郡三木町大字下高岡２８８２番地１",
    "lat": 34.27387,
    "lng": 134.1446253,
    "tel": "087-898-3123",
    "url": "http://www.kitafuku.jp/",
    "pref": "香川県",
    "city": "三木町",
    "category": "tokuyou",
    "serviceType": "介護老人福祉施設",
    "capacity": 80,
    "openDays": [],
    "openDaysNote": ""
  },
  {
    "id": "3771200577",
    "name": "特別養護老人ホームうちのみ",
    "kana": "トクベツヨウゴロウジンホームウチノミ",
    "address": "香川県小豆郡小豆島町片城甲４４番地９５",
    "lat": 34.4792752158965,
    "lng": 134.307957152115,
    "tel": "0879-82-7032",
    "url": "",
    "pref": "香川県",
    "city": "小豆島町",
    "category": "tokuyou",
    "serviceType": "介護老人福祉施設",
    "capacity": 60,
    "openDays": [],
    "openDaysNote": ""
  },
  {
    "id": "3771200031",
    "name": "特別養護老人ホームマリアの園",
    "kana": "トクベツヨウゴロウジンホウム　マリアノソノ",
    "address": "香川県小豆郡小豆島町草壁本町上蔵田1-13",
    "lat": 34.4865883538595,
    "lng": 134.30680046604,
    "tel": "0879-82-3578",
    "url": "",
    "pref": "香川県",
    "city": "小豆島町",
    "category": "tokuyou",
    "serviceType": "介護老人福祉施設",
    "capacity": 50,
    "openDays": [],
    "openDaysNote": ""
  },
  {
    "id": "3771200049",
    "name": "特別養護老人ホームリベラルサンシャイン",
    "kana": "トクベツヨウゴロウジンホームリベラルサンシャイン",
    "address": "香川県小豆郡小豆島町蒲生甲３５０",
    "lat": 34.477057,
    "lng": 134.2161808,
    "tel": "0879-75-2187",
    "url": "http://www.sunshine-kai.com/",
    "pref": "香川県",
    "city": "小豆島町",
    "category": "tokuyou",
    "serviceType": "介護老人福祉施設",
    "capacity": 0,
    "openDays": [],
    "openDaysNote": ""
  },
  {
    "id": "3770400285",
    "name": "特別養護老人ホーム　明日香",
    "kana": "トクベツヨウゴロウジンホーム　アスカ",
    "address": "香川県善通寺市原田町1561番地5",
    "lat": 34.2546298,
    "lng": 133.7872518,
    "tel": "0877-63-8080",
    "url": "http://www.senju.group.or.jp",
    "pref": "香川県",
    "city": "善通寺市",
    "category": "tokuyou",
    "serviceType": "介護老人福祉施設",
    "capacity": 50,
    "openDays": [],
    "openDaysNote": ""
  },
  {
    "id": "3770400723",
    "name": "特別養護老人ホームまほろば",
    "kana": "トクベツヨウゴロウジンホームマホロバ",
    "address": "善通寺市仙遊町二丁目3番40号",
    "lat": 34.2286044,
    "lng": 133.769862,
    "tel": "0877-62-3015",
    "url": "http://zen-fukushikai.jp/",
    "pref": "香川県",
    "city": "善通寺市",
    "category": "tokuyou",
    "serviceType": "介護老人福祉施設",
    "capacity": 30,
    "openDays": [],
    "openDaysNote": ""
  },
  {
    "id": "3770400319",
    "name": "特別養護老人ホーム仙遊荘",
    "kana": "トクベツヨウゴロウジンホームセンユウソウ",
    "address": "香川県善通寺市仙遊町二丁目3番43号",
    "lat": 34.2279322,
    "lng": 133.7702008,
    "tel": "0877-62-7332",
    "url": "http://zen-fukushikai.jp/",
    "pref": "香川県",
    "city": "善通寺市",
    "category": "tokuyou",
    "serviceType": "介護老人福祉施設",
    "capacity": 50,
    "openDays": [],
    "openDaysNote": ""
  },
  {
    "id": "3770400137",
    "name": "特別養護老人ホーム白百合荘",
    "kana": "トクベツヨウゴロウジンホームシラユリソウ",
    "address": "香川県善通寺市与北町1680番地1",
    "lat": 34.2304937,
    "lng": 133.807353,
    "tel": "0877-62-2998",
    "url": "http://www.care-net.biz/37/sirayuri",
    "pref": "香川県",
    "city": "善通寺市",
    "category": "tokuyou",
    "serviceType": "介護老人福祉施設",
    "capacity": 50,
    "openDays": [],
    "openDaysNote": ""
  },
  {
    "id": "3771600180",
    "name": "特別養護老人ホーム　桃陵苑",
    "kana": "トクベツヨウゴロウジンホーム　トウリョウエン",
    "address": "香川県仲多度郡多度津町西港町127番地３",
    "lat": 34.2657219,
    "lng": 133.7373952,
    "tel": "0877-33-0222",
    "url": "http://toryoen.jp/",
    "pref": "香川県",
    "city": "多度津町",
    "category": "tokuyou",
    "serviceType": "介護老人福祉施設",
    "capacity": 30,
    "openDays": [],
    "openDaysNote": ""
  },
  {
    "id": "3771601162",
    "name": "特別養護老人ホーム　桃陵苑　ユニット",
    "kana": "トクベツヨウゴロウジンホーム　トウリョウエン　ユニット",
    "address": "香川県仲多度郡多度津町西港町127番地3",
    "lat": 34.2656636,
    "lng": 133.7373813,
    "tel": "0877-33-0222",
    "url": "http://toryoen.jp/",
    "pref": "香川県",
    "city": "多度津町",
    "category": "tokuyou",
    "serviceType": "介護老人福祉施設",
    "capacity": 60,
    "openDays": [],
    "openDaysNote": ""
  },
  {
    "id": "3771600990",
    "name": "特別養護老人ホームかざみ鳥",
    "kana": "トクベツヨウゴロウジンホームカザミドリ",
    "address": "香川県仲多度郡多度津町北鴨二丁目１１０番地１",
    "lat": 34.2778599,
    "lng": 133.7665951,
    "tel": "0877-56-6300",
    "url": "",
    "pref": "香川県",
    "city": "多度津町",
    "category": "tokuyou",
    "serviceType": "介護老人福祉施設",
    "capacity": 50,
    "openDays": [],
    "openDaysNote": ""
  },
  {
    "id": "3771400367",
    "name": "特別養護老人ホーム　レファシード直島",
    "kana": "トクベツヨウゴロウジンホーム　レファシードナオシマ",
    "address": "香川県香川郡直島町3749-1",
    "lat": 34.4605448,
    "lng": 133.9982836,
    "tel": "087-840-8088",
    "url": "",
    "pref": "香川県",
    "city": "直島町",
    "category": "tokuyou",
    "serviceType": "介護老人福祉施設",
    "capacity": 64,
    "openDays": [],
    "openDaysNote": ""
  },
  {
    "id": "3771200320",
    "name": "特別養護老人ホーム　あづき",
    "kana": "トクベツヨウゴロウジンホーム　アヅキ",
    "address": "香川県小豆郡土庄町字半ノ池甲1360番地143",
    "lat": 34.4860217,
    "lng": 134.1858069,
    "tel": "0879-62-7707",
    "url": "",
    "pref": "香川県",
    "city": "土庄町",
    "category": "tokuyou",
    "serviceType": "介護老人福祉施設",
    "capacity": 68,
    "openDays": [],
    "openDaysNote": ""
  },
  {
    "id": "3771200106",
    "name": "特別養護老人ホーム小豆島老人ホーム",
    "kana": "トクベツヨウゴロウジンホームショウドシマロウジンホーム",
    "address": "小豆郡土庄町渕崎甲518",
    "lat": 34.4900074,
    "lng": 134.1787159,
    "tel": "0879-62-0437",
    "url": "",
    "pref": "香川県",
    "city": "土庄町",
    "category": "tokuyou",
    "serviceType": "介護老人福祉施設",
    "capacity": 82,
    "openDays": [],
    "openDaysNote": ""
  },
  {
    "id": "3771200114",
    "name": "豊島ナオミ荘",
    "kana": "テシマナオミソウ",
    "address": "香川県小豆郡土庄町豊島家浦43-10",
    "lat": 34.4948314,
    "lng": 134.0758256,
    "tel": "0879-68-3131",
    "url": "http://www.ans.co.jp/n/naomi/",
    "pref": "香川県",
    "city": "土庄町",
    "category": "tokuyou",
    "serviceType": "介護老人福祉施設",
    "capacity": 30,
    "openDays": [],
    "openDaysNote": ""
  },
  {
    "id": "3771100173",
    "name": "特別養護老人ホーム　絹島荘",
    "kana": "トクベツヨウゴロウジンホーム　キヌジマソウ",
    "address": "香川県東かがわ市馬篠1227-20",
    "lat": 34.2739172999999,
    "lng": 134.2993787,
    "tel": "0879-25-6511",
    "url": "http://www.koutouen.com/",
    "pref": "香川県",
    "city": "東かがわ市",
    "category": "tokuyou",
    "serviceType": "介護老人福祉施設",
    "capacity": 0,
    "openDays": [],
    "openDaysNote": ""
  },
  {
    "id": "3771100280",
    "name": "特別養護老人ホーム　湊荘",
    "kana": "トクベツヨウゴロウジンホーム　ミナトソウ",
    "address": "東かがわ市湊1183-5",
    "lat": 34.2187752,
    "lng": 134.3396973,
    "tel": "0879-25-0674",
    "url": "http://www.shikoku.ne.jp/zuishou/shisetsu/minato.html",
    "pref": "香川県",
    "city": "東かがわ市",
    "category": "tokuyou",
    "serviceType": "介護老人福祉施設",
    "capacity": 80,
    "openDays": [],
    "openDaysNote": ""
  },
  {
    "id": "3771100272",
    "name": "特別養護老人ホーム引田荘",
    "kana": "トクベツヨウゴロウジンホームヒケタソウ",
    "address": "香川県東かがわ市引田922番地18",
    "lat": 34.2143374,
    "lng": 134.3977647,
    "tel": "0879-33-7001",
    "url": "http://www.shikoku.ne.jp/zuishou/",
    "pref": "香川県",
    "city": "東かがわ市",
    "category": "tokuyou",
    "serviceType": "介護老人福祉施設",
    "capacity": 0,
    "openDays": [],
    "openDaysNote": ""
  }
]