[
  {
    "id": "3972400364",
    "name": "いの町立特別養護老人ホーム偕楽荘",
    "kana": "イノチョウリツトクベツヨウゴロウジンホームカイラクソウ",
    "address": "高知県吾川郡いの町1400番地すこやかセンター伊野2階 すこやかセンター伊野2階",
    "lat": 33.5467450108721,
    "lng": 133.43190423481,
    "tel": "088-892-1086",
    "url": "",
    "pref": "高知県",
    "city": "いの町",
    "category": "tokuyou",
    "serviceType": "介護老人福祉施設",
    "capacity": 90,
    "openDays": [],
    "openDaysNote": ""
  },
  {
    "id": "3972400760",
    "name": "特別養護老人ホーム　吾北荘",
    "kana": "トクベツヨウゴロウジンホーム　ゴホクソウ",
    "address": "高知県吾川郡いの町下八川丁１６７６番地",
    "lat": 33.5978908,
    "lng": 133.3012861,
    "tel": "０８８－８６７－３００１",
    "url": "http://www.gohokuseiwakai.or.jp/",
    "pref": "高知県",
    "city": "いの町",
    "category": "tokuyou",
    "serviceType": "介護老人福祉施設",
    "capacity": 50,
    "openDays": [],
    "openDaysNote": ""
  },
  {
    "id": "3970300087",
    "name": "特別養護老人ホーム「つつじの丘」",
    "kana": "トクベツヨウゴロウジンホーム「ツツジノオカ」",
    "address": "高知県安芸市川北乙1735番地",
    "lat": 33.5276018,
    "lng": 133.9135978,
    "tel": "0887-35-5557",
    "url": "http://tsutsujinooka.jp/",
    "pref": "高知県",
    "city": "安芸市",
    "category": "tokuyou",
    "serviceType": "介護老人福祉施設",
    "capacity": 0,
    "openDays": [],
    "openDaysNote": ""
  },
  {
    "id": "3970300012",
    "name": "特別養護老人ホーム八流荘",
    "kana": "トクベツヨウゴロウジンホームヤナガレソウ",
    "address": "高知県安芸市赤野甲561番地2",
    "lat": 33.5127908078862,
    "lng": 133.83797751656,
    "tel": "0887-34-3727",
    "url": "http://www.tosakouseikai.or.jp/yanagaresou/",
    "pref": "高知県",
    "city": "安芸市",
    "category": "tokuyou",
    "serviceType": "介護老人福祉施設",
    "capacity": 0,
    "openDays": [],
    "openDaysNote": ""
  },
  {
    "id": "3972500072",
    "name": "高吾北広域町村事務組合立特別養護老人ホーム五葉荘",
    "kana": "コウゴホクコウイキチョウソンジムクミアイリツトクベツヨウゴロウジンホームゴヨウソウ",
    "address": "高岡郡越知町越知甲946番地",
    "lat": 33.5328504,
    "lng": 133.2585179,
    "tel": "0889-26-3100",
    "url": "",
    "pref": "高知県",
    "city": "越知町",
    "category": "tokuyou",
    "serviceType": "介護老人福祉施設",
    "capacity": 0,
    "openDays": [],
    "openDaysNote": ""
  },
  {
    "id": "3972000289",
    "name": "特別養護老人ホーム　ウエルプラザ洋寿荘",
    "kana": "トクベツヨウゴロウジンホーム　ウエルプラザヨウジュソウ",
    "address": "高知県安芸郡芸西村西分乙297番地",
    "lat": 33.5157927,
    "lng": 133.7720794,
    "tel": "0887-32-2110",
    "url": "http://www.welplaza.or.jp",
    "pref": "高知県",
    "city": "芸西村",
    "category": "tokuyou",
    "serviceType": "介護老人福祉施設",
    "capacity": 80,
    "openDays": [],
    "openDaysNote": ""
  },
  {
    "id": "3971100064",
    "name": "特別養護老人ホーム　オーベルジュ",
    "kana": "トクベツヨウゴロウジンホーム　オーベルジュ",
    "address": "高知県香南市野市町東野354-18",
    "lat": 33.5616124,
    "lng": 133.7176646,
    "tel": "0887-55-0015",
    "url": "",
    "pref": "高知県",
    "city": "香南市",
    "category": "tokuyou",
    "serviceType": "介護老人福祉施設",
    "capacity": 0,
    "openDays": [],
    "openDaysNote": ""
  },
  {
    "id": "3972100071",
    "name": "特別養護老人ホーム　香南赤岡苑",
    "kana": "トクベツヨウゴロウジンホーム　コウナンアカオカエン",
    "address": "高知県香南市赤岡町１１６０－１",
    "lat": 33.5463756,
    "lng": 133.7300833,
    "tel": "0887-55-2888",
    "url": "https://www.kounankai.jp",
    "pref": "高知県",
    "city": "香南市",
    "category": "tokuyou",
    "serviceType": "介護老人福祉施設",
    "capacity": 0,
    "openDays": [],
    "openDaysNote": ""
  },
  {
    "id": "3972100105",
    "name": "特別養護老人ホーム三宝荘",
    "kana": "トクベツヨウゴロウジンホームイサンポウソウ",
    "address": "香南市野市町母代寺188番地",
    "lat": 33.5817488,
    "lng": 133.7027379,
    "tel": "0887-56-0181",
    "url": "https://konan-kami.net",
    "pref": "高知県",
    "city": "香南市",
    "category": "tokuyou",
    "serviceType": "介護老人福祉施設",
    "capacity": 0,
    "openDays": [],
    "openDaysNote": ""
  },
  {
    "id": "3971200286",
    "name": "特別養護老人ホームウエルプラザやまだ荘",
    "kana": "トクベツヨウゴロウジンホームウエルプラザヤマダソウ",
    "address": "高知県香美市土佐山田町秦山町3丁目4番20号",
    "lat": 33.6075033167433,
    "lng": 133.676091037959,
    "tel": "0887-52-3223",
    "url": "http://www.welplaza.or.jp",
    "pref": "高知県",
    "city": "香美市",
    "category": "tokuyou",
    "serviceType": "介護老人福祉施設",
    "capacity": 76,
    "openDays": [],
    "openDaysNote": ""
  },
  {
    "id": "3972100113",
    "name": "特別養護老人ホーム白寿荘",
    "kana": "トクベツヨウゴロウジンホームハクジュソウ",
    "address": "高知県香美市香北町永野2152番地",
    "lat": 33.665757670942,
    "lng": 133.817208,
    "tel": "0887-59-2287",
    "url": "http://konan-kami.jp/",
    "pref": "高知県",
    "city": "香美市",
    "category": "tokuyou",
    "serviceType": "介護老人福祉施設",
    "capacity": 50,
    "openDays": [],
    "openDaysNote": ""
  },
  {
    "id": "3970106831",
    "name": "ユニット型特別養護老人ホーム　もとちか",
    "kana": "ユニットガタトクベツヨウゴロウジンホーム　モトチカ",
    "address": "高知県高知市長浜4975番地",
    "lat": 33.5012996,
    "lng": 133.545652,
    "tel": "088-879-1883",
    "url": "https://www.kounankai.jp",
    "pref": "高知県",
    "city": "高知市",
    "category": "tokuyou",
    "serviceType": "介護老人福祉施設",
    "capacity": 0,
    "openDays": [],
    "openDaysNote": ""
  },
  {
    "id": "3970100131",
    "name": "介護老人福祉施設グランボヌール",
    "kana": "カイゴロウジンフクシシセツグランボヌール",
    "address": "高知県高知市布師田字宮ノ辺１３６２",
    "lat": 33.5839213,
    "lng": 133.5926533,
    "tel": "088-845-5400",
    "url": "http://nankai-f.jp/",
    "pref": "高知県",
    "city": "高知市",
    "category": "tokuyou",
    "serviceType": "介護老人福祉施設",
    "capacity": 0,
    "openDays": [],
    "openDaysNote": ""
  },
  {
    "id": "3970100057",
    "name": "介護老人福祉施設早蕨",
    "kana": "カイゴロウジンフクシシセツサワラビ",
    "address": "高知県高知市五台山3780-1",
    "lat": 33.5485148,
    "lng": 133.5882544,
    "tel": "088-885-0800",
    "url": "http://www.sawarabikai.net/sawarabi.html",
    "pref": "高知県",
    "city": "高知市",
    "category": "tokuyou",
    "serviceType": "介護老人福祉施設",
    "capacity": null,
    "openDays": [],
    "openDaysNote": ""
  },
  {
    "id": "3970104448",
    "name": "特別養護老人ホーム　ウエルプラザ高知",
    "kana": "トクベツヨウゴロウジンホーム　ウエルプラザコウチ",
    "address": "高知県高知市一宮しなね2丁目15番19号",
    "lat": 33.5938527,
    "lng": 133.5775325,
    "tel": "088-855-8820",
    "url": "http://www.welplaza.or.jp/",
    "pref": "高知県",
    "city": "高知市",
    "category": "tokuyou",
    "serviceType": "介護老人福祉施設",
    "capacity": 80,
    "openDays": [],
    "openDaysNote": ""
  },
  {
    "id": "3970103176",
    "name": "特別養護老人ホーム　うららか春陽荘",
    "kana": "トクベツヨウゴロウジンホーム　ウララカシュンヨウソウ",
    "address": "高知市春野町西分４６６０番地",
    "lat": 33.5004506,
    "lng": 133.500452,
    "tel": "088-894-4111",
    "url": "http://www.nagaisakanokai.com/urarakashunyoso/",
    "pref": "高知県",
    "city": "高知市",
    "category": "tokuyou",
    "serviceType": "介護老人福祉施設",
    "capacity": null,
    "openDays": [],
    "openDaysNote": ""
  },
  {
    "id": "3970100107",
    "name": "特別養護老人ホーム　スウィート・ハート・ホーム",
    "kana": "トクベツヨウゴロウジンホーム　スウィート・ハート・ホーム",
    "address": "高知市朝倉甲64番地1",
    "lat": 33.5430629,
    "lng": 133.5024824,
    "tel": "088-840-7100",
    "url": "http://ｗｗｗ.ｔｈｃ.ｏｒ.ｊｐ/",
    "pref": "高知県",
    "city": "高知市",
    "category": "tokuyou",
    "serviceType": "介護老人福祉施設",
    "capacity": 0,
    "openDays": [],
    "openDaysNote": ""
  },
  {
    "id": "3970105072",
    "name": "特別養護老人ホーム　ふるさとの丘",
    "kana": "トクベツヨウゴロウジンホーム　フルサトノオカ",
    "address": "高知県高知市朝倉己1149番地106",
    "lat": 33.5328338815496,
    "lng": 133.476423580673,
    "tel": "088-828-8488",
    "url": "http://f-shizenmura.or.jp",
    "pref": "高知県",
    "city": "高知市",
    "category": "tokuyou",
    "serviceType": "介護老人福祉施設",
    "capacity": 0,
    "openDays": [],
    "openDaysNote": ""
  },
  {
    "id": "3970100032",
    "name": "特別養護老人ホーム　やすらぎの家",
    "kana": "トクベツヨウゴロウジンホーム　ヤスラギノイエ",
    "address": "高知県高知市針木北一丁目１４番３０号",
    "lat": 33.5400096,
    "lng": 133.4744854,
    "tel": "088-843-1251",
    "url": "www.nagaisakanokai.com",
    "pref": "高知県",
    "city": "高知市",
    "category": "tokuyou",
    "serviceType": "介護老人福祉施設",
    "capacity": null,
    "openDays": [],
    "openDaysNote": ""
  },
  {
    "id": "3970100115",
    "name": "特別養護老人ホーム　海の里",
    "kana": "トクベツヨウゴロウジンホーム　ウミノサト",
    "address": "高知市仁井田１６１８番地１８",
    "lat": 33.5131848,
    "lng": 133.5719937,
    "tel": "088-847-7878",
    "url": "http://uminosato.or.jp/nursinghome/",
    "pref": "高知県",
    "city": "高知市",
    "category": "tokuyou",
    "serviceType": "介護老人福祉施設",
    "capacity": 80,
    "openDays": [],
    "openDaysNote": ""
  },
  {
    "id": "3970100149",
    "name": "特別養護老人ホーム　湯の里",
    "kana": "トクベツヨウゴロウジンホーム　ユノサト",
    "address": "高知市円行寺５２番地１０",
    "lat": 33.5838861,
    "lng": 133.5137,
    "tel": "088-823-3030",
    "url": "http://www.sanjyukai.com/",
    "pref": "高知県",
    "city": "高知市",
    "category": "tokuyou",
    "serviceType": "介護老人福祉施設",
    "capacity": 80,
    "openDays": [],
    "openDaysNote": ""
  },
  {
    "id": "3970107870",
    "name": "特別養護老人ホームあおばの森",
    "kana": "トクベツヨウゴロウジンホーム　アオバノモリ",
    "address": "高知県高知市横浜20番1",
    "lat": 33.5288723,
    "lng": 133.5535229,
    "tel": "088-848-2002",
    "url": "http://furusatokai.or.jp/",
    "pref": "高知県",
    "city": "高知市",
    "category": "tokuyou",
    "serviceType": "介護老人福祉施設",
    "capacity": null,
    "openDays": [],
    "openDaysNote": ""
  },
  {
    "id": "3970100933",
    "name": "特別養護老人ホームあざみの里",
    "kana": "トクベツヨウゴロウジンホームアザミノサト",
    "address": "高知県高知市薊野北町2丁目25番8号",
    "lat": 33.5835314,
    "lng": 133.5563205,
    "tel": "088-803-1122",
    "url": "https://hata-dialife.jp/",
    "pref": "高知県",
    "city": "高知市",
    "category": "tokuyou",
    "serviceType": "介護老人福祉施設",
    "capacity": 80,
    "openDays": [],
    "openDaysNote": ""
  },
  {
    "id": "3970102673",
    "name": "特別養護老人ホームシーサイドホーム桂浜",
    "kana": "トクベツヨウゴロウジンホームシーサイドホームカツラハマ",
    "address": "高知市長浜6598-4",
    "lat": 33.490792,
    "lng": 133.5475216,
    "tel": "088-841-5000",
    "url": "http://www.fuku-cij.jp/seasidehome_katurahama/",
    "pref": "高知県",
    "city": "高知市",
    "category": "tokuyou",
    "serviceType": "介護老人福祉施設",
    "capacity": 0,
    "openDays": [],
    "openDaysNote": ""
  },
  {
    "id": "3970103101",
    "name": "特別養護老人ホームはるの若菜荘",
    "kana": "トクベツヨウゴロウジンホームハルノワカナソウ",
    "address": "高知県高知市春野町東諸木3058番地1",
    "lat": 33.4878212368997,
    "lng": 133.515528928172,
    "tel": "088-842-7555",
    "url": "https://takaharufukushikai.com",
    "pref": "高知県",
    "city": "高知市",
    "category": "tokuyou",
    "serviceType": "介護老人福祉施設",
    "capacity": 50,
    "openDays": [],
    "openDaysNote": ""
  },
  {
    "id": "3970100123",
    "name": "特別養護老人ホーム森の里高知",
    "kana": "トクベツヨウゴロウジンホームモリノサトコウチ",
    "address": "高知市横浜２０番１",
    "lat": 33.5286189,
    "lng": 133.5536916,
    "tel": "088-848-2002",
    "url": "http://tokuyoumorinosato.jimdo.com/",
    "pref": "高知県",
    "city": "高知市",
    "category": "tokuyou",
    "serviceType": "介護老人福祉施設",
    "capacity": 80,
    "openDays": [],
    "openDaysNote": ""
  },
  {
    "id": "3970105312",
    "name": "特別養護老人ホーム絆の広場",
    "kana": "トクベツヨウゴロウジンホームキズナノヒロバ",
    "address": "一宮南町1丁目4番75号",
    "lat": 33.5779325,
    "lng": 133.5650253,
    "tel": "088-846-5001",
    "url": "http://hata-dialife.jp/kizunanohiroba",
    "pref": "高知県",
    "city": "高知市",
    "category": "tokuyou",
    "serviceType": "介護老人福祉施設",
    "capacity": 0,
    "openDays": [],
    "openDaysNote": ""
  },
  {
    "id": "3972600369",
    "name": "黒潮町特別養護老人ホームかしま荘",
    "kana": "クロシオチョウトクベツヨウゴロウジンホームカシマソウ",
    "address": "高知県幡多郡黒潮町佐賀3177",
    "lat": 33.0622972,
    "lng": 133.1058252,
    "tel": "0880-55-3591",
    "url": "https://kuroshiofukushikai.com/page-57/page-243/",
    "pref": "高知県",
    "city": "黒潮町",
    "category": "tokuyou",
    "serviceType": "介護老人福祉施設",
    "capacity": 50,
    "openDays": [],
    "openDaysNote": ""
  },
  {
    "id": "3972600021",
    "name": "特別養護老人ホームシーサイドホーム",
    "kana": "トクベツヨウゴロウジンホームシーサイドホーム",
    "address": "高知県幡多郡黒潮町有井川１２番地１",
    "lat": 33.0375107,
    "lng": 133.0608616,
    "tel": "0880-44-1911",
    "url": "http://kuroshiofukushikai.com/page-57/page-221/",
    "pref": "高知県",
    "city": "黒潮町",
    "category": "tokuyou",
    "serviceType": "介護老人福祉施設",
    "capacity": 0,
    "openDays": [],
    "openDaysNote": ""
  },
  {
    "id": "3972500064",
    "name": "特別養護老人ホーム春日荘",
    "kana": "トクベツヨウゴロウジンホームカスガソウ",
    "address": "高知県高岡郡佐川町乙２３４０番地",
    "lat": 33.5046463,
    "lng": 133.2866773,
    "tel": "0889-22-3456",
    "url": "",
    "pref": "高知県",
    "city": "佐川町",
    "category": "tokuyou",
    "serviceType": "介護老人福祉施設",
    "capacity": 112,
    "openDays": [],
    "openDaysNote": ""
  },
  {
    "id": "3972600203",
    "name": "特別養護老人ホーム　星ヶ丘",
    "kana": "トクベツヨウゴロウジンホーム　ホシガオカ",
    "address": "高知県幡多郡三原村宮ノ川1271-10",
    "lat": 32.9229387,
    "lng": 132.8415699,
    "tel": "0880-31-7800",
    "url": "http://yusunoki.or.jp/",
    "pref": "高知県",
    "city": "三原村",
    "category": "tokuyou",
    "serviceType": "介護老人福祉施設",
    "capacity": 0,
    "openDays": [],
    "openDaysNote": ""
  },
  {
    "id": "3970700039",
    "name": "介護老人福祉施設　四万十の郷",
    "kana": "カイゴロウジンフクシシセツシマントノサト",
    "address": "高知県四万十市安並字東丸5803",
    "lat": 33.002197,
    "lng": 132.9354045,
    "tel": "0880-34-1888",
    "url": "http://nankai-f.jp/shimanto/index.htm",
    "pref": "高知県",
    "city": "四万十市",
    "category": "tokuyou",
    "serviceType": "介護老人福祉施設",
    "capacity": 0,
    "openDays": [],
    "openDaysNote": ""
  },
  {
    "id": "3972600047",
    "name": "特別養護老人ホームかわせみ",
    "kana": "トクベツヨウゴロウジンホームカワセミ",
    "address": "四万十市西土佐用井１１１０番地１",
    "lat": 33.1737228,
    "lng": 132.7931013,
    "tel": "0880-52-2223",
    "url": "htttps://nisitosa-kawasemi.jp/",
    "pref": "高知県",
    "city": "四万十市",
    "category": "tokuyou",
    "serviceType": "介護老人福祉施設",
    "capacity": 0,
    "openDays": [],
    "openDaysNote": ""
  },
  {
    "id": "3971000371",
    "name": "特別養護老人ホーム夢の丘",
    "kana": "トクベツヨウゴロウジンホームユメノオカ",
    "address": "高知県四万十市右山2041番地18",
    "lat": 32.9793244,
    "lng": 132.9461181,
    "tel": "0880-34-8885",
    "url": "http://yusunoki.or.jp",
    "pref": "高知県",
    "city": "四万十市",
    "category": "tokuyou",
    "serviceType": "介護老人福祉施設",
    "capacity": 0,
    "openDays": [],
    "openDaysNote": ""
  },
  {
    "id": "3972501443",
    "name": "四万十町立特別養護老人ホーム窪川荘",
    "kana": "シマントチョウリツトクベツヨウゴロウジンホームクボカワソウ",
    "address": "高知県高岡郡四万十町影野640-2",
    "lat": 33.2760025,
    "lng": 133.1727165,
    "tel": "0880-22-8811",
    "url": "",
    "pref": "高知県",
    "city": "四万十町",
    "category": "tokuyou",
    "serviceType": "介護老人福祉施設",
    "capacity": 0,
    "openDays": [],
    "openDaysNote": ""
  },
  {
    "id": "3972501450",
    "name": "四万十町立特別養護老人ホーム四万十荘",
    "kana": "シマントチョウリツトクベツヨウゴロウジンホームシマントソウ",
    "address": "高知県高岡郡四万十町大正576",
    "lat": 33.1945679,
    "lng": 132.9724921,
    "tel": "0880-27-0680",
    "url": "",
    "pref": "高知県",
    "city": "四万十町",
    "category": "tokuyou",
    "serviceType": "介護老人福祉施設",
    "capacity": 0,
    "openDays": [],
    "openDaysNote": ""
  },
  {
    "id": "3970200345",
    "name": "特別養護老人ホーム丸山長寿園",
    "kana": "トクベツヨウゴロウジンホームマルヤマチョウジュエン",
    "address": "高知県室戸市室戸岬町１６７５番地",
    "lat": 33.3014422,
    "lng": 134.1871835,
    "tel": "0887-23-1200",
    "url": "m-chojuen.or.jp",
    "pref": "高知県",
    "city": "室戸市",
    "category": "tokuyou",
    "serviceType": "介護老人福祉施設",
    "capacity": 0,
    "openDays": [],
    "openDaysNote": ""
  },
  {
    "id": "3970900340",
    "name": "ユニット型特別養護老人ホーム　豊寿園",
    "kana": "ユニットガタトクベツヨウゴロウジンホーム　ホウジュエン",
    "address": "高知県宿毛市平田町戸内1813番地1",
    "lat": 32.9593056,
    "lng": 132.7983871,
    "tel": "0880－66－1188",
    "url": "http://www.gallery.ne.jp/~houjuen",
    "pref": "高知県",
    "city": "宿毛市",
    "category": "tokuyou",
    "serviceType": "介護老人福祉施設",
    "capacity": 0,
    "openDays": [],
    "openDaysNote": ""
  },
  {
    "id": "3970900043",
    "name": "宿毛市立特別養護老人ホーム千寿園",
    "kana": "スクモシリツトクベツヨウゴロウジンホームセンジュエン",
    "address": "高知県宿毛市小筑紫町福良80番地6",
    "lat": 32.8751616,
    "lng": 132.7298389,
    "tel": "0880-62-3020",
    "url": "http://sukumofukushikai.net/",
    "pref": "高知県",
    "city": "宿毛市",
    "category": "tokuyou",
    "serviceType": "介護老人福祉施設",
    "capacity": 0,
    "openDays": [],
    "openDaysNote": ""
  },
  {
    "id": "3970900035",
    "name": "特別養護老人ホーム　豊寿園",
    "kana": "トクベツヨウゴロウジンホーム　ホウジュエン",
    "address": "高知県宿毛市平田町戸内１８１３番地１",
    "lat": 32.9593056,
    "lng": 132.7983871,
    "tel": "0880-66-1188",
    "url": "http://www.gallery.ne.jp/~hojuen/",
    "pref": "高知県",
    "city": "宿毛市",
    "category": "tokuyou",
    "serviceType": "介護老人福祉施設",
    "capacity": 0,
    "openDays": [],
    "openDaysNote": ""
  },
  {
    "id": "3972400067",
    "name": "高吾北広域町村事務組合立　特別養護老人ホームあがわ荘",
    "kana": "コウゴホクコウイキチョウソンジムクミアイリツ　トクベツヨウゴロウジンホーム　アガワソウ",
    "address": "高知県吾川郡仁淀川町本村８９－１",
    "lat": 33.5866132,
    "lng": 133.1600613,
    "tel": "0889-35-1717",
    "url": "http://www.kogohoku.ochi.kochi.jp",
    "pref": "高知県",
    "city": "仁淀川町",
    "category": "tokuyou",
    "serviceType": "介護老人福祉施設",
    "capacity": 0,
    "openDays": [],
    "openDaysNote": ""
  },
  {
    "id": "3970600056",
    "name": "特別養護老人ホーム清流荘",
    "kana": "トクベツヨウゴロウジンホームセイリュウソウ",
    "address": "高知県須崎市上分丙１７５８番地２",
    "lat": 33.4001749,
    "lng": 133.236053,
    "tel": "0889-46-0711",
    "url": "http://www.ca.pikara.ne.jp/seiryuso",
    "pref": "高知県",
    "city": "須崎市",
    "category": "tokuyou",
    "serviceType": "介護老人福祉施設",
    "capacity": 0,
    "openDays": [],
    "openDaysNote": ""
  },
  {
    "id": "3972600088",
    "name": "特別養護老人ホーム　大月荘",
    "kana": "トクベツヨウゴロウジンホーム　オオツキソウ",
    "address": "幡多郡大月町鉾土604-7",
    "lat": 32.8199577272785,
    "lng": 132.707699248606,
    "tel": "0880-73-1177",
    "url": "",
    "pref": "高知県",
    "city": "大月町",
    "category": "tokuyou",
    "serviceType": "介護老人福祉施設",
    "capacity": 0,
    "openDays": [],
    "openDaysNote": ""
  },
  {
    "id": "3972500056",
    "name": "特別養護老人ホーム　大野見荘",
    "kana": "トクベツヨウゴロウジンホーム　オオノミソウ",
    "address": "高岡郡中土佐町大野見吉野１１８",
    "lat": 33.334555,
    "lng": 133.1405667,
    "tel": "0889-57-2138",
    "url": "",
    "pref": "高知県",
    "city": "中土佐町",
    "category": "tokuyou",
    "serviceType": "介護老人福祉施設",
    "capacity": 0,
    "openDays": [],
    "openDaysNote": ""
  },
  {
    "id": "3972501153",
    "name": "特別養護老人ホーム望海の郷",
    "kana": "トクベツヨウゴロウジンホームノゾミノサト",
    "address": "高知県高岡郡中土佐町上ノ加江277番地10",
    "lat": 33.2742034,
    "lng": 133.2463096,
    "tel": "0889-40-2200",
    "url": "http://kadofukushikai.com/",
    "pref": "高知県",
    "city": "中土佐町",
    "category": "tokuyou",
    "serviceType": "介護老人福祉施設",
    "capacity": null,
    "openDays": [],
    "openDaysNote": ""
  },
  {
    "id": "3972500098",
    "name": "特別養護老人ホーム　葉山荘",
    "kana": "トクベツヨウゴロウジンホーム　ハヤマソウ",
    "address": "高知県高岡郡津野町姫野々４１７",
    "lat": 33.4395141,
    "lng": 133.2140474,
    "tel": "0889-55-2121",
    "url": "care-net.biz/39/hayamasou/",
    "pref": "高知県",
    "city": "津野町",
    "category": "tokuyou",
    "serviceType": "介護老人福祉施設",
    "capacity": null,
    "openDays": [],
    "openDaysNote": ""
  },
  {
    "id": "3972500080",
    "name": "特別養護老人ホーム高原荘",
    "kana": "トクベツヨウゴロウジンホウムコウゲンソウ",
    "address": "高岡郡津野町力石５０８２番地",
    "lat": 33.3942784,
    "lng": 133.0301687,
    "tel": "0889-62-2154",
    "url": "",
    "pref": "高知県",
    "city": "津野町",
    "category": "tokuyou",
    "serviceType": "介護老人福祉施設",
    "capacity": 0,
    "openDays": [],
    "openDaysNote": ""
  },
  {
    "id": "3970500025",
    "name": "土佐市特別養護老人ホームとさの里",
    "kana": "トサシトクベツヨウゴロウジンホームトサノサト",
    "address": "高知県土佐市高岡町甲1792番地2",
    "lat": 33.491981,
    "lng": 133.423156,
    "tel": "088-852-2200",
    "url": "https://tsjig.com",
    "pref": "高知県",
    "city": "土佐市",
    "category": "tokuyou",
    "serviceType": "介護老人福祉施設",
    "capacity": 124,
    "openDays": [],
    "openDaysNote": ""
  },
  {
    "id": "3970500660",
    "name": "特別養護老人ホームさくら",
    "kana": "トクベツヨウゴロウジンホームサクラ",
    "address": "高知県土佐市高岡町甲９６９番地１",
    "lat": 33.4952027,
    "lng": 133.429136,
    "tel": "088-855-5403",
    "url": "https://wwww.sakura-anzu.com/",
    "pref": "高知県",
    "city": "土佐市",
    "category": "tokuyou",
    "serviceType": "介護老人福祉施設",
    "capacity": 60,
    "openDays": [],
    "openDaysNote": ""
  },
  {
    "id": "3970800029",
    "name": "特別養護老人ホームしおさい",
    "kana": "トクベツヨウゴロウジンホームシオサイ",
    "address": "高知県土佐清水市以布利８３番地５",
    "lat": 32.8036772,
    "lng": 132.961407,
    "tel": "0880-82-8319",
    "url": "http://www.city.tosashimizu.kochi.jp",
    "pref": "高知県",
    "city": "土佐清水市",
    "category": "tokuyou",
    "serviceType": "介護老人福祉施設",
    "capacity": 100,
    "openDays": [],
    "openDaysNote": ""
  },
  {
    "id": "3972300028",
    "name": "特別養護老人ホーム　トキワ苑",
    "kana": "トクベツヨウゴロウジンホーム　トキワエン",
    "address": "高知県土佐郡土佐町田井１３７７－２９",
    "lat": 33.7463659,
    "lng": 133.5570368,
    "tel": "0887-82-2741",
    "url": "https://www.tokiwaen-k.or.jp/",
    "pref": "高知県",
    "city": "土佐町",
    "category": "tokuyou",
    "serviceType": "介護老人福祉施設",
    "capacity": 0,
    "openDays": [],
    "openDaysNote": ""
  },
  {
    "id": "3972500049",
    "name": "特別養護老人ホーム　梼原ふじの家",
    "kana": "トクベツヨウゴロウジンホームユスハラフジノイエ",
    "address": "高岡郡梼原町広野６３６番地４",
    "lat": 33.3987200976596,
    "lng": 132.897820863754,
    "tel": "0889-65-0070",
    "url": "http://www.karusutokai.or.jp/newpage4.html",
    "pref": "高知県",
    "city": "梼原町",
    "category": "tokuyou",
    "serviceType": "介護老人福祉施設",
    "capacity": 80,
    "openDays": [],
    "openDaysNote": ""
  },
  {
    "id": "3972000032",
    "name": "特別養護老人ホーム　愛光園",
    "kana": "トクベツヨウゴロウジンホーム　アイコウエン",
    "address": "高知県安芸郡奈半利町乙４７８番地１",
    "lat": 33.420979,
    "lng": 134.028662,
    "tel": "0887-38-3101",
    "url": "https://care-net.biz/39/aikouen/",
    "pref": "高知県",
    "city": "奈半利町",
    "category": "tokuyou",
    "serviceType": "介護老人福祉施設",
    "capacity": 0,
    "openDays": [],
    "openDaysNote": ""
  },
  {
    "id": "3970400051",
    "name": "特別養護老人ホーム　白銀荘",
    "kana": "トクベツヨウゴロウジンホーム　ハクギンソウ",
    "address": "高知県南国市大埇乙1072-1",
    "lat": 33.5659441,
    "lng": 133.6501091,
    "tel": "088-864-1010",
    "url": "http://www.toujukai.jp/",
    "pref": "高知県",
    "city": "南国市",
    "category": "tokuyou",
    "serviceType": "介護老人福祉施設",
    "capacity": 0,
    "openDays": [],
    "openDaysNote": ""
  },
  {
    "id": "3970400036",
    "name": "特別養護老人ホーム　陽だまりの里",
    "kana": "トクベツヨウゴロウジンホーム　ヒダマリノサト",
    "address": "高知県南国市岡豊町中島1535番地",
    "lat": 33.5904046,
    "lng": 133.6155621,
    "tel": "088-866-0288",
    "url": "http://f-shizenmura.or.jp",
    "pref": "高知県",
    "city": "南国市",
    "category": "tokuyou",
    "serviceType": "介護老人福祉施設",
    "capacity": 0,
    "openDays": [],
    "openDaysNote": ""
  },
  {
    "id": "3970400671",
    "name": "特別養護老人ホームたちばなの里",
    "kana": "トクベツヨウゴロウジンホーム　タチバナノサト",
    "address": "高知県南国市下野田45番1",
    "lat": 33.5756681,
    "lng": 133.6505174,
    "tel": "088-864-0900",
    "url": "",
    "pref": "高知県",
    "city": "南国市",
    "category": "tokuyou",
    "serviceType": "介護老人福祉施設",
    "capacity": 0,
    "openDays": [],
    "openDaysNote": ""
  },
  {
    "id": "3970400044",
    "name": "特別養護老人ホーム土佐清風園",
    "kana": "トクベツヨウゴロウジンホームトサセイフウエン",
    "address": "高知県南国市岡豊町小篭３５９－１",
    "lat": 33.5782671,
    "lng": 133.6256525,
    "tel": "088-863-2551",
    "url": "http://www.tosaseifukai.com/",
    "pref": "高知県",
    "city": "南国市",
    "category": "tokuyou",
    "serviceType": "介護老人福祉施設",
    "capacity": 80,
    "openDays": [],
    "openDaysNote": ""
  },
  {
    "id": "3972500189",
    "name": "特別養護老人ホーム　コスモスの里",
    "kana": "トクベツヨウゴロウジンホーム　コスモスノサト",
    "address": "高知県高岡郡日高村沖名１番地",
    "lat": 33.5315600398499,
    "lng": 133.373784952779,
    "tel": "0889-20-1616",
    "url": "syuoukai.jp",
    "pref": "高知県",
    "city": "日高村",
    "category": "tokuyou",
    "serviceType": "介護老人福祉施設",
    "capacity": 0,
    "openDays": [],
    "openDaysNote": ""
  },
  {
    "id": "3972200178",
    "name": "特別養護老人ホーム　そよ風",
    "kana": "トクベツヨウゴロウジンホーム　ソヨカゼ",
    "address": "高知県長岡郡本山町978番地2",
    "lat": 33.7571067,
    "lng": 133.5914122,
    "tel": "0887-76-2261",
    "url": "https://www.kounankai.jp",
    "pref": "高知県",
    "city": "本山町",
    "category": "tokuyou",
    "serviceType": "介護老人福祉施設",
    "capacity": 0,
    "openDays": [],
    "openDaysNote": ""
  }
]