[
  {
    "id": "3171100039",
    "name": "岩井あすなろ",
    "kana": "イワイアスナロ",
    "address": "鳥取県岩美郡岩美町宇治１０３４",
    "lat": 35.557615,
    "lng": 134.3607795,
    "tel": "0857-72-3571",
    "url": "http://www.t-asunaro.or.jp",
    "pref": "鳥取県",
    "city": "岩美町",
    "category": "tokuyou",
    "serviceType": "介護老人福祉施設",
    "capacity": 0,
    "openDays": [],
    "openDaysNote": ""
  },
  {
    "id": "3171100161",
    "name": "岩井あすなろ",
    "kana": "イワイアスナロ",
    "address": "鳥取県岩美郡岩美町宇治１０３４",
    "lat": 35.557615,
    "lng": 134.3607795,
    "tel": "0857-72-3571",
    "url": "http://www.t-asunaro.or.jp",
    "pref": "鳥取県",
    "city": "岩美町",
    "category": "tokuyou",
    "serviceType": "介護老人福祉施設",
    "capacity": 0,
    "openDays": [],
    "openDaysNote": ""
  },
  {
    "id": "3170400018",
    "name": "介護老人福祉施設　さかい幸朋苑",
    "kana": "カイゴロウジンフクシシセツ　サカイコウホウエン",
    "address": "鳥取県境港市誠道町2083番地",
    "lat": 35.5185576,
    "lng": 133.2353198,
    "tel": "0859-45-6781",
    "url": "http://www.kohoen.jp",
    "pref": "鳥取県",
    "city": "境港市",
    "category": "tokuyou",
    "serviceType": "介護老人福祉施設",
    "capacity": 90,
    "openDays": [],
    "openDaysNote": ""
  },
  {
    "id": "3170400281",
    "name": "介護老人福祉施設　新さかい幸朋苑",
    "kana": "カイゴロウジンフクシシセツ　シンサカイコウホウエン",
    "address": "鳥取県境港市上道町2053番地1",
    "lat": 35.5425775,
    "lng": 133.2396995,
    "tel": "0859-47-6511",
    "url": "http://www.kohoen.jp",
    "pref": "鳥取県",
    "city": "境港市",
    "category": "tokuyou",
    "serviceType": "介護老人福祉施設",
    "capacity": 64,
    "openDays": [],
    "openDaysNote": ""
  },
  {
    "id": "3171400033",
    "name": "介護老人福祉施設　みどり園",
    "kana": "カイゴロウジンフクシシセツミドリエン",
    "address": "鳥取県東伯郡琴浦町八橋1937番地",
    "lat": 35.5024188809687,
    "lng": 133.664696820763,
    "tel": "0858-53-2820",
    "url": "http://hp1.tcbnet.ne.jp/~midori/",
    "pref": "鳥取県",
    "city": "琴浦町",
    "category": "tokuyou",
    "serviceType": "介護老人福祉施設",
    "capacity": 90,
    "openDays": [],
    "openDaysNote": ""
  },
  {
    "id": "3171400041",
    "name": "介護老人福祉施設　百寿苑",
    "kana": "カイゴロウジンフクシシセツヒャクジュエン",
    "address": "鳥取県東伯郡琴浦町赤碕１０６１－３",
    "lat": 35.5174898,
    "lng": 133.6320078,
    "tel": "0858-55-2051",
    "url": "http://www.hyakujyuen.jp/",
    "pref": "鳥取県",
    "city": "琴浦町",
    "category": "tokuyou",
    "serviceType": "介護老人福祉施設",
    "capacity": 50,
    "openDays": [],
    "openDaysNote": ""
  },
  {
    "id": "3171600046",
    "name": "特別養護老人ホーム江美の郷",
    "kana": "トクベツヨウゴロウジンホームエミノサト",
    "address": "鳥取県日野郡江府町大字久連７番地",
    "lat": 35.281851,
    "lng": 133.483059,
    "tel": "0859-75-3626",
    "url": "http://www.syoujin.or.jp",
    "pref": "鳥取県",
    "city": "江府町",
    "category": "tokuyou",
    "serviceType": "介護老人福祉施設",
    "capacity": 50,
    "openDays": [],
    "openDaysNote": ""
  },
  {
    "id": "3171400025",
    "name": "三朝温泉三喜苑　介護老人福祉施設",
    "kana": "ミササオンセンサンキエン　カイゴロウジンフクシシセツ",
    "address": "鳥取県東伯郡三朝町横手３９６番地",
    "lat": 35.4105021,
    "lng": 133.8771048,
    "tel": "0858-43-3322",
    "url": "http://www.sankien.jp",
    "pref": "鳥取県",
    "city": "三朝町",
    "category": "tokuyou",
    "serviceType": "介護老人福祉施設",
    "capacity": 0,
    "openDays": [],
    "openDaysNote": ""
  },
  {
    "id": "3171200128",
    "name": "わかさ・あすなろ",
    "kana": "ワカサ・アスナロ",
    "address": "鳥取県八頭郡若桜町若桜１２３８",
    "lat": 35.3476801,
    "lng": 134.3933336,
    "tel": "0858-82-5151",
    "url": "http//:www.t-asunaro.or.jp",
    "pref": "鳥取県",
    "city": "若桜町",
    "category": "tokuyou",
    "serviceType": "介護老人福祉施設",
    "capacity": 0,
    "openDays": [],
    "openDaysNote": ""
  },
  {
    "id": "3170300903",
    "name": "ユニット型　ル・ソラリオン",
    "kana": "ユニットガタ　ル・ソラリオン",
    "address": "鳥取県倉吉市山根55番地3",
    "lat": 35.4525693,
    "lng": 133.8585745,
    "tel": "0858－26－0115",
    "url": "https://www.med‐wel.jp",
    "pref": "鳥取県",
    "city": "倉吉市",
    "category": "tokuyou",
    "serviceType": "介護老人福祉施設",
    "capacity": 100,
    "openDays": [],
    "openDaysNote": ""
  },
  {
    "id": "3170300036",
    "name": "ル・ソラリオン",
    "kana": "ル・ソラリオン",
    "address": "鳥取県倉吉市山根５５番地３",
    "lat": 35.4525693,
    "lng": 133.8585745,
    "tel": "0858-26-0115",
    "url": "https://www.med-wel.jp/",
    "pref": "鳥取県",
    "city": "倉吉市",
    "category": "tokuyou",
    "serviceType": "介護老人福祉施設",
    "capacity": 35,
    "openDays": [],
    "openDaysNote": ""
  },
  {
    "id": "3170300044",
    "name": "倉吉スターロイヤル",
    "kana": "クラヨシスターロイヤル",
    "address": "鳥取県倉吉市福守町433",
    "lat": 35.4358725,
    "lng": 133.8052298,
    "tel": "0858-28-6318",
    "url": "https://minorifukusikai.com/",
    "pref": "鳥取県",
    "city": "倉吉市",
    "category": "tokuyou",
    "serviceType": "介護老人福祉施設",
    "capacity": 59,
    "openDays": [],
    "openDaysNote": ""
  },
  {
    "id": "3171500170",
    "name": "介護老人福祉施設ル・ソラリオン名和",
    "kana": "カイゴロウジンフクシシセツル・ソラリオンナワ",
    "address": "鳥取県西伯郡大山町西坪５２０番地１",
    "lat": 35.5143925,
    "lng": 133.5010836,
    "tel": "0859-54-6500",
    "url": "https://www.med-wel.jp",
    "pref": "鳥取県",
    "city": "大山町",
    "category": "tokuyou",
    "serviceType": "介護老人福祉施設",
    "capacity": 70,
    "openDays": [],
    "openDaysNote": ""
  },
  {
    "id": "3171500527",
    "name": "特別養護老人ホーム　大山やすらぎの里",
    "kana": "トクベツヨウゴロウジンホーム　ダイセンヤスラギノサト",
    "address": "鳥取県西伯郡大山町唐王２０８",
    "lat": 35.4807484000003,
    "lng": 133.454600593918,
    "tel": "0859-39-5555",
    "url": "https://keiaikai-daisen.com",
    "pref": "鳥取県",
    "city": "大山町",
    "category": "tokuyou",
    "serviceType": "介護老人福祉施設",
    "capacity": 57,
    "openDays": [],
    "openDaysNote": ""
  },
  {
    "id": "3171200201",
    "name": "智頭町立智頭心和苑",
    "kana": "チヅチョウリツチヅシンワエン",
    "address": "鳥取県八頭郡智頭町大字智頭１８７５番地",
    "lat": 35.2635228,
    "lng": 134.2241069,
    "tel": "0858-75-2717",
    "url": "",
    "pref": "鳥取県",
    "city": "智頭町",
    "category": "tokuyou",
    "serviceType": "介護老人福祉施設",
    "capacity": 0,
    "openDays": [],
    "openDaysNote": ""
  },
  {
    "id": "3170101913",
    "name": "いこいの杜",
    "kana": "イコイノモリ",
    "address": "鳥取県鳥取市湖山町西3丁目113－1",
    "lat": 35.5246041054423,
    "lng": 134.153915218912,
    "tel": "0857-32-0151",
    "url": "http://www.tottori-kousei.jp/gaiyou.html",
    "pref": "鳥取県",
    "city": "鳥取市",
    "category": "tokuyou",
    "serviceType": "介護老人福祉施設",
    "capacity": 0,
    "openDays": [],
    "openDaysNote": ""
  },
  {
    "id": "3170101301",
    "name": "ふしの白寿苑",
    "kana": "フシノハクジュエン",
    "address": "鳥取県鳥取市伏野1771-36",
    "lat": 35.5229851150905,
    "lng": 134.147653207901,
    "tel": "0857-59-0108",
    "url": "http://www.tottori-kousei.jp/",
    "pref": "鳥取県",
    "city": "鳥取市",
    "category": "tokuyou",
    "serviceType": "介護老人福祉施設",
    "capacity": 70,
    "openDays": [],
    "openDaysNote": ""
  },
  {
    "id": "3171200037",
    "name": "河原あすなろ",
    "kana": "カワハラアスナロ",
    "address": "鳥取県鳥取市河原町今在家842番地",
    "lat": 35.4009157,
    "lng": 134.2170351,
    "tel": "0858-85-1411",
    "url": "http://t-asunaro.or.jp/",
    "pref": "鳥取県",
    "city": "鳥取市",
    "category": "tokuyou",
    "serviceType": "介護老人福祉施設",
    "capacity": 76,
    "openDays": [],
    "openDaysNote": ""
  },
  {
    "id": "3170102523",
    "name": "介護老人福祉施設　にしまち幸朋苑",
    "kana": "カイゴロウジンフクシシセツ　ニシマチコウホウエン",
    "address": "鳥取県鳥取市西町5丁目108",
    "lat": 35.5068124,
    "lng": 134.2329915,
    "tel": "0857-25-6517",
    "url": "http://www.kohoen.jp",
    "pref": "鳥取県",
    "city": "鳥取市",
    "category": "tokuyou",
    "serviceType": "介護老人福祉施設",
    "capacity": 30,
    "openDays": [],
    "openDaysNote": ""
  },
  {
    "id": "3170100550",
    "name": "介護老人福祉施設新いなば幸朋苑",
    "kana": "カイゴロウジンフクシシセツシンイナバコウホウエン",
    "address": "鳥取県鳥取市浜坂222-1",
    "lat": 35.524602,
    "lng": 134.226897,
    "tel": "0857-39-8665",
    "url": "http://www.kohoen.jp",
    "pref": "鳥取県",
    "city": "鳥取市",
    "category": "tokuyou",
    "serviceType": "介護老人福祉施設",
    "capacity": 0,
    "openDays": [],
    "openDaysNote": ""
  },
  {
    "id": "3171300035",
    "name": "気高あすなろ",
    "kana": "ケタカアスナロ",
    "address": "鳥取県鳥取市気高町八幡２６８",
    "lat": 35.5105715,
    "lng": 134.040356,
    "tel": "0857-82-3971",
    "url": "http://t-asunaro.or.jp/",
    "pref": "鳥取県",
    "city": "鳥取市",
    "category": "tokuyou",
    "serviceType": "介護老人福祉施設",
    "capacity": 0,
    "openDays": [],
    "openDaysNote": ""
  },
  {
    "id": "3170103216",
    "name": "健推庵こくふ",
    "kana": "ケンスイアンコクフ",
    "address": "鳥取県鳥取市国府町新通り2丁目202",
    "lat": 35.4816821,
    "lng": 134.2539153,
    "tel": "0857-50-1205",
    "url": "http://kensuikai.net/tokuyo_info.html",
    "pref": "鳥取県",
    "city": "鳥取市",
    "category": "tokuyou",
    "serviceType": "介護老人福祉施設",
    "capacity": 70,
    "openDays": [],
    "openDaysNote": ""
  },
  {
    "id": "3170100071",
    "name": "高草あすなろ",
    "kana": "タカクサアスナロ",
    "address": "鳥取県鳥取市大桷３３０番地",
    "lat": 35.4909798,
    "lng": 134.1814835,
    "tel": "0857-39-1800",
    "url": "http://www.t-asunaro.or.jp/",
    "pref": "鳥取県",
    "city": "鳥取市",
    "category": "tokuyou",
    "serviceType": "介護老人福祉施設",
    "capacity": 0,
    "openDays": [],
    "openDaysNote": ""
  },
  {
    "id": "3170102903",
    "name": "高草あすなろ",
    "kana": "タカクサアスナロ",
    "address": "鳥取県鳥取市大桷３３０番地",
    "lat": 35.4909798,
    "lng": 134.1814835,
    "tel": "0857-39-1800",
    "url": "http://www.t-asunaro.or.jp/",
    "pref": "鳥取県",
    "city": "鳥取市",
    "category": "tokuyou",
    "serviceType": "介護老人福祉施設",
    "capacity": 0,
    "openDays": [],
    "openDaysNote": ""
  },
  {
    "id": "3170100030",
    "name": "社会福祉法人あすなろ会　白兎あすなろ",
    "kana": "シャカイフクシホウジンアスナロカイ　ハクトアスナロ",
    "address": "鳥取県鳥取市白兎８番地",
    "lat": 35.5251082,
    "lng": 134.1195123,
    "tel": "0857-59-0111",
    "url": "http://www.t-asunaro.or.jp/",
    "pref": "鳥取県",
    "city": "鳥取市",
    "category": "tokuyou",
    "serviceType": "介護老人福祉施設",
    "capacity": 0,
    "openDays": [],
    "openDaysNote": ""
  },
  {
    "id": "3170103133",
    "name": "特別養護老人ホーム　のでらはまゆう",
    "kana": "トクベツヨウゴロウジンホーム　ノデラハマユウ",
    "address": "鳥取県鳥取市野寺67番地",
    "lat": 35.4720744,
    "lng": 134.2045317,
    "tel": "0857-51-8188",
    "url": "http:/www.hamayu.or.jp/",
    "pref": "鳥取県",
    "city": "鳥取市",
    "category": "tokuyou",
    "serviceType": "介護老人福祉施設",
    "capacity": 0,
    "openDays": [],
    "openDaysNote": ""
  },
  {
    "id": "3170102416",
    "name": "特別養護老人ホーム　はまゆう",
    "kana": "トクベツヨウゴロウジンホーム　ハマユウ",
    "address": "鳥取県鳥取市服部204番地1",
    "lat": 35.4748852,
    "lng": 134.2052843,
    "tel": "0857-51-7838",
    "url": "http://www.hamayu.or.jp/",
    "pref": "鳥取県",
    "city": "鳥取市",
    "category": "tokuyou",
    "serviceType": "介護老人福祉施設",
    "capacity": 0,
    "openDays": [],
    "openDaysNote": ""
  },
  {
    "id": "3171300100",
    "name": "特別養護老人ホームなりすな",
    "kana": "トクベツヨウゴロウジンホーム",
    "address": "鳥取県鳥取市青谷町善田２７－１",
    "lat": 35.5116258,
    "lng": 133.9974681,
    "tel": "0857-85-0117",
    "url": "https：//www.tottori-aofuku.jp",
    "pref": "鳥取県",
    "city": "鳥取市",
    "category": "tokuyou",
    "serviceType": "介護老人福祉施設",
    "capacity": 50,
    "openDays": [],
    "openDaysNote": ""
  },
  {
    "id": "3170102937",
    "name": "特別養護老人ホームなりすな",
    "kana": "トクベツヨウゴロウジンホーム",
    "address": "青谷町善田27-1",
    "lat": 35.5116258,
    "lng": 133.9974681,
    "tel": "0857-85-0117",
    "url": "https://www.tottori-aofuku.jp",
    "pref": "鳥取県",
    "city": "鳥取市",
    "category": "tokuyou",
    "serviceType": "介護老人福祉施設",
    "capacity": 36,
    "openDays": [],
    "openDaysNote": ""
  },
  {
    "id": "3170100220",
    "name": "特別養護老人ホーム若葉台",
    "kana": "トクベツヨウゴロウジンホームワカバダイ",
    "address": "鳥取県鳥取市若葉台南４丁目２番２７号",
    "lat": 35.4451282,
    "lng": 134.2691541,
    "tel": "0857-38-6666",
    "url": "http://www.tottorifukushikai.jp",
    "pref": "鳥取県",
    "city": "鳥取市",
    "category": "tokuyou",
    "serviceType": "介護老人福祉施設",
    "capacity": 96,
    "openDays": [],
    "openDaysNote": ""
  },
  {
    "id": "3170100063",
    "name": "美和あすなろ",
    "kana": "ミワアスナロ",
    "address": "鳥取県鳥取市赤子田４５１",
    "lat": 35.4316337,
    "lng": 134.200614,
    "tel": "0857-53-5721",
    "url": "http://t-asunaro.or.jp/index.shtml",
    "pref": "鳥取県",
    "city": "鳥取市",
    "category": "tokuyou",
    "serviceType": "介護老人福祉施設",
    "capacity": 82,
    "openDays": [],
    "openDaysNote": ""
  },
  {
    "id": "3171401056",
    "name": "湯梨浜はごろも苑",
    "kana": "ユリハマハゴロモエン",
    "address": "鳥取県東伯郡湯梨浜町上浅津４０７",
    "lat": 35.4787827049815,
    "lng": 133.878758586508,
    "tel": "0858-41-1701",
    "url": "http://www.tottori-kousei.jp/hagoromo.html",
    "pref": "鳥取県",
    "city": "湯梨浜町",
    "category": "tokuyou",
    "serviceType": "介護老人福祉施設",
    "capacity": 120,
    "openDays": [],
    "openDaysNote": ""
  },
  {
    "id": "3171500485",
    "name": "特別養護老人ホーム　ゆうらく",
    "kana": "トクベツヨウゴロウジンホーム　ユウラク",
    "address": "鳥取県西伯郡南部町落合480",
    "lat": 35.3352482905296,
    "lng": 133.332396712303,
    "tel": "0859-66-2253",
    "url": "yuraku-houki.net",
    "pref": "鳥取県",
    "city": "南部町",
    "category": "tokuyou",
    "serviceType": "介護老人福祉施設",
    "capacity": 96,
    "openDays": [],
    "openDaysNote": ""
  },
  {
    "id": "3171600277",
    "name": "特別養護老人ホーム　あかねの郷",
    "kana": "トクベツヨウゴロウジンホーム　アカネノサト",
    "address": "鳥取県日野郡日南町下石見２３１５番地",
    "lat": 35.1521569,
    "lng": 133.3302399,
    "tel": "0859-83-0842",
    "url": "http://www.n-akane.jp",
    "pref": "鳥取県",
    "city": "日南町",
    "category": "tokuyou",
    "serviceType": "介護老人福祉施設",
    "capacity": 90,
    "openDays": [],
    "openDaysNote": ""
  },
  {
    "id": "3171600319",
    "name": "特別養護老人ホームあいご",
    "kana": "トクベツヨウゴロウジンホームアイゴ",
    "address": "鳥取県日野郡日野町根雨７３０番地",
    "lat": 35.2362214198216,
    "lng": 133.44028971101,
    "tel": "0859-77-0777",
    "url": "http://www.nissyoukai.net/",
    "pref": "鳥取県",
    "city": "日野町",
    "category": "tokuyou",
    "serviceType": "介護老人福祉施設",
    "capacity": 49,
    "openDays": [],
    "openDaysNote": ""
  },
  {
    "id": "3171600202",
    "name": "特別養護老人ホーム　ことぶき",
    "kana": "トクベツヨウゴロウジンホーム　コトブキ",
    "address": "鳥取県西伯郡伯耆町長山１６１番地１",
    "lat": 35.3509842,
    "lng": 133.4349213,
    "tel": "0859-39-9700",
    "url": "",
    "pref": "鳥取県",
    "city": "伯耆町",
    "category": "tokuyou",
    "serviceType": "介護老人福祉施設",
    "capacity": 0,
    "openDays": [],
    "openDaysNote": ""
  },
  {
    "id": "3171200284",
    "name": "特別養護老人ホームすこやか",
    "kana": "トクベツヨウゴロウジンホームスコヤカ",
    "address": "鳥取県八頭郡八頭町宮谷１７４番地１",
    "lat": 35.4130265,
    "lng": 134.2564644,
    "tel": "0858-76-7601",
    "url": "http://yazu-sukoyaka.or.jp",
    "pref": "鳥取県",
    "city": "八頭町",
    "category": "tokuyou",
    "serviceType": "介護老人福祉施設",
    "capacity": 0,
    "openDays": [],
    "openDaysNote": ""
  },
  {
    "id": "3170201580",
    "name": "介護老人福祉施設　きんかい幸朋苑",
    "kana": "カイゴロウジンフクシシセツ　キンカイコウホウエン",
    "address": "鳥取県米子市錦海町3丁目5番15号",
    "lat": 35.4183366,
    "lng": 133.3193933,
    "tel": "0859-23-6800",
    "url": "http://www.kohoen.jp",
    "pref": "鳥取県",
    "city": "米子市",
    "category": "tokuyou",
    "serviceType": "介護老人福祉施設",
    "capacity": 30,
    "openDays": [],
    "openDaysNote": ""
  },
  {
    "id": "3170200053",
    "name": "介護老人福祉施設　なんぶ幸朋苑",
    "kana": "カイゴロウジンフクシシセツ　ナンブコウホウエン",
    "address": "鳥取県米子市石井1238番地",
    "lat": 35.4022552,
    "lng": 133.3514525,
    "tel": "0859-26-5566",
    "url": "http://www.kohoen.jp",
    "pref": "鳥取県",
    "city": "米子市",
    "category": "tokuyou",
    "serviceType": "介護老人福祉施設",
    "capacity": 80,
    "openDays": [],
    "openDaysNote": ""
  },
  {
    "id": "3170200046",
    "name": "介護老人福祉施設　よなご幸朋苑",
    "kana": "カイゴロウジンフクシシセツ　ヨナゴコウホウエン",
    "address": "鳥取県米子市上後藤　３丁目７番１号",
    "lat": 35.4475612,
    "lng": 133.3191281,
    "tel": "0859-30-0123",
    "url": "http://www.kohoen.jp",
    "pref": "鳥取県",
    "city": "米子市",
    "category": "tokuyou",
    "serviceType": "介護老人福祉施設",
    "capacity": 0,
    "openDays": [],
    "openDaysNote": ""
  },
  {
    "id": "3170200178",
    "name": "介護老人福祉施設　博愛苑",
    "kana": "カイゴロウジンフクシシセツ　ハクアイエン",
    "address": "鳥取県米子市一部555番地",
    "lat": 35.4068362,
    "lng": 133.3969261,
    "tel": "0859-37-1100",
    "url": "http://www.hakuaikai-smile.jp/",
    "pref": "鳥取県",
    "city": "米子市",
    "category": "tokuyou",
    "serviceType": "介護老人福祉施設",
    "capacity": 84,
    "openDays": [],
    "openDaysNote": ""
  },
  {
    "id": "3170200301",
    "name": "介護老人福祉施設ピースポート",
    "kana": "カイゴロウジンフクシシセツピースポート",
    "address": "鳥取県米子市大崎1511番地1",
    "lat": 35.4736494,
    "lng": 133.2530832,
    "tel": "0859-48-2332",
    "url": "http://www.hospitown.or.jp/",
    "pref": "鳥取県",
    "city": "米子市",
    "category": "tokuyou",
    "serviceType": "介護老人福祉施設",
    "capacity": 0,
    "openDays": [],
    "openDaysNote": ""
  },
  {
    "id": "3170201374",
    "name": "皆生みどり苑",
    "kana": "カイケミドリエン",
    "address": "鳥取県米子市皆生新田2丁目3-1",
    "lat": 35.4514591,
    "lng": 133.3676336,
    "tel": "0859-32-2500",
    "url": "https://www.tottori-kousei.jp/k-midori.html",
    "pref": "鳥取県",
    "city": "米子市",
    "category": "tokuyou",
    "serviceType": "介護老人福祉施設",
    "capacity": 0,
    "openDays": [],
    "openDaysNote": ""
  },
  {
    "id": "3171500287",
    "name": "特別養護老人ホーム　いずみの苑",
    "kana": "トクベツヨウゴロウジンホーム　イズミノソノ",
    "address": "鳥取県米子市淀江町淀江1075番地",
    "lat": 35.4573423,
    "lng": 133.4336321,
    "tel": "0859-56-6888",
    "url": "https://www.izuminosono.or.jp",
    "pref": "鳥取県",
    "city": "米子市",
    "category": "tokuyou",
    "serviceType": "介護老人福祉施設",
    "capacity": 74,
    "openDays": [],
    "openDaysNote": ""
  }
]