[
  {
    "id": "4672800028",
    "name": "特別養護老人ホーム　吹上園",
    "kana": "トクベツヨウゴロウジンホーム　フキアゲエン",
    "address": "いちき串木野市大里９９２番地",
    "lat": 31.6722776,
    "lng": 130.3156068,
    "tel": "０９９６－３６－３０６０",
    "url": "",
    "pref": "鹿児島県",
    "city": "いちき串木野市",
    "category": "tokuyou",
    "serviceType": "介護老人福祉施設",
    "capacity": 0,
    "openDays": [],
    "openDaysNote": ""
  },
  {
    "id": "4670500059",
    "name": "特別養護老人ホーム　潮風園",
    "kana": "トクベツヨウゴロウジンホーム　チョウフウエン",
    "address": "いちき串木野市別府３５７０番地",
    "lat": 31.6962373593321,
    "lng": 130.285035725795,
    "tel": "0996-32-5780",
    "url": "http://chofuen.terushima.com",
    "pref": "鹿児島県",
    "city": "いちき串木野市",
    "category": "tokuyou",
    "serviceType": "介護老人福祉施設",
    "capacity": 90,
    "openDays": [],
    "openDaysNote": ""
  },
  {
    "id": "4674100047",
    "name": "さつま園",
    "kana": "サツマエン",
    "address": "鹿児島県薩摩郡さつま町求名１３３４１番地１",
    "lat": 31.9176492,
    "lng": 130.5366062,
    "tel": "0996-57-0695",
    "url": "http://www.satsumaen.jp/",
    "pref": "鹿児島県",
    "city": "さつま町",
    "category": "tokuyou",
    "serviceType": "介護老人福祉施設",
    "capacity": 70,
    "openDays": [],
    "openDaysNote": ""
  },
  {
    "id": "4674000049",
    "name": "特別養護老人ホームアルテンハイム鶴宮園",
    "kana": "トクベツヨウゴロウジンホームアルテンハイムツルミヤエン",
    "address": "鹿児島県薩摩郡さつま町紫尾字下ノ原4077-1",
    "lat": 31.950887,
    "lng": 130.434928,
    "tel": "0996-59-8004",
    "url": "tsurumiyaen.jp/",
    "pref": "鹿児島県",
    "city": "さつま町",
    "category": "tokuyou",
    "serviceType": "介護老人福祉施設",
    "capacity": 0,
    "openDays": [],
    "openDaysNote": ""
  },
  {
    "id": "4673900058",
    "name": "特別養護老人ホームマモリエ",
    "kana": "トクベツヨウゴロウジンホームマモリエ",
    "address": "船木２３１５－１",
    "lat": 31.8739155,
    "lng": 130.4403263,
    "tel": "0996-53-0026",
    "url": "http://www.qoler.jp",
    "pref": "鹿児島県",
    "city": "さつま町",
    "category": "tokuyou",
    "serviceType": "介護老人福祉施設",
    "capacity": 0,
    "openDays": [],
    "openDaysNote": ""
  },
  {
    "id": "4670600057",
    "name": "特別養護老人ホーム桜ヶ丘荘",
    "kana": "トクベツヨウゴロウジンホームサクラガオカソウ",
    "address": "鹿児島県阿久根市赤瀬川265番地",
    "lat": 32.0254855,
    "lng": 130.2016588,
    "tel": "0996-73-0391",
    "url": "https://www.ohjin-kai.com",
    "pref": "鹿児島県",
    "city": "阿久根市",
    "category": "tokuyou",
    "serviceType": "介護老人福祉施設",
    "capacity": null,
    "openDays": [],
    "openDaysNote": ""
  },
  {
    "id": "4675200101",
    "name": "介護老人福祉施設　加治木望岳園",
    "kana": "カイゴロウジンフクシシセツ　カジキボウガクエン",
    "address": "鹿児島県姶良市加治木町木田４７００番地",
    "lat": 31.7501702,
    "lng": 130.6624964,
    "tel": "０９９５－６３－２１４５",
    "url": "http://bougakuen.jp",
    "pref": "鹿児島県",
    "city": "姶良市",
    "category": "tokuyou",
    "serviceType": "介護老人福祉施設",
    "capacity": 0,
    "openDays": [],
    "openDaysNote": ""
  },
  {
    "id": "4675300364",
    "name": "特別養護老人ホームマモリエあいら",
    "kana": "トクベツヨウゴロウジンホームマモリエアイラ",
    "address": "鹿児島県姶良市平松3360番地",
    "lat": 31.7197646,
    "lng": 130.5947221,
    "tel": "0995-67-8181",
    "url": "http://www.qoler.jp",
    "pref": "鹿児島県",
    "city": "姶良市",
    "category": "tokuyou",
    "serviceType": "介護老人福祉施設",
    "capacity": 100,
    "openDays": [],
    "openDaysNote": ""
  },
  {
    "id": "4674500865",
    "name": "特別養護老人ホームやすらぎの里",
    "kana": "トクベツヨウゴロウジンホームヤスラギノサト",
    "address": "鹿児島県姶良市下名2992番地",
    "lat": 31.7676758,
    "lng": 130.6190958,
    "tel": "0995-65-1641",
    "url": "https://www.aira-yasuragi.com/",
    "pref": "鹿児島県",
    "city": "姶良市",
    "category": "tokuyou",
    "serviceType": "介護老人福祉施設",
    "capacity": 0,
    "openDays": [],
    "openDaysNote": ""
  },
  {
    "id": "4675400057",
    "name": "特別養護老人ホーム大楠苑",
    "kana": "トクベツヨウゴロウジンホームオオクスエン",
    "address": "姶良市蒲生町白男325番地1",
    "lat": 31.7619634,
    "lng": 130.5671203,
    "tel": "0995-52-0118",
    "url": "ookusuen.com",
    "pref": "鹿児島県",
    "city": "姶良市",
    "category": "tokuyou",
    "serviceType": "介護老人福祉施設",
    "capacity": 55,
    "openDays": [],
    "openDaysNote": ""
  },
  {
    "id": "4670900044",
    "name": "ことぶき園",
    "kana": "コトブキエン",
    "address": "鹿児島県伊佐市大口青木3023番地14",
    "lat": 32.0575841,
    "lng": 130.6332813,
    "tel": "0995-22-2333",
    "url": "http://www.hayahito.com/",
    "pref": "鹿児島県",
    "city": "伊佐市",
    "category": "tokuyou",
    "serviceType": "介護老人福祉施設",
    "capacity": 0,
    "openDays": [],
    "openDaysNote": ""
  },
  {
    "id": "4675100020",
    "name": "特別養護老人ホーム　千鳥園",
    "kana": "トクベツヨウゴロウジンホーム　チドリエン",
    "address": "鹿児島県伊佐市菱刈徳辺２２０２番地１",
    "lat": 32.0083423,
    "lng": 130.6618754,
    "tel": "0995-26-0300",
    "url": "https://keimei.company-guide.jp",
    "pref": "鹿児島県",
    "city": "伊佐市",
    "category": "tokuyou",
    "serviceType": "介護老人福祉施設",
    "capacity": 80,
    "openDays": [],
    "openDaysNote": ""
  },
  {
    "id": "4679300089",
    "name": "特別養護老人ホーム仙寿の里",
    "kana": "トクベツヨウゴロウジンホームセンジュノサト",
    "address": "伊仙２５７１番地",
    "lat": 27.6724225,
    "lng": 128.9346316,
    "tel": "０９９７－８６－３１９１",
    "url": "http://www.t2.toku-vision.com/~isenn/",
    "pref": "鹿児島県",
    "city": "伊仙町",
    "category": "tokuyou",
    "serviceType": "介護老人福祉施設",
    "capacity": 0,
    "openDays": [],
    "openDaysNote": ""
  },
  {
    "id": "4678500036",
    "name": "特別養護老人ホーム　虹の園",
    "kana": "トクベツヨウゴロウジンホーム　ニジノソノ",
    "address": "鹿児島県大島郡宇検村字美長良須古2番地4",
    "lat": 28.2718401659119,
    "lng": 129.298626523557,
    "tel": "0997-67-2288",
    "url": "",
    "pref": "鹿児島県",
    "city": "宇検村",
    "category": "tokuyou",
    "serviceType": "介護老人福祉施設",
    "capacity": 50,
    "openDays": [],
    "openDaysNote": ""
  },
  {
    "id": "4670701244",
    "name": "奄美佳南園（ユニット型）",
    "kana": "アマミカナンエン（ユニットガタ）",
    "address": "鹿児島県奄美市名瀬平田町7番15号",
    "lat": 28.3635442,
    "lng": 129.5042403,
    "tel": "0997-52-8688",
    "url": "http://www.seirei.or.jp/elderlyhome/amami/",
    "pref": "鹿児島県",
    "city": "奄美市",
    "category": "tokuyou",
    "serviceType": "介護老人福祉施設",
    "capacity": 30,
    "openDays": [],
    "openDaysNote": ""
  },
  {
    "id": "4670700154",
    "name": "特別養護老人ホーム　めぐみの園",
    "kana": "トクベツヨウゴロウジンホーム　メグミノソノ",
    "address": "奄美市名瀬大字西仲勝９６５番地",
    "lat": 28.3245035,
    "lng": 129.5095244,
    "tel": "0997-54-9211",
    "url": "http://meguminosono.kobira07.info",
    "pref": "鹿児島県",
    "city": "奄美市",
    "category": "tokuyou",
    "serviceType": "介護老人福祉施設",
    "capacity": 50,
    "openDays": [],
    "openDaysNote": ""
  },
  {
    "id": "4670700071",
    "name": "特別養護老人ホーム　芦穂の里",
    "kana": "トクベツヨウゴロウジンホーム　アシホノサト",
    "address": "奄美市名瀬大字芦花部字不津1470番地",
    "lat": 28.4405795,
    "lng": 129.5419652,
    "tel": "0997-54-6001",
    "url": "",
    "pref": "鹿児島県",
    "city": "奄美市",
    "category": "tokuyou",
    "serviceType": "介護老人福祉施設",
    "capacity": 0,
    "openDays": [],
    "openDaysNote": ""
  },
  {
    "id": "4670700121",
    "name": "特別養護老人ホーム　奄美佳南園",
    "kana": "トクベツヨウゴロウジンホーム　アマミカナンエン",
    "address": "奄美市名瀬平田町７番１５号",
    "lat": 28.3635442,
    "lng": 129.5042403,
    "tel": "0997-52-8688",
    "url": "http://www.seirei.or.jp/elderlyhome/amami/",
    "pref": "鹿児島県",
    "city": "奄美市",
    "category": "tokuyou",
    "serviceType": "介護老人福祉施設",
    "capacity": 80,
    "openDays": [],
    "openDaysNote": ""
  },
  {
    "id": "4670700832",
    "name": "特別養護老人ホーム笠寿園",
    "kana": "トクベツヨウゴロウジンホームリュウジュエン",
    "address": "奄美市笠利町節田１５９０番地",
    "lat": 28.4131725,
    "lng": 129.6827803,
    "tel": "０９９７－６３－０４８８",
    "url": "",
    "pref": "鹿児島県",
    "city": "奄美市",
    "category": "tokuyou",
    "serviceType": "介護老人福祉施設",
    "capacity": 0,
    "openDays": [],
    "openDaysNote": ""
  },
  {
    "id": "4678700024",
    "name": "特別養護老人ホーム住用の園",
    "kana": "トクベツヨウゴロウジンホームスミヨウノソノ",
    "address": "鹿児島県奄美市住用町大字摺勝字俊勝袋４５１番３特別養護老人ホーム住用の園 特別養護老人ホーム住用の園",
    "lat": 28.2950506456263,
    "lng": 129.442015553412,
    "tel": "0997-56-2101",
    "url": "http://sumiyounosono.jp/",
    "pref": "鹿児島県",
    "city": "奄美市",
    "category": "tokuyou",
    "serviceType": "介護老人福祉施設",
    "capacity": 50,
    "openDays": [],
    "openDaysNote": ""
  },
  {
    "id": "4678200033",
    "name": "特別養護老人ホ－ム　縄文の郷",
    "kana": "トクベツヨウゴロウジンホ-ム　ジョウモンノサト",
    "address": "鹿児島県熊毛郡屋久島町宮之浦2458番地2",
    "lat": 30.4169355,
    "lng": 130.5865221,
    "tel": "0997-42-2820",
    "url": "ai-jyo@wonder.ocn.ne.jp",
    "pref": "鹿児島県",
    "city": "屋久島町",
    "category": "tokuyou",
    "serviceType": "介護老人福祉施設",
    "capacity": 0,
    "openDays": [],
    "openDaysNote": ""
  },
  {
    "id": "4678300031",
    "name": "特別養護老人ホーム　竜天園",
    "kana": "トクベツヨウゴロウジンホーム　リュウテンエン",
    "address": "鹿児島県熊毛郡屋久島町船行1068番地3",
    "lat": 30.3439064779277,
    "lng": 130.654675445496,
    "tel": "0997-46-3114",
    "url": "",
    "pref": "鹿児島県",
    "city": "屋久島町",
    "category": "tokuyou",
    "serviceType": "介護老人福祉施設",
    "capacity": 70,
    "openDays": [],
    "openDaysNote": ""
  },
  {
    "id": "4677400063",
    "name": "花神荘",
    "kana": "カシンソウ",
    "address": "肝属郡肝付町後田５３７５番地",
    "lat": 31.3327513,
    "lng": 130.92187,
    "tel": "0994-65-4738",
    "url": "",
    "pref": "鹿児島県",
    "city": "肝付町",
    "category": "tokuyou",
    "serviceType": "介護老人福祉施設",
    "capacity": null,
    "openDays": [],
    "openDaysNote": ""
  },
  {
    "id": "4677300024",
    "name": "特別養護老人ホーム銀河の里",
    "kana": "トクベツヨウゴロウジンホームギンガノサト",
    "address": "北方５８８番地",
    "lat": 31.2791437,
    "lng": 131.0551279,
    "tel": "0994-67-3312",
    "url": "ginganosato@po5.synapse.ne.jp",
    "pref": "鹿児島県",
    "city": "肝付町",
    "category": "tokuyou",
    "serviceType": "介護老人福祉施設",
    "capacity": 60,
    "openDays": [],
    "openDaysNote": ""
  },
  {
    "id": "4679000200",
    "name": "特別養護老人ホームオアシスケア喜界",
    "kana": "トクベツヨウゴロウジンホームオアシスケアキカイ",
    "address": "鹿児島県大島郡喜界町大字赤連69番",
    "lat": 28.3182504,
    "lng": 129.9425485,
    "tel": "0997-65-0294",
    "url": "http：//johsei.org/",
    "pref": "鹿児島県",
    "city": "喜界町",
    "category": "tokuyou",
    "serviceType": "介護老人福祉施設",
    "capacity": 80,
    "openDays": [],
    "openDaysNote": ""
  },
  {
    "id": "4677600043",
    "name": "特別養護老人ホーム青山荘",
    "kana": "トクベツヨウゴロウジンホームセイザンソウ",
    "address": "鹿児島県肝属郡錦江町城元３７２４－１",
    "lat": 31.2535296,
    "lng": 130.8090572,
    "tel": "０９９４－２２－３３８８",
    "url": "http://www.k-seizanso.jp",
    "pref": "鹿児島県",
    "city": "錦江町",
    "category": "tokuyou",
    "serviceType": "介護老人福祉施設",
    "capacity": 78,
    "openDays": [],
    "openDaysNote": ""
  },
  {
    "id": "4677800031",
    "name": "特別養護老人ホーム南松園",
    "kana": "トクベツヨウゴロウジンホームナンショウエン",
    "address": "肝属郡錦江町田代川原369番地",
    "lat": 31.1905602,
    "lng": 130.8358487,
    "tel": "0994-25-2174",
    "url": "http://nansyouen.jp",
    "pref": "鹿児島県",
    "city": "錦江町",
    "category": "tokuyou",
    "serviceType": "介護老人福祉施設",
    "capacity": 0,
    "openDays": [],
    "openDaysNote": ""
  },
  {
    "id": "4670201013",
    "name": "薩摩川内市社会福祉協議会特別養護老人ホーム甑島敬老園",
    "kana": "サツマセンダイシシャカイフクシキョウギカイトクベツヨウゴロウジンホームコシキシマケイロウエン",
    "address": "鹿児島県薩摩川内市下甑町長浜1185番地2",
    "lat": 31.7061877,
    "lng": 129.7389829,
    "tel": "09969-5-0070",
    "url": "",
    "pref": "鹿児島県",
    "city": "薩摩川内市",
    "category": "tokuyou",
    "serviceType": "介護老人福祉施設",
    "capacity": 0,
    "openDays": [],
    "openDaysNote": ""
  },
  {
    "id": "4673600021",
    "name": "特別養護老人ホーム　　翠泉苑",
    "kana": "トクベツヨウゴロウジンホーム　　スイセンエン",
    "address": "鹿児島県薩摩川内市樋脇町市比野3200番地118",
    "lat": 31.7870434,
    "lng": 130.3949636,
    "tel": "0996-38-1515",
    "url": "http://ichihuku.jp/index.html",
    "pref": "鹿児島県",
    "city": "薩摩川内市",
    "category": "tokuyou",
    "serviceType": "介護老人福祉施設",
    "capacity": 0,
    "openDays": [],
    "openDaysNote": ""
  },
  {
    "id": "4674400025",
    "name": "特別養護老人ホーム　こしき園",
    "kana": "トクベツヨウゴロウジンホーム　コシキエン",
    "address": "鹿児島県薩摩川内市上甑町中甑1236番地特別養護老人ホーム　こしき園 特別養護老人ホーム　こしき園",
    "lat": 31.8402745,
    "lng": 129.8594585,
    "tel": "09969-2-0100",
    "url": "",
    "pref": "鹿児島県",
    "city": "薩摩川内市",
    "category": "tokuyou",
    "serviceType": "介護老人福祉施設",
    "capacity": 0,
    "openDays": [],
    "openDaysNote": ""
  },
  {
    "id": "4671501395",
    "name": "特別養護老人ホーム　つきみ園",
    "kana": "トクベツヨウゴロウジンホーム　ツキミエン",
    "address": "薩摩川内市祁答院町上手５００番地８",
    "lat": 31.8671212,
    "lng": 130.5144371,
    "tel": "０９９６－２１－８８８８",
    "url": "http://www.mikurakai.or.jp",
    "pref": "鹿児島県",
    "city": "薩摩川内市",
    "category": "tokuyou",
    "serviceType": "介護老人福祉施設",
    "capacity": 0,
    "openDays": [],
    "openDaysNote": ""
  },
  {
    "id": "4673800035",
    "name": "特別養護老人ホーム　とうごう苑",
    "kana": "トクベツヨウゴロウジンホーム　トウゴウエン",
    "address": "薩摩川内市東郷町斧渕２５０１番地",
    "lat": 31.857005,
    "lng": 130.3629741,
    "tel": "0996-42-2111",
    "url": "http://tougouen.jp",
    "pref": "鹿児島県",
    "city": "薩摩川内市",
    "category": "tokuyou",
    "serviceType": "介護老人福祉施設",
    "capacity": 0,
    "openDays": [],
    "openDaysNote": ""
  },
  {
    "id": "4670201047",
    "name": "特別養護老人ホーム　やしの実",
    "kana": "トクベツヨウゴロウジンホーム　ヤシノミ",
    "address": "勝目町4174番1特別養護老人ホームやしの実 特別養護老人ホームやしの実",
    "lat": 31.786093088965,
    "lng": 130.314568120207,
    "tel": "0996-25-8403",
    "url": "https://yasinomi.jp/",
    "pref": "鹿児島県",
    "city": "薩摩川内市",
    "category": "tokuyou",
    "serviceType": "介護老人福祉施設",
    "capacity": 70,
    "openDays": [],
    "openDaysNote": ""
  },
  {
    "id": "4670200189",
    "name": "特別養護老人ホーム　幸せの里",
    "kana": "トクベツヨウゴロウジンホーム　シアワセノサト",
    "address": "永利町4311番地5",
    "lat": 31.8017112,
    "lng": 130.3527052,
    "tel": "0996-27-1110",
    "url": "http://shiawase-aiwakai.com",
    "pref": "鹿児島県",
    "city": "薩摩川内市",
    "category": "tokuyou",
    "serviceType": "介護老人福祉施設",
    "capacity": 0,
    "openDays": [],
    "openDaysNote": ""
  },
  {
    "id": "4670200163",
    "name": "特別養護老人ホーム　白寿園",
    "kana": "トクベツヨウゴロウジンホーム　ハクジュエン",
    "address": "鹿児島県薩摩川内市中福良町字集2911番地1特別養護老人ホーム　白寿園 特別養護老人ホーム　白寿園",
    "lat": 31.7865915,
    "lng": 130.2953794,
    "tel": "0996-23-4488",
    "url": "https://hakujyuen.info",
    "pref": "鹿児島県",
    "city": "薩摩川内市",
    "category": "tokuyou",
    "serviceType": "介護老人福祉施設",
    "capacity": 65,
    "openDays": [],
    "openDaysNote": ""
  },
  {
    "id": "4674200037",
    "name": "特別養護老人ホームのぞみ園",
    "kana": "トクベツヨウゴロウジンホームノゾミエン",
    "address": "鹿児島県薩摩川内市祁答院町藺牟田2153番地1",
    "lat": 31.8094071,
    "lng": 130.4846949,
    "tel": "0996-56-0360",
    "url": "http://tokuyou-nozomien-1974.jp",
    "pref": "鹿児島県",
    "city": "薩摩川内市",
    "category": "tokuyou",
    "serviceType": "介護老人福祉施設",
    "capacity": 90,
    "openDays": [],
    "openDaysNote": ""
  },
  {
    "id": "4670200197",
    "name": "特別養護老人ホームはまかぜ園",
    "kana": "トクベツヨウゴロウジンホームハマカゼエン",
    "address": "薩摩川内市西方町３１１１番地",
    "lat": 31.9155673,
    "lng": 130.2345548,
    "tel": "0996-28-1010",
    "url": "http://www.hamakazeen.com",
    "pref": "鹿児島県",
    "city": "薩摩川内市",
    "category": "tokuyou",
    "serviceType": "介護老人福祉施設",
    "capacity": 50,
    "openDays": [],
    "openDaysNote": ""
  },
  {
    "id": "4671500637",
    "name": "特別養護老人ホーム幸せの里（ユニット型）",
    "kana": "トクベツヨウ",
    "address": "永利町4311番地5",
    "lat": 31.8017112,
    "lng": 130.3527052,
    "tel": "0996-27-1110",
    "url": "http://shiawase-aiwakai.com/service/tokuyou/unit/",
    "pref": "鹿児島県",
    "city": "薩摩川内市",
    "category": "tokuyou",
    "serviceType": "介護老人福祉施設",
    "capacity": 40,
    "openDays": [],
    "openDaysNote": ""
  },
  {
    "id": "4674300050",
    "name": "特別養護老人ホーム寿里苑",
    "kana": "トクベツヨウゴロウジンホームジュリエン",
    "address": "鹿児島県薩摩川内市里町里1621-1",
    "lat": 31.8431398,
    "lng": 129.9182013,
    "tel": "09969-6-3820",
    "url": "",
    "pref": "鹿児島県",
    "city": "薩摩川内市",
    "category": "tokuyou",
    "serviceType": "介護老人福祉施設",
    "capacity": 30,
    "openDays": [],
    "openDaysNote": ""
  },
  {
    "id": "4671501411",
    "name": "特別養護老人ホーム仁合院",
    "kana": "トクベツヨウゴロウジンホーム　ニゴウイン",
    "address": "鹿児島県薩摩川内市田崎町630番地3",
    "lat": 31.8193117,
    "lng": 130.3290477,
    "tel": "0996-21-1515",
    "url": "ichihuku.jp",
    "pref": "鹿児島県",
    "city": "薩摩川内市",
    "category": "tokuyou",
    "serviceType": "介護老人福祉施設",
    "capacity": 50,
    "openDays": [],
    "openDaysNote": ""
  },
  {
    "id": "4673700037",
    "name": "特別養護老人ホーム博愛園",
    "kana": "トクベツヨウゴロウジンホームハクアイエン",
    "address": "鹿児島県薩摩川内市入来町浦之名695番地",
    "lat": 31.7999405,
    "lng": 130.4297188,
    "tel": "0996-44-2766",
    "url": "",
    "pref": "鹿児島県",
    "city": "薩摩川内市",
    "category": "tokuyou",
    "serviceType": "介護老人福祉施設",
    "capacity": 0,
    "openDays": [],
    "openDaysNote": ""
  },
  {
    "id": "4670200171",
    "name": "特別養護老人ホーム福和園",
    "kana": "トクベツヨウゴロウジンホームフクワエン",
    "address": "鹿児島県薩摩川内市御陵下町２９番５０号",
    "lat": 31.835470507793,
    "lng": 130.291598001189,
    "tel": "0996－25－3273",
    "url": "",
    "pref": "鹿児島県",
    "city": "薩摩川内市",
    "category": "tokuyou",
    "serviceType": "介護老人福祉施設",
    "capacity": 0,
    "openDays": [],
    "openDaysNote": ""
  },
  {
    "id": "4676700034",
    "name": "やっちく",
    "kana": "ヤッチク",
    "address": "志布志市松山町泰野字松ヶ迫1111番地",
    "lat": 31.5746788143118,
    "lng": 131.081460063399,
    "tel": "099-487-8188",
    "url": "https://yattikukai.or.jp/",
    "pref": "鹿児島県",
    "city": "志布志市",
    "category": "tokuyou",
    "serviceType": "介護老人福祉施設",
    "capacity": 0,
    "openDays": [],
    "openDaysNote": ""
  },
  {
    "id": "4676900048",
    "name": "特別養護老人ホーム　小松の里",
    "kana": "トクベツヨウゴロウジンホーム　コマツノサト",
    "address": "鹿児島県志布志市有明町野井倉２００６番地１",
    "lat": 31.4969806,
    "lng": 131.0405393,
    "tel": "099-474-0808",
    "url": "http:/kinseikai.jp/",
    "pref": "鹿児島県",
    "city": "志布志市",
    "category": "tokuyou",
    "serviceType": "介護老人福祉施設",
    "capacity": 0,
    "openDays": [],
    "openDaysNote": ""
  },
  {
    "id": "4671000075",
    "name": "特別養護老人ホーム　湯之里園",
    "kana": "トクベツヨウゴロウジンホーム　ユノサトエン",
    "address": "東方８２８番地ロ",
    "lat": 31.249723,
    "lng": 130.6208103,
    "tel": "0993-22-4149",
    "url": "http://www.kinkoukai.jp/",
    "pref": "鹿児島県",
    "city": "指宿市",
    "category": "tokuyou",
    "serviceType": "介護老人福祉施設",
    "capacity": 0,
    "openDays": [],
    "openDaysNote": ""
  },
  {
    "id": "4672000041",
    "name": "特別養護老人ホーム　徳光苑",
    "kana": "トクベツヨウゴロウジンホーム　トッコウエン",
    "address": "鹿児島県指宿市山川岡児ヶ水1212番地1",
    "lat": 31.1731151,
    "lng": 130.575657,
    "tel": "0993-35-0220",
    "url": "http://www.tokkoen.or.jp",
    "pref": "鹿児島県",
    "city": "指宿市",
    "category": "tokuyou",
    "serviceType": "介護老人福祉施設",
    "capacity": 0,
    "openDays": [],
    "openDaysNote": ""
  },
  {
    "id": "4672200021",
    "name": "特別養護老人ホーム薩摩富士荘",
    "kana": "トクベツヨウゴロウジンホームサツマフジソウ",
    "address": "開聞仙田６５２９番地１",
    "lat": 31.1983656,
    "lng": 130.5397482,
    "tel": "0993-32-4000",
    "url": "http://k-yuwakai.jp/",
    "pref": "鹿児島県",
    "city": "指宿市",
    "category": "tokuyou",
    "serviceType": "介護老人福祉施設",
    "capacity": 0,
    "openDays": [],
    "openDaysNote": ""
  },
  {
    "id": "4677100051",
    "name": "以和貴苑指定介護老人福祉施設",
    "kana": "イワキエンシテイカイゴロウジンフクシシセツ",
    "address": "鹿児島県鹿屋市串良町細山田5902番地3",
    "lat": 31.4498859,
    "lng": 130.890633,
    "tel": "0994-62-2430",
    "url": "http://iwakikai.org",
    "pref": "鹿児島県",
    "city": "鹿屋市",
    "category": "tokuyou",
    "serviceType": "介護老人福祉施設",
    "capacity": 0,
    "openDays": [],
    "openDaysNote": ""
  },
  {
    "id": "4670300237",
    "name": "花岡の里",
    "kana": "ハナオカノサト",
    "address": "鹿屋市花岡町３９７９番地１",
    "lat": 31.4093696,
    "lng": 130.7806761,
    "tel": "0994-46-5050",
    "url": "http://hanaokanosato.jp/",
    "pref": "鹿児島県",
    "city": "鹿屋市",
    "category": "tokuyou",
    "serviceType": "介護老人福祉施設",
    "capacity": 70,
    "openDays": [],
    "openDaysNote": ""
  },
  {
    "id": "4676400064",
    "name": "介護老人福祉施設　グリーンバード",
    "kana": "カイゴロウジンフクシシセツ　グリーンバード",
    "address": "輝北町市成2121番地3介護老人福祉施設　グリーンバード 介護老人福祉施設　グリーンバード",
    "lat": 31.586378,
    "lng": 130.8620087,
    "tel": "099-485-1902",
    "url": "http://shuhokai.info",
    "pref": "鹿児島県",
    "city": "鹿屋市",
    "category": "tokuyou",
    "serviceType": "介護老人福祉施設",
    "capacity": 50,
    "openDays": [],
    "openDaysNote": ""
  },
  {
    "id": "4670300617",
    "name": "特別養護老人ホーム　悠々",
    "kana": "トクベツヨウゴロウジンホーム　ユウユウ",
    "address": "鹿児島県鹿屋市大浦町１４０２８番６",
    "lat": 31.4039701,
    "lng": 130.8427828,
    "tel": "０９９４－４２－０８０８",
    "url": "http://www.fk-yuyu.net",
    "pref": "鹿児島県",
    "city": "鹿屋市",
    "category": "tokuyou",
    "serviceType": "介護老人福祉施設",
    "capacity": 0,
    "openDays": [],
    "openDaysNote": ""
  },
  {
    "id": "4670300211",
    "name": "特別養護老人ホーム慈恵園",
    "kana": "トクベツヨウゴロウジンホームジケイエン",
    "address": "大姶良町226番地",
    "lat": 31.3325489,
    "lng": 130.83373,
    "tel": "0994-48-2588",
    "url": "http://zikeien.org",
    "pref": "鹿児島県",
    "city": "鹿屋市",
    "category": "tokuyou",
    "serviceType": "介護老人福祉施設",
    "capacity": 60,
    "openDays": [],
    "openDaysNote": ""
  },
  {
    "id": "4670300203",
    "name": "特別養護老人ホーム鹿屋長寿園",
    "kana": "トクベツヨウゴロウジンホームカノヤチョウジュエン",
    "address": "鹿児島県鹿屋市下祓川町1800番地",
    "lat": 31.4128113,
    "lng": 130.8526264,
    "tel": "0994-43-2546",
    "url": "http://www.kanoya-choujuen.jp/",
    "pref": "鹿児島県",
    "city": "鹿屋市",
    "category": "tokuyou",
    "serviceType": "介護老人福祉施設",
    "capacity": 111,
    "openDays": [],
    "openDaysNote": ""
  },
  {
    "id": "4677500078",
    "name": "特別養護老人ホーム陵幸園",
    "kana": "トクベツヨウゴロウジンホームリョウコウエン",
    "address": "鹿屋市吾平町麓3805番地",
    "lat": 31.3220883,
    "lng": 130.8929566,
    "tel": "０９９４－５８－５０５５",
    "url": "https://ryoukoukai1987.com",
    "pref": "鹿児島県",
    "city": "鹿屋市",
    "category": "tokuyou",
    "serviceType": "介護老人福祉施設",
    "capacity": 0,
    "openDays": [],
    "openDaysNote": ""
  },
  {
    "id": "4670300229",
    "name": "朋愛園",
    "kana": "ホウアイエン",
    "address": "寿２丁目２番１号",
    "lat": 31.3870722,
    "lng": 130.8601793,
    "tel": "０９９４－４１－３３４０",
    "url": "http://houaien.jp/",
    "pref": "鹿児島県",
    "city": "鹿屋市",
    "category": "tokuyou",
    "serviceType": "介護老人福祉施設",
    "capacity": 70,
    "openDays": [],
    "openDaysNote": ""
  },
  {
    "id": "4670110099",
    "name": "グランパソ",
    "kana": "グランパソ",
    "address": "鹿児島県鹿児島市中山二丁目13番15号パソ中山総合福祉施設 パソ中山総合福祉施設",
    "lat": 31.5449281,
    "lng": 130.510044,
    "tel": "099-210-1003",
    "url": "https://www.keiseikai-kagoshima.jp/",
    "pref": "鹿児島県",
    "city": "鹿児島市",
    "category": "tokuyou",
    "serviceType": "介護老人福祉施設",
    "capacity": 30,
    "openDays": [],
    "openDaysNote": ""
  },
  {
    "id": "4670101213",
    "name": "ケアガーデンてらやま",
    "kana": "ケアガーデンテラヤマ",
    "address": "鹿児島市吉野町１０８７７番地１８",
    "lat": 31.6557373,
    "lng": 130.6030161,
    "tel": "０９９－２９５－５００５",
    "url": "http://www.care-garden.or.jp",
    "pref": "鹿児島県",
    "city": "鹿児島市",
    "category": "tokuyou",
    "serviceType": "介護老人福祉施設",
    "capacity": 50,
    "openDays": [],
    "openDaysNote": ""
  },
  {
    "id": "4670102328",
    "name": "さかもと園",
    "kana": "サカモトエン",
    "address": "鹿児島県鹿児島市坂元町502番地",
    "lat": 31.6182310906479,
    "lng": 130.557247522458,
    "tel": "099-248-5100",
    "url": "http://www.sakamotoen.jp",
    "pref": "鹿児島県",
    "city": "鹿児島市",
    "category": "tokuyou",
    "serviceType": "介護老人福祉施設",
    "capacity": 0,
    "openDays": [],
    "openDaysNote": ""
  },
  {
    "id": "4670110420",
    "name": "介護老人福祉施設　アルテンハイム鹿児島",
    "kana": "カイゴロウジンフクシシセツ　アルテンハイムカゴシマ",
    "address": "鹿児島県鹿児島市与次郎1丁目4番18号",
    "lat": 31.5667647594137,
    "lng": 130.559771323773,
    "tel": "099-230-7777",
    "url": "http://www.nonohanakai.or.jp/",
    "pref": "鹿児島県",
    "city": "鹿児島市",
    "category": "tokuyou",
    "serviceType": "介護老人福祉施設",
    "capacity": 0,
    "openDays": [],
    "openDaysNote": ""
  },
  {
    "id": "4671900043",
    "name": "喜入の里",
    "kana": "キイレノサト",
    "address": "喜入前之浜町7788",
    "lat": 31.3506382092169,
    "lng": 130.553856406082,
    "tel": "099-343-1168",
    "url": "https://kiire.jp",
    "pref": "鹿児島県",
    "city": "鹿児島市",
    "category": "tokuyou",
    "serviceType": "介護老人福祉施設",
    "capacity": 0,
    "openDays": [],
    "openDaysNote": ""
  },
  {
    "id": "4670109802",
    "name": "喜入の里（ユニット型）",
    "kana": "キイレノサト（ユニットガタ）",
    "address": "喜入前之浜町７７８８番地",
    "lat": 31.3500105814244,
    "lng": 130.55388859259,
    "tel": "099-343-1168",
    "url": "https://kiire.jp",
    "pref": "鹿児島県",
    "city": "鹿児島市",
    "category": "tokuyou",
    "serviceType": "介護老人福祉施設",
    "capacity": 0,
    "openDays": [],
    "openDaysNote": ""
  },
  {
    "id": "4670101221",
    "name": "城山苑",
    "kana": "シロヤマエン",
    "address": "鹿児島市長田町32番1号",
    "lat": 31.6010305,
    "lng": 130.5489828,
    "tel": "099-219-6030",
    "url": "http://www.shiroyamakai.com/",
    "pref": "鹿児島県",
    "city": "鹿児島市",
    "category": "tokuyou",
    "serviceType": "介護老人福祉施設",
    "capacity": 0,
    "openDays": [],
    "openDaysNote": ""
  },
  {
    "id": "4670102955",
    "name": "特別養護老人ホーム　あけぼの",
    "kana": "トクベツヨウゴロウジンホーム　アケボノ",
    "address": "鹿児島県鹿児島市山田町２０２１番地",
    "lat": 31.5633454,
    "lng": 130.5069241,
    "tel": "099-201-1050",
    "url": "http://www.kakuyokai.com/",
    "pref": "鹿児島県",
    "city": "鹿児島市",
    "category": "tokuyou",
    "serviceType": "介護老人福祉施設",
    "capacity": 58,
    "openDays": [],
    "openDaysNote": ""
  },
  {
    "id": "4670113721",
    "name": "特別養護老人ホーム　うすきの里",
    "kana": "トクベツヨウゴロウジンホーム　ウスキノサト",
    "address": "宇宿二丁目16番２",
    "lat": 31.5428323224124,
    "lng": 130.540841203958,
    "tel": "099-255-3333",
    "url": "https://kiire.jp",
    "pref": "鹿児島県",
    "city": "鹿児島市",
    "category": "tokuyou",
    "serviceType": "介護老人福祉施設",
    "capacity": 0,
    "openDays": [],
    "openDaysNote": ""
  },
  {
    "id": "4670111808",
    "name": "特別養護老人ホーム　オアシスケア城西",
    "kana": "トクベツヨウゴロウジンホーム　オアシスケアジョウセイ",
    "address": "鹿児島県永吉二丁目３７番１４号",
    "lat": 31.6089600203196,
    "lng": 130.53261507791,
    "tel": "099-294-9797",
    "url": "http://johsei.org/",
    "pref": "鹿児島県",
    "city": "鹿児島市",
    "category": "tokuyou",
    "serviceType": "介護老人福祉施設",
    "capacity": 40,
    "openDays": [],
    "openDaysNote": ""
  },
  {
    "id": "4670112228",
    "name": "特別養護老人ホーム　かもいけ",
    "kana": "トクベツヨウゴロウジンホーム　カモイケ",
    "address": "鹿児島県鹿児島市東郡元町１１番６号",
    "lat": 31.5539396938716,
    "lng": 130.549977065676,
    "tel": "099-814-7716",
    "url": "https://kamoikecare.jifukai.jp/",
    "pref": "鹿児島県",
    "city": "鹿児島市",
    "category": "tokuyou",
    "serviceType": "介護老人福祉施設",
    "capacity": 0,
    "openDays": [],
    "openDaysNote": ""
  },
  {
    "id": "4670100645",
    "name": "特別養護老人ホーム　くすの木グリーンハイツ",
    "kana": "トクベツヨウゴロウジンホーム　クスノキグリーンハイツ",
    "address": "鹿児島市犬迫町７７７１番地",
    "lat": 31.6263971,
    "lng": 130.4832345,
    "tel": "099-238-0364",
    "url": "http://www.kusunokikai.jp",
    "pref": "鹿児島県",
    "city": "鹿児島市",
    "category": "tokuyou",
    "serviceType": "介護老人福祉施設",
    "capacity": 65,
    "openDays": [],
    "openDaysNote": ""
  },
  {
    "id": "4670112780",
    "name": "特別養護老人ホーム　シルクロード七福神",
    "kana": "トクベツヨウゴロウジンホーム　シルクロードシチフクジン",
    "address": "鹿児島県鹿児島市紫原5丁目13-18",
    "lat": 31.5624336,
    "lng": 130.528054,
    "tel": "099-256-2729",
    "url": "https://729729.jp/",
    "pref": "鹿児島県",
    "city": "鹿児島市",
    "category": "tokuyou",
    "serviceType": "介護老人福祉施設",
    "capacity": 80,
    "openDays": [],
    "openDaysNote": ""
  },
  {
    "id": "4670101197",
    "name": "特別養護老人ホーム　はっぴー園",
    "kana": "トクベツヨウゴロウジンホーム　ハッピーエン",
    "address": "鹿児島県鹿児島市下福元町９５６３番地",
    "lat": 31.5039061,
    "lng": 130.4887941,
    "tel": "０９９－２６２－３７００",
    "url": "happy-en.jp",
    "pref": "鹿児島県",
    "city": "鹿児島市",
    "category": "tokuyou",
    "serviceType": "介護老人福祉施設",
    "capacity": 0,
    "openDays": [],
    "openDaysNote": ""
  },
  {
    "id": "4670101239",
    "name": "特別養護老人ホーム　ひだまりの里",
    "kana": "トクベツヨウゴロウジンホームヒダマリノサト",
    "address": "鹿児島市川上町１０４１番地１",
    "lat": 31.6586394,
    "lng": 130.5617655,
    "tel": "099-243-2366",
    "url": "",
    "pref": "鹿児島県",
    "city": "鹿児島市",
    "category": "tokuyou",
    "serviceType": "介護老人福祉施設",
    "capacity": 0,
    "openDays": [],
    "openDaysNote": ""
  },
  {
    "id": "4670100652",
    "name": "特別養護老人ホーム　ひまわり園",
    "kana": "トクベツヨウゴロウジンホーム　ヒマワリエン",
    "address": "鹿児島市犬迫町５４０７番地２",
    "lat": 31.6334048,
    "lng": 130.4968775,
    "tel": "099-238-2140",
    "url": "https://www.himawarien.jp",
    "pref": "鹿児島県",
    "city": "鹿児島市",
    "category": "tokuyou",
    "serviceType": "介護老人福祉施設",
    "capacity": 110,
    "openDays": [],
    "openDaysNote": ""
  },
  {
    "id": "4670103888",
    "name": "特別養護老人ホーム　みやび",
    "kana": "トクベツヨウゴロウジンホーム　ミヤビ",
    "address": "鹿児島市谷山中央1丁目4319番",
    "lat": 31.5243885,
    "lng": 130.5150024,
    "tel": "099-263-3000",
    "url": "https://miyabi.synapse.kagoshima.jp/",
    "pref": "鹿児島県",
    "city": "鹿児島市",
    "category": "tokuyou",
    "serviceType": "介護老人福祉施設",
    "capacity": 0,
    "openDays": [],
    "openDaysNote": ""
  },
  {
    "id": "4670111782",
    "name": "特別養護老人ホーム　ラ・コリーヌ伊敷台",
    "kana": "トクベツヨウゴロウジンホーム　ラ・コリーヌ　イシキダイ",
    "address": "鹿児島県鹿児島市伊敷台1丁目14番1号",
    "lat": 31.6210013567248,
    "lng": 130.534936509787,
    "tel": "099－220－3377",
    "url": "http://ichihuku.jp/",
    "pref": "鹿児島県",
    "city": "鹿児島市",
    "category": "tokuyou",
    "serviceType": "介護老人福祉施設",
    "capacity": 60,
    "openDays": [],
    "openDaysNote": ""
  },
  {
    "id": "4670101171",
    "name": "特別養護老人ホーム　旭ヶ丘園",
    "kana": "トクベツヨウゴロウジンホーム　アサヒガオカエン",
    "address": "鹿児島市平川町1382番地",
    "lat": 31.46621,
    "lng": 130.5037873,
    "tel": "099-262-2222",
    "url": "https://kyokuseikai.com/",
    "pref": "鹿児島県",
    "city": "鹿児島市",
    "category": "tokuyou",
    "serviceType": "介護老人福祉施設",
    "capacity": 50,
    "openDays": [],
    "openDaysNote": ""
  },
  {
    "id": "4670109828",
    "name": "特別養護老人ホーム　旭ヶ丘園（ユニット型）",
    "kana": "トクベツヨウゴロウジンホーム　アサヒガオカエン（ユニットガタ）",
    "address": "平川町1382番地",
    "lat": 31.4673310080557,
    "lng": 130.502510568509,
    "tel": "099-262-2222",
    "url": "http://asahigaokaen.com/",
    "pref": "鹿児島県",
    "city": "鹿児島市",
    "category": "tokuyou",
    "serviceType": "介護老人福祉施設",
    "capacity": 30,
    "openDays": [],
    "openDaysNote": ""
  },
  {
    "id": "4670102864",
    "name": "特別養護老人ホーム　下田苑",
    "kana": "トクベツヨウゴロウジンホーム　シモタエン",
    "address": "鹿児島市下田町３５３番地",
    "lat": 31.6399521,
    "lng": 130.550739,
    "tel": "０９９－２９４－０２３３",
    "url": "http://www.shimodaen.jp",
    "pref": "鹿児島県",
    "city": "鹿児島市",
    "category": "tokuyou",
    "serviceType": "介護老人福祉施設",
    "capacity": 0,
    "openDays": [],
    "openDaysNote": ""
  },
  {
    "id": "4671600023",
    "name": "特別養護老人ホーム　桜島苑",
    "kana": "トクベツヨウゴロウジンホーム　サクラジマエン",
    "address": "鹿児島県鹿児島市桜島横山町１７２２－４５",
    "lat": 31.5901132,
    "lng": 130.602123,
    "tel": "099-293-2800",
    "url": "https://sakurajimaen.com",
    "pref": "鹿児島県",
    "city": "鹿児島市",
    "category": "tokuyou",
    "serviceType": "介護老人福祉施設",
    "capacity": 0,
    "openDays": [],
    "openDaysNote": ""
  },
  {
    "id": "4670101098",
    "name": "特別養護老人ホーム　三船園",
    "kana": "トクベツヨウゴロウジンホーム　ミフネエン",
    "address": "鹿児島市吉野町10005番地4",
    "lat": 31.6334059,
    "lng": 130.601356,
    "tel": "099-247-6470",
    "url": "http://mifuneen.net",
    "pref": "鹿児島県",
    "city": "鹿児島市",
    "category": "tokuyou",
    "serviceType": "介護老人福祉施設",
    "capacity": 87,
    "openDays": [],
    "openDaysNote": ""
  },
  {
    "id": "4671500017",
    "name": "特別養護老人ホーム　寿康園",
    "kana": "トクベツヨウゴロウジンホーム　ジュコウエン",
    "address": "鹿児島県鹿児島市本名町234",
    "lat": 31.6952178539737,
    "lng": 130.54660844841,
    "tel": "099-294-2510",
    "url": "http://www.jukouen.jp",
    "pref": "鹿児島県",
    "city": "鹿児島市",
    "category": "tokuyou",
    "serviceType": "介護老人福祉施設",
    "capacity": 55,
    "openDays": [],
    "openDaysNote": ""
  },
  {
    "id": "4670112269",
    "name": "特別養護老人ホーム　城山苑別館",
    "kana": "トクベツヨウゴロウジンホーム　シロヤマエンベッカン",
    "address": "鹿児島県鹿児島市長田町37番23号",
    "lat": 31.6010305,
    "lng": 130.5489828,
    "tel": "099-813-7145",
    "url": "",
    "pref": "鹿児島県",
    "city": "鹿児島市",
    "category": "tokuyou",
    "serviceType": "介護老人福祉施設",
    "capacity": 0,
    "openDays": [],
    "openDaysNote": ""
  },
  {
    "id": "4670101106",
    "name": "特別養護老人ホーム　清谿園",
    "kana": "トクベツヨウゴロウジンホーム　セイケイエン",
    "address": "鹿児島市山田町３８２８番地",
    "lat": 31.5732637,
    "lng": 130.492112,
    "tel": "099-264-0001",
    "url": "http://www.seikeien.com",
    "pref": "鹿児島県",
    "city": "鹿児島市",
    "category": "tokuyou",
    "serviceType": "介護老人福祉施設",
    "capacity": null,
    "openDays": [],
    "openDaysNote": ""
  },
  {
    "id": "4670106329",
    "name": "特別養護老人ホーム　西谷山わかくさの郷",
    "kana": "トクベツヨウゴロウジンホーム　ニシタニヤマワカクサノサト",
    "address": "鹿児島市上福元町7048番1",
    "lat": 31.5252052316181,
    "lng": 130.494746063385,
    "tel": "099-263-5501",
    "url": "http://www.koutokukai.org/~wakakusa/",
    "pref": "鹿児島県",
    "city": "鹿児島市",
    "category": "tokuyou",
    "serviceType": "介護老人福祉施設",
    "capacity": 55,
    "openDays": [],
    "openDaysNote": ""
  },
  {
    "id": "4670101122",
    "name": "特別養護老人ホーム　美樹園",
    "kana": "トクベツヨウゴロウジンホーム　ミキエン",
    "address": "鹿児島市下福元町１９２６番地６",
    "lat": 31.5231940946012,
    "lng": 130.487968726984,
    "tel": "０９９（２６７）２２５２",
    "url": "https://mikien.or.jp/",
    "pref": "鹿児島県",
    "city": "鹿児島市",
    "category": "tokuyou",
    "serviceType": "介護老人福祉施設",
    "capacity": 0,
    "openDays": [],
    "openDaysNote": ""
  },
  {
    "id": "4670105529",
    "name": "特別養護老人ホーム　睦園",
    "kana": "トクベツヨウゴロウジンホーム　ムツミエン",
    "address": "鹿児島市吉野町6077番地56睦園 睦園",
    "lat": 31.6503545,
    "lng": 130.59242,
    "tel": "099－244－5588",
    "url": "https://www.mutumien.com",
    "pref": "鹿児島県",
    "city": "鹿児島市",
    "category": "tokuyou",
    "serviceType": "介護老人福祉施設",
    "capacity": null,
    "openDays": [],
    "openDaysNote": ""
  },
  {
    "id": "4670113143",
    "name": "特別養護老人ホームオアシスケア清水",
    "kana": "トクベツヨウゴロウジンホームオアシスケアシミズ",
    "address": "鹿児島県鹿児島市稲荷町１７番３５号",
    "lat": 31.6105012,
    "lng": 130.5697114,
    "tel": "099-248-8522",
    "url": "https://johsei.org/",
    "pref": "鹿児島県",
    "city": "鹿児島市",
    "category": "tokuyou",
    "serviceType": "介護老人福祉施設",
    "capacity": 80,
    "openDays": [],
    "openDaysNote": ""
  },
  {
    "id": "4670100678",
    "name": "特別養護老人ホームとそ清風園",
    "kana": "トクベツヨウゴロウジンホームトソセイフウエン",
    "address": "田上台1丁目43番1号",
    "lat": 31.5667146,
    "lng": 130.5296518,
    "tel": "099-286-6363",
    "url": "http://www.tososeifuen.com",
    "pref": "鹿児島県",
    "city": "鹿児島市",
    "category": "tokuyou",
    "serviceType": "介護老人福祉施設",
    "capacity": 50,
    "openDays": [],
    "openDaysNote": ""
  },
  {
    "id": "4670101247",
    "name": "特別養護老人ホームにじの郷たにやま",
    "kana": "トクベツヨウゴロウジンホームニジノサトタニヤマ",
    "address": "鹿児島市中山町5028-80",
    "lat": 31.5397843,
    "lng": 130.5031257,
    "tel": "099-267-3977",
    "url": "http://nizinosato.com/",
    "pref": "鹿児島県",
    "city": "鹿児島市",
    "category": "tokuyou",
    "serviceType": "介護老人福祉施設",
    "capacity": 0,
    "openDays": [],
    "openDaysNote": ""
  },
  {
    "id": "4670109810",
    "name": "特別養護老人ホームにじの郷たにやま（ユニット型）",
    "kana": "トクベツヨウゴロウジンホームニジノサトタニヤマ（ユニットガタ）",
    "address": "鹿児島県鹿児島市中山町5028番地80",
    "lat": 31.5397843,
    "lng": 130.5031257,
    "tel": "099-267-3977",
    "url": "http://nizinosato.com/",
    "pref": "鹿児島県",
    "city": "鹿児島市",
    "category": "tokuyou",
    "serviceType": "介護老人福祉施設",
    "capacity": 0,
    "openDays": [],
    "openDaysNote": ""
  },
  {
    "id": "4670106410",
    "name": "特別養護老人ホームふれあいの街ねむの里",
    "kana": "トクベツヨウゴロウジンホームフレアイノマチネムノサト",
    "address": "鹿児島市山田町2405番地1",
    "lat": 31.5622594,
    "lng": 130.4982282,
    "tel": "099-275-7160",
    "url": "http://nemunosato.jp/",
    "pref": "鹿児島県",
    "city": "鹿児島市",
    "category": "tokuyou",
    "serviceType": "介護老人福祉施設",
    "capacity": 0,
    "openDays": [],
    "openDaysNote": ""
  },
  {
    "id": "4670107657",
    "name": "特別養護老人ホーム愛心苑",
    "kana": "トクベツヨウゴロウジンホームアイシンエン",
    "address": "鹿児島市和田3丁目40番地1号",
    "lat": 31.5092175,
    "lng": 130.5142778,
    "tel": "099-210-1500",
    "url": "http://aisin-kai.or.jp",
    "pref": "鹿児島県",
    "city": "鹿児島市",
    "category": "tokuyou",
    "serviceType": "介護老人福祉施設",
    "capacity": 0,
    "openDays": [],
    "openDaysNote": ""
  },
  {
    "id": "4673200020",
    "name": "特別養護老人ホーム愛泉園",
    "kana": "トクベツヨウゴロウジンホーム　アイセンエン",
    "address": "鹿児島県鹿児島市川田町1090番地",
    "lat": 31.6730643,
    "lng": 130.5035666,
    "tel": "099-298-8153",
    "url": "syoueikai.or.jp",
    "pref": "鹿児島県",
    "city": "鹿児島市",
    "category": "tokuyou",
    "serviceType": "介護老人福祉施設",
    "capacity": 0,
    "openDays": [],
    "openDaysNote": ""
  },
  {
    "id": "4670112236",
    "name": "特別養護老人ホーム花時計",
    "kana": "トクベツヨウゴロウジンホームハナドケイ",
    "address": "鹿児島県鹿児島市加治屋町16番地6",
    "lat": 31.5869026146167,
    "lng": 130.551875546696,
    "tel": "099-294-9456",
    "url": "https://hanadokei-syoureikai.com/",
    "pref": "鹿児島県",
    "city": "鹿児島市",
    "category": "tokuyou",
    "serviceType": "介護老人福祉施設",
    "capacity": 77,
    "openDays": [],
    "openDaysNote": ""
  },
  {
    "id": "4670108317",
    "name": "特別養護老人ホーム花水木",
    "kana": "トクベツヨウゴロウジンホームハナミズキ",
    "address": "郡元三丁目4番15号",
    "lat": 31.5603463,
    "lng": 130.5489174,
    "tel": "099-812-6095",
    "url": "http://www.hana-sanaikai.or.jp",
    "pref": "鹿児島県",
    "city": "鹿児島市",
    "category": "tokuyou",
    "serviceType": "介護老人福祉施設",
    "capacity": 0,
    "openDays": [],
    "openDaysNote": ""
  },
  {
    "id": "4670101114",
    "name": "特別養護老人ホーム錦江園",
    "kana": "トクベツヨウゴロウジンホームキンコウエン",
    "address": "鹿児島県鹿児島市平川町２５３０番地１",
    "lat": 31.461049846418,
    "lng": 130.514923263846,
    "tel": "099-261-2789",
    "url": "https://www.kinkouen.jp/",
    "pref": "鹿児島県",
    "city": "鹿児島市",
    "category": "tokuyou",
    "serviceType": "介護老人福祉施設",
    "capacity": 80,
    "openDays": [],
    "openDaysNote": ""
  },
  {
    "id": "4673100030",
    "name": "特別養護老人ホーム健生苑",
    "kana": "トクベツヨウゴロウジンホームケンセイエン",
    "address": "鹿児島県鹿児島市石谷町3523番地",
    "lat": 31.625111,
    "lng": 130.4517558,
    "tel": "099-278-2720",
    "url": "http：//syafukuseijyukai.com/",
    "pref": "鹿児島県",
    "city": "鹿児島市",
    "category": "tokuyou",
    "serviceType": "介護老人福祉施設",
    "capacity": 50,
    "openDays": [],
    "openDaysNote": ""
  },
  {
    "id": "4670101189",
    "name": "特別養護老人ホーム高喜苑",
    "kana": "トクベツヨウゴロウジンホームコウキエン",
    "address": "鹿児島市武岡5丁目51番10号",
    "lat": 31.5997163,
    "lng": 130.5098416,
    "tel": "０９９－２８４－８２５３",
    "url": "http:www.saiseikai-kg.jp",
    "pref": "鹿児島県",
    "city": "鹿児島市",
    "category": "tokuyou",
    "serviceType": "介護老人福祉施設",
    "capacity": 50,
    "openDays": [],
    "openDaysNote": ""
  },
  {
    "id": "4670103599",
    "name": "特別養護老人ホーム慈眼寺園",
    "kana": "トクベツヨウゴロウジンホームジゲンジエン",
    "address": "鹿児島市錦江台１丁目20-20",
    "lat": 31.5062117,
    "lng": 130.4959407,
    "tel": "099-263-0055",
    "url": "https://jigenjien.org/",
    "pref": "鹿児島県",
    "city": "鹿児島市",
    "category": "tokuyou",
    "serviceType": "介護老人福祉施設",
    "capacity": 0,
    "openDays": [],
    "openDaysNote": ""
  },
  {
    "id": "4670110586",
    "name": "特別養護老人ホーム七福神",
    "kana": "トクベツヨウゴロウジンホームシチフクジン",
    "address": "西伊敷３丁目１４－３",
    "lat": 31.6398799,
    "lng": 130.5296771,
    "tel": "099-295-0729",
    "url": "http://www.729729.jp",
    "pref": "鹿児島県",
    "city": "鹿児島市",
    "category": "tokuyou",
    "serviceType": "介護老人福祉施設",
    "capacity": 40,
    "openDays": [],
    "openDaysNote": ""
  },
  {
    "id": "4670101163",
    "name": "特別養護老人ホーム松恵園",
    "kana": "トクベツヨウゴロウジンホームショウケイエン",
    "address": "鹿児島市西別府町1920番地",
    "lat": 31.5993447,
    "lng": 130.4856777,
    "tel": "099-282-7520",
    "url": "https://syoukeien.jp",
    "pref": "鹿児島県",
    "city": "鹿児島市",
    "category": "tokuyou",
    "serviceType": "介護老人福祉施設",
    "capacity": 65,
    "openDays": [],
    "openDaysNote": ""
  },
  {
    "id": "4670100660",
    "name": "特別養護老人ホーム泰山荘",
    "kana": "トクベツヨウゴロウジンホームタイザンソウ",
    "address": "鹿児島市皆与志町2261番地1",
    "lat": 31.6656241,
    "lng": 130.5291985,
    "tel": "099-238-5560",
    "url": "https://taizansou.jp",
    "pref": "鹿児島県",
    "city": "鹿児島市",
    "category": "tokuyou",
    "serviceType": "介護老人福祉施設",
    "capacity": 0,
    "openDays": [],
    "openDaysNote": ""
  },
  {
    "id": "4670111774",
    "name": "特別養護老人ホーム武岡ピュアハウス",
    "kana": "トクベツヨウゴロウジンホームタケオカピュアハウス",
    "address": "鹿児島県鹿児島市武岡1丁目121番9",
    "lat": 31.5859611482343,
    "lng": 130.527209371303,
    "tel": "099-814-7222",
    "url": "http://nozomikai.co/",
    "pref": "鹿児島県",
    "city": "鹿児島市",
    "category": "tokuyou",
    "serviceType": "介護老人福祉施設",
    "capacity": 80,
    "openDays": [],
    "openDaysNote": ""
  },
  {
    "id": "4670800814",
    "name": "特別養護老人ホーム　鶴寿会たかおの",
    "kana": "トクベツヨウゴロウジンホーム　カクジュカイタカオノ",
    "address": "高尾野町大久保600番地",
    "lat": 32.0625246,
    "lng": 130.310959,
    "tel": "0996-82-1071",
    "url": "",
    "pref": "鹿児島県",
    "city": "出水市",
    "category": "tokuyou",
    "serviceType": "介護老人福祉施設",
    "capacity": 55,
    "openDays": [],
    "openDaysNote": ""
  },
  {
    "id": "4670800087",
    "name": "特別養護老人ホーム出水の里",
    "kana": "トクベツヨウゴロウジンホームイズミノサト",
    "address": "鹿児島県出水市境町1822",
    "lat": 32.1661337,
    "lng": 130.3597676,
    "tel": "0996-67-5070",
    "url": "http://www.izumi-kouseikai.or.jp",
    "pref": "鹿児島県",
    "city": "出水市",
    "category": "tokuyou",
    "serviceType": "介護老人福祉施設",
    "capacity": 0,
    "openDays": [],
    "openDaysNote": ""
  },
  {
    "id": "4670800079",
    "name": "特別養護老人ホーム鶴寿園",
    "kana": "トクベツヨウゴロウジンホームカクジュエン",
    "address": "汐見町93番地",
    "lat": 32.114819,
    "lng": 130.3145856,
    "tel": "0996‐67‐1111",
    "url": "https://kakujukai.com/",
    "pref": "鹿児島県",
    "city": "出水市",
    "category": "tokuyou",
    "serviceType": "介護老人福祉施設",
    "capacity": 130,
    "openDays": [],
    "openDaysNote": ""
  },
  {
    "id": "4674700028",
    "name": "特別養護老人ホーム野田の郷",
    "kana": "トクベツヨウゴロウジンホームノダノサト",
    "address": "鹿児島県出水市野田町下名4,975番地2",
    "lat": 32.0624568851444,
    "lng": 130.259641729439,
    "tel": "0996-84-2904",
    "url": "https://nodanosato.jp/",
    "pref": "鹿児島県",
    "city": "出水市",
    "category": "tokuyou",
    "serviceType": "介護老人福祉施設",
    "capacity": 0,
    "openDays": [],
    "openDaysNote": ""
  },
  {
    "id": "4670800897",
    "name": "特別養護老人ホーム野田の郷（ユニット型）",
    "kana": "トクベツヨウゴロウジンホームノダノサト（ユニットガタ）",
    "address": "野田町下名４，９７９番地２",
    "lat": 32.0622568528728,
    "lng": 130.258719049538,
    "tel": "080-5260-2904",
    "url": "https://nodanosato.jp/",
    "pref": "鹿児島県",
    "city": "出水市",
    "category": "tokuyou",
    "serviceType": "介護老人福祉施設",
    "capacity": 30,
    "openDays": [],
    "openDaysNote": ""
  },
  {
    "id": "4671400069",
    "name": "特別養護老人ホーム恵光園",
    "kana": "トクベツヨウゴロウジンホームケイコウエン",
    "address": "本城221番地",
    "lat": 31.4829071960966,
    "lng": 130.71742882209,
    "tel": "0994-32-2851",
    "url": "http://www.city-tarumizu-keikouen.com",
    "pref": "鹿児島県",
    "city": "垂水市",
    "category": "tokuyou",
    "serviceType": "介護老人福祉施設",
    "capacity": 0,
    "openDays": [],
    "openDaysNote": ""
  },
  {
    "id": "4671400291",
    "name": "特別養護老人ホーム恵光園ユニット",
    "kana": "トクベツヨウゴロウジンホームケイコウエンユニット",
    "address": "本城221番地",
    "lat": 31.4829026213423,
    "lng": 130.717444915344,
    "tel": "0994-32-2851",
    "url": "http://www.city-tarumizu-keikouen.com",
    "pref": "鹿児島県",
    "city": "垂水市",
    "category": "tokuyou",
    "serviceType": "介護老人福祉施設",
    "capacity": 0,
    "openDays": [],
    "openDaysNote": ""
  },
  {
    "id": "4678600042",
    "name": "介護老人福祉施設　奄美の園",
    "kana": "カイゴロウジンフクシシセツ　アマミノソノ",
    "address": "鹿児島県大島群瀬戸内町古仁屋１２８３ー２７介護老人福祉施設　奄美の園 介護老人福祉施設　奄美の園",
    "lat": 28.1382471,
    "lng": 129.3207023,
    "tel": "０９９７－７２－０８９２",
    "url": "www.amaminosono.jp/",
    "pref": "鹿児島県",
    "city": "瀬戸内町",
    "category": "tokuyou",
    "serviceType": "介護老人福祉施設",
    "capacity": 0,
    "openDays": [],
    "openDaysNote": ""
  },
  {
    "id": "4678600075",
    "name": "特別養護老人ホーム　加計呂麻園",
    "kana": "トクベツヨウゴロウジンホームカケロマエン",
    "address": "鹿児島県大島郡瀬戸内町伊子茂187番地1",
    "lat": 28.1085957,
    "lng": 129.243878,
    "tel": "0997-76-0808",
    "url": "http://www.kakeromaen.jp",
    "pref": "鹿児島県",
    "city": "瀬戸内町",
    "category": "tokuyou",
    "serviceType": "介護老人福祉施設",
    "capacity": 0,
    "openDays": [],
    "openDaysNote": ""
  },
  {
    "id": "4671300186",
    "name": "特別養護老人ホーム　百合砂苑",
    "kana": "トクベツヨウゴロウジンホーム　ユリサエン",
    "address": "鹿児島県西之表市西之表6087番地",
    "lat": 30.7478607,
    "lng": 131.0036174,
    "tel": "0997-23-6161",
    "url": "www.yurisa.jp",
    "pref": "鹿児島県",
    "city": "西之表市",
    "category": "tokuyou",
    "serviceType": "介護老人福祉施設",
    "capacity": 0,
    "openDays": [],
    "openDaysNote": ""
  },
  {
    "id": "4671300061",
    "name": "特別養護老人ホームわかさ園",
    "kana": "トクベツヨウゴロウジンホームワカサエン",
    "address": "西之表市西之表16347番地",
    "lat": 30.721304,
    "lng": 130.9793373,
    "tel": "0997-22-1413",
    "url": "",
    "pref": "鹿児島県",
    "city": "西之表市",
    "category": "tokuyou",
    "serviceType": "介護老人福祉施設",
    "capacity": 0,
    "openDays": [],
    "openDaysNote": ""
  },
  {
    "id": "4671600411",
    "name": "ユニット型特別養護老人ホーム輪光無量寿園",
    "kana": "ユニットガタトクベツヨウゴロウジンホームリンコウムリョウジュエン",
    "address": "末吉町岩崎971-1",
    "lat": 31.5962083,
    "lng": 130.9988492,
    "tel": "099-482-1047",
    "url": "http://www.rinkou1964.or.jp",
    "pref": "鹿児島県",
    "city": "曽於市",
    "category": "tokuyou",
    "serviceType": "介護老人福祉施設",
    "capacity": 40,
    "openDays": [],
    "openDaysNote": ""
  },
  {
    "id": "4671600585",
    "name": "社会福祉法人　豊の里　特別養護老人ホーム　財部寿豊苑",
    "kana": "シャカイフクシホウジン　ユタカノサト　トクベツヨウゴロウジンホーム　タカラベジュホウエン",
    "address": "鹿児島県曽於市財部町下財部2061番地1",
    "lat": 31.7276091,
    "lng": 131.0163194,
    "tel": "0986－72－3993",
    "url": "http//www.houei-group.or.jp",
    "pref": "鹿児島県",
    "city": "曽於市",
    "category": "tokuyou",
    "serviceType": "介護老人福祉施設",
    "capacity": 50,
    "openDays": [],
    "openDaysNote": ""
  },
  {
    "id": "4676300157",
    "name": "特別養護老人ホーム　おおすみ苑",
    "kana": "トクベツヨウゴロウジンホーム　オオスミエン",
    "address": "鹿児島県曽於市大隅町月野1045番地",
    "lat": 31.5746505,
    "lng": 131.0343736,
    "tel": "099-482-3488",
    "url": "https://hakujyukai-kagoshima.jp",
    "pref": "鹿児島県",
    "city": "曽於市",
    "category": "tokuyou",
    "serviceType": "介護老人福祉施設",
    "capacity": 0,
    "openDays": [],
    "openDaysNote": ""
  },
  {
    "id": "4676300033",
    "name": "特別養護老人ホーム　おおすみ竹山園",
    "kana": "トクベツヨウゴロウジンホーム　オオスミタケヤマエン",
    "address": "鹿児島県曽於市大隅町月野１５８２番地",
    "lat": 31.5763,
    "lng": 131.0141007,
    "tel": "099-482-4100",
    "url": "https://osumikai.net",
    "pref": "鹿児島県",
    "city": "曽於市",
    "category": "tokuyou",
    "serviceType": "介護老人福祉施設",
    "capacity": 0,
    "openDays": [],
    "openDaysNote": ""
  },
  {
    "id": "4676500053",
    "name": "特別養護老人ホーム　たからべ園",
    "kana": "トクベツヨウゴロウジンホーム　タカラベエン",
    "address": "鹿児島県曽於市財部町北俣７３６番地",
    "lat": 31.7317983,
    "lng": 130.991693,
    "tel": "0986-72-2000",
    "url": "http://care-net.biz/46/takarabeen",
    "pref": "鹿児島県",
    "city": "曽於市",
    "category": "tokuyou",
    "serviceType": "介護老人福祉施設",
    "capacity": 0,
    "openDays": [],
    "openDaysNote": ""
  },
  {
    "id": "4676600036",
    "name": "特別養護老人ホーム輪光無量寿園",
    "kana": "トクベツヨウゴロウジンホームリンコウムリョウジュエン",
    "address": "末吉町岩崎971-1",
    "lat": 31.5962083,
    "lng": 130.9988492,
    "tel": "099-482-1047",
    "url": "http://www.rinkou1964.or.jp",
    "pref": "鹿児島県",
    "city": "曽於市",
    "category": "tokuyou",
    "serviceType": "介護老人福祉施設",
    "capacity": 49,
    "openDays": [],
    "openDaysNote": ""
  },
  {
    "id": "4677000020",
    "name": "特別養護老人ホーム回生園",
    "kana": "トクベツヨウゴロウジンホームカイセイエン",
    "address": "鹿児島県曽於郡大崎町菱田家戸原3063番地",
    "lat": 31.4535339532336,
    "lng": 131.021413323968,
    "tel": "099-477-0372",
    "url": "http://www.kaiseien-sanpokai.jp/",
    "pref": "鹿児島県",
    "city": "大崎町",
    "category": "tokuyou",
    "serviceType": "介護老人福祉施設",
    "capacity": 0,
    "openDays": [],
    "openDaysNote": ""
  },
  {
    "id": "4678400021",
    "name": "大和村立特別養護老人ホーム大和の園",
    "kana": "ヤマトソンリツトクベツヨウゴロウジンホームヤマトノソノ",
    "address": "鹿児島県大島郡大和村戸円1903番地",
    "lat": 28.3473239,
    "lng": 129.3149169,
    "tel": "０９９７－５８－３３１６",
    "url": "http://www.vill.yamato.lg.jp/",
    "pref": "鹿児島県",
    "city": "大和村",
    "category": "tokuyou",
    "serviceType": "介護老人福祉施設",
    "capacity": 50,
    "openDays": [],
    "openDaysNote": ""
  },
  {
    "id": "4679500043",
    "name": "特別養護老人ホームさくら園",
    "kana": "トクベツヨウゴロウジンホームサクラエン",
    "address": "鹿児島県大島郡知名町知名1952-1",
    "lat": 27.3342422,
    "lng": 128.5629006,
    "tel": "0997-93-5151",
    "url": "",
    "pref": "鹿児島県",
    "city": "知名町",
    "category": "tokuyou",
    "serviceType": "介護老人福祉施設",
    "capacity": 50,
    "openDays": [],
    "openDaysNote": ""
  },
  {
    "id": "4678000029",
    "name": "特別養護老人ホーム　南界園",
    "kana": "トクベツヨウゴロウジンホーム　ナンカイエン",
    "address": "熊毛郡中種子町田島327-1",
    "lat": 30.4812014,
    "lng": 130.9409206,
    "tel": "0997-27-9204",
    "url": "https://nankaien.jiaikai-k.or.jp/rojinhome",
    "pref": "鹿児島県",
    "city": "中種子町",
    "category": "tokuyou",
    "serviceType": "介護老人福祉施設",
    "capacity": 80,
    "openDays": [],
    "openDaysNote": ""
  },
  {
    "id": "4675000014",
    "name": "特別養護老人ホームあかね園",
    "kana": "トクベツヨウゴロウジンホームアカネエン",
    "address": "鹿児島県出水郡長島町城川内2331-8",
    "lat": 32.1199304,
    "lng": 130.1192863,
    "tel": "0996-88-6800",
    "url": "",
    "pref": "鹿児島県",
    "city": "長島町",
    "category": "tokuyou",
    "serviceType": "介護老人福祉施設",
    "capacity": 0,
    "openDays": [],
    "openDaysNote": ""
  },
  {
    "id": "4674900024",
    "name": "特別養護老人ホーム桃源郷",
    "kana": "トクベツヨウゴロウジンホーム　トウゲンキョウ",
    "address": "鹿児島県出水郡長島町鷹巣740番地2",
    "lat": 32.1964582,
    "lng": 130.1795715,
    "tel": "0996-86-1000",
    "url": "",
    "pref": "鹿児島県",
    "city": "長島町",
    "category": "tokuyou",
    "serviceType": "介護老人福祉施設",
    "capacity": 50,
    "openDays": [],
    "openDaysNote": ""
  },
  {
    "id": "4679200057",
    "name": "特別養護老人ホーム　天寿園",
    "kana": "トクベツヨウゴロウジンホーム　テンジュエン",
    "address": "鹿児島県大島郡天城町松原784-4",
    "lat": 27.865597,
    "lng": 128.9071018,
    "tel": "0997-85-3384",
    "url": "https://www.tenjuen.jp/",
    "pref": "鹿児島県",
    "city": "天城町",
    "category": "tokuyou",
    "serviceType": "介護老人福祉施設",
    "capacity": 50,
    "openDays": [],
    "openDaysNote": ""
  },
  {
    "id": "4677200059",
    "name": "介護老人福祉施設ルーピンの里",
    "kana": "カイゴロウジンフクシシセツルーピンノサト",
    "address": "鹿児島県肝属郡東串良町池之原２０７７番地１",
    "lat": 31.3941942,
    "lng": 130.9787525,
    "tel": "０９９４－６３－０７００",
    "url": "http://www.ru-pin.jp",
    "pref": "鹿児島県",
    "city": "東串良町",
    "category": "tokuyou",
    "serviceType": "介護老人福祉施設",
    "capacity": 0,
    "openDays": [],
    "openDaysNote": ""
  },
  {
    "id": "4677200265",
    "name": "介護老人福祉施設ルーピンの里(ユニット型）",
    "kana": "カイゴロウジンフクシシセツルーピンノサト(ユニットガタ)",
    "address": "鹿児島県肝属郡東串良町池之原２０７７－１",
    "lat": 31.3941942,
    "lng": 130.9787525,
    "tel": "０９９４－６３－０７００",
    "url": "http://www.ru-pin.jp",
    "pref": "鹿児島県",
    "city": "東串良町",
    "category": "tokuyou",
    "serviceType": "介護老人福祉施設",
    "capacity": 30,
    "openDays": [],
    "openDaysNote": ""
  },
  {
    "id": "4679100224",
    "name": "特別養護老人ホーム徳寿園",
    "kana": "トクベツヨウゴロウジンホームトクジュエン",
    "address": "鹿児島県大島郡徳之島町亀津５５４６番地１",
    "lat": 27.7215653171171,
    "lng": 129.00547627274,
    "tel": "0997-83-1551",
    "url": "https://kiyoto900021.wixsite.com/mysite",
    "pref": "鹿児島県",
    "city": "徳之島町",
    "category": "tokuyou",
    "serviceType": "介護老人福祉施設",
    "capacity": 80,
    "openDays": [],
    "openDaysNote": ""
  },
  {
    "id": "4679100109",
    "name": "特別養護老人ホーム南風園",
    "kana": "トクベツヨウゴロウジンホームナンプウエン",
    "address": "鹿児島県大島郡徳之島町花徳６２０番地",
    "lat": 27.8198466,
    "lng": 128.9661946,
    "tel": "0997-84-0811",
    "url": "https://www.nanpuuen.org/",
    "pref": "鹿児島県",
    "city": "徳之島町",
    "category": "tokuyou",
    "serviceType": "介護老人福祉施設",
    "capacity": 0,
    "openDays": [],
    "openDaysNote": ""
  },
  {
    "id": "4672300037",
    "name": "いしがきのさと",
    "kana": "石垣ノ里",
    "address": "鹿児島県南さつま市笠沙町片浦9878",
    "lat": 31.4221221,
    "lng": 130.1688888,
    "tel": "0993-58-8000",
    "url": "https://koujin-ayanokai.or.jp/",
    "pref": "鹿児島県",
    "city": "南さつま市",
    "category": "tokuyou",
    "serviceType": "介護老人福祉施設",
    "capacity": 0,
    "openDays": [],
    "openDaysNote": ""
  },
  {
    "id": "4674000155",
    "name": "ファミリーイン和楽苑",
    "kana": "ファミリーインワラクエン",
    "address": "鹿児島県南さつま市坊津町泊5756",
    "lat": 31.2895253,
    "lng": 130.241117,
    "tel": "0993-67-0136",
    "url": "http://www.seishinfukushikai.jp/",
    "pref": "鹿児島県",
    "city": "南さつま市",
    "category": "tokuyou",
    "serviceType": "介護老人福祉施設",
    "capacity": null,
    "openDays": [],
    "openDaysNote": ""
  },
  {
    "id": "4671100065",
    "name": "介護老人福祉施設　アルテンハイム加世田",
    "kana": "カイゴロウジンフクシシセツ　アルテンハイムカセダ",
    "address": "南さつま市加世田武田13877",
    "lat": 31.4014637,
    "lng": 130.3023281,
    "tel": "0993-52-8715",
    "url": "http://www.nonohanakai.or.jp/",
    "pref": "鹿児島県",
    "city": "南さつま市",
    "category": "tokuyou",
    "serviceType": "介護老人福祉施設",
    "capacity": 80,
    "openDays": [],
    "openDaysNote": ""
  },
  {
    "id": "4671100529",
    "name": "特別養護老人ホーム　金峰苑　（ユニット型）",
    "kana": "トクベツヨウゴロウジンホーム　キンポウエン　（ユニットガタ）",
    "address": "鹿児島県南さつま市金峰町宮崎4019",
    "lat": 31.4352538,
    "lng": 130.3356997,
    "tel": "0993-77-0500",
    "url": "",
    "pref": "鹿児島県",
    "city": "南さつま市",
    "category": "tokuyou",
    "serviceType": "介護老人福祉施設",
    "capacity": 0,
    "openDays": [],
    "openDaysNote": ""
  },
  {
    "id": "4672400043",
    "name": "特別養護老人ホーム　恵風園",
    "kana": "トクベツヨウゴロウジンホーム　ケイフウエン",
    "address": "鹿児島県南さつま市大浦町24760－8",
    "lat": 31.3866813,
    "lng": 130.2276491,
    "tel": "0993-62-4169",
    "url": "http://dairyukai.jp/index.html",
    "pref": "鹿児島県",
    "city": "南さつま市",
    "category": "tokuyou",
    "serviceType": "介護老人福祉施設",
    "capacity": 55,
    "openDays": [],
    "openDaysNote": ""
  },
  {
    "id": "4671100057",
    "name": "特別養護老人ホーム　養徳園",
    "kana": "トクベツヨウゴロウジンホーム　ヨウトクエン",
    "address": "鹿児島県南さつま市加世田小湊５２８番地",
    "lat": 31.4211937352133,
    "lng": 130.29268274841,
    "tel": "０９９３－５３－２４７７",
    "url": "https://youtokuen.com/",
    "pref": "鹿児島県",
    "city": "南さつま市",
    "category": "tokuyou",
    "serviceType": "介護老人福祉施設",
    "capacity": 90,
    "openDays": [],
    "openDaysNote": ""
  },
  {
    "id": "4673500023",
    "name": "特別養護老人ホーム金峰苑",
    "kana": "トクベツヨウゴロウジンホームキンポウエン",
    "address": "金峰町宮崎4019",
    "lat": 31.4352288,
    "lng": 130.3358441,
    "tel": "0993-77-0500",
    "url": "",
    "pref": "鹿児島県",
    "city": "南さつま市",
    "category": "tokuyou",
    "serviceType": "介護老人福祉施設",
    "capacity": 0,
    "openDays": [],
    "openDaysNote": ""
  },
  {
    "id": "4672600048",
    "name": "憩いの里",
    "kana": "イコイノサト",
    "address": "鹿児島県南九州市知覧町永里４５７７番地３",
    "lat": 31.3684026,
    "lng": 130.449425,
    "tel": "0993-83-3077",
    "url": "http://www.ikoi-chiran.",
    "pref": "鹿児島県",
    "city": "南九州市",
    "category": "tokuyou",
    "serviceType": "介護老人福祉施設",
    "capacity": 50,
    "openDays": [],
    "openDaysNote": ""
  },
  {
    "id": "4672600055",
    "name": "特別養護老人ホーム　音野舎",
    "kana": "トクベツヨウゴロウジンホーム　ノンノシャ",
    "address": "鹿児島県南九州市知覧町郡2072番地2",
    "lat": 31.3543562,
    "lng": 130.4328692,
    "tel": "0993-58-7171",
    "url": "http://www.nonnosya.com",
    "pref": "鹿児島県",
    "city": "南九州市",
    "category": "tokuyou",
    "serviceType": "介護老人福祉施設",
    "capacity": 0,
    "openDays": [],
    "openDaysNote": ""
  },
  {
    "id": "4672700053",
    "name": "特別養護老人ホーム　川辺みどり園",
    "kana": "トクベツヨウゴロウジンホーム　カワナベミドリエン",
    "address": "川辺町清水１０１３１－２",
    "lat": 31.4326101,
    "lng": 130.462355,
    "tel": "０９９３－５６－００１８",
    "url": "http://kawanabe19.sakura.ne.jp/",
    "pref": "鹿児島県",
    "city": "南九州市",
    "category": "tokuyou",
    "serviceType": "介護老人福祉施設",
    "capacity": 90,
    "openDays": [],
    "openDaysNote": ""
  },
  {
    "id": "4672100072",
    "name": "特別養護老人ホーム涼松",
    "kana": "トクベツヨウゴロウジンホームスズマツ",
    "address": "鹿児島県南九州市頴娃町別府5539-1",
    "lat": 31.2548201,
    "lng": 130.427595,
    "tel": "0993-38-0121",
    "url": "https://sotetsukai.com",
    "pref": "鹿児島県",
    "city": "南九州市",
    "category": "tokuyou",
    "serviceType": "介護老人福祉施設",
    "capacity": 0,
    "openDays": [],
    "openDaysNote": ""
  },
  {
    "id": "4672100064",
    "name": "望洋の里",
    "kana": "ボウヨウノサト",
    "address": "南九州市頴娃町牧之内３７７６番地８",
    "lat": 31.2487302,
    "lng": 130.4947308,
    "tel": "0993-36-3075",
    "url": "http://www3.synapse.ne.jp/bouyou/",
    "pref": "鹿児島県",
    "city": "南九州市",
    "category": "tokuyou",
    "serviceType": "介護老人福祉施設",
    "capacity": 0,
    "openDays": [],
    "openDaysNote": ""
  },
  {
    "id": "4678100027",
    "name": "特別養護老人ホーム　芙蓉苑",
    "kana": "トクベツヨウゴロウジンホーム　フヨウエン",
    "address": "中之上1702-4鹿児島県南種子町中之上1702-4 鹿児島県南種子町中之上1702-4",
    "lat": 30.4361034,
    "lng": 130.9133353,
    "tel": "0997-26-2345",
    "url": "kofu-fuyo@oregano.ocn.ne.jp",
    "pref": "鹿児島県",
    "city": "南種子町",
    "category": "tokuyou",
    "serviceType": "介護老人福祉施設",
    "capacity": 0,
    "openDays": [],
    "openDaysNote": ""
  },
  {
    "id": "4677700066",
    "name": "特別養護老人ホーム　蒼水園",
    "kana": "トクベツヨウゴロウジンホーム　ソウスイエン",
    "address": "鹿児島県肝属郡南大隅町根占山本1250-1",
    "lat": 31.203528,
    "lng": 130.7748921,
    "tel": "0994-24-3100",
    "url": "https://sousuien.org",
    "pref": "鹿児島県",
    "city": "南大隅町",
    "category": "tokuyou",
    "serviceType": "介護老人福祉施設",
    "capacity": 0,
    "openDays": [],
    "openDaysNote": ""
  },
  {
    "id": "4673000123",
    "name": "介護老人福祉施設　やはずの里",
    "kana": "カイゴロウジンフクシシセツ　ヤハズノサト",
    "address": "鹿児島県日置市伊集院町飯牟礼369番1号",
    "lat": 31.6179683,
    "lng": 130.3857349,
    "tel": "099-273-8211",
    "url": "http://www.yahazunosato.com/",
    "pref": "鹿児島県",
    "city": "日置市",
    "category": "tokuyou",
    "serviceType": "介護老人福祉施設",
    "capacity": 0,
    "openDays": [],
    "openDaysNote": ""
  },
  {
    "id": "4673400067",
    "name": "喜楽奈村",
    "kana": "キラクナムラ",
    "address": "鹿児島県日置市吹上町湯之浦2781番地",
    "lat": 31.5041757,
    "lng": 130.3717966,
    "tel": "099-296-3400",
    "url": "http://www.akebonofukushikai.jp/",
    "pref": "鹿児島県",
    "city": "日置市",
    "category": "tokuyou",
    "serviceType": "介護老人福祉施設",
    "capacity": 0,
    "openDays": [],
    "openDaysNote": ""
  },
  {
    "id": "4673000032",
    "name": "寿福園",
    "kana": "ジュフクエン",
    "address": "鹿児島県日置市伊集院町下神殿224番地2",
    "lat": 31.6632167,
    "lng": 130.4158774,
    "tel": "099-272-5855",
    "url": "https://www.swc-meiwakai.or.jp",
    "pref": "鹿児島県",
    "city": "日置市",
    "category": "tokuyou",
    "serviceType": "介護老人福祉施設",
    "capacity": 0,
    "openDays": [],
    "openDaysNote": ""
  },
  {
    "id": "4672900067",
    "name": "特別養護老人ホーム秋光園",
    "kana": "トクベツヨウゴロウジンホームシュウコウエン",
    "address": "東市来町長里360－1",
    "lat": 31.6625403978464,
    "lng": 130.348840931352,
    "tel": "099-274-3770",
    "url": "",
    "pref": "鹿児島県",
    "city": "日置市",
    "category": "tokuyou",
    "serviceType": "介護老人福祉施設",
    "capacity": 0,
    "openDays": [],
    "openDaysNote": ""
  },
  {
    "id": "4671501023",
    "name": "特別養護老人ホーム青松苑",
    "kana": "トクベツヨウゴロウジンホームセイショウエン",
    "address": "鹿児島県日置市伊集院町妙円寺一丁目１番地８",
    "lat": 31.6404830023362,
    "lng": 130.395083297041,
    "tel": "099-202-0227",
    "url": "https://www.seishin-kai.org/se",
    "pref": "鹿児島県",
    "city": "日置市",
    "category": "tokuyou",
    "serviceType": "介護老人福祉施設",
    "capacity": 0,
    "openDays": [],
    "openDaysNote": ""
  },
  {
    "id": "4670400102",
    "name": "ピースフル立神",
    "kana": "ピースフルタテガミ",
    "address": "鹿児島県枕崎市火之神町725番地",
    "lat": 31.2530282668466,
    "lng": 130.277593776057,
    "tel": "0993-76-2211",
    "url": "https://koseifukushikai.ko-seikai.jp/",
    "pref": "鹿児島県",
    "city": "枕崎市",
    "category": "tokuyou",
    "serviceType": "介護老人福祉施設",
    "capacity": 0,
    "openDays": [],
    "openDaysNote": ""
  },
  {
    "id": "4670400094",
    "name": "社会福祉法人　明星福祉会　特別養護老人ホーム　南方園",
    "kana": "シャカイフクシホウジン　ミョウジョウフクシカイ　トクベツヨウゴロウジンホーム　ナンポウエン",
    "address": "鹿児島県枕崎市まかや町678番地",
    "lat": 31.2901473,
    "lng": 130.3605899,
    "tel": "0993-76-3461",
    "url": "http//www2.synapse.ne.jp/nanpouen/",
    "pref": "鹿児島県",
    "city": "枕崎市",
    "category": "tokuyou",
    "serviceType": "介護老人福祉施設",
    "capacity": 0,
    "openDays": [],
    "openDaysNote": ""
  },
  {
    "id": "4670400342",
    "name": "特別養護老人ホーム恵比須",
    "kana": "トクベツヨウゴロウジンホームエビス",
    "address": "鹿児島県枕崎市宮田町１８１番地",
    "lat": 31.2769855843175,
    "lng": 130.299118709175,
    "tel": "０９９３－７８－３１１０",
    "url": "shukeikai.com",
    "pref": "鹿児島県",
    "city": "枕崎市",
    "category": "tokuyou",
    "serviceType": "介護老人福祉施設",
    "capacity": 0,
    "openDays": [],
    "openDaysNote": ""
  },
  {
    "id": "4675500039",
    "name": "フラワーホーム",
    "kana": "フラワーホーム",
    "address": "鹿児島県霧島市溝辺町麓6丁目4番地",
    "lat": 31.7919369,
    "lng": 130.7075473,
    "tel": "0995-58-3714",
    "url": "www.flowerh.jp",
    "pref": "鹿児島県",
    "city": "霧島市",
    "category": "tokuyou",
    "serviceType": "介護老人福祉施設",
    "capacity": 0,
    "openDays": [],
    "openDaysNote": ""
  },
  {
    "id": "4671201400",
    "name": "フラワーホームユニット",
    "kana": "フラワーホームユニット",
    "address": "鹿児島県霧島市溝辺町麓6丁目4番地",
    "lat": 31.7919174,
    "lng": 130.707564,
    "tel": "0995-58-3714",
    "url": "www.flowerh.jp",
    "pref": "鹿児島県",
    "city": "霧島市",
    "category": "tokuyou",
    "serviceType": "介護老人福祉施設",
    "capacity": 0,
    "openDays": [],
    "openDaysNote": ""
  },
  {
    "id": "4676100086",
    "name": "特別養護老人ホーム　みゆき苑",
    "kana": "トクベツヨウゴロウジンホーム　ミユキエン",
    "address": "鹿児島県霧島市隼人町松永895番地3",
    "lat": 31.7745791,
    "lng": 130.7713396,
    "tel": "０９９５－４３－８１１１",
    "url": "http://www.h-miyukien.info/",
    "pref": "鹿児島県",
    "city": "霧島市",
    "category": "tokuyou",
    "serviceType": "介護老人福祉施設",
    "capacity": 0,
    "openDays": [],
    "openDaysNote": ""
  },
  {
    "id": "4671200121",
    "name": "特別養護老人ホーム　嘉祥園",
    "kana": "トクベツヨウゴロウジンホーム　カショウエン",
    "address": "鹿児島県霧島市国分清水5丁目1番49号",
    "lat": 31.760386,
    "lng": 130.7905138,
    "tel": "0995-46-6511",
    "url": "https://seitenkai.jp/",
    "pref": "鹿児島県",
    "city": "霧島市",
    "category": "tokuyou",
    "serviceType": "介護老人福祉施設",
    "capacity": 80,
    "openDays": [],
    "openDaysNote": ""
  },
  {
    "id": "4676200043",
    "name": "特別養護老人ホーム　牧之原むつみ園",
    "kana": "トクベツヨウゴロウジンホーム　マキノハラムツミエン",
    "address": "福山町福沢4611番地",
    "lat": 31.6580864,
    "lng": 130.8657357,
    "tel": "0995-56-2234",
    "url": "http://www.mutumi-en.com",
    "pref": "鹿児島県",
    "city": "霧島市",
    "category": "tokuyou",
    "serviceType": "介護老人福祉施設",
    "capacity": 0,
    "openDays": [],
    "openDaysNote": ""
  },
  {
    "id": "4675900031",
    "name": "特別養護老人ホーム　霧島青寿園",
    "kana": "トクベツヨウゴロウジンホーム　キリシマセイジュエン",
    "address": "鹿児島県霧島市牧園町三体堂2003番地5",
    "lat": 31.8899995,
    "lng": 130.8048302,
    "tel": "0995-78-3340",
    "url": "http://www.toukeikai.jp/",
    "pref": "鹿児島県",
    "city": "霧島市",
    "category": "tokuyou",
    "serviceType": "介護老人福祉施設",
    "capacity": 90,
    "openDays": [],
    "openDaysNote": ""
  },
  {
    "id": "4675600029",
    "name": "特別養護老人ホーム横川緑風園",
    "kana": "トクベツヨウゴロウジンホームヨコガワリョクフウエン",
    "address": "霧島市横川町中ノ5645番地1",
    "lat": 31.8876161,
    "lng": 130.6948704,
    "tel": "0995-72-1010",
    "url": "https://www.kibo-ryokufuen.com/ryokufuen",
    "pref": "鹿児島県",
    "city": "霧島市",
    "category": "tokuyou",
    "serviceType": "介護老人福祉施設",
    "capacity": 0,
    "openDays": [],
    "openDaysNote": ""
  },
  {
    "id": "4671200568",
    "name": "特別養護老人ホーム青葉の里",
    "kana": "トクベツヨウゴロウジンホーム　アオバノサト",
    "address": "国分郡田１５５９番地２",
    "lat": 31.7584084,
    "lng": 130.8000297,
    "tel": "0995-48-6760",
    "url": "http://seitenkai.jp/",
    "pref": "鹿児島県",
    "city": "霧島市",
    "category": "tokuyou",
    "serviceType": "介護老人福祉施設",
    "capacity": 80,
    "openDays": [],
    "openDaysNote": ""
  },
  {
    "id": "4676000047",
    "name": "特別養護老人ホーム翔朋園",
    "kana": "トクベツヨウゴロウジンホームショウホウエン",
    "address": "霧島田口２７３７番地３６",
    "lat": 31.8416846990319,
    "lng": 130.8595279705,
    "tel": "０９９５－５７－０１００",
    "url": "kirishimakai.jp",
    "pref": "鹿児島県",
    "city": "霧島市",
    "category": "tokuyou",
    "serviceType": "介護老人福祉施設",
    "capacity": 0,
    "openDays": [],
    "openDaysNote": ""
  },
  {
    "id": "4675700019",
    "name": "特別養護老人ホームグリーン光芳",
    "kana": "トクベツヨウゴロウジンホームグリーンコウホウ",
    "address": "鹿児島県姶良郡湧水町米永２３８７番地",
    "lat": 31.9252629,
    "lng": 130.7211058,
    "tel": "０９９５－７４－１１１１",
    "url": "http://greenkouhouyusui.ec-net.jp/",
    "pref": "鹿児島県",
    "city": "湧水町",
    "category": "tokuyou",
    "serviceType": "介護老人福祉施設",
    "capacity": 0,
    "openDays": [],
    "openDaysNote": ""
  },
  {
    "id": "4675800033",
    "name": "特別養護老人ホームつつはの園",
    "kana": "トクベツヨウゴロウジンホームツツハノエン",
    "address": "姶良郡湧水町般若寺358番地",
    "lat": 32.0394372,
    "lng": 130.7443298,
    "tel": "0995-75-4622",
    "url": "",
    "pref": "鹿児島県",
    "city": "湧水町",
    "category": "tokuyou",
    "serviceType": "介護老人福祉施設",
    "capacity": 0,
    "openDays": [],
    "openDaysNote": ""
  },
  {
    "id": "4679600025",
    "name": "特別養護老人ホームヨロン園",
    "kana": "トクベツヨウゴロウジンホームヨロンエン",
    "address": "茶花2179番地",
    "lat": 27.04901,
    "lng": 128.4158155,
    "tel": "０９９７－９７－２２８５",
    "url": "https：//www.yoronen-kouyokai.org",
    "pref": "鹿児島県",
    "city": "与論町",
    "category": "tokuyou",
    "serviceType": "介護老人福祉施設",
    "capacity": 0,
    "openDays": [],
    "openDaysNote": ""
  },
  {
    "id": "4678800220",
    "name": "特別養護老人ホーム　龍郷の里",
    "kana": "トクベツヨウゴロウジンホーム　タツゴウノサト",
    "address": "大島群龍郷町嘉渡787",
    "lat": 28.4522129,
    "lng": 129.56826,
    "tel": "0997-62-4500",
    "url": "http://ryofu-kai.com/",
    "pref": "鹿児島県",
    "city": "龍郷町",
    "category": "tokuyou",
    "serviceType": "介護老人福祉施設",
    "capacity": 50,
    "openDays": [],
    "openDaysNote": ""
  },
  {
    "id": "4678800048",
    "name": "特別養護老人ホーム愛寿園",
    "kana": "トクベツヨウゴロウジンホームアイジュエン",
    "address": "鹿児島県大島郡龍郷町浦1874番地",
    "lat": 28.4122002,
    "lng": 129.5954507,
    "tel": "0997-62-2175",
    "url": "ryusenkai.org",
    "pref": "鹿児島県",
    "city": "龍郷町",
    "category": "tokuyou",
    "serviceType": "介護老人福祉施設",
    "capacity": 50,
    "openDays": [],
    "openDaysNote": ""
  },
  {
    "id": "4679400020",
    "name": "特別養護老人ホームしらゆりの園",
    "kana": "トクベツヨウゴロウジンホーム　シラユリノソノ",
    "address": "鹿児島県大島郡和泊町手々知名７８１番地",
    "lat": 27.4014195,
    "lng": 128.6541554,
    "tel": "0997-92-1825",
    "url": "http://kagoshimakuroshiokai.jp/sirayurinosono/",
    "pref": "鹿児島県",
    "city": "和泊町",
    "category": "tokuyou",
    "serviceType": "介護老人福祉施設",
    "capacity": 0,
    "openDays": [],
    "openDaysNote": ""
  }
]