[
  {
    "id": "24B0800019",
    "name": "医療法人　全心会　伊勢ひかり病院介護医療院",
    "kana": "イリョウホウジン　ゼンシンカイ　イセヒカリビョウインカイゴイリョウイン",
    "address": "三重県伊勢市御薗町高向８１０番地1伊勢ひかり病院　1階 伊勢ひかり病院　1階",
    "lat": 34.5003345250943,
    "lng": 136.698439396602,
    "tel": "0596-22-1155",
    "url": "https://ise-hikari.com",
    "pref": "三重県",
    "city": "伊勢市",
    "category": "care_medical_institute",
    "serviceType": "介護医療院",
    "capacity": null,
    "openDays": [],
    "openDaysNote": ""
  },
  {
    "id": "24B3000013",
    "name": "第一病院介護医療院",
    "kana": "ダイイチビョウインカイゴイリョウイン",
    "address": "三重県北牟婁郡紀北町上里225番地8",
    "lat": 34.1434476,
    "lng": 136.2343243,
    "tel": "0597－36－1111",
    "url": "",
    "pref": "三重県",
    "city": "紀北町",
    "category": "care_medical_institute",
    "serviceType": "介護医療院",
    "capacity": 90,
    "openDays": [],
    "openDaysNote": ""
  },
  {
    "id": "24B0100014",
    "name": "長島中央病院介護医療院",
    "kana": "ナガシマチュウオウビョウインカイゴイリョウイン",
    "address": "三重県桑名市長島町福吉271番地",
    "lat": 35.0573161,
    "lng": 136.7155542,
    "tel": "0594-45-0555",
    "url": "https://www.sato-group.jp/",
    "pref": "三重県",
    "city": "桑名市",
    "category": "care_medical_institute",
    "serviceType": "介護医療院",
    "capacity": null,
    "openDays": [],
    "openDaysNote": ""
  },
  {
    "id": "24B0700011",
    "name": "介護医療院ホリエ",
    "kana": "カイゴイリョウインホリエ",
    "address": "三重県松阪市鎌田町234の１",
    "lat": 34.5817816,
    "lng": 136.5359999,
    "tel": "0598-51-5311",
    "url": "http://www.kashouen.or.jp/",
    "pref": "三重県",
    "city": "松阪市",
    "category": "care_medical_institute",
    "serviceType": "介護医療院",
    "capacity": null,
    "openDays": [],
    "openDaysNote": ""
  },
  {
    "id": "24B0500015",
    "name": "医療法人十愛会　幸和病院　介護医療院",
    "kana": "イリョウホウジンジュウアイカイ　コウワビョウイン　カイゴイリョウイン",
    "address": "三重県津市一身田町767",
    "lat": 34.7615284,
    "lng": 136.5060248,
    "tel": "059-231-6001",
    "url": "",
    "pref": "三重県",
    "city": "津市",
    "category": "care_medical_institute",
    "serviceType": "介護医療院",
    "capacity": 0,
    "openDays": [],
    "openDaysNote": ""
  },
  {
    "id": "24B0500031",
    "name": "倉本病院介護医療院",
    "kana": "クラモトビョウインカイゴイリョウイン",
    "address": "津市下弁財町津興3040番地",
    "lat": 34.7047259,
    "lng": 136.5107326,
    "tel": "059-227-6712",
    "url": "http://www.kuramotohospital.net/",
    "pref": "三重県",
    "city": "津市",
    "category": "care_medical_institute",
    "serviceType": "介護医療院",
    "capacity": null,
    "openDays": [],
    "openDaysNote": ""
  },
  {
    "id": "24B0500023",
    "name": "第二岩崎病院",
    "kana": "ダイニイワサキビョウイン",
    "address": "三重県津市一身田町３８７番地",
    "lat": 34.7588985,
    "lng": 136.5078089,
    "tel": "059-232-2316",
    "url": "http://www.iwasaki-hosp.or.jp/newpage15.html",
    "pref": "三重県",
    "city": "津市",
    "category": "care_medical_institute",
    "serviceType": "介護医療院",
    "capacity": 0,
    "openDays": [],
    "openDaysNote": ""
  },
  {
    "id": "24B1300019",
    "name": "医療法人寺田病院　介護医療院",
    "kana": "イリョウホウジンテラダビョウイン　カイゴイリョウイン",
    "address": "夏見３２６０番地１",
    "lat": 34.6198194956481,
    "lng": 136.106054969975,
    "tel": "0595-63-9001",
    "url": "http://www.terada-hp.or.jp",
    "pref": "三重県",
    "city": "名張市",
    "category": "care_medical_institute",
    "serviceType": "介護医療院",
    "capacity": 0,
    "openDays": [],
    "openDaysNote": ""
  }
]