[
  {
    "id": "26B1200019",
    "name": "医療法人　栄仁会　宇治おうばく病院　介護医療院",
    "kana": "イリョウホウジン　エイジンカイ　ウジオウバクビョウイン　カイゴイリョウイン",
    "address": "京都府宇治市五ヶ庄三番割32-1",
    "lat": 34.9129525,
    "lng": 135.8114501,
    "tel": "0774-66-5011",
    "url": "http://www.eijinkai.or.jp",
    "pref": "京都府",
    "city": "宇治市",
    "category": "care_medical_institute",
    "serviceType": "介護医療院",
    "capacity": 0,
    "openDays": [],
    "openDaysNote": ""
  },
  {
    "id": "26B1600010",
    "name": "医療法人亀岡病院　介護医療院はたごまち",
    "kana": "イリョウホウジンカメオカビョウイン　カイゴイリョウインハタゴマチ",
    "address": "京都府亀岡市旅籠町29",
    "lat": 35.0101268,
    "lng": 135.5811612,
    "tel": "0771-25-2020",
    "url": "https://kameokahp.com/kaigo/",
    "pref": "京都府",
    "city": "亀岡市",
    "category": "care_medical_institute",
    "serviceType": "介護医療院",
    "capacity": null,
    "openDays": [],
    "openDaysNote": ""
  },
  {
    "id": "26B1600028",
    "name": "医療法人睦会　ムツミ病院介護医療院",
    "kana": "イリョウホウジンムツミカイ　ムツミビョウインカイゴイリョウイン",
    "address": "京都府亀岡市下矢田町君塚8番地",
    "lat": 35.0020822644728,
    "lng": 135.577268137238,
    "tel": "771231231",
    "url": "https://www.mutsumi-hospital.com",
    "pref": "京都府",
    "city": "亀岡市",
    "category": "care_medical_institute",
    "serviceType": "介護医療院",
    "capacity": null,
    "openDays": [],
    "openDaysNote": ""
  },
  {
    "id": "26B0700019",
    "name": "医療法人社団京健会　介護医療院さいきょう",
    "kana": "イリョウホウジンシャダンキョウケンカイ　カイゴイリョウインサイキョウ",
    "address": "西院北矢掛町39-1",
    "lat": 35.001860321555,
    "lng": 135.730256484656,
    "tel": "075-313-0725",
    "url": "https://saikyo-clinic.com",
    "pref": "京都府",
    "city": "京都市右京区",
    "category": "care_medical_institute",
    "serviceType": "介護医療院",
    "capacity": null,
    "openDays": [],
    "openDaysNote": ""
  },
  {
    "id": "26B0700035",
    "name": "一般財団法人高雄病院介護医療院優都ぴあ",
    "kana": "イッパンザイダンホウジンタカオビョウインカイゴイリョウインユウトピア",
    "address": "京都府京都市右京区梅ケ畑畑町3番地",
    "lat": 35.037109,
    "lng": 135.6944951,
    "tel": "075-871-0245",
    "url": "http://takao-hospital.jp/",
    "pref": "京都府",
    "city": "京都市右京区",
    "category": "care_medical_institute",
    "serviceType": "介護医療院",
    "capacity": 0,
    "openDays": [],
    "openDaysNote": ""
  },
  {
    "id": "26B0700027",
    "name": "一般財団法人仁風会　嵯峨野病院介護医療院",
    "kana": "イッパンザイダンホウジンジンプウカイ　サガノビョウインカイゴイリョウイン",
    "address": "京都市右京区鳴滝宇多野谷9番地",
    "lat": 35.0316402628738,
    "lng": 135.705895409401,
    "tel": "075-464-0321",
    "url": "http://www.jinpukai.or.jp/",
    "pref": "京都府",
    "city": "京都市右京区",
    "category": "care_medical_institute",
    "serviceType": "介護医療院",
    "capacity": null,
    "openDays": [],
    "openDaysNote": ""
  },
  {
    "id": "26B0400016",
    "name": "木津屋橋武田病院介護医療院",
    "kana": "キヅヤバシタケダビョウインカイゴイリョウイン",
    "address": "京都府京都市下京区油小路通下魚棚下ル油小路町293番地",
    "lat": 34.988635,
    "lng": 135.753981,
    "tel": "075-343-1766",
    "url": "https://www.takedahp.or.jp/group/medical/kizuyabashi/",
    "pref": "京都府",
    "city": "京都市下京区",
    "category": "care_medical_institute",
    "serviceType": "介護医療院",
    "capacity": 111,
    "openDays": [],
    "openDaysNote": ""
  },
  {
    "id": "26B0600011",
    "name": "医療法人　稲門会　介護医療院　レモンの木",
    "kana": "イリョウホウジン　トウモンカイ　カイゴイリョウイン　レモンノキ",
    "address": "京都府京都市左京区岩倉上蔵町101",
    "lat": 35.0786299,
    "lng": 135.7826589,
    "tel": "075-711-2647",
    "url": "http://www.toumonkai.net/",
    "pref": "京都府",
    "city": "京都市左京区",
    "category": "care_medical_institute",
    "serviceType": "介護医療院",
    "capacity": 0,
    "openDays": [],
    "openDaysNote": ""
  },
  {
    "id": "26B0600029",
    "name": "公益社団法人信和会　介護医療院茶山のさと",
    "kana": "コウエキシャダンホウジンシンワカイ　カイゴイリョウインチャヤマノサト",
    "address": "京都府京都市左京区田中上大久保町15番地",
    "lat": 35.038005187575,
    "lng": 135.782851774344,
    "tel": "075ー712ー3663",
    "url": "https://shinwakai-min.com/cyayamanosato/",
    "pref": "京都府",
    "city": "京都市左京区",
    "category": "care_medical_institute",
    "serviceType": "介護医療院",
    "capacity": 70,
    "openDays": [],
    "openDaysNote": ""
  },
  {
    "id": "26B4100018",
    "name": "医療法人新生十全会　京都東山老年サナトリウム介護医療院",
    "kana": "イリョウホウジンシンセイジュウゼンカイ　キョウトヒガシヤマロウネンサナトリウムカイゴイリョウイン",
    "address": "京都府京都市山科区日ノ岡夷谷町11番地",
    "lat": 35.0006103,
    "lng": 135.7951338,
    "tel": "075-771-4196",
    "url": "http://www.juzenkai.or.jp",
    "pref": "京都府",
    "city": "京都市山科区",
    "category": "care_medical_institute",
    "serviceType": "介護医療院",
    "capacity": null,
    "openDays": [],
    "openDaysNote": ""
  },
  {
    "id": "26B0200010",
    "name": "医療法人愛寿会同仁病院介護医療院",
    "kana": "イリョウホウジンアイジュカイドウジンビョウインカイゴイリョウイン",
    "address": "一条通新町東入東日野殿町394番地1",
    "lat": 35.0264644,
    "lng": 135.7573444,
    "tel": "075-431-3300",
    "url": "www.dohjin-hp.com",
    "pref": "京都府",
    "city": "京都市上京区",
    "category": "care_medical_institute",
    "serviceType": "介護医療院",
    "capacity": null,
    "openDays": [],
    "openDaysNote": ""
  },
  {
    "id": "26B0800017",
    "name": "医療法人社団育生会京都久野病院介護医療院",
    "kana": "イリョウホウジンシャダンイクセイカイキョウトクノビョウインカイゴイリョウイン",
    "address": "京都府京都市東山区本町22丁目500番地",
    "lat": 34.9706719664591,
    "lng": 135.770521406746,
    "tel": "075-541-3136",
    "url": "https://www.kuno-hospital.or.jp",
    "pref": "京都府",
    "city": "京都市東山区",
    "category": "care_medical_institute",
    "serviceType": "介護医療院",
    "capacity": null,
    "openDays": [],
    "openDaysNote": ""
  },
  {
    "id": "26B0900015",
    "name": "医療法人新生十全会なごみの里病院介護医療院",
    "kana": "イリョウホウジンシンセイジュウゼンカイナゴミノサトビョウインカイゴイリョウイン",
    "address": "京都市伏見区日野西風呂町５番地",
    "lat": 34.9356804,
    "lng": 135.8129104,
    "tel": "075-572-0634",
    "url": "https://www.juzenkai.or.jp",
    "pref": "京都府",
    "city": "京都市伏見区",
    "category": "care_medical_institute",
    "serviceType": "介護医療院",
    "capacity": null,
    "openDays": [],
    "openDaysNote": ""
  },
  {
    "id": "26B0900049",
    "name": "一般財団法人　仁風会　京都南西病院介護医療院",
    "kana": "イッパンザイダンホウジンジンプウカイキョウトナンセイビョウインカイゴイリョウイン",
    "address": "京都府京都市伏見区久我東町8番地22",
    "lat": 34.9340515,
    "lng": 135.7271356,
    "tel": "075-922-0321",
    "url": "http://www.jinpukai.or.jp",
    "pref": "京都府",
    "city": "京都市伏見区",
    "category": "care_medical_institute",
    "serviceType": "介護医療院",
    "capacity": null,
    "openDays": [],
    "openDaysNote": ""
  },
  {
    "id": "26B0900023",
    "name": "介護医療院　医療法人　五木田病院",
    "kana": "カイゴイリョウイン　イリョウホウジン　ゴキタビョウイン",
    "address": "京都府京都市伏見区竹田流池町１１６番地",
    "lat": 34.9645091,
    "lng": 135.7585999,
    "tel": "075-641-1156",
    "url": "gokita@msa.biglobe.ne.jp",
    "pref": "京都府",
    "city": "京都市伏見区",
    "category": "care_medical_institute",
    "serviceType": "介護医療院",
    "capacity": 0,
    "openDays": [],
    "openDaysNote": ""
  },
  {
    "id": "26B0900064",
    "name": "介護医療院　洛和ヴィラよつば",
    "kana": "カイゴイリョウイン　ラクワウ\"ィラヨツバ",
    "address": "京都府京都市伏見区淀美豆町1077番地",
    "lat": 34.8973776,
    "lng": 135.7095876,
    "tel": "075-632-6116",
    "url": "www.rakuwa.or.jp",
    "pref": "京都府",
    "city": "京都市伏見区",
    "category": "care_medical_institute",
    "serviceType": "介護医療院",
    "capacity": 0,
    "openDays": [],
    "openDaysNote": ""
  },
  {
    "id": "26B0900031",
    "name": "蘇生会総合病院　介護医療院",
    "kana": "ソセイカイソウゴウビョウイン　カイゴイリョウイン",
    "address": "京都市伏見区下鳥羽広長町101番地",
    "lat": 34.9330123245063,
    "lng": 135.745347515344,
    "tel": "075-621-3101",
    "url": "http://www.soseikai.or.jp",
    "pref": "京都府",
    "city": "京都市伏見区",
    "category": "care_medical_institute",
    "serviceType": "介護医療院",
    "capacity": null,
    "openDays": [],
    "openDaysNote": ""
  },
  {
    "id": "26B0100020",
    "name": "医療法人愛智会京都北野病院　京都北野病院介護医療院",
    "kana": "イリョウホウジン　アイチカイ　キョウトキタノビョウイン　キョウトキタノビョウイン　カイゴイリョウイン",
    "address": "京都府京都市北区大将軍東鷹司町８６番地",
    "lat": 35.0229556,
    "lng": 135.731243,
    "tel": "(075)462-3611",
    "url": "",
    "pref": "京都府",
    "city": "京都市北区",
    "category": "care_medical_institute",
    "serviceType": "介護医療院",
    "capacity": null,
    "openDays": [],
    "openDaysNote": ""
  },
  {
    "id": "26B0100012",
    "name": "医療法人葵会　介護医療院おおみや葵の郷",
    "kana": "イリョウホウジンアオイカイ　カイゴイリョウインオオミヤアオイノサト",
    "address": "京都府京都市北区紫竹北大門町56",
    "lat": 35.053395,
    "lng": 135.7449998,
    "tel": "075-495-6650",
    "url": "http://kita-hp.aoikai.net/",
    "pref": "京都府",
    "city": "京都市北区",
    "category": "care_medical_institute",
    "serviceType": "介護医療院",
    "capacity": 60,
    "openDays": [],
    "openDaysNote": ""
  },
  {
    "id": "26B0100038",
    "name": "医療法人浜田会　洛北病院介護医療院",
    "kana": "イリョウホウジンハマダカイ　ラクホクビョウインカイゴイリョウイン",
    "address": "京都府京都市北区上賀茂神山６番地",
    "lat": 35.0762644,
    "lng": 135.7645866,
    "tel": "075-701-0151",
    "url": "http://rakuhoku-hospital.com/",
    "pref": "京都府",
    "city": "京都市北区",
    "category": "care_medical_institute",
    "serviceType": "介護医療院",
    "capacity": 0,
    "openDays": [],
    "openDaysNote": ""
  },
  {
    "id": "26B3100019",
    "name": "医療法人真生会向日回生病院介護医療院",
    "kana": "イリョウホウジンシンセイカイムコウカイセイビョウインカイゴイリョウイン",
    "address": "京都府向日市物集女町中海道９２番地の12",
    "lat": 34.9621677,
    "lng": 135.6912858,
    "tel": "759346881",
    "url": "http://shinseikai.jpn.com/",
    "pref": "京都府",
    "city": "向日市",
    "category": "care_medical_institute",
    "serviceType": "介護医療院",
    "capacity": 0,
    "openDays": [],
    "openDaysNote": ""
  },
  {
    "id": "26B3000011",
    "name": "長岡介護医療院",
    "kana": "ナガオカカイゴイリョウイン",
    "address": "京都府長岡京市友岡4丁目18番地1号",
    "lat": 34.9139603,
    "lng": 135.6898736,
    "tel": "075-951-9201",
    "url": "http://www.nagaoka.or.jp",
    "pref": "京都府",
    "city": "長岡京市",
    "category": "care_medical_institute",
    "serviceType": "介護医療院",
    "capacity": null,
    "openDays": [],
    "openDaysNote": ""
  },
  {
    "id": "26B2900013",
    "name": "医療法人社団医聖会　介護医療院梨の里",
    "kana": "イリョウホウジンシャダンイセイカイ　カイゴロウジンホケンシセツ",
    "address": "京都府八幡市八幡柿木垣内25-1",
    "lat": 34.8705379206917,
    "lng": 135.707576623943,
    "tel": "075-982-0125",
    "url": "https://iseikai.jp/kaigoiryoin/nashinosato/index.html",
    "pref": "京都府",
    "city": "八幡市",
    "category": "care_medical_institute",
    "serviceType": "介護医療院",
    "capacity": null,
    "openDays": [],
    "openDaysNote": ""
  }
]