[
  {
    "id": "41B0500014",
    "name": "医療法人　水上医院　介護医療院",
    "kana": "イリョウホウジン　ミズカミイイン　カイゴイリョウイン",
    "address": "佐賀県伊万里市山代町立岩２６７１－１",
    "lat": 33.3358837902025,
    "lng": 129.790739164418,
    "tel": "０９５５－２８－３７１４",
    "url": "",
    "pref": "佐賀県",
    "city": "伊万里市",
    "category": "care_medical_institute",
    "serviceType": "介護医療院",
    "capacity": null,
    "openDays": [],
    "openDaysNote": ""
  },
  {
    "id": "41B0500030",
    "name": "医療法人小副川医院介護医療院",
    "kana": "イリョウホウジンオソエガワイインカイゴイリョウイン",
    "address": "佐賀県伊万里市二里町八谷搦870番地1",
    "lat": 33.268526,
    "lng": 129.859225,
    "tel": "0955-22-4114",
    "url": "",
    "pref": "佐賀県",
    "city": "伊万里市",
    "category": "care_medical_institute",
    "serviceType": "介護医療院",
    "capacity": null,
    "openDays": [],
    "openDaysNote": ""
  },
  {
    "id": "41B1600011",
    "name": "古賀小児科内科病院介護医療院",
    "kana": "コガショウニカナイカビョウインカイゴイリョウイン",
    "address": "佐賀県杵島郡江北町大字上小田280-1",
    "lat": 33.2259132,
    "lng": 130.1449543,
    "tel": "0952-86-2533",
    "url": "https://eijyukai-saga.jp",
    "pref": "佐賀県",
    "city": "江北町",
    "category": "care_medical_institute",
    "serviceType": "介護医療院",
    "capacity": 0,
    "openDays": [],
    "openDaysNote": ""
  },
  {
    "id": "41B0100013",
    "name": "介護医療院　愛咲",
    "kana": "カイゴイリョウイン　マナザシ",
    "address": "佐賀県佐賀市水ヶ江二丁目7-23",
    "lat": 33.2492334,
    "lng": 130.3080393,
    "tel": "0952-23-3720",
    "url": "http://www.shida-hp.com",
    "pref": "佐賀県",
    "city": "佐賀市",
    "category": "care_medical_institute",
    "serviceType": "介護医療院",
    "capacity": 0,
    "openDays": [],
    "openDaysNote": ""
  },
  {
    "id": "41B0100021",
    "name": "介護医療院　兵庫の郷",
    "kana": "カイゴイリョウイン　ヒョウゴノサト",
    "address": "佐賀県佐賀市兵庫町大字渕4604番地1",
    "lat": 33.2801427,
    "lng": 130.3165198,
    "tel": "0952-97-6301",
    "url": "http://shunyoukai.jp",
    "pref": "佐賀県",
    "city": "佐賀市",
    "category": "care_medical_institute",
    "serviceType": "介護医療院",
    "capacity": null,
    "openDays": [],
    "openDaysNote": ""
  },
  {
    "id": "41B2000013",
    "name": "介護医療院和田記念病院",
    "kana": "カイゴイリョウインワダキネンビョウイン",
    "address": "佐賀県神埼市神埼町尾崎3780",
    "lat": 33.3280263,
    "lng": 130.3470823,
    "tel": "0952-52-5521",
    "url": "https://kyuwakai.jp/index.html",
    "pref": "佐賀県",
    "city": "神埼市",
    "category": "care_medical_institute",
    "serviceType": "介護医療院",
    "capacity": null,
    "openDays": [],
    "openDaysNote": ""
  },
  {
    "id": "41B0400017",
    "name": "諸隈病院介護医療院",
    "kana": "モロクマビョウインカイゴイリョウイン",
    "address": "佐賀県多久市北多久町大字多久原２４１４－７０",
    "lat": 33.2862978,
    "lng": 130.1143502,
    "tel": "０９５２－７４－２１００",
    "url": "https://morokuma-hos.jp/",
    "pref": "佐賀県",
    "city": "多久市",
    "category": "care_medical_institute",
    "serviceType": "介護医療院",
    "capacity": 0,
    "openDays": [],
    "openDaysNote": ""
  },
  {
    "id": "41B0200011",
    "name": "宇都宮病院",
    "kana": "ウツノミヤビョウイン",
    "address": "佐賀県唐津市厳木町本山386-1",
    "lat": 33.3314403256768,
    "lng": 130.036955585706,
    "tel": "0955-63-2515",
    "url": "http://www.utunomiya.jp/",
    "pref": "佐賀県",
    "city": "唐津市",
    "category": "care_medical_institute",
    "serviceType": "介護医療院",
    "capacity": 0,
    "openDays": [],
    "openDaysNote": ""
  },
  {
    "id": "41B1600037",
    "name": "高島病院介護医療院",
    "kana": "タカシマビョウインカイゴイリョウイン",
    "address": "佐賀県杵島郡白石町大字戸ヶ里1831番地18",
    "lat": 33.1548033,
    "lng": 130.1247696,
    "tel": "0954-65-3129",
    "url": "https://yuai-th.com",
    "pref": "佐賀県",
    "city": "白石町",
    "category": "care_medical_institute",
    "serviceType": "介護医療院",
    "capacity": null,
    "openDays": [],
    "openDaysNote": ""
  },
  {
    "id": "41B0600012",
    "name": "大野病院介護医療院",
    "kana": "オオノビョウインカイゴイリョウイン",
    "address": "佐賀県武雄市山内町大字大野6351番地1",
    "lat": 33.2106937,
    "lng": 129.9392721,
    "tel": "0954-45-2233",
    "url": "https;//www.ryumondo.or.jp",
    "pref": "佐賀県",
    "city": "武雄市",
    "category": "care_medical_institute",
    "serviceType": "介護医療院",
    "capacity": 0,
    "openDays": [],
    "openDaysNote": ""
  }
]