[
  {
    "id": "28B3300013",
    "name": "介護医療院　ケアヴィラ伊丹",
    "kana": "カイゴイリョウイン　ケアヴィライタミ",
    "address": "兵庫県伊丹市大野１丁目3-2",
    "lat": 34.8044443,
    "lng": 135.4012049,
    "tel": "072-777-1165",
    "url": "https://carevilla.com/itami/index.html",
    "pref": "兵庫県",
    "city": "伊丹市",
    "category": "care_medical_institute",
    "serviceType": "介護医療院",
    "capacity": null,
    "openDays": [],
    "openDaysNote": ""
  },
  {
    "id": "28B2200016",
    "name": "いなみ野病院介護医療院",
    "kana": "イナミノビョウインカイゴイリョウイン",
    "address": "兵庫県加古川市平岡町土山字川池423-2",
    "lat": 34.7298815,
    "lng": 134.8962865,
    "tel": "078-941-1730",
    "url": "https://inamino-hp.senreikai.org/",
    "pref": "兵庫県",
    "city": "加古川市",
    "category": "care_medical_institute",
    "serviceType": "介護医療院",
    "capacity": 0,
    "openDays": [],
    "openDaysNote": ""
  },
  {
    "id": "28B2600017",
    "name": "米田病院介護医療院",
    "kana": "ヨネダビョウインカイゴイリョウイン",
    "address": "兵庫県加西市尾崎町字野田10番1",
    "lat": 34.9016338,
    "lng": 134.8441169,
    "tel": "0790-48-3591",
    "url": "http:/www.yoneda-hospital.com/",
    "pref": "兵庫県",
    "city": "加西市",
    "category": "care_medical_institute",
    "serviceType": "介護医療院",
    "capacity": 0,
    "openDays": [],
    "openDaysNote": ""
  },
  {
    "id": "28B3700014",
    "name": "医療法人社団一葉会きねん介護医療院",
    "kana": "イリョウホウジンシャダンイチヨウカイキネンカイゴイリョウイン",
    "address": "兵庫県佐用郡佐用町佐用1132-25",
    "lat": 35.0062843,
    "lng": 134.3518218,
    "tel": "0790-82-2323",
    "url": "http://sayohp.jp/",
    "pref": "兵庫県",
    "city": "佐用町",
    "category": "care_medical_institute",
    "serviceType": "介護医療院",
    "capacity": null,
    "openDays": [],
    "openDaysNote": ""
  },
  {
    "id": "28B1200017",
    "name": "平島病院　介護医療院",
    "kana": "ヒラシマビョウイン　カイゴイリョウイン",
    "address": "兵庫県三田市天神1丁目2番15号",
    "lat": 34.8897028,
    "lng": 135.2222713,
    "tel": "079-564-5381",
    "url": "https://www.mc-shojin.or.jp/",
    "pref": "兵庫県",
    "city": "三田市",
    "category": "care_medical_institute",
    "serviceType": "介護医療院",
    "capacity": 0,
    "openDays": [],
    "openDaysNote": ""
  },
  {
    "id": "28B5100015",
    "name": "ポートアイランド介護医療院",
    "kana": "ポートアイランドカイゴイリョウイン",
    "address": "兵庫県神戸市中央区港島中町4-6メディケアセンタービル メディケアセンタービル",
    "lat": 34.6686904,
    "lng": 135.2090473,
    "tel": "078-303-6123",
    "url": "http://www.pi.kobe-mariners.or.jp/",
    "pref": "兵庫県",
    "city": "神戸市中央区",
    "category": "care_medical_institute",
    "serviceType": "介護医療院",
    "capacity": 0,
    "openDays": [],
    "openDaysNote": ""
  },
  {
    "id": "28B0600019",
    "name": "介護医療院よしだ",
    "kana": "カイゴイリョウインヨシダ",
    "address": "兵庫県神戸市長田区東尻池町1丁目10-23",
    "lat": 34.6622731,
    "lng": 135.1560256,
    "tel": "078-671-2516",
    "url": "http://www.yoshida-hp.or.jp/",
    "pref": "兵庫県",
    "city": "神戸市長田区",
    "category": "care_medical_institute",
    "serviceType": "介護医療院",
    "capacity": null,
    "openDays": [],
    "openDaysNote": ""
  },
  {
    "id": "28B0100010",
    "name": "東神戸病院介護医療院",
    "kana": "ヒガシコウベビョウイン　カイゴイリョウイン",
    "address": "神戸市東灘区住吉本町1丁目24番13号",
    "lat": 34.7222134,
    "lng": 135.2601812,
    "tel": "078-841-5731",
    "url": "",
    "pref": "兵庫県",
    "city": "神戸市東灘区",
    "category": "care_medical_institute",
    "serviceType": "介護医療院",
    "capacity": null,
    "openDays": [],
    "openDaysNote": ""
  },
  {
    "id": "28B5000017",
    "name": "まほし介護医療院",
    "kana": "マホシカイゴイリョウイン",
    "address": "兵庫県神戸市北区山田町上谷上字古々谷12番地の3",
    "lat": 34.7710635,
    "lng": 135.1897866,
    "tel": "078-582-0111",
    "url": "http://www.mahoshi.com/",
    "pref": "兵庫県",
    "city": "神戸市北区",
    "category": "care_medical_institute",
    "serviceType": "介護医療院",
    "capacity": 0,
    "openDays": [],
    "openDaysNote": ""
  },
  {
    "id": "28B5000025",
    "name": "医療法人社団　尚仁会　福山診療所　介護医療院",
    "kana": "イリョウホウジンシャダン　ショウジンカイ　フクヤマシンリョウジョ　カイゴイリョウイン",
    "address": "兵庫県神戸市北区菖蒲が丘１丁目１４番地１",
    "lat": 34.839445,
    "lng": 135.2181644,
    "tel": "078-952-2820",
    "url": "",
    "pref": "兵庫県",
    "city": "神戸市北区",
    "category": "care_medical_institute",
    "serviceType": "介護医療院",
    "capacity": 19,
    "openDays": [],
    "openDaysNote": ""
  },
  {
    "id": "28B0900021",
    "name": "くまの介護医療院",
    "kana": "クマノカイゴイリョウイン",
    "address": "兵庫県西宮市下大市西町14番13号",
    "lat": 34.7617836,
    "lng": 135.3602158,
    "tel": "0798-52-3221",
    "url": "https://kumano-hp.com/",
    "pref": "兵庫県",
    "city": "西宮市",
    "category": "care_medical_institute",
    "serviceType": "介護医療院",
    "capacity": null,
    "openDays": [],
    "openDaysNote": ""
  },
  {
    "id": "28B0900013",
    "name": "三好病院介護医療院",
    "kana": "ミヨシビョウインカイゴイリョウイン",
    "address": "兵庫県西宮市甲子園口北町24-9",
    "lat": 34.7417206,
    "lng": 135.3769115,
    "tel": "0798-67-3505",
    "url": "https://miyoshi-hp.jp/",
    "pref": "兵庫県",
    "city": "西宮市",
    "category": "care_medical_institute",
    "serviceType": "介護医療院",
    "capacity": 0,
    "openDays": [],
    "openDaysNote": ""
  },
  {
    "id": "28B3100017",
    "name": "九十九記念病院介護医療院",
    "kana": "ツクモキネンビョウインカイゴイリョウイン",
    "address": "兵庫県川西市栄町10番4号",
    "lat": 34.8291686,
    "lng": 135.4137654,
    "tel": "072-759-9020",
    "url": "http://www.tukumo-kinenhp./jp",
    "pref": "兵庫県",
    "city": "川西市",
    "category": "care_medical_institute",
    "serviceType": "介護医療院",
    "capacity": null,
    "openDays": [],
    "openDaysNote": ""
  },
  {
    "id": "28B2700015",
    "name": "多可赤十字介護医療院",
    "kana": "タカセキジュウジカイゴイリョウイン",
    "address": "兵庫県多可郡多可町中区岸上280-19多可赤十字介護医療院 多可赤十字介護医療院",
    "lat": 35.0541072231772,
    "lng": 134.92328713268,
    "tel": "0795-32-1290",
    "url": "http://www.taka.jrc.or.jp",
    "pref": "兵庫県",
    "city": "多可町",
    "category": "care_medical_institute",
    "serviceType": "介護医療院",
    "capacity": 0,
    "openDays": [],
    "openDaysNote": ""
  },
  {
    "id": "28B1400013",
    "name": "介護医療院　ふきの郷",
    "kana": "カイゴイリョウイン　フキノサト",
    "address": "東吹1015番1",
    "lat": 35.070727,
    "lng": 135.1974606,
    "tel": "079-594-1616",
    "url": "http://www.kiyoukai.com",
    "pref": "兵庫県",
    "city": "丹波篠山市",
    "category": "care_medical_institute",
    "serviceType": "介護医療院",
    "capacity": 46,
    "openDays": [],
    "openDaysNote": ""
  },
  {
    "id": "28B1600018",
    "name": "東浦介護医療院",
    "kana": "ヒガシウラカイゴイリョウイン",
    "address": "久留麻1869番地",
    "lat": 34.5245399,
    "lng": 134.9867165,
    "tel": "0799-77-1000",
    "url": "https://higashihp.jp/",
    "pref": "兵庫県",
    "city": "淡路市",
    "category": "care_medical_institute",
    "serviceType": "介護医療院",
    "capacity": 0,
    "openDays": [],
    "openDaysNote": ""
  },
  {
    "id": "28B3200015",
    "name": "医療法人社団衿正会　生駒病院介護医療院",
    "kana": "イリョウホウジンシャダンキンセイカイ　イコマビョウインカイゴイリョウイン",
    "address": "兵庫県川辺郡猪名川町広根字九十九8",
    "lat": 34.8905916,
    "lng": 135.3727364,
    "tel": "072-766-0172",
    "url": "https://www.ikoma-hp.com",
    "pref": "兵庫県",
    "city": "猪名川町",
    "category": "care_medical_institute",
    "serviceType": "介護医療院",
    "capacity": null,
    "openDays": [],
    "openDaysNote": ""
  },
  {
    "id": "28B1700016",
    "name": "平成病院　平成介護医療院",
    "kana": "ヘイセイビョウイン　ヘイセイカイゴイリョウイン",
    "address": "兵庫県南あわじ市八木養宜中１７３",
    "lat": 34.3023992,
    "lng": 134.7959538,
    "tel": "0799-42-6031",
    "url": "https://heiseihp.jp/",
    "pref": "兵庫県",
    "city": "南あわじ市",
    "category": "care_medical_institute",
    "serviceType": "介護医療院",
    "capacity": 0,
    "openDays": [],
    "openDaysNote": ""
  },
  {
    "id": "28B3000019",
    "name": "つかぐち介護医療院",
    "kana": "ツカグチカイゴイリョウイン",
    "address": "兵庫県尼崎市南塚口町6丁目8番地1号",
    "lat": 34.7463721,
    "lng": 135.4159418,
    "tel": "06-6429-1463",
    "url": "https://www.kensei-kai-tsukaguchi.jp/",
    "pref": "兵庫県",
    "city": "尼崎市",
    "category": "care_medical_institute",
    "serviceType": "介護医療院",
    "capacity": 0,
    "openDays": [],
    "openDaysNote": ""
  },
  {
    "id": "28B3000027",
    "name": "介護医療院トワイエ尼崎",
    "kana": "カイゴイリョウイントワイエアマガサキ",
    "address": "尼崎市南塚口町6丁目8番22号",
    "lat": 34.7463397,
    "lng": 135.4152587,
    "tel": "06-6480-8088",
    "url": "https://amar.or.jp/towaie/",
    "pref": "兵庫県",
    "city": "尼崎市",
    "category": "care_medical_institute",
    "serviceType": "介護医療院",
    "capacity": 0,
    "openDays": [],
    "openDaysNote": ""
  },
  {
    "id": "28B4000018",
    "name": "厚生病院介護医療院",
    "kana": "コウセイビョウインカイゴイリョウイン",
    "address": "兵庫県姫路市御立西４丁目１番２５号",
    "lat": 34.861654,
    "lng": 134.6600213,
    "tel": "079-292-1109",
    "url": "www.kousei-hp.jp/",
    "pref": "兵庫県",
    "city": "姫路市",
    "category": "care_medical_institute",
    "serviceType": "介護医療院",
    "capacity": null,
    "openDays": [],
    "openDaysNote": ""
  },
  {
    "id": "28B4000026",
    "name": "社会医療法人　恵風会　介護医療院　ヴェルデ",
    "kana": "シャカイイリョウホウジン　ケイフウカイ　カイゴイリョウイン　ウ‘ェルデ",
    "address": "兵庫県姫路市西今宿５丁目３番８号",
    "lat": 34.8452927,
    "lng": 134.6612409,
    "tel": "079-293-3315",
    "url": "http://www.keifukai.or.jp/",
    "pref": "兵庫県",
    "city": "姫路市",
    "category": "care_medical_institute",
    "serviceType": "介護医療院",
    "capacity": 50,
    "openDays": [],
    "openDaysNote": ""
  },
  {
    "id": "28B4000034",
    "name": "日並内科外科医院　介護医療院",
    "kana": "ヒナミナイカゲカイイン　カイゴイリョウイン",
    "address": "兵庫県姫路市香寺町犬飼502",
    "lat": 34.9001973,
    "lng": 134.7344043,
    "tel": "079-232-1730",
    "url": "http://hinami-naikageka.or.jp",
    "pref": "兵庫県",
    "city": "姫路市",
    "category": "care_medical_institute",
    "serviceType": "介護医療院",
    "capacity": 0,
    "openDays": [],
    "openDaysNote": ""
  },
  {
    "id": "2814020067",
    "name": "國富胃腸病院介護医療院",
    "kana": "クニトミイチョウビョウインカイゴイリョウイン",
    "address": "兵庫県姫路市青山３丁目３３番１号",
    "lat": 34.8443942406979,
    "lng": 134.642175391551,
    "tel": "079-266-2355",
    "url": "www.kunitomi-icho-hp.com",
    "pref": "兵庫県",
    "city": "姫路市",
    "category": "care_medical_institute",
    "serviceType": "介護医療院",
    "capacity": null,
    "openDays": [],
    "openDaysNote": ""
  },
  {
    "id": "28B4800011",
    "name": "脳神経外科枚田クリニック介護医療院",
    "kana": "ノウシンケイゲカ　ヒラタクリニック　カイゴイリョウイン",
    "address": "兵庫県養父市上野1168",
    "lat": 35.3760149,
    "lng": 134.7850539,
    "tel": "079-664-0199",
    "url": "https://www.hirata-cl.com/",
    "pref": "兵庫県",
    "city": "養父市",
    "category": "care_medical_institute",
    "serviceType": "介護医療院",
    "capacity": null,
    "openDays": [],
    "openDaysNote": ""
  }
]