[
  {
    "id": "01B2900053",
    "name": "医療法人社団心優会沼﨑介護医療院",
    "kana": "イリョウホウジンシャダンシンユウカイヌマザキカイゴイリョウイン",
    "address": "北海道旭川市8条通8丁目43番地",
    "lat": 43.7733214,
    "lng": 142.3641812,
    "tel": "0166-23-2090",
    "url": "http://shinyukai-r.or.jp",
    "pref": "北海道",
    "city": "旭川市",
    "category": "care_medical_institute",
    "serviceType": "介護医療院",
    "capacity": null,
    "openDays": [],
    "openDaysNote": ""
  },
  {
    "id": "01B2900012",
    "name": "医療法人修彰会　沼﨑介護医療院",
    "kana": "イリョウホウジンシュウショウカイ　ヌマザキカイゴイリョウイン",
    "address": "北海道旭川市8条通8丁目43番地",
    "lat": 43.7733887,
    "lng": 142.3639047,
    "tel": "0166-23-2090",
    "url": "",
    "pref": "北海道",
    "city": "旭川市",
    "category": "care_medical_institute",
    "serviceType": "介護医療院",
    "capacity": 0,
    "openDays": [],
    "openDaysNote": ""
  },
  {
    "id": "01B2900046",
    "name": "医療法人清陵会藤井病院介護医療院",
    "kana": "イリョウホウジンセイリョウカイフジイビョウインカイゴイリョウイン",
    "address": "北海道旭川市旭町１条３丁目８４１番地の１３８",
    "lat": 43.7826792,
    "lng": 142.3571844,
    "tel": "0166-51-1411",
    "url": "http://www.fujii-hospital.net",
    "pref": "北海道",
    "city": "旭川市",
    "category": "care_medical_institute",
    "serviceType": "介護医療院",
    "capacity": null,
    "openDays": [],
    "openDaysNote": ""
  },
  {
    "id": "01B2900038",
    "name": "佐藤内科医院介護医療院",
    "kana": "サトウナイカイインカイゴイリョウイン",
    "address": "北海道旭川市豊岡４条３丁目２番２号佐藤内科医院 佐藤内科医院",
    "lat": 43.7603134,
    "lng": 142.3959536,
    "tel": "0166-32-3366",
    "url": "http://www.ahmic21.ne.jp/satoh-naikasyonika/",
    "pref": "北海道",
    "city": "旭川市",
    "category": "care_medical_institute",
    "serviceType": "介護医療院",
    "capacity": 17,
    "openDays": [],
    "openDaysNote": ""
  },
  {
    "id": "01B3700015",
    "name": "介護医療院　セイント・ヴィレッジ",
    "kana": "カイゴイリョウイン　セイント・ビレッジ",
    "address": "北海道伊達市舟岡町214番地28",
    "lat": 42.4670091429382,
    "lng": 140.882723053742,
    "tel": "0142-82-9351",
    "url": "http://www.jikeikai.or.jp",
    "pref": "北海道",
    "city": "伊達市",
    "category": "care_medical_institute",
    "serviceType": "介護医療院",
    "capacity": 120,
    "openDays": [],
    "openDaysNote": ""
  },
  {
    "id": "01B5400010",
    "name": "医療法人縁紡会遠軽共立医院介護医療院",
    "kana": "イリョウホウジンエンボウカイエンガルキョウリツイインカイゴイリョウイン",
    "address": "北海道紋別郡遠軽町大通北１丁目３番地",
    "lat": 44.0595565,
    "lng": 143.5254639,
    "tel": "0158-42-5215",
    "url": "",
    "pref": "北海道",
    "city": "遠軽町",
    "category": "care_medical_institute",
    "serviceType": "介護医療院",
    "capacity": 56,
    "openDays": [],
    "openDaysNote": ""
  },
  {
    "id": "01B2500036",
    "name": "古平町介護医療院海のまちクリニック",
    "kana": "フルビラチョウカイゴイリョウインウミノマチクリニック",
    "address": "北海道古平郡古平町大字浜町644番地1",
    "lat": 43.2578715,
    "lng": 140.6352409,
    "tel": "0135-48-6035",
    "url": "https://town.furubira.lg.jp",
    "pref": "北海道",
    "city": "古平町",
    "category": "care_medical_institute",
    "serviceType": "介護医療院",
    "capacity": null,
    "openDays": [],
    "openDaysNote": ""
  },
  {
    "id": "01B1000012",
    "name": "友愛記念病院　介護医療院",
    "kana": "ユウアイキネンビョウイン　カイゴイリョウイン",
    "address": "北海道江別市新栄台46番地の1",
    "lat": 43.108577,
    "lng": 141.5121954,
    "tel": "011-383-4124",
    "url": "https://yuaikinen.or.jp/nursing-careclinic/",
    "pref": "北海道",
    "city": "江別市",
    "category": "care_medical_institute",
    "serviceType": "介護医療院",
    "capacity": null,
    "openDays": [],
    "openDaysNote": ""
  },
  {
    "id": "01B0500012",
    "name": "介護医療院　しんえいの杜",
    "kana": "カイゴイリョウイン　シンエイノモリ",
    "address": "北海道札幌市清田区真栄331番地真栄病院内2階 真栄病院内2階",
    "lat": 42.9785576,
    "lng": 141.4440263,
    "tel": "011-886-7688",
    "url": "http://www.syoujinkai.or.jp/mori/",
    "pref": "北海道",
    "city": "札幌市清田区",
    "category": "care_medical_institute",
    "serviceType": "介護医療院",
    "capacity": 0,
    "openDays": [],
    "openDaysNote": ""
  },
  {
    "id": "01B0400049",
    "name": "介護医療院　博友会",
    "kana": "カイゴイリョウイン　ハクユウカイ",
    "address": "西野2条7丁目1番1号",
    "lat": 43.080461,
    "lng": 141.2766144,
    "tel": "011-661-1850",
    "url": "https://tanakamedical.net",
    "pref": "北海道",
    "city": "札幌市西区",
    "category": "care_medical_institute",
    "serviceType": "介護医療院",
    "capacity": null,
    "openDays": [],
    "openDaysNote": ""
  },
  {
    "id": "01B0400031",
    "name": "介護医療院札幌太田病院",
    "kana": "カイゴイリョウインサッポロオオタビョウイン",
    "address": "山の手５条５丁目１番１号",
    "lat": 43.0707606,
    "lng": 141.2920398,
    "tel": "011-644-5111",
    "url": "https://www.sapporo-ohta.or.jp/",
    "pref": "北海道",
    "city": "札幌市西区",
    "category": "care_medical_institute",
    "serviceType": "介護医療院",
    "capacity": 32,
    "openDays": [],
    "openDaysNote": ""
  },
  {
    "id": "01B0400023",
    "name": "勤医協札幌西区病院　介護医療院",
    "kana": "キンイキョウサッポロニシクビョウイン　カイゴイリョウイン",
    "address": "北海道札幌市西区西町北１９丁目１−５勤医協札幌西区病院 勤医協札幌西区病院",
    "lat": 43.0868775,
    "lng": 141.2768714,
    "tel": "011-663-5711",
    "url": "http://www.kin-ikyo-nishiku.jp/",
    "pref": "北海道",
    "city": "札幌市西区",
    "category": "care_medical_institute",
    "serviceType": "介護医療院",
    "capacity": 0,
    "openDays": [],
    "openDaysNote": ""
  },
  {
    "id": "01B0400015",
    "name": "平和リハビリテーション病院　介護医療院",
    "kana": "ヘイワリハビリテーションビョウイン　カイゴイリョウイン",
    "address": "北海道札幌市西区平和306番地1",
    "lat": 43.0561539900479,
    "lng": 141.242742909648,
    "tel": "011-662-1771",
    "url": "http://www.seiwa-kai.or.jp/heiwa-reha",
    "pref": "北海道",
    "city": "札幌市西区",
    "category": "care_medical_institute",
    "serviceType": "介護医療院",
    "capacity": 40,
    "openDays": [],
    "openDaysNote": ""
  },
  {
    "id": "01B0100011",
    "name": "札幌西円山病院介護医療院",
    "kana": "サッポロニシマルヤマビョウイン　カイゴイリョウイン",
    "address": "北海道札幌市中央区円山西町4丁目7-25",
    "lat": 43.0399619,
    "lng": 141.3032136,
    "tel": "011-642-4121",
    "url": "http://www.keijinkai.com/nishimaruyama/",
    "pref": "北海道",
    "city": "札幌市中央区",
    "category": "care_medical_institute",
    "serviceType": "介護医療院",
    "capacity": null,
    "openDays": [],
    "openDaysNote": ""
  },
  {
    "id": "01B0200019",
    "name": "医療法人社団　英仁会　札苗病院　介護医療院",
    "kana": "イリョウホウジンシャダン　エイジンカイ　サツナエビョウイン　カイゴイリョウイン",
    "address": "北海道札幌市東区東苗穂7条2丁目8番20号",
    "lat": 43.0949584909775,
    "lng": 141.4127492,
    "tel": "011-783-3311",
    "url": "http://www.satsunae-hp.jp/",
    "pref": "北海道",
    "city": "札幌市東区",
    "category": "care_medical_institute",
    "serviceType": "介護医療院",
    "capacity": null,
    "openDays": [],
    "openDaysNote": ""
  },
  {
    "id": "01B0500020",
    "name": "介護医療院　フローレンス",
    "kana": "カイゴイリョウイン　フローレンス",
    "address": "北海道札幌市南区川沿13条2丁目1-38",
    "lat": 42.9795991,
    "lng": 141.3337945,
    "tel": "011-571-5670",
    "url": "http://www.aizenkai.or.jp/",
    "pref": "北海道",
    "city": "札幌市南区",
    "category": "care_medical_institute",
    "serviceType": "介護医療院",
    "capacity": null,
    "openDays": [],
    "openDaysNote": ""
  },
  {
    "id": "01B0200027",
    "name": "長生会病院　介護医療院",
    "kana": "チョウセイカイビョウイン　カイゴイリョウイン",
    "address": "北25条西16丁目2番1号",
    "lat": 43.091306,
    "lng": 141.3242067,
    "tel": "011-726-4835",
    "url": "http://choseikai.com",
    "pref": "北海道",
    "city": "札幌市北区",
    "category": "care_medical_institute",
    "serviceType": "介護医療院",
    "capacity": 46,
    "openDays": [],
    "openDaysNote": ""
  },
  {
    "id": "01B1500011",
    "name": "介護医療院　望ヶ丘医院",
    "kana": "カイゴイリョウイン　ノゾミガオカイイン",
    "address": "北海道亀田郡七飯町大川三丁目5番28号",
    "lat": 41.8559517,
    "lng": 140.7213576,
    "tel": "0138-65-9101",
    "url": "http://www.nozomi.me/",
    "pref": "北海道",
    "city": "七飯町",
    "category": "care_medical_institute",
    "serviceType": "介護医療院",
    "capacity": 0,
    "openDays": [],
    "openDaysNote": ""
  },
  {
    "id": "01B5300020",
    "name": "小清水赤十字病院",
    "kana": "コシミズセキジュウジビョウイン",
    "address": "北海道斜里郡小清水町南町2丁目3番3号",
    "lat": 43.8555117,
    "lng": 144.4597325,
    "tel": "0152-62-2121",
    "url": "http://www.phoenix-c.or.jp/~krchp/",
    "pref": "北海道",
    "city": "小清水町",
    "category": "care_medical_institute",
    "serviceType": "介護医療院",
    "capacity": 12,
    "openDays": [],
    "openDaysNote": ""
  },
  {
    "id": "01B3100018",
    "name": "上川町介護医療院つつじ苑",
    "kana": "カミカワチョウカイゴイリョウインツツジエン",
    "address": "北海道上川郡上川町花園町175番地",
    "lat": 43.8516573,
    "lng": 142.7675362,
    "tel": "01658-2-1231",
    "url": "",
    "pref": "北海道",
    "city": "上川町",
    "category": "care_medical_institute",
    "serviceType": "介護医療院",
    "capacity": 0,
    "openDays": [],
    "openDaysNote": ""
  },
  {
    "id": "01B3000028",
    "name": "介護医療院上富良野",
    "kana": "カイゴイリョウインカミフラノ",
    "address": "北海道空知郡上富良野町大町３丁目２番１５号",
    "lat": 43.4543641,
    "lng": 142.4661169,
    "tel": "0167-45-3171",
    "url": "",
    "pref": "北海道",
    "city": "上富良野町",
    "category": "care_medical_institute",
    "serviceType": "介護医療院",
    "capacity": null,
    "openDays": [],
    "openDaysNote": ""
  },
  {
    "id": "01B7400018",
    "name": "深川第一病院　介護医療院",
    "kana": "フカガワダイイチビョウイン　カイゴイリョウイン",
    "address": "北海道深川市あけぼの町１番１号",
    "lat": 43.7414711,
    "lng": 142.0353349,
    "tel": "0164-23-3511",
    "url": "http://www.henry-dunant.or.jp",
    "pref": "北海道",
    "city": "深川市",
    "category": "care_medical_institute",
    "serviceType": "介護医療院",
    "capacity": null,
    "openDays": [],
    "openDaysNote": ""
  },
  {
    "id": "01B4700014",
    "name": "介護医療院　みかげ",
    "kana": "カイゴイリョウインミカゲ",
    "address": "北海道上川郡清水町御影西二条三丁目13",
    "lat": 42.9459998,
    "lng": 142.9362576,
    "tel": "0156-63-3711",
    "url": "https://www.seikoukai-mikage.or.jp",
    "pref": "北海道",
    "city": "清水町",
    "category": "care_medical_institute",
    "serviceType": "介護医療院",
    "capacity": null,
    "openDays": [],
    "openDaysNote": ""
  },
  {
    "id": "01B7600013",
    "name": "医療法人社団恵愛会茨戸病院　介護医療院",
    "kana": "イリョウホウジンシャダンケイアイカイバラトビョウイン　カイゴイリョウイン",
    "address": "北海道石狩市花川東128番地14",
    "lat": 43.1681128,
    "lng": 141.3430493,
    "tel": "0133-74-3011",
    "url": "http://barato-hospital.or.jp/",
    "pref": "北海道",
    "city": "石狩市",
    "category": "care_medical_institute",
    "serviceType": "介護医療院",
    "capacity": 56,
    "openDays": [],
    "openDaysNote": ""
  },
  {
    "id": "01B4600016",
    "name": "公益財団法人北海道医療団　帯広西病院介護医療院",
    "kana": "コウエキザイダンホウジンホッカイドウイリョウダン　オビヒロニシビョウインカイゴイリョウイン",
    "address": "北海道帯広市西23条南1丁目129番地",
    "lat": 42.9222124,
    "lng": 143.1259362,
    "tel": "0155-37-3330",
    "url": "https://www.zhi.or.jp/n/",
    "pref": "北海道",
    "city": "帯広市",
    "category": "care_medical_institute",
    "serviceType": "介護医療院",
    "capacity": 0,
    "openDays": [],
    "openDaysNote": ""
  },
  {
    "id": "01B6700012",
    "name": "中頓別町国民健康保険病院介護医療院",
    "kana": "ナカトンベツチョウコクミンケンコウホケンビョウインカイゴイリョウイン",
    "address": "北海道枝幸郡中頓別町字中頓別175番地中頓別町国民健康保険病院 中頓別町国民健康保険病院",
    "lat": 44.9704444,
    "lng": 142.2835278,
    "tel": "01634-6-1131",
    "url": "http://sites.google.com/view/nakatombetsu-town-hospital/ホーム",
    "pref": "北海道",
    "city": "中頓別町",
    "category": "care_medical_institute",
    "serviceType": "介護医療院",
    "capacity": 16,
    "openDays": [],
    "openDaysNote": ""
  },
  {
    "id": "01B4200015",
    "name": "医療法人樹恵会　介護医療院みらいプラス",
    "kana": "イリョウホウジンジュケイカイ　カイゴイリョウインミライプラス",
    "address": "北海道標津郡中標津町りんどう町5番地６",
    "lat": 43.5439995,
    "lng": 144.9275588,
    "tel": "0153-72-9112",
    "url": "http://www.ishida-hp.jp/",
    "pref": "北海道",
    "city": "中標津町",
    "category": "care_medical_institute",
    "serviceType": "介護医療院",
    "capacity": 0,
    "openDays": [],
    "openDaysNote": ""
  },
  {
    "id": "01B3700023",
    "name": "介護医療院　なのはな",
    "kana": "カイゴイリョウイン　ナノハナ",
    "address": "北海道虻田郡洞爺湖町洞爺町５４番地４１",
    "lat": 42.6561963290719,
    "lng": 140.831438881754,
    "tel": "0142-87-2311",
    "url": "http://www.toya-onsen-hospital.or.jp/",
    "pref": "北海道",
    "city": "洞爺湖町",
    "category": "care_medical_institute",
    "serviceType": "介護医療院",
    "capacity": null,
    "openDays": [],
    "openDaysNote": ""
  },
  {
    "id": "01B3600017",
    "name": "医療法人社団玄洋会　道央佐藤病院介護医療院",
    "kana": "イリョウホウジンシャダンゲンヨウカイ　ドウオウサトウビョウインカイゴイリョウイン",
    "address": "北海道苫小牧市字樽前234番地",
    "lat": 42.5963353,
    "lng": 141.4269664,
    "tel": "0144-67-0236",
    "url": "http://www/douousatou.or.jp/",
    "pref": "北海道",
    "city": "苫小牧市",
    "category": "care_medical_institute",
    "serviceType": "介護医療院",
    "capacity": 0,
    "openDays": [],
    "openDaysNote": ""
  },
  {
    "id": "01B3600025",
    "name": "苫小牧澄川病院介護医療院",
    "kana": "トマコマイスミカワビョウインカイゴイリョウイン",
    "address": "苫小牧市澄川町７丁目９番１８号",
    "lat": 42.6238465,
    "lng": 141.5146285,
    "tel": "0144-67-3111",
    "url": "http://www.sumikawa-hp.com/",
    "pref": "北海道",
    "city": "苫小牧市",
    "category": "care_medical_institute",
    "serviceType": "介護医療院",
    "capacity": 0,
    "openDays": [],
    "openDaysNote": ""
  },
  {
    "id": "01B3600033",
    "name": "苫都病院介護医療院",
    "kana": "セントビョウインカイゴイリョウイン",
    "address": "北海道苫小牧市若草町５丁目１０番２１号苫都病院 苫都病院",
    "lat": 42.6423458,
    "lng": 141.6071557,
    "tel": "0144-34-2135",
    "url": "http://www.sento.biz/",
    "pref": "北海道",
    "city": "苫小牧市",
    "category": "care_medical_institute",
    "serviceType": "介護医療院",
    "capacity": 0,
    "openDays": [],
    "openDaysNote": ""
  },
  {
    "id": "01B1400048",
    "name": "医療法人聖仁会　森病院　介護医療院",
    "kana": "イリョウホウジンセイジンカイ　モリビョウイン　カイゴイリョウイン",
    "address": "北海道函館市桔梗町５５７番地",
    "lat": 41.860333,
    "lng": 140.7528639,
    "tel": "0138-47-2222",
    "url": "http://www.seijinkai-mori.jp/seijinkai/mori/",
    "pref": "北海道",
    "city": "函館市",
    "category": "care_medical_institute",
    "serviceType": "介護医療院",
    "capacity": null,
    "openDays": [],
    "openDaysNote": ""
  },
  {
    "id": "01B1400022",
    "name": "介護医療院　竹田病院",
    "kana": "カイゴイリョウイン　タケダビョウイン",
    "address": "北海道函館市元町２９番２１号",
    "lat": 41.7628404,
    "lng": 140.7162033,
    "tel": "0138-26-5812",
    "url": "https://www.takedahospital.or.jp",
    "pref": "北海道",
    "city": "函館市",
    "category": "care_medical_institute",
    "serviceType": "介護医療院",
    "capacity": null,
    "openDays": [],
    "openDaysNote": ""
  },
  {
    "id": "01B1400014",
    "name": "介護医療院喜郷",
    "kana": "カイゴイリョウインキキョウ",
    "address": "北海道函館市桔梗１丁目１４番１号",
    "lat": 41.8310005,
    "lng": 140.7289953,
    "tel": "0138-34-7707",
    "url": "https://kojinkai1968.com/",
    "pref": "北海道",
    "city": "函館市",
    "category": "care_medical_institute",
    "serviceType": "介護医療院",
    "capacity": null,
    "openDays": [],
    "openDaysNote": ""
  },
  {
    "id": "01B1400030",
    "name": "社会医療法人高橋病院　介護医療院",
    "kana": "シャカイイリョウホウジンタカハシビョウイン　カイゴイリョウイン",
    "address": "北海道函館市時任町1番2号",
    "lat": 41.7813881711263,
    "lng": 140.750299248114,
    "tel": "0138-78-1230",
    "url": "https://www.takahashi-group.jp/kaigoiryoin/",
    "pref": "北海道",
    "city": "函館市",
    "category": "care_medical_institute",
    "serviceType": "介護医療院",
    "capacity": null,
    "openDays": [],
    "openDaysNote": ""
  },
  {
    "id": "01B6100023",
    "name": "医療法人社団慶北会花田病院介護医療院はなまる",
    "kana": "イリョウホウジンシャダンケイホクカイハナダビョウインカイゴイリョウインハナマル",
    "address": "北海道美唄市大通東１条北２丁目２番５号",
    "lat": 43.3342397,
    "lng": 141.8614371,
    "tel": "0126-68-8700",
    "url": "http://hanada-hp.com",
    "pref": "北海道",
    "city": "美唄市",
    "category": "care_medical_institute",
    "serviceType": "介護医療院",
    "capacity": 60,
    "openDays": [],
    "openDaysNote": ""
  },
  {
    "id": "01B6100015",
    "name": "医療法人社団宏仁会しろした病院介護医療院",
    "kana": "イリョウホウジンシャダンコウジンカイシロシタビョウインカイゴイリョウイン",
    "address": "北海道美唄市大通西1条北1丁目1番",
    "lat": 43.3332797,
    "lng": 141.8602192,
    "tel": "0126-63-2780",
    "url": "",
    "pref": "北海道",
    "city": "美唄市",
    "category": "care_medical_institute",
    "serviceType": "介護医療院",
    "capacity": 0,
    "openDays": [],
    "openDaysNote": ""
  },
  {
    "id": "01B3000010",
    "name": "介護医療院ふらの",
    "kana": "カイゴイリョウインフラノ",
    "address": "北海道富良野市桂木町２番７７号",
    "lat": 43.3504162,
    "lng": 142.3790403,
    "tel": "0167-23ｰ6600",
    "url": "https://www.furano.ne.jp/f-w-hosp/kaigoiryouin.html",
    "pref": "北海道",
    "city": "富良野市",
    "category": "care_medical_institute",
    "serviceType": "介護医療院",
    "capacity": null,
    "openDays": [],
    "openDaysNote": ""
  },
  {
    "id": "01B1300016",
    "name": "医療法人社団西の里恵仁会病院　介護医療院",
    "kana": "イリョウホウジンシャダンニシノサトケイジンカイビョウイン　カイゴイリョウイン",
    "address": "北海道北広島市西の里506番地",
    "lat": 43.0148948652456,
    "lng": 141.497391947254,
    "tel": "011-375-3225",
    "url": "http://www.nsk-hp.jp/",
    "pref": "北海道",
    "city": "北広島市",
    "category": "care_medical_institute",
    "serviceType": "介護医療院",
    "capacity": 0,
    "openDays": [],
    "openDaysNote": ""
  },
  {
    "id": "01B1300024",
    "name": "介護医療院　えみの里順天",
    "kana": "カイゴイリョウイン　エミノサトジュンテン",
    "address": "北海道北広島市大曲６９５番地",
    "lat": 43.0057123,
    "lng": 141.4922757,
    "tel": "011-377-8000",
    "url": "http://www.junten.jp/",
    "pref": "北海道",
    "city": "北広島市",
    "category": "care_medical_institute",
    "serviceType": "介護医療院",
    "capacity": null,
    "openDays": [],
    "openDaysNote": ""
  },
  {
    "id": "01B5300012",
    "name": "医療法人社団　網走中央病院　介護医療院",
    "kana": "イリョウホウジンシャダン　アバシリチュウオウビョウイン　カイゴイリョウイン",
    "address": "北海道網走市南６条東１丁目７番地",
    "lat": 44.0196189,
    "lng": 144.2685275,
    "tel": "0152-44-8611",
    "url": "https://www.abashiri-chuo.or.jp/",
    "pref": "北海道",
    "city": "網走市",
    "category": "care_medical_institute",
    "serviceType": "介護医療院",
    "capacity": 0,
    "openDays": [],
    "openDaysNote": ""
  },
  {
    "id": "01B5900019",
    "name": "介護医療院夕張",
    "kana": "カイゴイリョウインユウバリ",
    "address": "北海道夕張市若菜8番地12",
    "lat": 43.0266981,
    "lng": 141.9698828,
    "tel": "0123-57-7782",
    "url": "https://www.houseikai.or.jp/yubari/rouken.html",
    "pref": "北海道",
    "city": "夕張市",
    "category": "care_medical_institute",
    "serviceType": "介護医療院",
    "capacity": null,
    "openDays": [],
    "openDaysNote": ""
  },
  {
    "id": "01B2500010",
    "name": "医療法人社団倫仁会　介護医療院こじま",
    "kana": "イリョウホウジンシャダンリンジンカイ　カイゴイリョウインコジマ",
    "address": "北海道余市郡余市町黒川町7-13小嶋内科 小嶋内科",
    "lat": 43.1868169,
    "lng": 140.7920059,
    "tel": "135222245",
    "url": "http://rinjinkai.or.jp/",
    "pref": "北海道",
    "city": "余市町",
    "category": "care_medical_institute",
    "serviceType": "介護医療院",
    "capacity": 24,
    "openDays": [],
    "openDaysNote": ""
  },
  {
    "id": "01B2500028",
    "name": "介護医療院なかじま",
    "kana": "カイゴイリョウインナカジマ",
    "address": "北海道余市郡余市町黒川町3丁目109番地",
    "lat": 43.1883483,
    "lng": 140.7916069,
    "tel": "0135-22-3866",
    "url": "http://nakajima.hajimeyoo.com",
    "pref": "北海道",
    "city": "余市町",
    "category": "care_medical_institute",
    "serviceType": "介護医療院",
    "capacity": 0,
    "openDays": [],
    "openDaysNote": ""
  },
  {
    "id": "01B2200017",
    "name": "昆布温泉介護医療院",
    "kana": "コンブオンセンビョウインカイゴイリョウイン",
    "address": "北海道磯谷郡蘭越町字黄金118番地",
    "lat": 42.8010660466927,
    "lng": 140.601922903765,
    "tel": "0136-58-2231",
    "url": "http://www.seiwa-kai.or.jp/konbu-hosp/index.html",
    "pref": "北海道",
    "city": "蘭越町",
    "category": "care_medical_institute",
    "serviceType": "介護医療院",
    "capacity": 0,
    "openDays": [],
    "openDaysNote": ""
  }
]