[
  {
    "id": "12B2600015",
    "name": "医療法人社団一心会　初富保健病院介護医療院",
    "kana": "イリョウホウジンシャダンイッシンカイ　ハツトミホケンビョウインカイゴイリョウイン",
    "address": "千葉県鎌ヶ谷市初富114番地",
    "lat": 35.7843554,
    "lng": 139.9861963,
    "tel": "047-442-0811",
    "url": "https://www.hatsutomi.or.jp/",
    "pref": "千葉県",
    "city": "鎌ケ谷市",
    "category": "care_medical_institute",
    "serviceType": "介護医療院",
    "capacity": 320,
    "openDays": [],
    "openDaysNote": ""
  },
  {
    "id": "12B3900026",
    "name": "エビハラ介護医療院",
    "kana": "エビハラカイゴイリョウイン",
    "address": "千葉県鴨川市太海630番地10",
    "lat": 35.0914651,
    "lng": 140.0910754,
    "tel": "04-7093-2626",
    "url": "http://www.ebihara.or.jp",
    "pref": "千葉県",
    "city": "鴨川市",
    "category": "care_medical_institute",
    "serviceType": "介護医療院",
    "capacity": null,
    "openDays": [],
    "openDaysNote": ""
  },
  {
    "id": "12B3900034",
    "name": "小田介護医療院",
    "kana": "オダカイゴイリョウイン",
    "address": "千葉県鴨川市横渚880",
    "lat": 35.1061858,
    "lng": 140.1048683,
    "tel": "04-7092-1128",
    "url": "http://oda-hp.com",
    "pref": "千葉県",
    "city": "鴨川市",
    "category": "care_medical_institute",
    "serviceType": "介護医療院",
    "capacity": null,
    "openDays": [],
    "openDaysNote": ""
  },
  {
    "id": "12B3900083",
    "name": "東条病院介護医療院",
    "kana": "トウジョウビョウインカイゴイリョウイン",
    "address": "千葉県鴨川市広場1615",
    "lat": 35.1214633,
    "lng": 140.1087036,
    "tel": "04-4092-1207",
    "url": "http://www.tojo-h.or.jp",
    "pref": "千葉県",
    "city": "鴨川市",
    "category": "care_medical_institute",
    "serviceType": "介護医療院",
    "capacity": null,
    "openDays": [],
    "openDaysNote": ""
  },
  {
    "id": "12B3600063",
    "name": "小林病院介護医療院",
    "kana": "コバヤシビョウインカイゴイリョウイン",
    "address": "千葉県館山市船形９０９番地",
    "lat": 35.0283209,
    "lng": 139.8440036,
    "tel": "０４７０－２７－３８１１",
    "url": "https://www.kotobuki-kai.com/",
    "pref": "千葉県",
    "city": "館山市",
    "category": "care_medical_institute",
    "serviceType": "介護医療院",
    "capacity": 0,
    "openDays": [],
    "openDaysNote": ""
  },
  {
    "id": "12B1100017",
    "name": "鈴木病院介護医療院",
    "kana": "スズキビョウインカイゴイリョウイン",
    "address": "千葉県君津市上２３８番地",
    "lat": 35.3069037,
    "lng": 139.9548824,
    "tel": "439322013",
    "url": "https://www.suzuki-hospital.com",
    "pref": "千葉県",
    "city": "君津市",
    "category": "care_medical_institute",
    "serviceType": "介護医療院",
    "capacity": null,
    "openDays": [],
    "openDaysNote": ""
  },
  {
    "id": "12B5200029",
    "name": "医療法人三省会本多病院介護医療院",
    "kana": "イリョウホウジンサンセイカイホンダビョウインカイゴイリョウイン",
    "address": "千葉県香取市本郷７７２番地",
    "lat": 35.8535551,
    "lng": 140.5835402,
    "tel": "0478-82-3181",
    "url": "http://www.sanseikai.or.jp",
    "pref": "千葉県",
    "city": "香取市",
    "category": "care_medical_institute",
    "serviceType": "介護医療院",
    "capacity": 0,
    "openDays": [],
    "openDaysNote": ""
  },
  {
    "id": "12B2700070",
    "name": "医療法人友康会　行徳中央介護医療院",
    "kana": "イリョウホウジンユウコウカイ　ギョウトクチュウオウカイゴイリョウイン",
    "address": "千葉県市川市日之出17-16",
    "lat": 35.6768218,
    "lng": 139.9212789,
    "tel": "047-307-8321",
    "url": "https://www.gyoutokuchuo-hospital.com/hospital/",
    "pref": "千葉県",
    "city": "市川市",
    "category": "care_medical_institute",
    "serviceType": "介護医療院",
    "capacity": 0,
    "openDays": [],
    "openDaysNote": ""
  },
  {
    "id": "12B0700049",
    "name": "髙根病院　介護医療院",
    "kana": "タカネビョウイン　カイゴイリョウイン",
    "address": "千葉県山武郡芝山町岩山2308",
    "lat": 35.7245612,
    "lng": 140.3695381,
    "tel": "0479-77-1133",
    "url": "https://takane-hospital.jp/",
    "pref": "千葉県",
    "city": "芝山町",
    "category": "care_medical_institute",
    "serviceType": "介護医療院",
    "capacity": 0,
    "openDays": [],
    "openDaysNote": ""
  },
  {
    "id": "12B2400093",
    "name": "介護医療院あきやまの郷",
    "kana": "カイゴイリョウインアキヤマノサト",
    "address": "千葉県松戸市高塚新田484-1",
    "lat": 35.7612942,
    "lng": 139.933048,
    "tel": "047-312-8121",
    "url": "https://www.chibako.or.jp/akiyamanosato/",
    "pref": "千葉県",
    "city": "松戸市",
    "category": "care_medical_institute",
    "serviceType": "介護医療院",
    "capacity": 0,
    "openDays": [],
    "openDaysNote": ""
  },
  {
    "id": "12B4300119",
    "name": "介護医療院千年希望の杜成田",
    "kana": "カイゴイリョウインセンネンキボウノモリナリタ",
    "address": "千葉県成田市大袋407-1",
    "lat": 35.7622416,
    "lng": 140.284993,
    "tel": "0476-85-8410",
    "url": "https://keiyou-kai.jp/naritain/",
    "pref": "千葉県",
    "city": "成田市",
    "category": "care_medical_institute",
    "serviceType": "介護医療院",
    "capacity": null,
    "openDays": [],
    "openDaysNote": ""
  },
  {
    "id": "12B4300101",
    "name": "聖マリア介護医療院",
    "kana": "セイマリアカイゴイリョウイン",
    "address": "千葉県成田市取香446",
    "lat": 35.7813386168266,
    "lng": 140.374607057672,
    "tel": "0476-32-0711",
    "url": "",
    "pref": "千葉県",
    "city": "成田市",
    "category": "care_medical_institute",
    "serviceType": "介護医療院",
    "capacity": 43,
    "openDays": [],
    "openDaysNote": ""
  },
  {
    "id": "12B0100067",
    "name": "タムス介護医療院花見川",
    "kana": "タムスカイゴイリョウインハナミガワ",
    "address": "千葉県千葉市花見川区柏井町1132-1",
    "lat": 35.6987756,
    "lng": 140.1039844,
    "tel": "047-480-2111",
    "url": "https://www.k-hanamigawa.tums-kaigo.com",
    "pref": "千葉県",
    "city": "千葉市花見川区",
    "category": "care_medical_institute",
    "serviceType": "介護医療院",
    "capacity": null,
    "openDays": [],
    "openDaysNote": ""
  },
  {
    "id": "12B0100059",
    "name": "平山病院附属花見川介護医療院",
    "kana": "ヒラヤマビョウインフゾクハナミガワカイゴイリョウイン",
    "address": "千葉市花見川区天戸町1483-4",
    "lat": 35.6846653,
    "lng": 140.0925603,
    "tel": "043-257-0055",
    "url": "",
    "pref": "千葉県",
    "city": "千葉市花見川区",
    "category": "care_medical_institute",
    "serviceType": "介護医療院",
    "capacity": null,
    "openDays": [],
    "openDaysNote": ""
  },
  {
    "id": "12B0100042",
    "name": "介護医療院　秀眉園",
    "kana": "カイゴイリョウイン　シュウビエン",
    "address": "千葉市若葉区加曽利町1803-1",
    "lat": 35.6179315,
    "lng": 140.1705861,
    "tel": "043-234-5900",
    "url": "https://www.syuubi-seikei-kai.jp/",
    "pref": "千葉県",
    "city": "千葉市若葉区",
    "category": "care_medical_institute",
    "serviceType": "介護医療院",
    "capacity": null,
    "openDays": [],
    "openDaysNote": ""
  },
  {
    "id": "12B0100018",
    "name": "総泉病院介護医療院",
    "kana": "ソウセンビョウインカイゴイリョウイン",
    "address": "千葉県千葉市若葉区更科町2592",
    "lat": 35.6209983,
    "lng": 140.2182845,
    "tel": "043-237-5001",
    "url": "http://www.sousen.seikei-kai.or.jp/",
    "pref": "千葉県",
    "city": "千葉市若葉区",
    "category": "care_medical_institute",
    "serviceType": "介護医療院",
    "capacity": 0,
    "openDays": [],
    "openDaysNote": ""
  },
  {
    "id": "12B0100034",
    "name": "うらら介護医療院",
    "kana": "ウララカイゴイリョウイン",
    "address": "千葉県千葉市中央区千葉寺町188",
    "lat": 35.5949492,
    "lng": 140.1297242,
    "tel": "043-261-3169",
    "url": "http://green-eminence.com/",
    "pref": "千葉県",
    "city": "千葉市中央区",
    "category": "care_medical_institute",
    "serviceType": "介護医療院",
    "capacity": null,
    "openDays": [],
    "openDaysNote": ""
  },
  {
    "id": "12B0100026",
    "name": "介護医療院なごみかん",
    "kana": "カイゴイリョウインナゴミカン",
    "address": "千葉県千葉市中央区道場南1丁目12番7号",
    "lat": 35.6124926,
    "lng": 140.130262,
    "tel": "043-227-7437",
    "url": "http://www.saito-rosai.or.jp",
    "pref": "千葉県",
    "city": "千葉市中央区",
    "category": "care_medical_institute",
    "serviceType": "介護医療院",
    "capacity": null,
    "openDays": [],
    "openDaysNote": ""
  },
  {
    "id": "12B3000058",
    "name": "国保多古中央病院　介護医療院",
    "kana": "コクホ　タコチュウオウビョウイン　カイゴイリョウイン",
    "address": "千葉県香取郡多古町多古３８８－１",
    "lat": 35.7380088,
    "lng": 140.4720928,
    "tel": "0479-76-2211",
    "url": "http://www.takochu.tako.chiba.jp/",
    "pref": "千葉県",
    "city": "多古町",
    "category": "care_medical_institute",
    "serviceType": "介護医療院",
    "capacity": null,
    "openDays": [],
    "openDaysNote": ""
  },
  {
    "id": "12B3700012",
    "name": "介護医療院泉水ガーデンホーム",
    "kana": "カイゴイリョウイン　センズイガーデンホーム",
    "address": "千葉県夷隅郡大多喜町泉水674",
    "lat": 35.2946332,
    "lng": 140.2418943,
    "tel": "0470-82-4330",
    "url": "https://kawasaki-hospital.jp/",
    "pref": "千葉県",
    "city": "大多喜町",
    "category": "care_medical_institute",
    "serviceType": "介護医療院",
    "capacity": 0,
    "openDays": [],
    "openDaysNote": ""
  },
  {
    "id": "12B3000025",
    "name": "東庄町国民健康保険東庄病院　介護医療院",
    "kana": "トウノショウマチコクミンケンコウホケントウノショウビョウインカイゴイリョウイン",
    "address": "千葉県香取郡東庄町石出2692-15",
    "lat": 35.8205677,
    "lng": 140.6975111,
    "tel": "0478-86-1177",
    "url": "https://www.town.tohnosho.chiba.jp",
    "pref": "千葉県",
    "city": "東庄町",
    "category": "care_medical_institute",
    "serviceType": "介護医療院",
    "capacity": 0,
    "openDays": [],
    "openDaysNote": ""
  },
  {
    "id": "12B2100014",
    "name": "医療法人社団博恵会介護医療院柏南",
    "kana": "イリョウホウジンシャダンハクエイカイカイゴイリョウインハクナン",
    "address": "千葉県柏市逆井１１４４",
    "lat": 35.8168081,
    "lng": 139.9796779,
    "tel": "04-7175-1811",
    "url": "",
    "pref": "千葉県",
    "city": "柏市",
    "category": "care_medical_institute",
    "serviceType": "介護医療院",
    "capacity": 0,
    "openDays": [],
    "openDaysNote": ""
  }
]