[
  {
    "id": "30B1800028",
    "name": "介護医療院やよい苑",
    "kana": "カイゴイリョウインヤヨイエン",
    "address": "和歌山県岩出市中迫３８０",
    "lat": 34.2617948,
    "lng": 135.3149521,
    "tel": "0736-61-1551",
    "url": "http://www.yaeikai.com",
    "pref": "和歌山県",
    "city": "岩出市",
    "category": "care_medical_institute",
    "serviceType": "介護医療院",
    "capacity": 0,
    "openDays": [],
    "openDaysNote": ""
  },
  {
    "id": "30B1800010",
    "name": "富田病院介護医療院",
    "kana": "トミタビョウインカイゴイリョウイン",
    "address": "和歌山県岩出市紀泉台2",
    "lat": 34.2807775,
    "lng": 135.2934836,
    "tel": "0736-62-1522",
    "url": "http://www.tomita.or.jp/",
    "pref": "和歌山県",
    "city": "岩出市",
    "category": "care_medical_institute",
    "serviceType": "介護医療院",
    "capacity": 0,
    "openDays": [],
    "openDaysNote": ""
  },
  {
    "id": "30B1700012",
    "name": "稲穂会病院　介護医療院",
    "kana": "イナホカイビョウイン",
    "address": "紀の川市粉河756-3",
    "lat": 34.2678334,
    "lng": 135.4042663,
    "tel": "0736-74-2100",
    "url": "http://inahokaihp.or.jp/",
    "pref": "和歌山県",
    "city": "紀の川市",
    "category": "care_medical_institute",
    "serviceType": "介護医療院",
    "capacity": null,
    "openDays": [],
    "openDaysNote": ""
  },
  {
    "id": "30B2500023",
    "name": "くしもと町立病院介護医療院",
    "kana": "クシモトチョウリツビョウインカイゴイリョウイン",
    "address": "和歌山県東牟婁郡串本町サンゴ台691-7",
    "lat": 33.4851246,
    "lng": 135.784112,
    "tel": "0735-62-7111",
    "url": "www.hsp.kushimoto.wakayama.jp",
    "pref": "和歌山県",
    "city": "串本町",
    "category": "care_medical_institute",
    "serviceType": "介護医療院",
    "capacity": 14,
    "openDays": [],
    "openDaysNote": ""
  },
  {
    "id": "30B2500015",
    "name": "串本有田病院介護医療院",
    "kana": "クシモトアリタビョウインカイゴイリョウイン",
    "address": "和歌山県東牟婁郡串本町有田499-1",
    "lat": 33.4946205,
    "lng": 135.7383884,
    "tel": "0735-66-1021",
    "url": "http://i-kenyukai.com",
    "pref": "和歌山県",
    "city": "串本町",
    "category": "care_medical_institute",
    "serviceType": "介護医療院",
    "capacity": 0,
    "openDays": [],
    "openDaysNote": ""
  },
  {
    "id": "30B2200012",
    "name": "玉置病院介護医療院",
    "kana": "タマキビョウインカイゴイリョウイン",
    "address": "和歌山県田辺市上屋敷二丁目５番１号",
    "lat": 33.7308977,
    "lng": 135.3762252,
    "tel": "0739-22-6028",
    "url": "http://www.aikis.or.jp/~tamakihp/",
    "pref": "和歌山県",
    "city": "田辺市",
    "category": "care_medical_institute",
    "serviceType": "介護医療院",
    "capacity": 0,
    "openDays": [],
    "openDaysNote": ""
  },
  {
    "id": "30B2400018",
    "name": "白浜はまゆう病院介護医療院",
    "kana": "シラハマハマユウビョウインカイゴイリョウイン",
    "address": "和歌山県西牟婁郡白浜町1447",
    "lat": 33.6818241,
    "lng": 135.3482172,
    "tel": "0739-43-6200",
    "url": "http://www.hamayu-hp.or.jp/",
    "pref": "和歌山県",
    "city": "白浜町",
    "category": "care_medical_institute",
    "serviceType": "介護医療院",
    "capacity": null,
    "openDays": [],
    "openDaysNote": ""
  },
  {
    "id": "30B2400026",
    "name": "白浜小南病院介護医療院",
    "kana": "シラハマコミナミビョウインカイゴイリョウイン",
    "address": "和歌山県西牟婁郡白浜町3220-9",
    "lat": 33.6802681713236,
    "lng": 135.356087784086,
    "tel": "0739-82-1200",
    "url": "",
    "pref": "和歌山県",
    "city": "白浜町",
    "category": "care_medical_institute",
    "serviceType": "介護医療院",
    "capacity": null,
    "openDays": [],
    "openDaysNote": ""
  },
  {
    "id": "30B0100032",
    "name": "医療法人　弘愛会　黒田医院",
    "kana": "イリョウホウジン　コウアイカイ　クロダイイン",
    "address": "古屋６４番地",
    "lat": null,
    "lng": null,
    "tel": "073-451-7458",
    "url": "http：//gokidoc.net/kansai/nigata/30201/3701-00000000-006/clinic_top/",
    "pref": "和歌山県",
    "city": "和歌山市",
    "category": "care_medical_institute",
    "serviceType": "介護医療院",
    "capacity": null,
    "openDays": [],
    "openDaysNote": ""
  },
  {
    "id": "30B0100024",
    "name": "介護医療院ふじの郷",
    "kana": "カイゴイリョウインフジノサト",
    "address": "岡山丁71",
    "lat": 34.226688,
    "lng": 135.1762041,
    "tel": "073-424-3181",
    "url": "https://koujin.co/setoh-hp/",
    "pref": "和歌山県",
    "city": "和歌山市",
    "category": "care_medical_institute",
    "serviceType": "介護医療院",
    "capacity": null,
    "openDays": [],
    "openDaysNote": ""
  },
  {
    "id": "30B0100016",
    "name": "藤民病院介護医療院　さくらの家ふじたみ",
    "kana": "フジタミビョウインカイゴイリョウイン　サクラノイエフジタミ",
    "address": "和歌山県和歌山市塩屋３丁目６番２号",
    "lat": 34.1979731,
    "lng": 135.1757013,
    "tel": "073-445-9881",
    "url": "https://www.fujitami.jp/",
    "pref": "和歌山県",
    "city": "和歌山市",
    "category": "care_medical_institute",
    "serviceType": "介護医療院",
    "capacity": 17,
    "openDays": [],
    "openDaysNote": ""
  },
  {
    "id": "30B0100040",
    "name": "伏虎リハビリテーション病院",
    "kana": "フッコリハビリテーションビョウイン",
    "address": "畑屋敷東ノ丁1番地",
    "lat": 34.2352917817188,
    "lng": 135.182853106607,
    "tel": "073-433-4488",
    "url": "https://nakatani.wakayama.jp/",
    "pref": "和歌山県",
    "city": "和歌山市",
    "category": "care_medical_institute",
    "serviceType": "介護医療院",
    "capacity": null,
    "openDays": [],
    "openDaysNote": ""
  }
]