[
  {
    "id": "11B6500022",
    "name": "しらかば苑",
    "kana": "シラカバエン",
    "address": "埼玉県さいたま市見沼区大和田町２丁目１３９３番地",
    "lat": 35.9317063,
    "lng": 139.6521333,
    "tel": "048-688-3631",
    "url": "https://koujinkai-owd.or.jp/publics/index/100/",
    "pref": "埼玉県",
    "city": "さいたま市見沼区",
    "category": "care_medical_institute",
    "serviceType": "介護医療院",
    "capacity": null,
    "openDays": [],
    "openDaysNote": ""
  },
  {
    "id": "11B6500014",
    "name": "大宮共立病院介護医療院",
    "kana": "オオミヤキョウリツビョウインカイゴイリョウイン",
    "address": "埼玉県さいたま市見沼区大字片柳１５５０",
    "lat": 35.9046743,
    "lng": 139.690988,
    "tel": "048-686-7151",
    "url": "http://www.omiya-kyoritsu.or.jp/",
    "pref": "埼玉県",
    "city": "さいたま市見沼区",
    "category": "care_medical_institute",
    "serviceType": "介護医療院",
    "capacity": 0,
    "openDays": [],
    "openDaysNote": ""
  },
  {
    "id": "11B6500048",
    "name": "ケア大宮花の丘",
    "kana": "ケアオオミヤハナノオカ",
    "address": "埼玉県さいたま市西区内野本郷９７５－５",
    "lat": 35.9383679,
    "lng": 139.5906293,
    "tel": "048-620-2400",
    "url": "https:care-omiya.maruyamakai.jp",
    "pref": "埼玉県",
    "city": "さいたま市西区",
    "category": "care_medical_institute",
    "serviceType": "介護医療院",
    "capacity": null,
    "openDays": [],
    "openDaysNote": ""
  },
  {
    "id": "11B3800011",
    "name": "十善病院介護医療院",
    "kana": "ジュウゼンビョウインカイゴイリョウイン",
    "address": "埼玉県加須市愛宕一丁目９番１６号",
    "lat": 36.1322643,
    "lng": 139.5880483,
    "tel": "0480-61-2595",
    "url": "https://10zen-hosp.com",
    "pref": "埼玉県",
    "city": "加須市",
    "category": "care_medical_institute",
    "serviceType": "介護医療院",
    "capacity": null,
    "openDays": [],
    "openDaysNote": ""
  },
  {
    "id": "11B0600018",
    "name": "武里病院介護医療院",
    "kana": "タケサトビョウインカイゴイリョウイン",
    "address": "埼玉県春日部市下大増新田9番地3",
    "lat": 35.9573706,
    "lng": 139.7404171,
    "tel": "048-733-5111",
    "url": "http://www.demencia.jp/",
    "pref": "埼玉県",
    "city": "春日部市",
    "category": "care_medical_institute",
    "serviceType": "介護医療院",
    "capacity": 0,
    "openDays": [],
    "openDaysNote": ""
  },
  {
    "id": "11B2500018",
    "name": "緑ヶ丘介護医療院",
    "kana": "ミドリガオカカイゴイリョウイン",
    "address": "埼玉県所沢市狭山ヶ丘1-3009",
    "lat": 35.8080791,
    "lng": 139.4148913,
    "tel": "04-2948-8181",
    "url": "https://www.midorigaoka-hp.com/",
    "pref": "埼玉県",
    "city": "所沢市",
    "category": "care_medical_institute",
    "serviceType": "介護医療院",
    "capacity": 93,
    "openDays": [],
    "openDaysNote": ""
  },
  {
    "id": "11B1100018",
    "name": "医療法人社団明日佳埼玉あすか松伏病院介護医療院",
    "kana": "イリョウホウジンシャダンアスカサイタマアスカマツブシビョウインカイゴイリョウイン",
    "address": "埼玉県北葛飾郡松伏町松伏1263番地5",
    "lat": 35.9279976135555,
    "lng": 139.828818586938,
    "tel": "048-992-0411",
    "url": "http://www.asuka-gp.jp/saitama/",
    "pref": "埼玉県",
    "city": "松伏町",
    "category": "care_medical_institute",
    "serviceType": "介護医療院",
    "capacity": null,
    "openDays": [],
    "openDaysNote": ""
  },
  {
    "id": "11B1100026",
    "name": "埼玉筑波病院介護医療院",
    "kana": "サイタマツクバビョウインカイゴイリョウイン",
    "address": "埼玉県北葛飾郡松伏町築比地４２０",
    "lat": 35.9491732,
    "lng": 139.8325542,
    "tel": "048-992-3151",
    "url": "http//saitamatsukuba-hp.com",
    "pref": "埼玉県",
    "city": "松伏町",
    "category": "care_medical_institute",
    "serviceType": "介護医療院",
    "capacity": null,
    "openDays": [],
    "openDaysNote": ""
  },
  {
    "id": "11B0400013",
    "name": "介護医療院　埼玉病院",
    "kana": "カイゴイリョウイン　サイタマビョウイン",
    "address": "埼玉県川越市西小仙波町1丁目8番地3",
    "lat": 35.9173773,
    "lng": 139.4875641,
    "tel": "049-224-5911",
    "url": "https://saitamahp.or.jp/",
    "pref": "埼玉県",
    "city": "川越市",
    "category": "care_medical_institute",
    "serviceType": "介護医療院",
    "capacity": 0,
    "openDays": [],
    "openDaysNote": ""
  },
  {
    "id": "11B0200017",
    "name": "はとがや介護医療院",
    "kana": "ハトガヤカイゴイリョウイン",
    "address": "坂下町4-16-26",
    "lat": 35.8259527409149,
    "lng": 139.737998535582,
    "tel": "048-282-1890",
    "url": "https://hatogaya-hp.or.jp/",
    "pref": "埼玉県",
    "city": "川口市",
    "category": "care_medical_institute",
    "serviceType": "介護医療院",
    "capacity": 158,
    "openDays": [],
    "openDaysNote": ""
  },
  {
    "id": "11B0200025",
    "name": "介護医療院ひだまりの郷",
    "kana": "カイゴイリョウインヒダマリノサト",
    "address": "埼玉県川口市上青木4-2-6上靑木中央醫院 上靑木中央醫院",
    "lat": 35.8304976,
    "lng": 139.7176781,
    "tel": "048-267-2218",
    "url": "https://kamiaoki-hidamari.com/",
    "pref": "埼玉県",
    "city": "川口市",
    "category": "care_medical_institute",
    "serviceType": "介護医療院",
    "capacity": 20,
    "openDays": [],
    "openDaysNote": ""
  },
  {
    "id": "11B0200041",
    "name": "川口メディケアセンター",
    "kana": "カワグチメディケアセンター",
    "address": "埼玉県川口市西新井宿923-1",
    "lat": 35.8481776,
    "lng": 139.7337061,
    "tel": "048-299-9960",
    "url": "http://kawaguchi-mc.jp/",
    "pref": "埼玉県",
    "city": "川口市",
    "category": "care_medical_institute",
    "serviceType": "介護医療院",
    "capacity": 55,
    "openDays": [],
    "openDaysNote": ""
  },
  {
    "id": "11B0200033",
    "name": "武南病院附属介護医療院",
    "kana": "ブナンビョウインフゾクカイゴイリョウイン",
    "address": "東本郷2026",
    "lat": 35.8249065,
    "lng": 139.760138,
    "tel": "048-284-2811",
    "url": "www.bunan.jp",
    "pref": "埼玉県",
    "city": "川口市",
    "category": "care_medical_institute",
    "serviceType": "介護医療院",
    "capacity": null,
    "openDays": [],
    "openDaysNote": ""
  },
  {
    "id": "11B6300019",
    "name": "介護医療院あさひヶ丘",
    "kana": "カイゴイリョウインアサヒガオカ",
    "address": "大字森戸新田99番地1",
    "lat": 35.9125032,
    "lng": 139.3726529,
    "tel": "429896587",
    "url": "https://sekijinkai.or.jp/nursingrelated/recuperationfacility/",
    "pref": "埼玉県",
    "city": "日高市",
    "category": "care_medical_institute",
    "serviceType": "介護医療院",
    "capacity": 0,
    "openDays": [],
    "openDaysNote": ""
  },
  {
    "id": "11B2600016",
    "name": "埼玉はんのう介護医療院",
    "kana": "サイタマハンノウカイゴイリョウイン",
    "address": "埼玉県飯能市飯能1185番地",
    "lat": 35.8595156,
    "lng": 139.3072384,
    "tel": "042-973-3311",
    "url": "www.saipan.or.jp/",
    "pref": "埼玉県",
    "city": "飯能市",
    "category": "care_medical_institute",
    "serviceType": "介護医療院",
    "capacity": 0,
    "openDays": [],
    "openDaysNote": ""
  },
  {
    "id": "11B2600024",
    "name": "飯能靖和　介護医療院",
    "kana": "ハンノウセイワ　カイゴイリョウイン",
    "address": "埼玉県飯能市下加治137-2",
    "lat": 35.865658,
    "lng": 139.3352189,
    "tel": "042-974-2311",
    "url": "http://www.hannouseiwa.or.jp/",
    "pref": "埼玉県",
    "city": "飯能市",
    "category": "care_medical_institute",
    "serviceType": "介護医療院",
    "capacity": null,
    "openDays": [],
    "openDaysNote": ""
  },
  {
    "id": "11B4300011",
    "name": "介護医療院本庄けやき苑",
    "kana": "カイゴイリョウインホンジョウケヤキエン",
    "address": "埼玉県本庄市小島五丁目６番１号",
    "lat": 36.2487109853891,
    "lng": 139.175165384656,
    "tel": "0495(71)7720",
    "url": "https://saihoku.jp/honjou-keyaki",
    "pref": "埼玉県",
    "city": "本庄市",
    "category": "care_medical_institute",
    "serviceType": "介護医療院",
    "capacity": 0,
    "openDays": [],
    "openDaysNote": ""
  }
]