[
  {
    "id": "44B1100019",
    "name": "介護医療院オアシス",
    "kana": "カイゴイリョウインオアシス",
    "address": "大分県宇佐市大字和気477番地の1",
    "lat": 33.5374318,
    "lng": 131.390715,
    "tel": "0978-37-3700",
    "url": "https://oashisu-usa.com/",
    "pref": "大分県",
    "city": "宇佐市",
    "category": "care_medical_institute",
    "serviceType": "介護医療院",
    "capacity": 0,
    "openDays": [],
    "openDaysNote": ""
  },
  {
    "id": "44B1100027",
    "name": "桑尾病院介護医療院",
    "kana": "クワオビョウインカイゴイリョウイン",
    "address": "大分県宇佐市大字四日市１１８番地",
    "lat": 33.5346082,
    "lng": 131.3267595,
    "tel": "0978-32-1331",
    "url": "http://www.kuwao.jp/",
    "pref": "大分県",
    "city": "宇佐市",
    "category": "care_medical_institute",
    "serviceType": "介護医療院",
    "capacity": 0,
    "openDays": [],
    "openDaysNote": ""
  },
  {
    "id": "44B0600019",
    "name": "うすき介護医療院",
    "kana": "ウスキカイゴイリョウイン",
    "address": "大分県臼杵市大字臼杵字洲崎72番地32",
    "lat": 33.1241426550501,
    "lng": 131.805812320164,
    "tel": "0972-83-5118",
    "url": "",
    "pref": "大分県",
    "city": "臼杵市",
    "category": "care_medical_institute",
    "serviceType": "介護医療院",
    "capacity": null,
    "openDays": [],
    "openDaysNote": ""
  },
  {
    "id": "4411010640",
    "name": "はやみ介護医療院",
    "kana": "ハヤミカイゴイリョウイン",
    "address": "大分県杵築市山香町大字内河野3067番地",
    "lat": 33.4629204,
    "lng": 131.500961,
    "tel": "0977-75-1255",
    "url": "",
    "pref": "大分県",
    "city": "杵築市",
    "category": "care_medical_institute",
    "serviceType": "介護医療院",
    "capacity": 47,
    "openDays": [],
    "openDaysNote": ""
  },
  {
    "id": "44B1000011",
    "name": "介護医療院　とわの桜",
    "kana": "カイゴイリョウイン　トワノサクラ",
    "address": "大分県杵築市大字馬場尾５０８番地の2",
    "lat": 33.43084,
    "lng": 131.594184,
    "tel": "0978-64-0111",
    "url": "",
    "pref": "大分県",
    "city": "杵築市",
    "category": "care_medical_institute",
    "serviceType": "介護医療院",
    "capacity": 0,
    "openDays": [],
    "openDaysNote": ""
  },
  {
    "id": "4411410022",
    "name": "医療法人二豊会　介護医療院　国見病院",
    "kana": "イリョウホウジンニホウカイ　カイゴイリョウイン　クニミビョウイン",
    "address": "大分県国東市国見町伊美1968",
    "lat": 33.6859137212962,
    "lng": 131.595715531352,
    "tel": "0978-82-1251",
    "url": "https://nihoukai.com/kunimi_hospital",
    "pref": "大分県",
    "city": "国東市",
    "category": "care_medical_institute",
    "serviceType": "介護医療院",
    "capacity": 0,
    "openDays": [],
    "openDaysNote": ""
  },
  {
    "id": "44B0100028",
    "name": "介護医療院　菜の花",
    "kana": "カイゴイリョウイン　ナノハナ",
    "address": "大分県大分市生石2丁目1番5号",
    "lat": 33.2443464,
    "lng": 131.5848887,
    "tel": "097-535-1884",
    "url": "",
    "pref": "大分県",
    "city": "大分市",
    "category": "care_medical_institute",
    "serviceType": "介護医療院",
    "capacity": 0,
    "openDays": [],
    "openDaysNote": ""
  },
  {
    "id": "44B0100036",
    "name": "介護医療院　緑ヶ丘保養園",
    "kana": "カイゴイリョウイン　ミドリガオカホヨウエン",
    "address": "大分県大分市大字丹生1747",
    "lat": 33.217858888215,
    "lng": 131.703173819574,
    "tel": "975933950",
    "url": "http://www.fuchinokai.or.jp",
    "pref": "大分県",
    "city": "大分市",
    "category": "care_medical_institute",
    "serviceType": "介護医療院",
    "capacity": null,
    "openDays": [],
    "openDaysNote": ""
  },
  {
    "id": "44B0100010",
    "name": "介護医療院おおつか",
    "kana": "カイゴイリョウインオオツカ",
    "address": "大分県大分市住吉町1丁目2番16号",
    "lat": 33.2455719,
    "lng": 131.6052562,
    "tel": "097-535-1122",
    "url": "http://www.otsuka-mc.jp",
    "pref": "大分県",
    "city": "大分市",
    "category": "care_medical_institute",
    "serviceType": "介護医療院",
    "capacity": 9,
    "openDays": [],
    "openDaysNote": ""
  },
  {
    "id": "44B0800015",
    "name": "大久保病院介護医療院",
    "kana": "オオクボビョウインカイゴイリョウイン",
    "address": "大分県竹田市久住町大字栢木6026-2",
    "lat": 33.0575095,
    "lng": 131.3321194,
    "tel": "0974-64-7777",
    "url": "http://okubo-hp.com/",
    "pref": "大分県",
    "city": "竹田市",
    "category": "care_medical_institute",
    "serviceType": "介護医療院",
    "capacity": 0,
    "openDays": [],
    "openDaysNote": ""
  },
  {
    "id": "44B0400014",
    "name": "介護医療院　新関内科医院",
    "kana": "カイゴイリョウイン　ニイゼキナイカイイン",
    "address": "大分県日田市田島2丁目4番9号",
    "lat": 33.3199067,
    "lng": 130.941427,
    "tel": "0973-24-3355",
    "url": "http://niizekinaika.or.jp",
    "pref": "大分県",
    "city": "日田市",
    "category": "care_medical_institute",
    "serviceType": "介護医療院",
    "capacity": null,
    "openDays": [],
    "openDaysNote": ""
  },
  {
    "id": "44B2100018",
    "name": "姫島村国民健康保険診療所介護医療院",
    "kana": "ヒメシマムラコクミンケンコウホケンシンリョウショカイゴイリョウイン",
    "address": "大分県東国東郡姫島村1560番地の1",
    "lat": 33.724293,
    "lng": 131.6462584,
    "tel": "0978-87-3221",
    "url": "",
    "pref": "大分県",
    "city": "姫島村",
    "category": "care_medical_institute",
    "serviceType": "介護医療院",
    "capacity": 0,
    "openDays": [],
    "openDaysNote": ""
  },
  {
    "id": "44B0200059",
    "name": "ヒロセ内科介護医療院",
    "kana": "ヒロセナイカカイゴイリョウイン",
    "address": "大分県別府市駅前本町5-23",
    "lat": 33.2809473,
    "lng": 131.5015527,
    "tel": "0977-21-3030",
    "url": "https://bec-medicube.com/menu/hirosenaikaiin.html",
    "pref": "大分県",
    "city": "別府市",
    "category": "care_medical_institute",
    "serviceType": "介護医療院",
    "capacity": 6,
    "openDays": [],
    "openDaysNote": ""
  },
  {
    "id": "44B0200034",
    "name": "ふじみ介護医療院",
    "kana": "フジミカイゴイリョウイン",
    "address": "大分県別府市北的ヶ浜町5番19号",
    "lat": 33.2849861,
    "lng": 131.5041305,
    "tel": "0977-24-0001",
    "url": "http://www.fujimi.or.jp/",
    "pref": "大分県",
    "city": "別府市",
    "category": "care_medical_institute",
    "serviceType": "介護医療院",
    "capacity": 0,
    "openDays": [],
    "openDaysNote": ""
  },
  {
    "id": "44B0200018",
    "name": "介護医療院くろき",
    "kana": "カイゴイリョウインクロキ",
    "address": "大分県別府市照波園町14番28号",
    "lat": 33.3195369,
    "lng": 131.497318,
    "tel": "0977-67-1211",
    "url": "http://www.kuroki-hp.or.jp/",
    "pref": "大分県",
    "city": "別府市",
    "category": "care_medical_institute",
    "serviceType": "介護医療院",
    "capacity": 0,
    "openDays": [],
    "openDaysNote": ""
  },
  {
    "id": "44B0200026",
    "name": "介護医療院むらはし",
    "kana": "カイゴイリョウインムラハシ",
    "address": "千代町2番5号村橋病院 村橋病院",
    "lat": 33.2746458,
    "lng": 131.5046383,
    "tel": "0977-23-3231",
    "url": "http://murahashi-hp.jp/",
    "pref": "大分県",
    "city": "別府市",
    "category": "care_medical_institute",
    "serviceType": "介護医療院",
    "capacity": null,
    "openDays": [],
    "openDaysNote": ""
  },
  {
    "id": "44B0200042",
    "name": "浜脇記念病院介護医療院",
    "kana": "ハマワキキネンビョウインカイゴイリョウイン",
    "address": "浜脇１丁目6-21",
    "lat": 33.2694902,
    "lng": 131.510434,
    "tel": "0977-22-2228",
    "url": "http://hamawakimhp.com",
    "pref": "大分県",
    "city": "別府市",
    "category": "care_medical_institute",
    "serviceType": "介護医療院",
    "capacity": 0,
    "openDays": [],
    "openDaysNote": ""
  },
  {
    "id": "44B0900013",
    "name": "高田中央病院介護医療院",
    "kana": "タカダチュウオウビョウインカイゴイリョウイン",
    "address": "大分県豊後高田市新地１１７６番地１",
    "lat": 33.5551669,
    "lng": 131.4407071,
    "tel": "0978-22-3745",
    "url": "https://takachuo.com/",
    "pref": "大分県",
    "city": "豊後高田市",
    "category": "care_medical_institute",
    "serviceType": "介護医療院",
    "capacity": 0,
    "openDays": [],
    "openDaysNote": ""
  }
]