[
  {
    "id": "27B1100010",
    "name": "天の川病院介護医療院",
    "kana": "アマノガワビョウインカイゴイリョウイン",
    "address": "大阪府岸和田市春木大国町8-4",
    "lat": 34.4827386,
    "lng": 135.3829029,
    "tel": "072-436-2233",
    "url": "http://www7a.biglobe.ne.jp/~amanogawa/",
    "pref": "大阪府",
    "city": "岸和田市",
    "category": "care_medical_institute",
    "serviceType": "介護医療院",
    "capacity": 0,
    "openDays": [],
    "openDaysNote": ""
  },
  {
    "id": "27B5300012",
    "name": "介護医療院　菜の花",
    "kana": "カイゴイリョウイン　ナノハナ",
    "address": "大阪府高石市綾園2-15-18",
    "lat": 34.5200394,
    "lng": 135.4356141,
    "tel": "072-263-6300",
    "url": "https://www.ryoshukai.or.jp/kaigo/nanohana/",
    "pref": "大阪府",
    "city": "高石市",
    "category": "care_medical_institute",
    "serviceType": "介護医療院",
    "capacity": 0,
    "openDays": [],
    "openDaysNote": ""
  },
  {
    "id": "27B6500016",
    "name": "医療法人以和貴会　北条病院　介護医療院",
    "kana": "イリョウホウジンイワキカイ　ホウジョウビョウイン　カイゴイリョウイン",
    "address": "堺市北区百舌鳥陵南町1丁77番地1",
    "lat": 34.5467643,
    "lng": 135.4880249,
    "tel": "072-277-1119",
    "url": "http://houjyou.or.jp/",
    "pref": "大阪府",
    "city": "堺市北区",
    "category": "care_medical_institute",
    "serviceType": "介護医療院",
    "capacity": null,
    "openDays": [],
    "openDaysNote": ""
  },
  {
    "id": "27B4800012",
    "name": "明治橋病院　介護医療院",
    "kana": "メイジバシビョウイン　カイゴイリョウイン",
    "address": "大阪府松原市三宅西1丁目358番地3",
    "lat": 34.584646,
    "lng": 135.5500098,
    "tel": "072-334-8558",
    "url": "http://meijibashi.or.jp",
    "pref": "大阪府",
    "city": "松原市",
    "category": "care_medical_institute",
    "serviceType": "介護医療院",
    "capacity": 0,
    "openDays": [],
    "openDaysNote": ""
  },
  {
    "id": "27B0300017",
    "name": "松島病院介護医療院",
    "kana": "マツシマビョウインカイゴイリョウイン",
    "address": "大阪府寝屋川市八坂町23-21松島病院 松島病院",
    "lat": 34.7664634,
    "lng": 135.6228012,
    "tel": "072-826-5021",
    "url": "",
    "pref": "大阪府",
    "city": "寝屋川市",
    "category": "care_medical_institute",
    "serviceType": "介護医療院",
    "capacity": null,
    "openDays": [],
    "openDaysNote": ""
  },
  {
    "id": "27B4500018",
    "name": "医療法人仙寿会　泉佐野介護医療院",
    "kana": "イリョウホウジンセンジュカイ　イズミサノカイゴイリョウイン",
    "address": "大阪府泉佐野市大宮町４番１６号",
    "lat": 34.4135382,
    "lng": 135.3198753,
    "tel": "072-463-0500",
    "url": "https://senjyukai.com/",
    "pref": "大阪府",
    "city": "泉佐野市",
    "category": "care_medical_institute",
    "serviceType": "介護医療院",
    "capacity": null,
    "openDays": [],
    "openDaysNote": ""
  },
  {
    "id": "27B1800023",
    "name": "医療法人仁生会　介護医療院",
    "kana": "イリョウホウジン　ジンセイカイ　カイゴイリョウイン",
    "address": "大阪府大阪市西区九条1丁目15番23号",
    "lat": 34.6745421,
    "lng": 135.4758371,
    "tel": "06-6581-0085",
    "url": "http://naitou-hp.or.jp",
    "pref": "大阪府",
    "city": "大阪市西区",
    "category": "care_medical_institute",
    "serviceType": "介護医療院",
    "capacity": null,
    "openDays": [],
    "openDaysNote": ""
  },
  {
    "id": "27B1800015",
    "name": "医療法人日新会　日新会介護医療院",
    "kana": "イリョウホウジンニッシンカイ",
    "address": "大阪府大阪市西区4丁目4番8号",
    "lat": 34.6762712317981,
    "lng": 135.486941251776,
    "tel": "06-6531-3038",
    "url": "https://nisshinkai.jp/",
    "pref": "大阪府",
    "city": "大阪市西区",
    "category": "care_medical_institute",
    "serviceType": "介護医療院",
    "capacity": 0,
    "openDays": [],
    "openDaysNote": ""
  },
  {
    "id": "27B0800016",
    "name": "医療法人　西中医学会　西中病院介護医療院",
    "kana": "イリョウホウジン　ニシナカイガクカイ　ニシナカビョウイン　カイゴイリョウイン",
    "address": "大阪府大阪市東住吉区湯里5-9-6",
    "lat": 34.6097442,
    "lng": 135.5372288,
    "tel": "06-6700-5200",
    "url": "http://www.nishinaka.or.jp",
    "pref": "大阪府",
    "city": "大阪市東住吉区",
    "category": "care_medical_institute",
    "serviceType": "介護医療院",
    "capacity": 42,
    "openDays": [],
    "openDaysNote": ""
  },
  {
    "id": "27B0200019",
    "name": "フジタ病院介護医療院",
    "kana": "フジタビョウインカイゴイリョウイン",
    "address": "大阪府大阪市福島区吉野2-10-11",
    "lat": 34.6919809,
    "lng": 135.4753333,
    "tel": "06-6441-1181",
    "url": "https://www.fujitahp.com/",
    "pref": "大阪府",
    "city": "大阪市福島区",
    "category": "care_medical_institute",
    "serviceType": "介護医療院",
    "capacity": 28,
    "openDays": [],
    "openDaysNote": ""
  },
  {
    "id": "27B5000018",
    "name": "社会福祉法人竹井病院　竹井医院介護医療院",
    "kana": "シャカイフクシホウジンタケイビョウイン　タケイイインカイゴイリョウイン",
    "address": "大阪府東大阪市長堂一丁目２８番６号",
    "lat": 34.6688445,
    "lng": 135.5634853,
    "tel": "06-6781-0603",
    "url": "https://ortho-g.co.jp/takei/hospital/",
    "pref": "大阪府",
    "city": "東大阪市",
    "category": "care_medical_institute",
    "serviceType": "介護医療院",
    "capacity": 58,
    "openDays": [],
    "openDaysNote": ""
  },
  {
    "id": "27B5500017",
    "name": "医療法人　永光会　介護医療院　新井病院",
    "kana": "イリョウホウジン　エイコウカイ　カイゴイリョウイン　アライビョウイン",
    "address": "大阪府八尾市美園町4-156-3",
    "lat": 34.637984,
    "lng": 135.5913217,
    "tel": "072-999-5060",
    "url": "https://www.eikoukai.or.jp",
    "pref": "大阪府",
    "city": "八尾市",
    "category": "care_medical_institute",
    "serviceType": "介護医療院",
    "capacity": null,
    "openDays": [],
    "openDaysNote": ""
  },
  {
    "id": "27B5500025",
    "name": "貴島病院本院介護医療院",
    "kana": "キシマビョウインホンインカイゴイリョウイン",
    "address": "大阪府八尾市楽音寺3-33",
    "lat": 34.6426999582134,
    "lng": 135.637774271164,
    "tel": "072-941-1499",
    "url": "https://www.noble.or.jp",
    "pref": "大阪府",
    "city": "八尾市",
    "category": "care_medical_institute",
    "serviceType": "介護医療院",
    "capacity": null,
    "openDays": [],
    "openDaysNote": ""
  },
  {
    "id": "27B2400021",
    "name": "医療法人中屋覚志会　津田介護医療院",
    "kana": "イリョウホウジンナカヤカクシカイ　ツダカイゴイリョウイン",
    "address": "大阪府枚方市津田北町三丁目３０番１号",
    "lat": 34.8137664817699,
    "lng": 135.712026406746,
    "tel": "072-858-8259",
    "url": "https://nakaya-kakushikai.jp/",
    "pref": "大阪府",
    "city": "枚方市",
    "category": "care_medical_institute",
    "serviceType": "介護医療院",
    "capacity": null,
    "openDays": [],
    "openDaysNote": ""
  },
  {
    "id": "27B2400013",
    "name": "東香里介護医療院",
    "kana": "ヒガシコウリカイゴイリョウイン",
    "address": "大阪府枚方市高田2-28-30",
    "lat": 34.7789195739528,
    "lng": 135.662483990213,
    "tel": "072-853-0502",
    "url": "https://higashikouri-hp.com/second/",
    "pref": "大阪府",
    "city": "枚方市",
    "category": "care_medical_institute",
    "serviceType": "介護医療院",
    "capacity": 39,
    "openDays": [],
    "openDaysNote": ""
  },
  {
    "id": "27B2600018",
    "name": "社会医療法人　弘道会　門真介護医療院",
    "kana": "シャカイイリョウホウジン　コウドウカイ　カドマカイゴイリョウイン",
    "address": "大阪府門真市新橋町33番12号",
    "lat": 34.7339980893711,
    "lng": 135.583243452779,
    "tel": "06-6902-7272",
    "url": "http://www.koudoukai.or.jp/",
    "pref": "大阪府",
    "city": "門真市",
    "category": "care_medical_institute",
    "serviceType": "介護医療院",
    "capacity": null,
    "openDays": [],
    "openDaysNote": ""
  },
  {
    "id": "27B0500012",
    "name": "医療法人　橘会　介護医療院　横山病院",
    "kana": "イリョウホウジンタチバナカイカイゴイリョウインヨコヤマビョウイン",
    "address": "大阪府和泉市仏並町２８７番地",
    "lat": 34.4242176985721,
    "lng": 135.48743070423,
    "tel": "0725-92-0045",
    "url": "http://www.tachibana-med.or.jp/yokoyama/",
    "pref": "大阪府",
    "city": "和泉市",
    "category": "care_medical_institute",
    "serviceType": "介護医療院",
    "capacity": 0,
    "openDays": [],
    "openDaysNote": ""
  },
  {
    "id": "27B0500046",
    "name": "医療法人新仁会　新仁会病院　介護医療院",
    "kana": "イリョウホウジンシンジンカイ　シンジンカイビョウイン　カイゴイリョウイン",
    "address": "大阪府和泉市寺田町二丁目７番３９号",
    "lat": 34.4699740790182,
    "lng": 135.43152438066,
    "tel": "0725-45-5661",
    "url": "http://www.shinjinkai-hp.or.jp/",
    "pref": "大阪府",
    "city": "和泉市",
    "category": "care_medical_institute",
    "serviceType": "介護医療院",
    "capacity": 50,
    "openDays": [],
    "openDaysNote": ""
  },
  {
    "id": "27B0500020",
    "name": "医療法人聖和錦秀会　阪和いずみ病院　介護医療院",
    "kana": "イリョウホウジンセイワキンシュウカイ　ハンワイズミビョウイン　カイゴイリョウイン",
    "address": "大阪府　和泉市　あゆみ野　1-7-1",
    "lat": 34.4471047,
    "lng": 135.4489758,
    "tel": "0725-53-1555",
    "url": "http://www.seiwa-kinshukai.or.jp/hanwaizumi/",
    "pref": "大阪府",
    "city": "和泉市",
    "category": "care_medical_institute",
    "serviceType": "介護医療院",
    "capacity": 0,
    "openDays": [],
    "openDaysNote": ""
  }
]