[
  {
    "id": "29B3700013",
    "name": "医療法人泰山会　介護医療院　福西クリニック",
    "kana": "イリョウホウジン　タイザンカイ　カイゴイリョウイン　フクニシクリニック",
    "address": "奈良県吉野郡下市町大字新住１５５番地１",
    "lat": 34.3806377,
    "lng": 135.7824266,
    "tel": "0747-52-0510",
    "url": "http://taizankai.or.jp/",
    "pref": "奈良県",
    "city": "下市町",
    "category": "care_medical_institute",
    "serviceType": "介護医療院",
    "capacity": null,
    "openDays": [],
    "openDaysNote": ""
  },
  {
    "id": "29B0500010",
    "name": "医療法人　桂会　平尾病院介護医療院",
    "kana": "イリョウホウジン　カツラカイ　ヒラオビョウインカイゴイリョウイン",
    "address": "奈良県橿原市兵部町6-28",
    "lat": 34.5054351,
    "lng": 135.7923365,
    "tel": "0744-24-4700",
    "url": "http://www.hiraohos.jp/",
    "pref": "奈良県",
    "city": "橿原市",
    "category": "care_medical_institute",
    "serviceType": "介護医療院",
    "capacity": null,
    "openDays": [],
    "openDaysNote": ""
  },
  {
    "id": "29B3500017",
    "name": "医療法人八甲会潮田病院介護医療院",
    "kana": "イリョウホウジンハッコウカイウシオダビョウインカイゴイリョウイン",
    "address": "奈良県吉野郡吉野町上市2135",
    "lat": 34.3945832,
    "lng": 135.8467879,
    "tel": "0746-32-3202",
    "url": "http//hakkohkai.com",
    "pref": "奈良県",
    "city": "吉野町",
    "category": "care_medical_institute",
    "serviceType": "介護医療院",
    "capacity": 0,
    "openDays": [],
    "openDaysNote": ""
  },
  {
    "id": "29B3600015",
    "name": "南和病院介護医療院",
    "kana": "ナンワビョウイン　カイゴイリョウイン",
    "address": "奈良県吉野郡大淀町福神1-181",
    "lat": 34.3938321,
    "lng": 135.7541664,
    "tel": "0747-54-5800",
    "url": "http://www.koujin.jp/",
    "pref": "奈良県",
    "city": "大淀町",
    "category": "care_medical_institute",
    "serviceType": "介護医療院",
    "capacity": null,
    "openDays": [],
    "openDaysNote": ""
  },
  {
    "id": "29B0300015",
    "name": "奈良厚生会病院介護医療院",
    "kana": "ナラコウセイカイビョウインカイゴイリョウイン",
    "address": "奈良県大和郡山市椎木町７６９番地の３",
    "lat": 34.6080391176274,
    "lng": 135.768809732541,
    "tel": "0743-56-5678",
    "url": "http://nara-koseikai.or.jp/",
    "pref": "奈良県",
    "city": "大和郡山市",
    "category": "care_medical_institute",
    "serviceType": "介護医療院",
    "capacity": 0,
    "openDays": [],
    "openDaysNote": ""
  },
  {
    "id": "29B0400013",
    "name": "奈良東病院介護医療院",
    "kana": "ナラヒガシビョウインカイゴイリョウイン",
    "address": "奈良県天理市中之庄町４７０",
    "lat": 34.6373553799224,
    "lng": 135.844753901852,
    "tel": "0743-65-1771",
    "url": "https://www.fureai-net.com/",
    "pref": "奈良県",
    "city": "天理市",
    "category": "care_medical_institute",
    "serviceType": "介護医療院",
    "capacity": 0,
    "openDays": [],
    "openDaysNote": ""
  },
  {
    "id": "29B0100019",
    "name": "医療法人新仁会　奈良春日病院介護医療院",
    "kana": "イリョウホウジンシンジンカイナラカスガビョウインカイゴイリョウイン",
    "address": "奈良県奈良市鹿野園町1212-1",
    "lat": 34.6642378,
    "lng": 135.8529701,
    "tel": "0742-24-4771",
    "url": "https://narakasuga-hospital.or.jp/",
    "pref": "奈良県",
    "city": "奈良市",
    "category": "care_medical_institute",
    "serviceType": "介護医療院",
    "capacity": 0,
    "openDays": [],
    "openDaysNote": ""
  },
  {
    "id": "29B0190002",
    "name": "西の京介護医療院やすらぎ",
    "kana": "ニシノキョウカイゴイリョウインヤスラギ",
    "address": "奈良県奈良市六条町99-2西の京介護医療院やすらぎ 西の京介護医療院やすらぎ",
    "lat": 34.6653918855082,
    "lng": 135.790108861971,
    "tel": "0742-32-5518",
    "url": "https://www.nishinokyo.or.jp/kaigo/yasuragi/index.html",
    "pref": "奈良県",
    "city": "奈良市",
    "category": "care_medical_institute",
    "serviceType": "介護医療院",
    "capacity": 0,
    "openDays": [],
    "openDaysNote": ""
  }
]