[
  {
    "id": "45B0300015",
    "name": "医療法人中心会野村病院介護医療院",
    "kana": "イリョウホウジンチュウシンカイノムラビョウインカイゴイリョウイン",
    "address": "宮崎県延岡市出北５丁目４番２６号",
    "lat": 32.5749832,
    "lng": 131.6854512,
    "tel": "0982-21-2213",
    "url": "https://nomura-h.wixsite.com/chuushinkai",
    "pref": "宮崎県",
    "city": "延岡市",
    "category": "care_medical_institute",
    "serviceType": "介護医療院",
    "capacity": 0,
    "openDays": [],
    "openDaysNote": ""
  },
  {
    "id": "45B0300049",
    "name": "井上病院介護医療院",
    "kana": "イノウエビョウインカイゴイリョウイン",
    "address": "宮崎県延岡市平原町1丁目990番地1",
    "lat": 32.5552762,
    "lng": 131.6751712,
    "tel": "0982-21-5110",
    "url": "http://www.inoue-hp.jp/",
    "pref": "宮崎県",
    "city": "延岡市",
    "category": "care_medical_institute",
    "serviceType": "介護医療院",
    "capacity": null,
    "openDays": [],
    "openDaysNote": ""
  },
  {
    "id": "45B0300031",
    "name": "杉本病院介護医療院",
    "kana": "スギモトビョウインカイゴイリョウイン",
    "address": "宮崎県延岡市三ツ瀬町1丁目11番地5",
    "lat": 32.5752749,
    "lng": 131.6658653,
    "tel": "0982-33-2626",
    "url": "https://sugimoto-hp.jp",
    "pref": "宮崎県",
    "city": "延岡市",
    "category": "care_medical_institute",
    "serviceType": "介護医療院",
    "capacity": 50,
    "openDays": [],
    "openDaysNote": ""
  },
  {
    "id": "45B0300023",
    "name": "早田病院介護医療院",
    "kana": "ソウダビョウインカイゴリョウヨウイン",
    "address": "宮崎県延岡市高千穂通り3748番地1",
    "lat": 32.58675,
    "lng": 131.6684,
    "tel": "0982-33-5577",
    "url": "",
    "pref": "宮崎県",
    "city": "延岡市",
    "category": "care_medical_institute",
    "serviceType": "介護医療院",
    "capacity": 0,
    "openDays": [],
    "openDaysNote": ""
  },
  {
    "id": "45B0100019",
    "name": "みやざき介護医療院",
    "kana": "ミヤザキカイゴイリョウイン",
    "address": "宮崎県宮崎市高岡町内山２４２０番１",
    "lat": 31.8962991,
    "lng": 131.2105404,
    "tel": "0985-82-3531",
    "url": "tatsumoto-g.com",
    "pref": "宮崎県",
    "city": "宮崎市",
    "category": "care_medical_institute",
    "serviceType": "介護医療院",
    "capacity": 0,
    "openDays": [],
    "openDaysNote": ""
  },
  {
    "id": "45B0100027",
    "name": "介護医療院稲倉医院",
    "kana": "カイゴイリョウインイナクライイン",
    "address": "宮崎県宮崎市大塚町馬場崎3554-2",
    "lat": 31.9131412,
    "lng": 131.3938231,
    "tel": "0985-53-1411",
    "url": "http://www.inakura-clinic.com/",
    "pref": "宮崎県",
    "city": "宮崎市",
    "category": "care_medical_institute",
    "serviceType": "介護医療院",
    "capacity": 0,
    "openDays": [],
    "openDaysNote": ""
  },
  {
    "id": "45B0100043",
    "name": "宮崎医療センター病院　介護医療院",
    "kana": "ミヤザキイリョウセンタービョウイン　カイゴイリョウイン",
    "address": "宮崎県宮崎市高松町２番１６号",
    "lat": 31.9138258,
    "lng": 131.4189607,
    "tel": "0985-26-2170",
    "url": "https://www.jojinkai.com/miyazaki/",
    "pref": "宮崎県",
    "city": "宮崎市",
    "category": "care_medical_institute",
    "serviceType": "介護医療院",
    "capacity": null,
    "openDays": [],
    "openDaysNote": ""
  },
  {
    "id": "45B0100068",
    "name": "佐土原病院介護医療院",
    "kana": "サドワラビョウインカイゴイリョウイン",
    "address": "宮崎県宮崎市佐土原町上田島3873番地",
    "lat": 32.0509062,
    "lng": 131.4316702,
    "tel": "0985-74-0012",
    "url": "https://www.sadowara-hospital.com",
    "pref": "宮崎県",
    "city": "宮崎市",
    "category": "care_medical_institute",
    "serviceType": "介護医療院",
    "capacity": 0,
    "openDays": [],
    "openDaysNote": ""
  },
  {
    "id": "45B0100050",
    "name": "青島リゾートクリニック　介護医療院",
    "kana": "アオシマリゾートクリニック　カイゴイリョウイン",
    "address": "宮崎県宮崎市大字加江田5646番地1",
    "lat": 31.8113105,
    "lng": 131.4457526,
    "tel": "0985-65-3567",
    "url": "http://www.seibikai-group.or.jp",
    "pref": "宮崎県",
    "city": "宮崎市",
    "category": "care_medical_institute",
    "serviceType": "介護医療院",
    "capacity": null,
    "openDays": [],
    "openDaysNote": ""
  },
  {
    "id": "45B2200023",
    "name": "五ヶ瀬町国民健康保険病院介護医療院",
    "kana": "ゴカセチョウコクミンケンコウホケンビョウインカイゴイリョウイン",
    "address": "宮崎県西臼杵郡五ヶ瀬町大字三ヶ所2109番地1",
    "lat": 32.6844498,
    "lng": 131.1977661,
    "tel": "0982-73-5500",
    "url": "7000020458252",
    "pref": "宮崎県",
    "city": "五ヶ瀬町",
    "category": "care_medical_institute",
    "serviceType": "介護医療院",
    "capacity": 0,
    "openDays": [],
    "openDaysNote": ""
  },
  {
    "id": "45B2200015",
    "name": "介護医療院　神楽苑",
    "kana": "カイゴイリョウイン　カグラエン",
    "address": "宮崎県西臼杵郡高千穂町押方1130番地",
    "lat": 32.7120452,
    "lng": 131.2964431,
    "tel": "0982-72-3210",
    "url": "https://www.kunimigaoka.or.jp",
    "pref": "宮崎県",
    "city": "高千穂町",
    "category": "care_medical_institute",
    "serviceType": "介護医療院",
    "capacity": 0,
    "openDays": [],
    "openDaysNote": ""
  },
  {
    "id": "45B1900011",
    "name": "社会医療法人慶明会　けいめい記念病院　介護医療院ひまわり",
    "kana": "シャカイイリョウホウジンケイメイカイ　ケイメイキネンビョウイン　カイゴイリョウインヒマワリ",
    "address": "宮崎県東諸県郡国富町岩知野762番地",
    "lat": 31.978477059587,
    "lng": 131.371625508598,
    "tel": "0985-75-7012",
    "url": "https://www.keimei-kinen.com/",
    "pref": "宮崎県",
    "city": "国富町",
    "category": "care_medical_institute",
    "serviceType": "介護医療院",
    "capacity": 0,
    "openDays": [],
    "openDaysNote": ""
  },
  {
    "id": "45B0500010",
    "name": "介護医療院　白寿荘",
    "kana": "カイゴイリョウイン　ハクジュソウ",
    "address": "宮崎県小林市堤2939",
    "lat": 31.985979,
    "lng": 130.9905068,
    "tel": "0984-22-8287",
    "url": "",
    "pref": "宮崎県",
    "city": "小林市",
    "category": "care_medical_institute",
    "serviceType": "介護医療院",
    "capacity": null,
    "openDays": [],
    "openDaysNote": ""
  },
  {
    "id": "45B0200017",
    "name": "医療法人社団仮屋医院　介護医療院",
    "kana": "イリョウホウジンシャダンカリヤイインカイゴイリョウイン",
    "address": "宮崎県都城市上水流町２３４８番地",
    "lat": 31.811477665883,
    "lng": 131.095194295106,
    "tel": "0986-36-0521",
    "url": "",
    "pref": "宮崎県",
    "city": "都城市",
    "category": "care_medical_institute",
    "serviceType": "介護医療院",
    "capacity": 0,
    "openDays": [],
    "openDaysNote": ""
  },
  {
    "id": "45B0600018",
    "name": "医療法人社団慶城会瀧井病院　介護医療院",
    "kana": "イリョウホウジンシャダンケイジョウカイタキイビョウイン　カイゴイリョウイン",
    "address": "宮崎県日向市大字塩見11652番地瀧井病院介護医療院 瀧井病院介護医療院",
    "lat": 32.4113593,
    "lng": 131.6014629,
    "tel": "0982-52-2409",
    "url": "takii-hospital.com",
    "pref": "宮崎県",
    "city": "日向市",
    "category": "care_medical_institute",
    "serviceType": "介護医療院",
    "capacity": 0,
    "openDays": [],
    "openDaysNote": ""
  },
  {
    "id": "45B0400013",
    "name": "山元病院介護医療院",
    "kana": "ヤマモトビョウインカイゴイリョウイン",
    "address": "宮崎県日南市中央通１丁目１０番地１５",
    "lat": 31.6007941,
    "lng": 131.3814317,
    "tel": "0987-23-4815",
    "url": "http://www.aisinkai.com/",
    "pref": "宮崎県",
    "city": "日南市",
    "category": "care_medical_institute",
    "serviceType": "介護医療院",
    "capacity": null,
    "openDays": [],
    "openDaysNote": ""
  },
  {
    "id": "45B2100017",
    "name": "田中病院介護医療院",
    "kana": "タナカビョウインカイゴイリョウイン",
    "address": "宮崎県東臼杵郡門川町宮ケ原4丁目80番地特定医療法人浩洋会田中病院 特定医療法人浩洋会田中病院",
    "lat": 32.4813644,
    "lng": 131.6536742,
    "tel": "0982-63-2211",
    "url": "",
    "pref": "宮崎県",
    "city": "門川町",
    "category": "care_medical_institute",
    "serviceType": "介護医療院",
    "capacity": null,
    "openDays": [],
    "openDaysNote": ""
  },
  {
    "id": "45B2100025",
    "name": "白石病院介護医療院",
    "kana": "シライシビョウインカイゴイリョウイン",
    "address": "宮崎県東臼杵郡門川町大字門川尾末8600-100",
    "lat": 32.4734553,
    "lng": 131.6525446,
    "tel": "0982-63-1365",
    "url": "",
    "pref": "宮崎県",
    "city": "門川町",
    "category": "care_medical_institute",
    "serviceType": "介護医療院",
    "capacity": 6,
    "openDays": [],
    "openDaysNote": ""
  }
]