[
  {
    "id": "16B0600013",
    "name": "吉見病院　介護医療院",
    "kana": "ヨシミビョウイン　カイゴイリョウイン",
    "address": "富山県滑川市清水町３番２５号",
    "lat": 36.7634206,
    "lng": 137.3437487,
    "tel": "076-475-0861",
    "url": "http://yoshimi-hospital.jp/",
    "pref": "富山県",
    "city": "滑川市",
    "category": "care_medical_institute",
    "serviceType": "介護医療院",
    "capacity": null,
    "openDays": [],
    "openDaysNote": ""
  },
  {
    "id": "16B0400026",
    "name": "魚津病院介護医療院",
    "kana": "ウオヅビョウインカイゴイリョウイン",
    "address": "富山県魚津市友道789番地",
    "lat": 36.8145605,
    "lng": 137.4113616,
    "tel": "0765-24-7671",
    "url": "http://www.uozubyouin.jp/",
    "pref": "富山県",
    "city": "魚津市",
    "category": "care_medical_institute",
    "serviceType": "介護医療院",
    "capacity": 0,
    "openDays": [],
    "openDaysNote": ""
  },
  {
    "id": "16B0400018",
    "name": "新川病院介護医療院",
    "kana": "ニイカワビョウインカイゴイリョウイン",
    "address": "富山県魚津市住吉２３６番地",
    "lat": 36.8002485,
    "lng": 137.3994045,
    "tel": "0765-24-3800",
    "url": "http://www.fukujukai.com",
    "pref": "富山県",
    "city": "魚津市",
    "category": "care_medical_institute",
    "serviceType": "介護医療院",
    "capacity": 0,
    "openDays": [],
    "openDaysNote": ""
  },
  {
    "id": "16B0200012",
    "name": "介護医療院　光ヶ丘",
    "kana": "カイゴイリョウイン　ヒカリガオカ",
    "address": "富山県高岡市西藤平蔵313番地",
    "lat": 36.7066238,
    "lng": 136.9859061,
    "tel": "0766-63-5353",
    "url": "http://shirankai.net/",
    "pref": "富山県",
    "city": "高岡市",
    "category": "care_medical_institute",
    "serviceType": "介護医療院",
    "capacity": 0,
    "openDays": [],
    "openDaysNote": ""
  },
  {
    "id": "16B0200046",
    "name": "介護医療院高陵クリニック",
    "kana": "カイゴイリョウインコウリョウクリニック",
    "address": "富山県高岡市野村23-1",
    "lat": 36.7377142,
    "lng": 137.0272455,
    "tel": "0766-26-6200",
    "url": "https://www.ko-cli.com/",
    "pref": "富山県",
    "city": "高岡市",
    "category": "care_medical_institute",
    "serviceType": "介護医療院",
    "capacity": null,
    "openDays": [],
    "openDaysNote": ""
  },
  {
    "id": "16B0200020",
    "name": "丹保病院介護医療院",
    "kana": "タンボビョウインカイゴイリョウイン",
    "address": "大坪町1丁目1番3号",
    "lat": 36.7544993,
    "lng": 137.0180525,
    "tel": "0766-22-3719",
    "url": "www.kuwayamakai.jp/",
    "pref": "富山県",
    "city": "高岡市",
    "category": "care_medical_institute",
    "serviceType": "介護医療院",
    "capacity": 0,
    "openDays": [],
    "openDaysNote": ""
  },
  {
    "id": "16B0200038",
    "name": "万葉病院介護医療院",
    "kana": "マンヨウビョウインカイゴイリョウイン",
    "address": "高岡市西海老坂字大坪362番",
    "lat": 36.7776452456768,
    "lng": 136.998981442487,
    "tel": "０７６６－２４－２１６３",
    "url": "https:www.kawagisikai-manyo.com",
    "pref": "富山県",
    "city": "高岡市",
    "category": "care_medical_institute",
    "serviceType": "介護医療院",
    "capacity": null,
    "openDays": [],
    "openDaysNote": ""
  },
  {
    "id": "16B0700029",
    "name": "黒部温泉病院介護医療院",
    "kana": "クロベオンセンビョウインカイゴイリョウイン",
    "address": "富山県黒部市窪野929番地",
    "lat": 36.85141171607,
    "lng": 137.444595772491,
    "tel": "0765-52-4655",
    "url": "http://www.yuuai-byouinkai.or.jp",
    "pref": "富山県",
    "city": "黒部市",
    "category": "care_medical_institute",
    "serviceType": "介護医療院",
    "capacity": 80,
    "openDays": [],
    "openDaysNote": ""
  },
  {
    "id": "16B0700011",
    "name": "池田リハビリテーション病院　　介護医療院",
    "kana": "イケダリハビリテーションビョウインカイゴイリョウイン",
    "address": "富山県黒部市荻生821番地",
    "lat": 36.8881281,
    "lng": 137.4698613,
    "tel": "0765-54-5400",
    "url": "http://www.ikeda-reha.co.jp",
    "pref": "富山県",
    "city": "黒部市",
    "category": "care_medical_institute",
    "serviceType": "介護医療院",
    "capacity": 29,
    "openDays": [],
    "openDaysNote": ""
  },
  {
    "id": "16B1100013",
    "name": "くるみ介護医療院",
    "kana": "クルミカイゴイリョウイン",
    "address": "富山県射水市大島北野48",
    "lat": 36.7449769,
    "lng": 137.0524527,
    "tel": "0766-52-2580",
    "url": "https://www.kurumi.or.jp",
    "pref": "富山県",
    "city": "射水市",
    "category": "care_medical_institute",
    "serviceType": "介護医療院",
    "capacity": 0,
    "openDays": [],
    "openDaysNote": ""
  },
  {
    "id": "16B0900025",
    "name": "つざわ津田介護医療院",
    "kana": "ツザワツダカイゴイリョウイン",
    "address": "富山県小矢部市新西117番1号",
    "lat": 36.629516,
    "lng": 136.8957346,
    "tel": "0766-61-8585",
    "url": "http://tsudahp.html.xdomain.jp/",
    "pref": "富山県",
    "city": "小矢部市",
    "category": "care_medical_institute",
    "serviceType": "介護医療院",
    "capacity": 0,
    "openDays": [],
    "openDaysNote": ""
  },
  {
    "id": "16B0900017",
    "name": "小矢部大家病院介護医療院",
    "kana": "オヤベオオカビョウインカイゴイリョウイン",
    "address": "富山県小矢部市島321番地",
    "lat": 36.6654196,
    "lng": 136.8761101,
    "tel": "0766-67-2002",
    "url": "http/www1.tst.ne.jp/ohkahp/",
    "pref": "富山県",
    "city": "小矢部市",
    "category": "care_medical_institute",
    "serviceType": "介護医療院",
    "capacity": 0,
    "openDays": [],
    "openDaysNote": ""
  },
  {
    "id": "16B0900033",
    "name": "西野介護医療院",
    "kana": "ニシノカイゴイリョウイン",
    "address": "富山県小矢部市本町6-30西野内科病院 西野内科病院",
    "lat": 36.6749484,
    "lng": 136.8682063,
    "tel": "0766-67-1730",
    "url": "http://www.nishinokai.jp",
    "pref": "富山県",
    "city": "小矢部市",
    "category": "care_medical_institute",
    "serviceType": "介護医療院",
    "capacity": null,
    "openDays": [],
    "openDaysNote": ""
  },
  {
    "id": "16B0900058",
    "name": "西野介護医療院",
    "kana": "ニシノカイゴイリョウイン",
    "address": "本町3-33",
    "lat": 35.6902783,
    "lng": 139.6814066,
    "tel": "0766-67-1730",
    "url": "http://www.nishinokai.jp",
    "pref": "富山県",
    "city": "小矢部市",
    "category": "care_medical_institute",
    "serviceType": "介護医療院",
    "capacity": null,
    "openDays": [],
    "openDaysNote": ""
  },
  {
    "id": "16B0900041",
    "name": "太田病院",
    "kana": "オオタビョウイン",
    "address": "富山県小矢部市新富町3-11",
    "lat": 36.6775827,
    "lng": 136.8696673,
    "tel": "0766-67-0443",
    "url": "http://www.otahospital.com",
    "pref": "富山県",
    "city": "小矢部市",
    "category": "care_medical_institute",
    "serviceType": "介護医療院",
    "capacity": null,
    "openDays": [],
    "openDaysNote": ""
  },
  {
    "id": "16B0800019",
    "name": "となみ三輪病院　介護医療院",
    "kana": "トナミミワビョウイン　カイゴイリョウイン",
    "address": "砺波市頼成605",
    "lat": 36.6365671,
    "lng": 137.0084937,
    "tel": "0763-37-1000",
    "url": "http://www.sanikai.or.jp/",
    "pref": "富山県",
    "city": "砺波市",
    "category": "care_medical_institute",
    "serviceType": "介護医療院",
    "capacity": 0,
    "openDays": [],
    "openDaysNote": ""
  },
  {
    "id": "16B0800027",
    "name": "砺波サンシャイン介護医療院",
    "kana": "トナミサンシャインカイゴイリョウイン",
    "address": "砺波市鷹栖５７５番地",
    "lat": 36.6353007,
    "lng": 136.9397996,
    "tel": "0763-33-0800",
    "url": "https://www.tonami-shp.com/",
    "pref": "富山県",
    "city": "砺波市",
    "category": "care_medical_institute",
    "serviceType": "介護医療院",
    "capacity": 0,
    "openDays": [],
    "openDaysNote": ""
  },
  {
    "id": "16B0800035",
    "name": "砺波誠友病院介護医療院",
    "kana": "トナミセイユウビョウインカイゴイリョウイン",
    "address": "富山県砺波市大窪17-1",
    "lat": 36.6546312,
    "lng": 136.980804,
    "tel": "0763-33-7766",
    "url": "",
    "pref": "富山県",
    "city": "砺波市",
    "category": "care_medical_institute",
    "serviceType": "介護医療院",
    "capacity": null,
    "openDays": [],
    "openDaysNote": ""
  },
  {
    "id": "16B1000015",
    "name": "南砺中央介護医療院",
    "kana": "ナントチュウオウカイゴイリョウイン",
    "address": "富山県南砺市梅野2007-5",
    "lat": 36.5417969,
    "lng": 136.903787,
    "tel": "0763-53-0001",
    "url": "https://nantohp.city.nanto.toyama.jp/medical_facility",
    "pref": "富山県",
    "city": "南砺市",
    "category": "care_medical_institute",
    "serviceType": "介護医療院",
    "capacity": null,
    "openDays": [],
    "openDaysNote": ""
  },
  {
    "id": "16B0500015",
    "name": "陽和温泉病院介護医療院",
    "kana": "ヨウワオンセンビョウインカイゴイリョウイン",
    "address": "富山県氷見市堀田4-1",
    "lat": 36.8127288,
    "lng": 136.9727498,
    "tel": "0766-91-2751",
    "url": "http://www.yuuai-byouinkai.or.jp/facilities/youwa/",
    "pref": "富山県",
    "city": "氷見市",
    "category": "care_medical_institute",
    "serviceType": "介護医療院",
    "capacity": 0,
    "openDays": [],
    "openDaysNote": ""
  },
  {
    "id": "16B0100022",
    "name": "いま泉病院　介護医療院",
    "kana": "イマイズミビョウイン　カイゴイリョウイン",
    "address": "富山県富山市今泉220番地",
    "lat": 36.6688775,
    "lng": 137.2125149,
    "tel": "076-425-1166",
    "url": "https://izumikai.mutsumi-gr.jp/",
    "pref": "富山県",
    "city": "富山市",
    "category": "care_medical_institute",
    "serviceType": "介護医療院",
    "capacity": 0,
    "openDays": [],
    "openDaysNote": ""
  },
  {
    "id": "16B0100055",
    "name": "おおやま病院介護医療院",
    "kana": "オオヤマビョウインカイゴイリョウイン",
    "address": "富山県富山市花崎８５",
    "lat": 36.6096914,
    "lng": 137.2809536,
    "tel": "076-483-3311",
    "url": "https://www.ooyamahp.or.jp/",
    "pref": "富山県",
    "city": "富山市",
    "category": "care_medical_institute",
    "serviceType": "介護医療院",
    "capacity": null,
    "openDays": [],
    "openDaysNote": ""
  },
  {
    "id": "16B0100063",
    "name": "医療法人社団城南会　城南内科介護医療院",
    "kana": "イリョウホウジン　シャダンジョウナンカイジョウナンナイカカイゴイリョウイン",
    "address": "富山市太郎丸西町一丁目6番6",
    "lat": 36.6773348797273,
    "lng": 137.209470960317,
    "tel": "076-421-6300",
    "url": "https://jonankai.or.jp/jnmlc/",
    "pref": "富山県",
    "city": "富山市",
    "category": "care_medical_institute",
    "serviceType": "介護医療院",
    "capacity": 64,
    "openDays": [],
    "openDaysNote": ""
  },
  {
    "id": "16B0100089",
    "name": "医療法人社団城南会　富山城南温泉病院介護医療院",
    "kana": "イリョウホウジンシャダンジョウナンカイ　トヤマジョウナンオンセンビョウインカイゴイリョウイン",
    "address": "富山県富山市太郎丸本町一丁目8番1",
    "lat": 36.6779685833238,
    "lng": 137.212185718521,
    "tel": "076-491-3366",
    "url": "https://jonankai.or.jp/tjmlc/",
    "pref": "富山県",
    "city": "富山市",
    "category": "care_medical_institute",
    "serviceType": "介護医療院",
    "capacity": 0,
    "openDays": [],
    "openDaysNote": ""
  },
  {
    "id": "16B0100030",
    "name": "介護医療院　せいわ",
    "kana": "カイゴイリョウイン　セイワ",
    "address": "針原中町３３６",
    "lat": 36.7244601,
    "lng": 137.2649671,
    "tel": "076-451-7001",
    "url": "http://seikeikaitoyama.com/",
    "pref": "富山県",
    "city": "富山市",
    "category": "care_medical_institute",
    "serviceType": "介護医療院",
    "capacity": 33,
    "openDays": [],
    "openDaysNote": ""
  },
  {
    "id": "16B0100071",
    "name": "介護医療院　尽誠会",
    "kana": "カイゴイリョウイン　ジンセイカイ",
    "address": "富山県富山市水橋辻ヶ堂466-1",
    "lat": 36.7454789,
    "lng": 137.2970986,
    "tel": "076-478-0418",
    "url": "https://nomura-hospital.jp",
    "pref": "富山県",
    "city": "富山市",
    "category": "care_medical_institute",
    "serviceType": "介護医療院",
    "capacity": 100,
    "openDays": [],
    "openDaysNote": ""
  },
  {
    "id": "16B0100097",
    "name": "栗山介護医療院",
    "kana": "クリヤマカイゴイリョウイン",
    "address": "富山市開発133番地",
    "lat": 36.6313767,
    "lng": 137.2461717,
    "tel": "076-429-0203",
    "url": "http:/kishin-kai.com",
    "pref": "富山県",
    "city": "富山市",
    "category": "care_medical_institute",
    "serviceType": "介護医療院",
    "capacity": 48,
    "openDays": [],
    "openDaysNote": ""
  },
  {
    "id": "16B0100105",
    "name": "誠友病院介護医療院",
    "kana": "セイユウビョウインカイゴイリョウイン",
    "address": "富山県富山市上千俵町103番地",
    "lat": 36.6265431,
    "lng": 137.2440079,
    "tel": "076-429-6677",
    "url": "",
    "pref": "富山県",
    "city": "富山市",
    "category": "care_medical_institute",
    "serviceType": "介護医療院",
    "capacity": 0,
    "openDays": [],
    "openDaysNote": ""
  },
  {
    "id": "16B0100113",
    "name": "萩野病院介護医療院",
    "kana": "ハギノビョウインカイゴイリョウイン",
    "address": "富山市婦中町萩島315-1",
    "lat": 36.6284238,
    "lng": 137.1792419,
    "tel": "076-465-2131",
    "url": "https://hagino-hp.jp/",
    "pref": "富山県",
    "city": "富山市",
    "category": "care_medical_institute",
    "serviceType": "介護医療院",
    "capacity": null,
    "openDays": [],
    "openDaysNote": ""
  },
  {
    "id": "16B0100139",
    "name": "富山西総合病院介護医療院",
    "kana": "トヤマニシソウゴウビョウインカイゴイリョウイン",
    "address": "富山県富山市婦中町下轡田1019",
    "lat": 36.660009348577,
    "lng": 137.174278609787,
    "tel": "076-461-7700",
    "url": "https://toyama-nishi.jp/",
    "pref": "富山県",
    "city": "富山市",
    "category": "care_medical_institute",
    "serviceType": "介護医療院",
    "capacity": null,
    "openDays": [],
    "openDaysNote": ""
  },
  {
    "id": "16B0100048",
    "name": "友愛温泉病院介護医療院",
    "kana": "ユウアイオンセンビョウインカイゴイリョウイン",
    "address": "富山県富山市婦中町新町2131",
    "lat": 36.66325535936,
    "lng": 137.123379631352,
    "tel": "076-469-5421",
    "url": "http://www.yuuai-byouinkai.or.jp/",
    "pref": "富山県",
    "city": "富山市",
    "category": "care_medical_institute",
    "serviceType": "介護医療院",
    "capacity": null,
    "openDays": [],
    "openDaysNote": ""
  },
  {
    "id": "16B0100014",
    "name": "流杉病院介護医療院",
    "kana": "ナガレスギビョウインカイゴイリョウイン",
    "address": "富山県富山市流杉１２０番地",
    "lat": 36.6586548418006,
    "lng": 137.276267224745,
    "tel": "076-424-2211",
    "url": "https://www.nagaresugi.com/",
    "pref": "富山県",
    "city": "富山市",
    "category": "care_medical_institute",
    "serviceType": "介護医療院",
    "capacity": 0,
    "openDays": [],
    "openDaysNote": ""
  }
]