[
  {
    "id": "35B0200043",
    "name": "医療法人太白会シーサイド病院介護医療院",
    "kana": "イリョウホウジンタイハクカイシーサイドビョウインカイゴイリョウイン",
    "address": "宇部市大字東岐波字丸尾4322-1",
    "lat": 33.966187,
    "lng": 131.351484,
    "tel": "0836-58-5360",
    "url": "http://yfuruya31.wixsite.com/seasidehp",
    "pref": "山口県",
    "city": "宇部市",
    "category": "care_medical_institute",
    "serviceType": "介護医療院",
    "capacity": null,
    "openDays": [],
    "openDaysNote": ""
  },
  {
    "id": "35B0200019",
    "name": "医療法人博愛会　宇部記念病院　介護医療院",
    "kana": "イリョウホウジンハクアイカイ　ウベキネンビョウイン　カイゴイリョウイン",
    "address": "山口県宇部市上町1-4-11",
    "lat": 33.9591987569608,
    "lng": 131.239517710976,
    "tel": "0836-31-1146",
    "url": "http://www.hakuaikai-net.or.jp",
    "pref": "山口県",
    "city": "宇部市",
    "category": "care_medical_institute",
    "serviceType": "介護医療院",
    "capacity": 0,
    "openDays": [],
    "openDaysNote": ""
  },
  {
    "id": "35B0200027",
    "name": "宇部リハビリテーション病院　介護医療院",
    "kana": "ウベリハビリテーションビョウインカイゴイリョウイン",
    "address": "宇部市大字西岐波229番地の3",
    "lat": 33.9659482151114,
    "lng": 131.302255780812,
    "tel": "0836-51-3111",
    "url": "http://www.ubereha.jp/kaigoiryouin/",
    "pref": "山口県",
    "city": "宇部市",
    "category": "care_medical_institute",
    "serviceType": "介護医療院",
    "capacity": 0,
    "openDays": [],
    "openDaysNote": ""
  },
  {
    "id": "35B0200035",
    "name": "宇部西リハビリテーション病院介護医療院",
    "kana": "ウベニシリハビリテーションビョウインカイゴイリョウイン",
    "address": "山口県宇部市沖ノ旦797番地",
    "lat": 33.9957899,
    "lng": 131.2256943,
    "tel": "0836-45-2111",
    "url": "http://www.ubenishireha.jp",
    "pref": "山口県",
    "city": "宇部市",
    "category": "care_medical_institute",
    "serviceType": "介護医療院",
    "capacity": 78,
    "openDays": [],
    "openDaysNote": ""
  },
  {
    "id": "35B0200050",
    "name": "社会医療法人いち樹会　尾中病院　介護医療院",
    "kana": "シャカイイリョウホウジン　イチジュカイ　オナカビョウイン　カイゴイリョウイン",
    "address": "山口県宇部市寿町一丁目3番28号",
    "lat": 33.9534995,
    "lng": 131.2486584,
    "tel": "0836-31-2133",
    "url": "https://onaka.or.jp/",
    "pref": "山口県",
    "city": "宇部市",
    "category": "care_medical_institute",
    "serviceType": "介護医療院",
    "capacity": 60,
    "openDays": [],
    "openDaysNote": ""
  },
  {
    "id": "35B0100052",
    "name": "たけひさ介護医療院",
    "kana": "タケヒサカイゴイリョウイン",
    "address": "山口県下関市武久町2丁目53番8号",
    "lat": 33.9825367,
    "lng": 130.9166694,
    "tel": "083-227-2575",
    "url": "http://seijukai-or.jp/",
    "pref": "山口県",
    "city": "下関市",
    "category": "care_medical_institute",
    "serviceType": "介護医療院",
    "capacity": 0,
    "openDays": [],
    "openDaysNote": ""
  },
  {
    "id": "35B0100078",
    "name": "まつなが医院　介護医療院",
    "kana": "マツナガイイン　カイゴイリョウイン",
    "address": "山口県下関市長府中浜町２番５号",
    "lat": 33.9979415,
    "lng": 130.9900339,
    "tel": "083-245-2103",
    "url": "www.matsunagaiin.com",
    "pref": "山口県",
    "city": "下関市",
    "category": "care_medical_institute",
    "serviceType": "介護医療院",
    "capacity": null,
    "openDays": [],
    "openDaysNote": ""
  },
  {
    "id": "35B0100037",
    "name": "医療法人　茜会　介護医療院あかね",
    "kana": "イリョウホウジン　アカネカイ　カイゴイリョウインアカネ",
    "address": "山口県下関市後田町1丁目1番1号",
    "lat": 33.9682183864269,
    "lng": 130.93472337878,
    "tel": "083-231-3888",
    "url": "http://www.akn-yoshimizu.com",
    "pref": "山口県",
    "city": "下関市",
    "category": "care_medical_institute",
    "serviceType": "介護医療院",
    "capacity": null,
    "openDays": [],
    "openDaysNote": ""
  },
  {
    "id": "35B0100086",
    "name": "医療法人星の里会　岡病院介護医療院",
    "kana": "イリョウホウジンホシノサトカイ　オカビョウインカイゴイリョウイン",
    "address": "小月本町2丁目15番20号",
    "lat": 34.0706966,
    "lng": 131.0367149,
    "tel": "083-282-0070",
    "url": "https://www.oka-hospital.net/",
    "pref": "山口県",
    "city": "下関市",
    "category": "care_medical_institute",
    "serviceType": "介護医療院",
    "capacity": 44,
    "openDays": [],
    "openDaysNote": ""
  },
  {
    "id": "35B0100029",
    "name": "王司介護医療院",
    "kana": "オウジカイゴイリョウイン",
    "address": "山口県下関市王司本町1-18-27",
    "lat": 34.041159,
    "lng": 131.015304,
    "tel": "083-248-3631",
    "url": "www.kihoukai.or.jp",
    "pref": "山口県",
    "city": "下関市",
    "category": "care_medical_institute",
    "serviceType": "介護医療院",
    "capacity": 48,
    "openDays": [],
    "openDaysNote": ""
  },
  {
    "id": "35B0100011",
    "name": "介護医療院　さくら寮",
    "kana": "カイゴイリョウインサクラリョウ",
    "address": "山口県下関市長府才川2丁目21-2",
    "lat": 34.0247265,
    "lng": 130.999375,
    "tel": "083-248-0254",
    "url": "http://www.kofuen.or.jp/momiji/",
    "pref": "山口県",
    "city": "下関市",
    "category": "care_medical_institute",
    "serviceType": "介護医療院",
    "capacity": 0,
    "openDays": [],
    "openDaysNote": ""
  },
  {
    "id": "35B0100045",
    "name": "社会医療法人松涛会　安岡病院介護医療院",
    "kana": "シャカイイリョウホウジンショウトウカイ　ヤスオカビョウインカイゴイリョウイン",
    "address": "山口県下関市横野町3-16-35",
    "lat": 34.034548,
    "lng": 130.9094857,
    "tel": "083-258-3711",
    "url": "http://www.syoutoukai.or.jp/",
    "pref": "山口県",
    "city": "下関市",
    "category": "care_medical_institute",
    "serviceType": "介護医療院",
    "capacity": 0,
    "openDays": [],
    "openDaysNote": ""
  },
  {
    "id": "35B0100060",
    "name": "森山病院介護医療院",
    "kana": "モリヤマビョウインカイゴイリョウイン",
    "address": "山口県下関市宮田町2丁目8番20号",
    "lat": 33.9636359,
    "lng": 130.9461843,
    "tel": "083-231-0781",
    "url": "http//www.moriyama-hp.ecnet.jp",
    "pref": "山口県",
    "city": "下関市",
    "category": "care_medical_institute",
    "serviceType": "介護医療院",
    "capacity": 0,
    "openDays": [],
    "openDaysNote": ""
  },
  {
    "id": "35B0800016",
    "name": "医療法人南和会　みどり介護医療院",
    "kana": "イリョウホウジン　ナンワカイ　ミドリカイゴイリョウイン",
    "address": "山口県岩国市由宇町３５９番地１",
    "lat": 34.0279689115216,
    "lng": 132.153838098673,
    "tel": "0827-63-0111",
    "url": "http://www.nanwakai.jp/midori_kaigo/shisetsu/",
    "pref": "山口県",
    "city": "岩国市",
    "category": "care_medical_institute",
    "serviceType": "介護医療院",
    "capacity": null,
    "openDays": [],
    "openDaysNote": ""
  },
  {
    "id": "35B0800032",
    "name": "介護医療院ケアホーム山口",
    "kana": "カイゴイリョウインケアホームヤマグチ",
    "address": "山口県岩国市玖珂町11361番地",
    "lat": 34.1028374,
    "lng": 132.0593262,
    "tel": "0827-81-1155",
    "url": "http://www.yamaguchihp.jp",
    "pref": "山口県",
    "city": "岩国市",
    "category": "care_medical_institute",
    "serviceType": "介護医療院",
    "capacity": 0,
    "openDays": [],
    "openDaysNote": ""
  },
  {
    "id": "35B0800024",
    "name": "周防病院介護医療院",
    "kana": "スオウビョウインカイゴイリョウイン",
    "address": "山口県岩国市周東町上久原１２３番地",
    "lat": 34.0766764,
    "lng": 132.0734696,
    "tel": "0827-84-1223",
    "url": "",
    "pref": "山口県",
    "city": "岩国市",
    "category": "care_medical_institute",
    "serviceType": "介護医療院",
    "capacity": null,
    "openDays": [],
    "openDaysNote": ""
  },
  {
    "id": "35B1000020",
    "name": "医療法人社団光仁会　市川医院　介護医療院",
    "kana": "イリョウホウジンシャダンコウジンカイイチカワイインカイゴイリョウイン",
    "address": "山口県光市中央3丁目2-26",
    "lat": 33.9590846,
    "lng": 131.9458821,
    "tel": "0833-72-5700",
    "url": "koujinkai-ichikawaiin.jimdo.com",
    "pref": "山口県",
    "city": "光市",
    "category": "care_medical_institute",
    "serviceType": "介護医療院",
    "capacity": null,
    "openDays": [],
    "openDaysNote": ""
  },
  {
    "id": "35B1000012",
    "name": "河村循環器神経内科介護医療院",
    "kana": "カワムラジュンカンキシンケイナイカカイゴイリョウイン",
    "address": "山口県光市三井６丁目１８番１",
    "lat": 33.9881951,
    "lng": 131.9529328,
    "tel": "0833-77-0606",
    "url": "https://www.yayoi-km.jp/",
    "pref": "山口県",
    "city": "光市",
    "category": "care_medical_institute",
    "serviceType": "介護医療院",
    "capacity": 0,
    "openDays": [],
    "openDaysNote": ""
  },
  {
    "id": "35B0300025",
    "name": "阿知須同仁病院介護医療院ひまわり",
    "kana": "アジスドウジンビョウインカイゴイリョウインヒマワリ",
    "address": "山口市阿知須4241-4",
    "lat": 34.0100231,
    "lng": 131.360443,
    "tel": "0836-65-5555",
    "url": "http://www.ajisudohjin.com",
    "pref": "山口県",
    "city": "山口市",
    "category": "care_medical_institute",
    "serviceType": "介護医療院",
    "capacity": 0,
    "openDays": [],
    "openDaysNote": ""
  },
  {
    "id": "35B0300033",
    "name": "丘病院介護医療院",
    "kana": "オカビョウインカイゴイリョウイン",
    "address": "山口県山口市中河原町2番14号",
    "lat": 34.1783052,
    "lng": 131.4756166,
    "tel": "083-925-1100",
    "url": "http://www.oka-hospital.com",
    "pref": "山口県",
    "city": "山口市",
    "category": "care_medical_institute",
    "serviceType": "介護医療院",
    "capacity": 0,
    "openDays": [],
    "openDaysNote": ""
  },
  {
    "id": "35B0300017",
    "name": "山口若宮病院介護医療院",
    "kana": "ヤマグチワカミヤビョウインカイゴイリョウイン",
    "address": "山口県山口市下小鯖1522番地",
    "lat": 34.137666,
    "lng": 131.5175549,
    "tel": "083-927-3661",
    "url": "http://wakamiyakai.jp",
    "pref": "山口県",
    "city": "山口市",
    "category": "care_medical_institute",
    "serviceType": "介護医療院",
    "capacity": 0,
    "openDays": [],
    "openDaysNote": ""
  },
  {
    "id": "35B1600019",
    "name": "小野田赤十字　介護医療院",
    "kana": "オノダセキジュウジ　カイゴイリョウイン",
    "address": "山陽小野田市大字小野田３７００番地",
    "lat": 33.9543549,
    "lng": 131.1839198,
    "tel": "0836-88-0222",
    "url": "",
    "pref": "山口県",
    "city": "山陽小野田市",
    "category": "care_medical_institute",
    "serviceType": "介護医療院",
    "capacity": 60,
    "openDays": [],
    "openDaysNote": ""
  },
  {
    "id": "35B1500011",
    "name": "介護医療院　周南高原病院",
    "kana": "カイゴイリョウイン　シュウナンコウゲンビョウイン",
    "address": "山口県周南市大字須々万本郷29番地の1",
    "lat": 34.1236705,
    "lng": 131.8582918,
    "tel": "0834-88-0391",
    "url": "http://ryokuzankai,jp",
    "pref": "山口県",
    "city": "周南市",
    "category": "care_medical_institute",
    "serviceType": "介護医療院",
    "capacity": null,
    "openDays": [],
    "openDaysNote": ""
  },
  {
    "id": "35B1500029",
    "name": "鹿野博愛介護医療院",
    "kana": "カノハクアイカイゴイリョウイン",
    "address": "山口県周南市大字鹿野下1161番の1",
    "lat": 34.224131,
    "lng": 131.8159191,
    "tel": "（0834）68-2233",
    "url": "http://ryokuznkai.jp",
    "pref": "山口県",
    "city": "周南市",
    "category": "care_medical_institute",
    "serviceType": "介護医療院",
    "capacity": 0,
    "openDays": [],
    "openDaysNote": ""
  },
  {
    "id": "35B7100014",
    "name": "周防大島町立介護医療院やすらぎ苑",
    "kana": "スオウオオシマチョウリツカイゴイリョウインヤスラギエン",
    "address": "山口県大島郡周防大島町大字小松124-2",
    "lat": 33.9270721,
    "lng": 132.195769,
    "tel": "0820-74-5555",
    "url": "https://www.kouei.so.ecomas.jp/facilities/ysrg/",
    "pref": "山口県",
    "city": "周防大島町",
    "category": "care_medical_institute",
    "serviceType": "介護医療院",
    "capacity": 0,
    "openDays": [],
    "openDaysNote": ""
  },
  {
    "id": "35B1100010",
    "name": "医療法人　生山会　たわらやま介護医療院",
    "kana": "イリョウホウジン　ショウザンカイ　タワラヤマカイゴイリョウイン",
    "address": "山口県長門市俵山4912番地1",
    "lat": 34.2895176825976,
    "lng": 131.095768236246,
    "tel": "0837-29-0101",
    "url": "www.shouzankai-saiki.com",
    "pref": "山口県",
    "city": "長門市",
    "category": "care_medical_institute",
    "serviceType": "介護医療院",
    "capacity": null,
    "openDays": [],
    "openDaysNote": ""
  },
  {
    "id": "35B0400015",
    "name": "医療法人社団慈生会　萩慈生病院　介護医療院",
    "kana": "イリョウホウジンシャダンジセイカイ　ハギジセイビョウイン　カイゴイリョウイン",
    "address": "山田4147番地1",
    "lat": null,
    "lng": null,
    "tel": "0838-25-6622",
    "url": "http://hagi-jiseikai.or.jp/",
    "pref": "山口県",
    "city": "萩市",
    "category": "care_medical_institute",
    "serviceType": "介護医療院",
    "capacity": 0,
    "openDays": [],
    "openDaysNote": ""
  },
  {
    "id": "35B0400023",
    "name": "全眞会病院介護医療院",
    "kana": "ゼンシンカイビョウインカイゴイリョウイン",
    "address": "山口県萩市大字山田字西沖田4807番3",
    "lat": 34.405782,
    "lng": 131.383164,
    "tel": "0838-22-4106",
    "url": "https://zenshinkai.sakura.ne.jp/",
    "pref": "山口県",
    "city": "萩市",
    "category": "care_medical_institute",
    "serviceType": "介護医療院",
    "capacity": 0,
    "openDays": [],
    "openDaysNote": ""
  },
  {
    "id": "35B7300010",
    "name": "光輝病院介護医療院",
    "kana": "コウキビョウインカイゴイリョウイン",
    "address": "山口県熊毛郡平生町大字佐賀１０００２番地７７",
    "lat": 33.9038699,
    "lng": 132.0831262,
    "tel": "０８２０－５８－１１１１",
    "url": "https://koukikai-group.or.jp",
    "pref": "山口県",
    "city": "平生町",
    "category": "care_medical_institute",
    "serviceType": "介護医療院",
    "capacity": null,
    "openDays": [],
    "openDaysNote": ""
  },
  {
    "id": "35B0600010",
    "name": "防府リハビリテーション病院介護医療院",
    "kana": "ホウフリハビリテーションビョウインカイゴイリョウイン",
    "address": "山口県防府市大字台道1634番地の1",
    "lat": 34.0693904,
    "lng": 131.4935076,
    "tel": "0835-32-1777",
    "url": "http://www.hofureha.jp/",
    "pref": "山口県",
    "city": "防府市",
    "category": "care_medical_institute",
    "serviceType": "介護医療院",
    "capacity": null,
    "openDays": [],
    "openDaysNote": ""
  }
]