[
  {
    "id": "06B3000015",
    "name": "三川病院介護医療院",
    "kana": "ミカワビョウインカイゴイリョウイン",
    "address": "山形県東田川郡三川町大字横山字堤３９番三川病院内 三川病院内",
    "lat": 38.7873864299643,
    "lng": 139.851165787033,
    "tel": "0235-68-0150",
    "url": "https://www.aiyoukai-mikawahp.com/",
    "pref": "山形県",
    "city": "三川町",
    "category": "care_medical_institute",
    "serviceType": "介護医療院",
    "capacity": null,
    "openDays": [],
    "openDaysNote": ""
  },
  {
    "id": "06B0100016",
    "name": "長岡医院　介護医療院",
    "kana": "ナガオカイイン　カイゴイリョウイン",
    "address": "山形県山形市七日町四丁目５－２０",
    "lat": 38.2530321,
    "lng": 140.3451251,
    "tel": "023-622-1191",
    "url": "",
    "pref": "山形県",
    "city": "山形市",
    "category": "care_medical_institute",
    "serviceType": "介護医療院",
    "capacity": 0,
    "openDays": [],
    "openDaysNote": ""
  },
  {
    "id": "06B2700011",
    "name": "小国町立病院介護医療院",
    "kana": "オグニチョウリツビョウインカイゴイリョウイン",
    "address": "山形県西置賜郡小国町大字あけぼの一丁目１番地",
    "lat": 38.0585337139032,
    "lng": 139.756075160713,
    "tel": "0238-61-1111",
    "url": "https://www.ogunibyoin.jp/",
    "pref": "山形県",
    "city": "小国町",
    "category": "care_medical_institute",
    "serviceType": "介護医療院",
    "capacity": null,
    "openDays": [],
    "openDaysNote": ""
  },
  {
    "id": "06B1500016",
    "name": "吉川記念病院介護医療院",
    "kana": "ヨシカワキネンビョウインカイゴイリョウイン",
    "address": "山形県長井市成田1888-1",
    "lat": 38.1315814,
    "lng": 140.0363549,
    "tel": "0238-87-8000",
    "url": "https://yoshikawa-hp.com/",
    "pref": "山形県",
    "city": "長井市",
    "category": "care_medical_institute",
    "serviceType": "介護医療院",
    "capacity": null,
    "openDays": [],
    "openDaysNote": ""
  },
  {
    "id": "06B1600014",
    "name": "天童温泉篠田介護医療院",
    "kana": "テンドウオンセンシノダカイゴイリョウイン",
    "address": "鎌田1-7-1",
    "lat": 38.360368,
    "lng": 140.3848188,
    "tel": "023-653-5711",
    "url": "https://www.tendo-shinoda.jp/",
    "pref": "山形県",
    "city": "天童市",
    "category": "care_medical_institute",
    "serviceType": "介護医療院",
    "capacity": 60,
    "openDays": [],
    "openDaysNote": ""
  },
  {
    "id": "06B0400010",
    "name": "介護医療院松田外科医院",
    "kana": "カイゴイリョウインマツダゲカイイン",
    "address": "山形県米沢市城西4-4-25",
    "lat": 37.9120357,
    "lng": 140.094159,
    "tel": "0238-21-1155",
    "url": "",
    "pref": "山形県",
    "city": "米沢市",
    "category": "care_medical_institute",
    "serviceType": "介護医療院",
    "capacity": null,
    "openDays": [],
    "openDaysNote": ""
  },
  {
    "id": "06B0400028",
    "name": "三友堂介護医療院",
    "kana": "サンユウドウカイゴイリョウイン",
    "address": "山形県米沢市成島町３丁目２番９０号",
    "lat": 37.9229671,
    "lng": 140.0902971,
    "tel": "0238-21-8100",
    "url": "",
    "pref": "山形県",
    "city": "米沢市",
    "category": "care_medical_institute",
    "serviceType": "介護医療院",
    "capacity": null,
    "openDays": [],
    "openDaysNote": ""
  }
]