[
  {
    "id": "21B2800010",
    "name": "下呂市立小坂介護医療院",
    "kana": "ゲロシリツオサカカイゴイリョウイン",
    "address": "岐阜県下呂市小坂町大島1965番地",
    "lat": 35.9515648,
    "lng": 137.258827,
    "tel": "0576-62-2212",
    "url": "https://www.city.gero.lg.jp/soshiki/43/",
    "pref": "岐阜県",
    "city": "下呂市",
    "category": "care_medical_institute",
    "serviceType": "介護医療院",
    "capacity": 0,
    "openDays": [],
    "openDaysNote": ""
  },
  {
    "id": "21B3100014",
    "name": "藤掛病院介護医療院",
    "kana": "フジカケビョウインカイゴイリョウイン",
    "address": "岐阜県可児市広見876",
    "lat": 35.4210507,
    "lng": 137.0623316,
    "tel": "0574-62-0030",
    "url": "http://www.fujikake-hospital.jp/",
    "pref": "岐阜県",
    "city": "可児市",
    "category": "care_medical_institute",
    "serviceType": "介護医療院",
    "capacity": null,
    "openDays": [],
    "openDaysNote": ""
  },
  {
    "id": "21B0500026",
    "name": "医療法人秀幸会横山病院介護医療院",
    "kana": "イリョウホウジンシュウコウカイヨコヤマビヨウインカイゴイリョウイン",
    "address": "岐阜県各務原市那加元町8番地",
    "lat": 35.3989619,
    "lng": 136.8376833,
    "tel": "058-382-0119",
    "url": "",
    "pref": "岐阜県",
    "city": "各務原市",
    "category": "care_medical_institute",
    "serviceType": "介護医療院",
    "capacity": null,
    "openDays": [],
    "openDaysNote": ""
  },
  {
    "id": "21B0500018",
    "name": "各務原リハビリテーション介護医療院",
    "kana": "カカミガハラリハビリテーションカイゴイリョウイン",
    "address": "岐阜県各務原市鵜沼山崎町6-8-2",
    "lat": 35.3995747,
    "lng": 136.9467414,
    "tel": "058-384-8399",
    "url": "https://www.seidoukai.or.jp/facility-detail/nursing-care/",
    "pref": "岐阜県",
    "city": "各務原市",
    "category": "care_medical_institute",
    "serviceType": "介護医療院",
    "capacity": 0,
    "openDays": [],
    "openDaysNote": ""
  },
  {
    "id": "21B0600024",
    "name": "ふれあい介護医療院",
    "kana": "フレアイカイゴイリョウイン",
    "address": "岐阜県羽島郡笠松町円城寺９３３番地",
    "lat": 35.3730487,
    "lng": 136.7909756,
    "tel": "058-387-7350",
    "url": "https://www.mutsumikai.or.jp/",
    "pref": "岐阜県",
    "city": "笠松町",
    "category": "care_medical_institute",
    "serviceType": "介護医療院",
    "capacity": 0,
    "openDays": [],
    "openDaysNote": ""
  },
  {
    "id": "21B0600016",
    "name": "愛生介護医療院",
    "kana": "アイセイカイゴイリョウイン",
    "address": "岐阜県羽島郡笠松町円城寺971番地",
    "lat": 35.3754852,
    "lng": 136.7896899,
    "tel": "058-388-3300",
    "url": "http://www.mutsumikai.or.jp/",
    "pref": "岐阜県",
    "city": "笠松町",
    "category": "care_medical_institute",
    "serviceType": "介護医療院",
    "capacity": 0,
    "openDays": [],
    "openDaysNote": ""
  },
  {
    "id": "21B0100033",
    "name": "しらゆり介護医療院",
    "kana": "シラユリカイゴイリョウイン",
    "address": "岐阜県岐阜市安食１丁目８７番地１",
    "lat": 35.4899433830612,
    "lng": 136.721930944844,
    "tel": "058-238-8555",
    "url": "http://www.fukutomi-clinic.com/",
    "pref": "岐阜県",
    "city": "岐阜市",
    "category": "care_medical_institute",
    "serviceType": "介護医療院",
    "capacity": 0,
    "openDays": [],
    "openDaysNote": ""
  },
  {
    "id": "21B0100025",
    "name": "介護医療院　大橋整形外科病院",
    "kana": "カイゴイリョウイン　オオハシセイケイゲカビョウイン",
    "address": "岐阜県岐阜市栄新町2丁目50番地",
    "lat": 35.4376506,
    "lng": 136.7597998,
    "tel": "058-232-1151",
    "url": "http://www.eijyukai-ohhashi.or.jp/",
    "pref": "岐阜県",
    "city": "岐阜市",
    "category": "care_medical_institute",
    "serviceType": "介護医療院",
    "capacity": null,
    "openDays": [],
    "openDaysNote": ""
  },
  {
    "id": "21B0100017",
    "name": "介護医療院みよし",
    "kana": "カイゴイリョウインミヨシ",
    "address": "岐阜県岐阜市北一色５丁目２番１１号",
    "lat": 35.4130831,
    "lng": 136.7923453,
    "tel": "058-247-3411",
    "url": "https://www.keichoukai.com",
    "pref": "岐阜県",
    "city": "岐阜市",
    "category": "care_medical_institute",
    "serviceType": "介護医療院",
    "capacity": 0,
    "openDays": [],
    "openDaysNote": ""
  },
  {
    "id": "21B2500016",
    "name": "黒川クリニック付属介護医療院",
    "kana": "クロカワクリニックフゾクカイゴイリョウイン",
    "address": "岐阜県安八郡神戸町北一色３番地の1",
    "lat": 35.4291415567983,
    "lng": 136.585989411253,
    "tel": "0584-27-8800",
    "url": "https://www.eijinkai-md.jp/",
    "pref": "岐阜県",
    "city": "神戸町",
    "category": "care_medical_institute",
    "serviceType": "介護医療院",
    "capacity": 0,
    "openDays": [],
    "openDaysNote": ""
  },
  {
    "id": "21B3300010",
    "name": "介護医療院たかはら",
    "kana": "カイゴイリョウイン　タカハラ",
    "address": "岐阜県飛騨市神岡町殿1081番地19",
    "lat": 36.3243486,
    "lng": 137.3079556,
    "tel": "0578-82-5313",
    "url": "https://tanpopoen.or.jp/service/takahara/",
    "pref": "岐阜県",
    "city": "飛騨市",
    "category": "care_medical_institute",
    "serviceType": "介護医療院",
    "capacity": 58,
    "openDays": [],
    "openDaysNote": ""
  },
  {
    "id": "21B3300028",
    "name": "社団医療法人古川病院介護医療院",
    "kana": "シャダイイイリョウホウジンフルカワビョウインカイゴイン",
    "address": "岐阜県飛騨市古川町三之町8-20",
    "lat": 36.2356129,
    "lng": 137.1834469,
    "tel": "0577-73-2234",
    "url": "",
    "pref": "岐阜県",
    "city": "飛騨市",
    "category": "care_medical_institute",
    "serviceType": "介護医療院",
    "capacity": null,
    "openDays": [],
    "openDaysNote": ""
  },
  {
    "id": "21B3400018",
    "name": "堀部クリニック　介護医療院",
    "kana": "ホリベクリニック　カイゴイリョウイン",
    "address": "岐阜県本巣市仏生寺24-5",
    "lat": 35.4441793,
    "lng": 136.6893422,
    "tel": "058-324-8181",
    "url": "https://u-life.org/",
    "pref": "岐阜県",
    "city": "本巣市",
    "category": "care_medical_institute",
    "serviceType": "介護医療院",
    "capacity": null,
    "openDays": [],
    "openDaysNote": ""
  },
  {
    "id": "21B2300011",
    "name": "岐阜・西濃医療センター　西美濃厚生病院介護医療院",
    "kana": "ギフ・セイノウイリョウセンター　ニシミノコウセイビョウインカイゴイリョウイン",
    "address": "岐阜県養老郡養老町押越986",
    "lat": 35.3052201,
    "lng": 136.5580438,
    "tel": "0584-32-1161",
    "url": "http://www.nishimino.gfkosei.or.jp/",
    "pref": "岐阜県",
    "city": "養老町",
    "category": "care_medical_institute",
    "serviceType": "介護医療院",
    "capacity": 56,
    "openDays": [],
    "openDaysNote": ""
  }
]