[
  {
    "id": "33B0700010",
    "name": "医療法人社団　菅病院　介護医療院",
    "kana": "イリョウホウジンシャダン　スガビョウイン　カイゴイリョウイン",
    "address": "岡山県井原市井原町124",
    "lat": 34.5976994,
    "lng": 133.4637324,
    "tel": "0866–62–2831",
    "url": "https://sugahospital.jp/",
    "pref": "岡山県",
    "city": "井原市",
    "category": "care_medical_institute",
    "serviceType": "介護医療院",
    "capacity": 0,
    "openDays": [],
    "openDaysNote": ""
  },
  {
    "id": "33B0100013",
    "name": "介護医療院　みくに",
    "kana": "カイゴイリョウイン　ミクニ",
    "address": "岡山県岡山市中区江崎456-2",
    "lat": 34.6243075,
    "lng": 133.9644588,
    "tel": "086-274-3920",
    "url": "https://www.okayama-hakuaikai.or.jp/hakuaikai/mikuni/",
    "pref": "岡山県",
    "city": "岡山市中区",
    "category": "care_medical_institute",
    "serviceType": "介護医療院",
    "capacity": 0,
    "openDays": [],
    "openDaysNote": ""
  },
  {
    "id": "33B0100047",
    "name": "介護医療院　ちとせ",
    "kana": "カイゴイリョウイン　チトセ",
    "address": "岡山県岡山市東区西大寺中野498‐1林　病院・202号室・203号室・303号室・305号室 林　病院・202号室・203号室・303号室・305号室",
    "lat": 34.6558093,
    "lng": 134.0269463,
    "tel": "086-942-2980",
    "url": "http://hayashi-hsp.com",
    "pref": "岡山県",
    "city": "岡山市東区",
    "category": "care_medical_institute",
    "serviceType": "介護医療院",
    "capacity": 0,
    "openDays": [],
    "openDaysNote": ""
  },
  {
    "id": "33B0100039",
    "name": "一般財団法人志清会岡山紀念病院介護医療院",
    "kana": "イッパンザイダンホウジンシセイカイオカヤマキネンビョウインカイゴイリョウイン",
    "address": "岡山県岡山市北区清輝本町７番２２号",
    "lat": 34.6514733,
    "lng": 133.9263207,
    "tel": "086-221-1116",
    "url": "http://www.okayamakinen.or.jp",
    "pref": "岡山県",
    "city": "岡山市北区",
    "category": "care_medical_institute",
    "serviceType": "介護医療院",
    "capacity": 0,
    "openDays": [],
    "openDaysNote": ""
  },
  {
    "id": "33B0100021",
    "name": "介護医療院　ふくしま",
    "kana": "カイゴイリョウイン　フクシマ",
    "address": "岡山県岡山市北区清心町3番18号",
    "lat": 34.6728394,
    "lng": 133.9183021,
    "tel": "086-255-1281",
    "url": "https://ivorycobra9.sakura.ne.jp/",
    "pref": "岡山県",
    "city": "岡山市北区",
    "category": "care_medical_institute",
    "serviceType": "介護医療院",
    "capacity": 10,
    "openDays": [],
    "openDaysNote": ""
  },
  {
    "id": "33B0500014",
    "name": "きのこエスポアール介護医療院",
    "kana": "キノコエスポアールカイゴイリョウイン",
    "address": "岡山県笠岡市東大戸2908",
    "lat": 34.5527966,
    "lng": 133.5024245,
    "tel": "0865-63-0727",
    "url": "http://www.kinoko-group.jp/",
    "pref": "岡山県",
    "city": "笠岡市",
    "category": "care_medical_institute",
    "serviceType": "介護医療院",
    "capacity": 0,
    "openDays": [],
    "openDaysNote": ""
  },
  {
    "id": "33B3900013",
    "name": "介護医療院ルミエール",
    "kana": "カイゴイリョウインルミエール",
    "address": "岡山県加賀郡吉備中央町宮地３３３６番地１５吉備高原ルミエール病院 吉備高原ルミエール病院",
    "lat": 34.77325,
    "lng": 133.6800662,
    "tel": "０８６６-５５-５３３１",
    "url": "http://www.kibi.ne.jp/~rumihp/",
    "pref": "岡山県",
    "city": "吉備中央町",
    "category": "care_medical_institute",
    "serviceType": "介護医療院",
    "capacity": 0,
    "openDays": [],
    "openDaysNote": ""
  },
  {
    "id": "33B0900016",
    "name": "医療法人慶真会大杉病院介護医療院",
    "kana": "イリョウホウジンケイシンカイオオスギビョウインカイゴイリョウイン",
    "address": "岡山県高梁市柿木町28-1",
    "lat": 34.796078,
    "lng": 133.6173944,
    "tel": "0866-22-5155",
    "url": "http://www.oosugi-hospital.or.jp/",
    "pref": "岡山県",
    "city": "高梁市",
    "category": "care_medical_institute",
    "serviceType": "介護医療院",
    "capacity": null,
    "openDays": [],
    "openDaysNote": ""
  },
  {
    "id": "33B0900024",
    "name": "高梁中央介護医療院",
    "kana": "タカハシチュウオウカイゴイリョウイン",
    "address": "岡山県高梁市南町53",
    "lat": 34.7878245,
    "lng": 133.6122759,
    "tel": "0866-22-3636",
    "url": "http://seiryoukai.jp",
    "pref": "岡山県",
    "city": "高梁市",
    "category": "care_medical_institute",
    "serviceType": "介護医療院",
    "capacity": 0,
    "openDays": [],
    "openDaysNote": ""
  },
  {
    "id": "33B3400055",
    "name": "介護医療院　わかば",
    "kana": "カイゴイリョウイン　ワカバ",
    "address": "岡山県真庭市下河内314-2",
    "lat": 35.0360796,
    "lng": 133.7826935,
    "tel": "867552121",
    "url": "",
    "pref": "岡山県",
    "city": "真庭市",
    "category": "care_medical_institute",
    "serviceType": "介護医療院",
    "capacity": null,
    "openDays": [],
    "openDaysNote": ""
  },
  {
    "id": "33B3400048",
    "name": "介護医療院　河本医院",
    "kana": "カイゴイリョウイン　コウモトイイン",
    "address": "岡山県真庭市下河内3142-2",
    "lat": 35.0308679,
    "lng": 133.7860615,
    "tel": "867552121",
    "url": "",
    "pref": "岡山県",
    "city": "真庭市",
    "category": "care_medical_institute",
    "serviceType": "介護医療院",
    "capacity": null,
    "openDays": [],
    "openDaysNote": ""
  },
  {
    "id": "33B3400030",
    "name": "介護医療院わたぼうし",
    "kana": "カイゴイリョウインワタボウシ",
    "address": "岡山県真庭市本郷1819番地",
    "lat": 35.0838291,
    "lng": 133.6890514,
    "tel": "0867-44-3161",
    "url": "http://www.katsuyama⁻hp.or.jp",
    "pref": "岡山県",
    "city": "真庭市",
    "category": "care_medical_institute",
    "serviceType": "介護医療院",
    "capacity": 0,
    "openDays": [],
    "openDaysNote": ""
  },
  {
    "id": "33B0200037",
    "name": "介護医療院　おうじ",
    "kana": "カイゴイリョウイン　オウジ",
    "address": "岡山県倉敷市児島下の町5丁目2番17号",
    "lat": 34.4775601,
    "lng": 133.8217678,
    "tel": "086-436-9700",
    "url": "http://www.ohji-nouge.or.jp",
    "pref": "岡山県",
    "city": "倉敷市",
    "category": "care_medical_institute",
    "serviceType": "介護医療院",
    "capacity": 0,
    "openDays": [],
    "openDaysNote": ""
  },
  {
    "id": "33B0200011",
    "name": "介護医療院　みずいちリハビリ苑",
    "kana": "カイゴイリョウイン　ミズイチリハビリエン",
    "address": "岡山県倉敷市神田２丁目３番３３号",
    "lat": 34.5420599863456,
    "lng": 133.739066258336,
    "tel": "086-444-5333",
    "url": "https://suiseikai-group.jp/suiseikai/care/mizuichi/",
    "pref": "岡山県",
    "city": "倉敷市",
    "category": "care_medical_institute",
    "serviceType": "介護医療院",
    "capacity": 0,
    "openDays": [],
    "openDaysNote": ""
  },
  {
    "id": "33B0200029",
    "name": "玉島病院介護医療院",
    "kana": "タマシマビョウインカイゴイリョウイン",
    "address": "玉島乙島4030",
    "lat": 34.5416241,
    "lng": 133.680491,
    "tel": "086-522-4141",
    "url": "http://tamashimahosp.or.jp",
    "pref": "岡山県",
    "city": "倉敷市",
    "category": "care_medical_institute",
    "serviceType": "介護医療院",
    "capacity": null,
    "openDays": [],
    "openDaysNote": ""
  },
  {
    "id": "33B0200045",
    "name": "柴田病院介護医療院",
    "kana": "シバタビョウインカイゴイリョウイン",
    "address": "玉島乙島6108-1",
    "lat": 34.5532957,
    "lng": 133.6930573,
    "tel": "086-526-7870",
    "url": "https://shibata-h.jp/",
    "pref": "岡山県",
    "city": "倉敷市",
    "category": "care_medical_institute",
    "serviceType": "介護医療院",
    "capacity": null,
    "openDays": [],
    "openDaysNote": ""
  },
  {
    "id": "33B2600010",
    "name": "医療法人木村医院",
    "kana": "イリョウホウジン　キムライイン",
    "address": "岡山県都窪郡早島町早島1469番地1",
    "lat": 34.6024098,
    "lng": 133.8253325,
    "tel": "086-482-0028",
    "url": "",
    "pref": "岡山県",
    "city": "早島町",
    "category": "care_medical_institute",
    "serviceType": "介護医療院",
    "capacity": 0,
    "openDays": [],
    "openDaysNote": ""
  },
  {
    "id": "33B0300027",
    "name": "介護医療院かもの郷",
    "kana": "カイゴイリョウインカモノサト",
    "address": "岡山県津山市加茂町中原６１",
    "lat": 35.1761965,
    "lng": 134.0521935,
    "tel": "0868-42-3133",
    "url": "https://www.jikeikai-net.or.jp",
    "pref": "岡山県",
    "city": "津山市",
    "category": "care_medical_institute",
    "serviceType": "介護医療院",
    "capacity": 40,
    "openDays": [],
    "openDaysNote": ""
  },
  {
    "id": "33B0300019",
    "name": "介護医療院サンホームつやま",
    "kana": "カイゴイリョウインサンホームツヤマ",
    "address": "岡山県津山市田町２７",
    "lat": 35.0636702,
    "lng": 133.9997643,
    "tel": "0868-22-5104",
    "url": "http://www.nishishita-hp.or.jp/",
    "pref": "岡山県",
    "city": "津山市",
    "category": "care_medical_institute",
    "serviceType": "介護医療院",
    "capacity": 0,
    "openDays": [],
    "openDaysNote": ""
  },
  {
    "id": "33B3700025",
    "name": "介護医療院田尻病院",
    "kana": "カイゴイリョウインタジリビョウイン",
    "address": "岡山県美作市明見550番地の1",
    "lat": 35.0158318,
    "lng": 134.1458796,
    "tel": "0868-72-0380",
    "url": "https://www.tajirihp.or.jp",
    "pref": "岡山県",
    "city": "美作市",
    "category": "care_medical_institute",
    "serviceType": "介護医療院",
    "capacity": 0,
    "openDays": [],
    "openDaysNote": ""
  },
  {
    "id": "33B3700017",
    "name": "介護医療院美作中央病院",
    "kana": "カイゴイリョウインミマサカチュウオウビョウイン",
    "address": "明見357-1",
    "lat": 35.0133597,
    "lng": 134.146764,
    "tel": "0868-72-0461",
    "url": "",
    "pref": "岡山県",
    "city": "美作市",
    "category": "care_medical_institute",
    "serviceType": "介護医療院",
    "capacity": 0,
    "openDays": [],
    "openDaysNote": ""
  },
  {
    "id": "33B2700018",
    "name": "国定病院介護医療院",
    "kana": "クニサダビョウインカイゴイリョウイン",
    "address": "岡山県浅口郡里庄町大字浜中９３番地１４１",
    "lat": 34.4968384,
    "lng": 133.5322327,
    "tel": "0865-64-3213",
    "url": "https://hoseikai.jp/",
    "pref": "岡山県",
    "city": "里庄町",
    "category": "care_medical_institute",
    "serviceType": "介護医療院",
    "capacity": null,
    "openDays": [],
    "openDaysNote": ""
  },
  {
    "id": "33B2300017",
    "name": "北川病院介護医療院",
    "kana": "キタガワビョウインカイゴイリョウイン",
    "address": "岡山県和気郡和気町和気277",
    "lat": 34.8021602,
    "lng": 134.1442102,
    "tel": "0869-93-1141",
    "url": "http://www.kitagawa-hp.jp/",
    "pref": "岡山県",
    "city": "和気町",
    "category": "care_medical_institute",
    "serviceType": "介護医療院",
    "capacity": null,
    "openDays": [],
    "openDaysNote": ""
  }
]