[
  {
    "id": "03B0500010",
    "name": "イーハトーブ介護医療院",
    "kana": "イーハトーブカイゴイリョウイン",
    "address": "岩手県花巻市湯口字志戸平14番地1",
    "lat": 39.4189846,
    "lng": 141.0125034,
    "tel": "0198-38-5656",
    "url": "",
    "pref": "岩手県",
    "city": "花巻市",
    "category": "care_medical_institute",
    "serviceType": "介護医療院",
    "capacity": null,
    "openDays": [],
    "openDaysNote": ""
  },
  {
    "id": "03B0700016",
    "name": "久慈恵愛病院介護医療院",
    "kana": "クジケイアイビョウインカイゴイリョウイン",
    "address": "岩手県久慈市湊町第17地割100番地",
    "lat": 40.2008962279406,
    "lng": 141.790333117197,
    "tel": "0194-52-2311",
    "url": "https://kujikeiai.jimdofree.com/",
    "pref": "岩手県",
    "city": "久慈市",
    "category": "care_medical_institute",
    "serviceType": "介護医療院",
    "capacity": null,
    "openDays": [],
    "openDaysNote": ""
  },
  {
    "id": "03B0100019",
    "name": "介護医療院おいかわ内科クリニック",
    "kana": "カイゴイリョウインオイカワナイカクリニック",
    "address": "岩手県盛岡市上田1丁目18番46号",
    "lat": 39.711036,
    "lng": 141.140857,
    "tel": "019-622-7400",
    "url": "http://www.o-med.net",
    "pref": "岩手県",
    "city": "盛岡市",
    "category": "care_medical_institute",
    "serviceType": "介護医療院",
    "capacity": null,
    "openDays": [],
    "openDaysNote": ""
  },
  {
    "id": "03B0100035",
    "name": "介護医療院とおやま",
    "kana": "カイゴイリョウイントオヤマ",
    "address": "岩手県盛岡市下ノ橋町６－１４",
    "lat": 39.6971554,
    "lng": 141.1490812,
    "tel": "019-651-2111",
    "url": "http://www.toyama-byouin.jp",
    "pref": "岩手県",
    "city": "盛岡市",
    "category": "care_medical_institute",
    "serviceType": "介護医療院",
    "capacity": 0,
    "openDays": [],
    "openDaysNote": ""
  },
  {
    "id": "03B0100068",
    "name": "介護医療院フォーユーみたけ",
    "kana": "カイゴイリョウインフォーユーミタケ",
    "address": "岩手県盛岡市みたけ3丁目11番36号",
    "lat": 39.738143,
    "lng": 141.1137246,
    "tel": "019-648-5088",
    "url": "",
    "pref": "岩手県",
    "city": "盛岡市",
    "category": "care_medical_institute",
    "serviceType": "介護医療院",
    "capacity": null,
    "openDays": [],
    "openDaysNote": ""
  },
  {
    "id": "03B0100043",
    "name": "鎌田内科クリニック介護医療院",
    "kana": "カマタナイカクリニックカイゴイリョウイン",
    "address": "岩手県盛岡市本宮2-20-1",
    "lat": 39.6888067,
    "lng": 141.1376725,
    "tel": "019-636-1725",
    "url": "https://www.kamata-cl.com",
    "pref": "岩手県",
    "city": "盛岡市",
    "category": "care_medical_institute",
    "serviceType": "介護医療院",
    "capacity": 18,
    "openDays": [],
    "openDaysNote": ""
  },
  {
    "id": "03B0100027",
    "name": "渋民中央病院介護医療院",
    "kana": "シブタミチュウオウビョウインカイゴイリョウイン",
    "address": "岩手県盛岡市渋民字大前田53番地2",
    "lat": 39.8376541,
    "lng": 141.1649134,
    "tel": "019-683-2336",
    "url": "http://shibutamihp.byoinnavi.jp",
    "pref": "岩手県",
    "city": "盛岡市",
    "category": "care_medical_institute",
    "serviceType": "介護医療院",
    "capacity": 0,
    "openDays": [],
    "openDaysNote": ""
  },
  {
    "id": "03B0100050",
    "name": "松園病院介護医療院",
    "kana": "マツゾノビョウインカイゴイリョウイン",
    "address": "岩手県盛岡市北松園四丁目36番75号",
    "lat": 39.7622442,
    "lng": 141.1774179,
    "tel": "019-662-6111",
    "url": "https://matsuzono.jp/kaigoiryouin_information/",
    "pref": "岩手県",
    "city": "盛岡市",
    "category": "care_medical_institute",
    "serviceType": "介護医療院",
    "capacity": null,
    "openDays": [],
    "openDaysNote": ""
  }
]