[
  {
    "id": "32B0200020",
    "name": "介護医療院　みずかぜ",
    "kana": "カイゴイリョウイン　ミズカゼ",
    "address": "島根県安来市伯太町安田1700番地",
    "lat": 35.3719537,
    "lng": 133.2736942,
    "tel": "0854-37-1512",
    "url": "",
    "pref": "島根県",
    "city": "安来市",
    "category": "care_medical_institute",
    "serviceType": "介護医療院",
    "capacity": 48,
    "openDays": [],
    "openDaysNote": ""
  },
  {
    "id": "32B0200038",
    "name": "介護医療院　ライトピア",
    "kana": "カイゴイリョウイン　ライトピア",
    "address": "島根県安来市荒島町1817-1",
    "lat": 35.4327291,
    "lng": 133.2044867,
    "tel": "(0854)28-7000",
    "url": "https://shirane.clinic/orthopedics/",
    "pref": "島根県",
    "city": "安来市",
    "category": "care_medical_institute",
    "serviceType": "介護医療院",
    "capacity": 14,
    "openDays": [],
    "openDaysNote": ""
  },
  {
    "id": "32B0200012",
    "name": "介護医療院昌寿苑",
    "kana": "カイゴイリョウインショウジュエン",
    "address": "島根県安来市安来町899-1",
    "lat": 35.4332297506791,
    "lng": 133.252828521985,
    "tel": "0854-22-1234",
    "url": "http://www.syourinkai.or.jp",
    "pref": "島根県",
    "city": "安来市",
    "category": "care_medical_institute",
    "serviceType": "介護医療院",
    "capacity": 0,
    "openDays": [],
    "openDaysNote": ""
  },
  {
    "id": "32B0800019",
    "name": "益田市医師会介護医療院ふたば",
    "kana": "マスダシイシカイカイゴイリョウインフタバ",
    "address": "遠田町1917番地2",
    "lat": 34.6967347,
    "lng": 131.8669835,
    "tel": "0856-22-3611",
    "url": "https://www.masuda-med.or.jp/kaigoiryou/",
    "pref": "島根県",
    "city": "益田市",
    "category": "care_medical_institute",
    "serviceType": "介護医療院",
    "capacity": null,
    "openDays": [],
    "openDaysNote": ""
  },
  {
    "id": "32B1300019",
    "name": "奥出雲病院介護医療院",
    "kana": "オクイズモビョウインカイゴイリョウイン",
    "address": "島根県仁多郡奥出雲町三成１６２２番地１",
    "lat": 35.1964888,
    "lng": 132.9971592,
    "tel": "0854-54-1122",
    "url": "https://www.okuizumo-hospital.jp/",
    "pref": "島根県",
    "city": "奥出雲町",
    "category": "care_medical_institute",
    "serviceType": "介護医療院",
    "capacity": 0,
    "openDays": [],
    "openDaysNote": ""
  },
  {
    "id": "32B2100012",
    "name": "よしか介護医療院",
    "kana": "ヨシカカイゴイリョウイン",
    "address": "島根県鹿足郡吉賀町六日市368番地4",
    "lat": 34.3535395,
    "lng": 131.937492,
    "tel": "0856-73-7575",
    "url": "https://katakuri.or.jp/",
    "pref": "島根県",
    "city": "吉賀町",
    "category": "care_medical_institute",
    "serviceType": "介護医療院",
    "capacity": null,
    "openDays": [],
    "openDaysNote": ""
  },
  {
    "id": "32B0600013",
    "name": "島根県済生会介護医療院なでしこ江津",
    "kana": "シマネケンサイセイカイカイゴイリョウインナデシコゴウツ",
    "address": "島根県江津市江津町1016番地37島根県済生会江津総合病院 島根県済生会江津総合病院",
    "lat": 35.0123639,
    "lng": 132.2148922,
    "tel": "0855-54-0101",
    "url": "",
    "pref": "島根県",
    "city": "江津市",
    "category": "care_medical_institute",
    "serviceType": "介護医療院",
    "capacity": null,
    "openDays": [],
    "openDaysNote": ""
  },
  {
    "id": "32B0400018",
    "name": "介護医療院ひまわり",
    "kana": "カイゴイリョウインヒマワリ",
    "address": "出雲市神西沖町2479-6",
    "lat": 35.3370501,
    "lng": 132.6812932,
    "tel": "0853-31-6007",
    "url": "https://www.w-himawari.jp/nursing",
    "pref": "島根県",
    "city": "出雲市",
    "category": "care_medical_institute",
    "serviceType": "介護医療院",
    "capacity": null,
    "openDays": [],
    "openDaysNote": ""
  },
  {
    "id": "32B0100055",
    "name": "ケアセンター喜南",
    "kana": "ケアセンターキナン",
    "address": "島根県松江市宍道町白石129-2",
    "lat": 35.4141227,
    "lng": 132.9259201,
    "tel": "0852-66-0266",
    "url": "https://www.doujinkai.jp/kinan/",
    "pref": "島根県",
    "city": "松江市",
    "category": "care_medical_institute",
    "serviceType": "介護医療院",
    "capacity": 47,
    "openDays": [],
    "openDaysNote": ""
  },
  {
    "id": "32B0100030",
    "name": "医療法人社団創健会　介護医療院宇賀の里つばさ",
    "kana": "イリョウホウジン　シャダン　ソウケンカイ　カイゴイリョウイン　ウガノサトツバサ",
    "address": "島根県松江市上乃木三丁目４番１号",
    "lat": 35.4485118,
    "lng": 133.0589539,
    "tel": "0852-27-8111",
    "url": "https://www.souken-kai.or.jp/",
    "pref": "島根県",
    "city": "松江市",
    "category": "care_medical_institute",
    "serviceType": "介護医療院",
    "capacity": 0,
    "openDays": [],
    "openDaysNote": ""
  },
  {
    "id": "32B0100048",
    "name": "介護医療院　虹",
    "kana": "カイゴイリョウイン　ニジ",
    "address": "島根県松江市佐草町456-1",
    "lat": 35.4317278,
    "lng": 133.072085,
    "tel": "0852-24-1212",
    "url": "https://www.mhs-niji.jp/",
    "pref": "島根県",
    "city": "松江市",
    "category": "care_medical_institute",
    "serviceType": "介護医療院",
    "capacity": 180,
    "openDays": [],
    "openDaysNote": ""
  },
  {
    "id": "32B0500015",
    "name": "石東病院介護医療院",
    "kana": "セキトウビョウインカイゴイリョウイン",
    "address": "島根県大田市大田町大田イ860-3",
    "lat": 35.2003275764028,
    "lng": 132.505764358161,
    "tel": "0854-82-1035",
    "url": "http://keiwakai-ohda.jp/",
    "pref": "島根県",
    "city": "大田市",
    "category": "care_medical_institute",
    "serviceType": "介護医療院",
    "capacity": 42,
    "openDays": [],
    "openDaysNote": ""
  },
  {
    "id": "32B0700011",
    "name": "殿町介護医療院",
    "kana": "トノマチカイゴイリョウイン",
    "address": "島根県浜田市殿町83番地31",
    "lat": 34.8988754,
    "lng": 132.0782762,
    "tel": "0855-28-7518",
    "url": "",
    "pref": "島根県",
    "city": "浜田市",
    "category": "care_medical_institute",
    "serviceType": "介護医療院",
    "capacity": 0,
    "openDays": [],
    "openDaysNote": ""
  },
  {
    "id": "32B1800018",
    "name": "介護医療院　ケアセンター三笠",
    "kana": "カイゴイリョウイン　ケアセンターミカサ",
    "address": "島根県邑智郡邑南町上田所39番地5",
    "lat": 34.8404591,
    "lng": 132.5064092,
    "tel": "0855－83－2050",
    "url": "http://tokuyu-kai.sakura.ne.jp",
    "pref": "島根県",
    "city": "邑南町",
    "category": "care_medical_institute",
    "serviceType": "介護医療院",
    "capacity": 100,
    "openDays": [],
    "openDaysNote": ""
  }
]