[
  {
    "id": "34B3600018",
    "name": "八千代病院介護医療院",
    "kana": "ヤチヨビョウインカイゴイリョウイン",
    "address": "広島県安芸高田市八千代町勝田４４８",
    "lat": 34.6371986,
    "lng": 132.6247463,
    "tel": "0826-52-3838",
    "url": "http://merry-house.jp/yachiyo-hospital/",
    "pref": "広島県",
    "city": "安芸高田市",
    "category": "care_medical_institute",
    "serviceType": "介護医療院",
    "capacity": 0,
    "openDays": [],
    "openDaysNote": ""
  },
  {
    "id": "34B3500028",
    "name": "安芸太田病院介護医療院",
    "kana": "アキオオタビョウインカイゴイリョウイン",
    "address": "広島県山県郡安芸太田町大字下殿河内236番地",
    "lat": 34.5864911,
    "lng": 132.2911576,
    "tel": "0826-22-2299",
    "url": "https://www.akiota.jp/site/byouinsabu/",
    "pref": "広島県",
    "city": "安芸太田町",
    "category": "care_medical_institute",
    "serviceType": "介護医療院",
    "capacity": null,
    "openDays": [],
    "openDaysNote": ""
  },
  {
    "id": "34B3200017",
    "name": "山本整形外科病院介護医療院",
    "kana": "ヤマモトセイケイゲカビョウインカイゴイリョウイン",
    "address": "広島県安芸郡海田町堀川町2-23",
    "lat": 34.3683147,
    "lng": 132.5310775,
    "tel": "（082）822-3000",
    "url": "",
    "pref": "広島県",
    "city": "海田町",
    "category": "care_medical_institute",
    "serviceType": "介護医療院",
    "capacity": null,
    "openDays": [],
    "openDaysNote": ""
  },
  {
    "id": "34B0500047",
    "name": "マッターホルン介護医療院",
    "kana": "マッターホルンカイゴイリョウイン",
    "address": "広島県呉市中通一丁目５番２５号",
    "lat": 34.2422505,
    "lng": 132.5625667,
    "tel": "0823-22-6868",
    "url": "http://www.matterhorn-hospital.jp/",
    "pref": "広島県",
    "city": "呉市",
    "category": "care_medical_institute",
    "serviceType": "介護医療院",
    "capacity": null,
    "openDays": [],
    "openDaysNote": ""
  },
  {
    "id": "34B0500021",
    "name": "医療法人社団有信会呉記念病院介護医療院",
    "kana": "イリョウホウジンシャダンユウシンカイクレキネンビョウインカイゴイリョウイン",
    "address": "広島県呉市郷原町2379番地42号",
    "lat": 34.3056934,
    "lng": 132.6519792,
    "tel": "0823-70-3200",
    "url": "https://www.kurekinen.jp",
    "pref": "広島県",
    "city": "呉市",
    "category": "care_medical_institute",
    "serviceType": "介護医療院",
    "capacity": null,
    "openDays": [],
    "openDaysNote": ""
  },
  {
    "id": "34B0500013",
    "name": "介護医療院グリーン三条",
    "kana": "カイゴリリョウイングリーンサンジョウ",
    "address": "広島県呉市三条1丁目3番14号",
    "lat": 34.24567249537,
    "lng": 132.552384504369,
    "tel": "0823-23-0303",
    "url": "http://nakagawakai.jp/publics/index/69/",
    "pref": "広島県",
    "city": "呉市",
    "category": "care_medical_institute",
    "serviceType": "介護医療院",
    "capacity": 0,
    "openDays": [],
    "openDaysNote": ""
  },
  {
    "id": "34B0500039",
    "name": "介護医療院住吉浜",
    "kana": "カイゴイリョウインスミヨシハマ",
    "address": "広島県呉市下蒲刈町下島小地蔵２４９８番地",
    "lat": 34.1829373390819,
    "lng": 132.678935295462,
    "tel": "0823-65-2345",
    "url": "https://www.sumiyoshihama-hospital.com/",
    "pref": "広島県",
    "city": "呉市",
    "category": "care_medical_institute",
    "serviceType": "介護医療院",
    "capacity": 0,
    "openDays": [],
    "openDaysNote": ""
  },
  {
    "id": "34B0500054",
    "name": "呉芸南病院介護医療院",
    "kana": "クレゲイナンビョウインカイゴイリョウイン",
    "address": "広島県呉市阿賀中央6丁目7番24号",
    "lat": 34.2374976,
    "lng": 132.5984807,
    "tel": "0823-72-1155",
    "url": "",
    "pref": "広島県",
    "city": "呉市",
    "category": "care_medical_institute",
    "serviceType": "介護医療院",
    "capacity": null,
    "openDays": [],
    "openDaysNote": ""
  },
  {
    "id": "34B0200051",
    "name": "介護医療院コムラ",
    "kana": "カイゴイリョウインコムラ",
    "address": "広島県広島市安佐南区相田1-16-29",
    "lat": 34.4697759,
    "lng": 132.4569293,
    "tel": "082-872-2151",
    "url": "https://www.komura-hosp.com/",
    "pref": "広島県",
    "city": "広島市安佐南区",
    "category": "care_medical_institute",
    "serviceType": "介護医療院",
    "capacity": 0,
    "openDays": [],
    "openDaysNote": ""
  },
  {
    "id": "34B0200010",
    "name": "介護医療院ひいろ",
    "kana": "カイゴイリョウインヒイロ",
    "address": "広島県広島市佐伯区坪井三丁目８１８番地の１",
    "lat": 34.3822723,
    "lng": 132.3346528,
    "tel": "082-943-7616",
    "url": "http://www.pia-gr.or.jp/pia/hiiro/",
    "pref": "広島県",
    "city": "広島市佐伯区",
    "category": "care_medical_institute",
    "serviceType": "介護医療院",
    "capacity": null,
    "openDays": [],
    "openDaysNote": ""
  },
  {
    "id": "34B0200044",
    "name": "広島グリーンヒル病院介護医療院",
    "kana": "ヒロシマグリーンヒルビョウインカイゴイリョウイン",
    "address": "広島県広島市佐伯区五日市町下河内188-6広島グリーンヒル病院介護医療院　6階・7階・8階 広島グリーンヒル病院介護医療院　6階・7階・8階",
    "lat": 34.4080047,
    "lng": 132.3532965,
    "tel": "082-929-1110",
    "url": "http://www.gh.wadoukai.jp",
    "pref": "広島県",
    "city": "広島市佐伯区",
    "category": "care_medical_institute",
    "serviceType": "介護医療院",
    "capacity": 0,
    "openDays": [],
    "openDaysNote": ""
  },
  {
    "id": "34B0200069",
    "name": "桧田病院介護医療院",
    "kana": "ヒノキダビョウインカイゴイリョウイン",
    "address": "広島県広島市佐伯区五日市中央一丁目１番32号",
    "lat": 34.3739281,
    "lng": 132.3557134,
    "tel": "082-923-1116",
    "url": "http://www.hinokida.com",
    "pref": "広島県",
    "city": "広島市佐伯区",
    "category": "care_medical_institute",
    "serviceType": "介護医療院",
    "capacity": 0,
    "openDays": [],
    "openDaysNote": ""
  },
  {
    "id": "34B0200077",
    "name": "林クリニック介護医療院",
    "kana": "ハヤシクリニックカイゴイリョウイン",
    "address": "広島県広島市佐伯区湯来町下987林クリニック介護医療院 林クリニック介護医療院",
    "lat": 34.4842159,
    "lng": 132.2693073,
    "tel": "0826-23-0005",
    "url": "",
    "pref": "広島県",
    "city": "広島市佐伯区",
    "category": "care_medical_institute",
    "serviceType": "介護医療院",
    "capacity": null,
    "openDays": [],
    "openDaysNote": ""
  },
  {
    "id": "34B0200028",
    "name": "長崎病院介護医療院",
    "kana": "ナガサキビョウインカイゴイリョウイン",
    "address": "広島県広島市西区横川新町３番１１号",
    "lat": 34.4091696,
    "lng": 132.4469578,
    "tel": "０８２－２０８－５８０１",
    "url": "http://www.nagasaki-hp.jp",
    "pref": "広島県",
    "city": "広島市西区",
    "category": "care_medical_institute",
    "serviceType": "介護医療院",
    "capacity": 0,
    "openDays": [],
    "openDaysNote": ""
  },
  {
    "id": "34B0200036",
    "name": "力田病院すずがみね介護医療院",
    "kana": "リキタビョウインスズガミネカイゴイリョウイン",
    "address": "広島県広島市西区鈴が峰町14番20号",
    "lat": 34.3821702,
    "lng": 132.3971272,
    "tel": "082-277-2101",
    "url": "http://rikitabyouin.life.coocan.jp/",
    "pref": "広島県",
    "city": "広島市西区",
    "category": "care_medical_institute",
    "serviceType": "介護医療院",
    "capacity": 0,
    "openDays": [],
    "openDaysNote": ""
  },
  {
    "id": "34B0100046",
    "name": "戸坂外科医院介護医療院",
    "kana": "ヘサカゲカイインカイゴイリョウイン",
    "address": "広島県広島市東区戸坂千足二丁目５番１６号",
    "lat": 34.4379883,
    "lng": 132.4850768,
    "tel": "082-220-0050",
    "url": "http://www.hesaka-geka.jp/",
    "pref": "広島県",
    "city": "広島市東区",
    "category": "care_medical_institute",
    "serviceType": "介護医療院",
    "capacity": 0,
    "openDays": [],
    "openDaysNote": ""
  },
  {
    "id": "34B0100012",
    "name": "山﨑病院介護医療院",
    "kana": "ヤマサキビョウインカイゴイリョウイン",
    "address": "広島県広島市東区上温品1丁目24-9",
    "lat": 34.4216571,
    "lng": 132.5123701,
    "tel": "082-280-1234",
    "url": "https://takamasakai.sakura.ne.jp/",
    "pref": "広島県",
    "city": "広島市東区",
    "category": "care_medical_institute",
    "serviceType": "介護医療院",
    "capacity": 0,
    "openDays": [],
    "openDaysNote": ""
  },
  {
    "id": "34B0100038",
    "name": "槙坪病院　介護医療院",
    "kana": "マキツボビョウイン　カイゴイリョウイン",
    "address": "広島県広島市東区光町一丁目１４番２号",
    "lat": 34.3988851,
    "lng": 132.4801677,
    "tel": "082－263－5788",
    "url": "http://www.makitsubo-h.net/",
    "pref": "広島県",
    "city": "広島市東区",
    "category": "care_medical_institute",
    "serviceType": "介護医療院",
    "capacity": null,
    "openDays": [],
    "openDaysNote": ""
  },
  {
    "id": "34B0100020",
    "name": "広島シーサイド病院介護医療院",
    "kana": "ヒロシマシーサイドビョウインカイゴイリョウイン",
    "address": "広島県広島市南区元宇品町26番20号",
    "lat": 34.3485727,
    "lng": 132.4590855,
    "tel": "082-255-1010",
    "url": "http://www.ss.wadoukai.jp/",
    "pref": "広島県",
    "city": "広島市南区",
    "category": "care_medical_institute",
    "serviceType": "介護医療院",
    "capacity": 0,
    "openDays": [],
    "openDaysNote": ""
  },
  {
    "id": "34B0900031",
    "name": "医療法人仁康会本郷中央病院介護医療院",
    "kana": "イリョウホウジンジンコウカイホンゴウチュウオウビョウインカイゴイリョウイン",
    "address": "広島県三原市下北方1-7-30医療法人仁康会本郷中央病院介護医療院 医療法人仁康会本郷中央病院介護医療院",
    "lat": 34.4063385,
    "lng": 132.9752527,
    "tel": "0848-86-6780",
    "url": "http://www.jinkokai.jp/hongou/index.php",
    "pref": "広島県",
    "city": "三原市",
    "category": "care_medical_institute",
    "serviceType": "介護医療院",
    "capacity": null,
    "openDays": [],
    "openDaysNote": ""
  },
  {
    "id": "34B0900023",
    "name": "社会医療法人　里仁会　介護医療院　白龍湖",
    "kana": "シャカイイリョウホウジン　リジンカイ　カイゴイリョウイン　ハクリュウコ",
    "address": "広島県三原市大和町和木１５０４－１",
    "lat": 34.5113428,
    "lng": 132.9227978,
    "tel": "0847－34－1218",
    "url": "http://rijinkai.or.jp/",
    "pref": "広島県",
    "city": "三原市",
    "category": "care_medical_institute",
    "serviceType": "介護医療院",
    "capacity": 0,
    "openDays": [],
    "openDaysNote": ""
  },
  {
    "id": "34B0900015",
    "name": "社会医療法人里仁会　介護医療院仁生苑",
    "kana": "シャカイイリョウホウジンリジンカイ　カイゴイリョウインジンセイエン",
    "address": "広島県三原市皆実3丁目3-28",
    "lat": 34.3914731,
    "lng": 133.0662378,
    "tel": "0848-64-4111",
    "url": "http://www.rijinen.jp/",
    "pref": "広島県",
    "city": "三原市",
    "category": "care_medical_institute",
    "serviceType": "介護医療院",
    "capacity": null,
    "openDays": [],
    "openDaysNote": ""
  },
  {
    "id": "34B1900014",
    "name": "介護医療院ほのぼの",
    "kana": "カイゴイリョウインホノボノ",
    "address": "広島県三次市粟屋町1731",
    "lat": 34.8105771,
    "lng": 132.8364832,
    "tel": "0824-62-2888",
    "url": "http:/www.sinwakai340.e-doctor.info",
    "pref": "広島県",
    "city": "三次市",
    "category": "care_medical_institute",
    "serviceType": "介護医療院",
    "capacity": null,
    "openDays": [],
    "openDaysNote": ""
  },
  {
    "id": "34B2100010",
    "name": "庄原同仁病院介護医療院",
    "kana": "ショウバラドウジンビョウインカイゴイリョウイン",
    "address": "広島県庄原市川北町字久井田890番地の1",
    "lat": 34.880595,
    "lng": 133.0032344,
    "tel": "0824-72-7300",
    "url": "https://nagaekai.com/",
    "pref": "広島県",
    "city": "庄原市",
    "category": "care_medical_institute",
    "serviceType": "介護医療院",
    "capacity": null,
    "openDays": [],
    "openDaysNote": ""
  },
  {
    "id": "34B2300016",
    "name": "メープルヒル病院　介護医療院",
    "kana": "メープルヒルビョウイン　カイゴイリョウイン",
    "address": "広島県大竹市玖波5-2-1",
    "lat": 34.2567668,
    "lng": 132.2233721,
    "tel": "0827-57-7451",
    "url": "",
    "pref": "広島県",
    "city": "大竹市",
    "category": "care_medical_institute",
    "serviceType": "介護医療院",
    "capacity": null,
    "openDays": [],
    "openDaysNote": ""
  },
  {
    "id": "34B0700019",
    "name": "安田介護医療院",
    "kana": "ヤスダカイゴイリョウイン",
    "address": "広島県竹原市下野町3136番地",
    "lat": 34.3526736,
    "lng": 132.9003989,
    "tel": "0846-22-6173",
    "url": "http://www.yasudabyouin.com/",
    "pref": "広島県",
    "city": "竹原市",
    "category": "care_medical_institute",
    "serviceType": "介護医療院",
    "capacity": null,
    "openDays": [],
    "openDaysNote": ""
  },
  {
    "id": "34B2500011",
    "name": "医療法人真慈会　真愛病院介護医療院",
    "kana": "イリョウホウジンシンジカイ　シンアイビョウインカイゴイリョウイン",
    "address": "広島県東広島市黒瀬町兼広279番地",
    "lat": 34.321647,
    "lng": 132.6598772,
    "tel": "0823-70-4011",
    "url": "http://www.shin-ai-hp.jp",
    "pref": "広島県",
    "city": "東広島市",
    "category": "care_medical_institute",
    "serviceType": "介護医療院",
    "capacity": 0,
    "openDays": [],
    "openDaysNote": ""
  },
  {
    "id": "34B2500029",
    "name": "介護医療院ナーシングホームふれあい",
    "kana": "カイゴイリョウインナーシングホームフレアイ",
    "address": "広島県東広島市西条町寺家7432-1",
    "lat": 34.4227146,
    "lng": 132.7287356,
    "tel": "082-424-1555",
    "url": "http://koenkai-gr.jp",
    "pref": "広島県",
    "city": "東広島市",
    "category": "care_medical_institute",
    "serviceType": "介護医療院",
    "capacity": 0,
    "openDays": [],
    "openDaysNote": ""
  },
  {
    "id": "34B2700017",
    "name": "敬愛介護医療院",
    "kana": "ケイアイカイゴイリョウイン",
    "address": "広島県廿日市市大野72番地",
    "lat": 34.3263913839866,
    "lng": 132.289981290433,
    "tel": "0829-56-3333",
    "url": "",
    "pref": "広島県",
    "city": "廿日市市",
    "category": "care_medical_institute",
    "serviceType": "介護医療院",
    "capacity": null,
    "openDays": [],
    "openDaysNote": ""
  },
  {
    "id": "34B2700025",
    "name": "佐伯中央介護医療院",
    "kana": "サイキチュウオウカイゴイリョウイン",
    "address": "広島県廿日市市津田4180",
    "lat": 34.3669518,
    "lng": 132.1760588,
    "tel": "0829-72-1100",
    "url": "https://www.saikichuou.jp",
    "pref": "広島県",
    "city": "廿日市市",
    "category": "care_medical_institute",
    "serviceType": "介護医療院",
    "capacity": null,
    "openDays": [],
    "openDaysNote": ""
  },
  {
    "id": "34B1100029",
    "name": "ながい介護医療院",
    "kana": "ナガイカイゴイリョウイン",
    "address": "広島県尾道市瀬戸田町瀬戸田349-7",
    "lat": 34.3030533,
    "lng": 133.0857542,
    "tel": "0845-27-0020",
    "url": "",
    "pref": "広島県",
    "city": "尾道市",
    "category": "care_medical_institute",
    "serviceType": "介護医療院",
    "capacity": null,
    "openDays": [],
    "openDaysNote": ""
  },
  {
    "id": "34B1100011",
    "name": "因島総合介護医療院",
    "kana": "インノシマソウゴウカイゴイリョウイン",
    "address": "広島県尾道市因島土生町2561",
    "lat": 34.2822503,
    "lng": 133.1799013,
    "tel": "0845-22-2552",
    "url": "http://innoshima-hospital.jp/",
    "pref": "広島県",
    "city": "尾道市",
    "category": "care_medical_institute",
    "serviceType": "介護医療院",
    "capacity": null,
    "openDays": [],
    "openDaysNote": ""
  },
  {
    "id": "34B1100037",
    "name": "介護医療院　よしはら内科外科リハビリテーションクリニック",
    "kana": "カイゴイリョウイン　ヨシハラナイカゲカリハビリテーションクリニック",
    "address": "広島県尾道市向東町８６８１－１",
    "lat": 34.3997334,
    "lng": 133.2212177,
    "tel": "0848-45-0007",
    "url": "https://www.yoshiharamedicalgroup.com/",
    "pref": "広島県",
    "city": "尾道市",
    "category": "care_medical_institute",
    "serviceType": "介護医療院",
    "capacity": null,
    "openDays": [],
    "openDaysNote": ""
  },
  {
    "id": "34B1100045",
    "name": "山本病院介護医療院",
    "kana": "ヤマモトビョウインカイゴイリョウイン",
    "address": "広島県尾道市高須町７３５番地",
    "lat": 34.4377045455543,
    "lng": 133.232166164418,
    "tel": "0848-46-0634",
    "url": "http://www.yamamoto-hospital.jp",
    "pref": "広島県",
    "city": "尾道市",
    "category": "care_medical_institute",
    "serviceType": "介護医療院",
    "capacity": 0,
    "openDays": [],
    "openDaysNote": ""
  },
  {
    "id": "34B1700018",
    "name": "介護医療院みのり",
    "kana": "カイゴイリョウインミノリ",
    "address": "広島県府中市元町43番地1",
    "lat": 34.5714002,
    "lng": 133.2425755,
    "tel": "0847-45-4571",
    "url": "https://www.youseikai-grp.jp/kh/",
    "pref": "広島県",
    "city": "府中市",
    "category": "care_medical_institute",
    "serviceType": "介護医療院",
    "capacity": 82,
    "openDays": [],
    "openDaysNote": ""
  },
  {
    "id": "34B1500046",
    "name": "医療法人　信英会　介護医療院　デイジー港南",
    "kana": "イリョウホウジン　シンエイカイ　カイゴイリョウイン　デイジーコウナン",
    "address": "広島県福山市新涯町2丁目5番8号",
    "lat": 34.462857,
    "lng": 133.3970942,
    "tel": "084-953-5511",
    "url": "https://shima-hp.or.jp",
    "pref": "広島県",
    "city": "福山市",
    "category": "care_medical_institute",
    "serviceType": "介護医療院",
    "capacity": 0,
    "openDays": [],
    "openDaysNote": ""
  },
  {
    "id": "34B1500012",
    "name": "介護医療院　灯り",
    "kana": "カイゴイリョウイン　アカリ",
    "address": "広島県福山市赤坂町赤坂1313神原病院　4階 神原病院　4階",
    "lat": 34.4718867,
    "lng": 133.3029402,
    "tel": "084-951-1012",
    "url": "https://kambara-hp.sakura.ne.jp/akari.html",
    "pref": "広島県",
    "city": "福山市",
    "category": "care_medical_institute",
    "serviceType": "介護医療院",
    "capacity": null,
    "openDays": [],
    "openDaysNote": ""
  },
  {
    "id": "34B1500061",
    "name": "介護医療院くすもと",
    "kana": "カイゴイリョウインクスモト",
    "address": "広島県福山市曙町三丁目19番18号",
    "lat": 34.4703774,
    "lng": 133.3970565,
    "tel": "084-954-3030",
    "url": "https://kusumoto.or.jp/",
    "pref": "広島県",
    "city": "福山市",
    "category": "care_medical_institute",
    "serviceType": "介護医療院",
    "capacity": 40,
    "openDays": [],
    "openDaysNote": ""
  },
  {
    "id": "34B1500053",
    "name": "介護医療院はな",
    "kana": "カイゴイリョウインハナ",
    "address": "広島県福山市野上町2-10-29",
    "lat": 34.4772805,
    "lng": 133.3627449,
    "tel": "084-925-2567",
    "url": "http://www.kanbe.or.jp/",
    "pref": "広島県",
    "city": "福山市",
    "category": "care_medical_institute",
    "serviceType": "介護医療院",
    "capacity": 0,
    "openDays": [],
    "openDaysNote": ""
  },
  {
    "id": "34B1500020",
    "name": "介護医療院みしま",
    "kana": "カイゴイリョウインミシマ",
    "address": "広島県福山市新市町宮内186-5",
    "lat": 34.5691696,
    "lng": 133.2745599,
    "tel": "0847-51-2103",
    "url": "https://mishima-iin.com",
    "pref": "広島県",
    "city": "福山市",
    "category": "care_medical_institute",
    "serviceType": "介護医療院",
    "capacity": null,
    "openDays": [],
    "openDaysNote": ""
  },
  {
    "id": "34B1500038",
    "name": "福山回生病院介護医療院",
    "kana": "フクヤマカイセイビョウインカイゴイリョウイン",
    "address": "広島県福山市引野町５丁目９番２１号",
    "lat": 34.493163,
    "lng": 133.4039702,
    "tel": "084-941-0665",
    "url": "http://www.fukuyama-kaisei.jp",
    "pref": "広島県",
    "city": "福山市",
    "category": "care_medical_institute",
    "serviceType": "介護医療院",
    "capacity": null,
    "openDays": [],
    "openDaysNote": ""
  },
  {
    "id": "34B3500036",
    "name": "大朝ふるさと病院介護医療院",
    "kana": "オオアサフルサトビョウインカイゴイリョウイン",
    "address": "広島県山県郡北広島町新庄2147番地の1",
    "lat": 34.7631477,
    "lng": 132.4860972,
    "tel": "0826-82-3900",
    "url": "http://ooasafurusato.jp",
    "pref": "広島県",
    "city": "北広島町",
    "category": "care_medical_institute",
    "serviceType": "介護医療院",
    "capacity": null,
    "openDays": [],
    "openDaysNote": ""
  }
]