[
  {
    "id": "36B0410013",
    "name": "原田病院介護医療院",
    "kana": "ハラダビョウインカイゴイリョウイン",
    "address": "富岡町あ石１４－１",
    "lat": 33.9179212,
    "lng": 134.6625404,
    "tel": "０８８４－２２－０９９０",
    "url": "",
    "pref": "徳島県",
    "city": "阿南市",
    "category": "care_medical_institute",
    "serviceType": "介護医療院",
    "capacity": null,
    "openDays": [],
    "openDaysNote": ""
  },
  {
    "id": "36B1710031",
    "name": "医療法人青鳳会　介護医療院　美摩病院",
    "kana": "イリョウホウジンセイホウカイ　カイゴイリョウイン　ミマビョウイン",
    "address": "徳島県吉野川市鴨島町上下島497",
    "lat": 34.0662641000001,
    "lng": 134.3539461,
    "tel": "0883-24-2957",
    "url": "http:/www.mima-gr.jp/",
    "pref": "徳島県",
    "city": "吉野川市",
    "category": "care_medical_institute",
    "serviceType": "介護医療院",
    "capacity": 58,
    "openDays": [],
    "openDaysNote": ""
  },
  {
    "id": "36B1710114",
    "name": "介護医療院鴨島病院",
    "kana": "カイゴイリョウインカモジマビョウイン",
    "address": "徳島県吉野川市鴨島町内原432",
    "lat": 34.0700305,
    "lng": 134.3677543,
    "tel": "0883-24-6565",
    "url": "http://kamojima.t-group.net",
    "pref": "徳島県",
    "city": "吉野川市",
    "category": "care_medical_institute",
    "serviceType": "介護医療院",
    "capacity": 0,
    "openDays": [],
    "openDaysNote": ""
  },
  {
    "id": "36B0610554",
    "name": "村山内科介護医療院",
    "kana": "ムラヤマナイカカイゴイリョウイン",
    "address": "池田町サラダ１７９５番地１",
    "lat": 34.0279734,
    "lng": 133.8065949,
    "tel": "0883-72-2110",
    "url": "https://murayamanaika.com",
    "pref": "徳島県",
    "city": "三好市",
    "category": "care_medical_institute",
    "serviceType": "介護医療院",
    "capacity": 0,
    "openDays": [],
    "openDaysNote": ""
  },
  {
    "id": "36B0613103",
    "name": "北條病院　介護医療院",
    "kana": "ホウジョウビョウイン　カイゴイリョウイン",
    "address": "徳島県三好市池田町マチ2526-7",
    "lat": 34.0290357,
    "lng": 133.804484,
    "tel": "0883-72-0007",
    "url": "http://hojyo-hp.com/",
    "pref": "徳島県",
    "city": "三好市",
    "category": "care_medical_institute",
    "serviceType": "介護医療院",
    "capacity": null,
    "openDays": [],
    "openDaysNote": ""
  },
  {
    "id": "36B0310502",
    "name": "ふじのクリニック介護医療院",
    "kana": "フジノクリニックカイゴイリョウイン",
    "address": "徳島県小松島市坂野町字平田１８番地の4",
    "lat": 33.9808015,
    "lng": 134.6330763,
    "tel": "0885-37-0250",
    "url": "http://fujino.ezdns.jp/",
    "pref": "徳島県",
    "city": "小松島市",
    "category": "care_medical_institute",
    "serviceType": "介護医療院",
    "capacity": null,
    "openDays": [],
    "openDaysNote": ""
  },
  {
    "id": "36B0311310",
    "name": "ふじのクリニック介護医療院",
    "kana": "フジノクリニックカイゴイリョウイン",
    "address": "徳島県小松島市坂野町字平田18番地4",
    "lat": 33.9807524,
    "lng": 134.6334325,
    "tel": "0885-37-0250",
    "url": "http://fujino.ezdns.jp/",
    "pref": "徳島県",
    "city": "小松島市",
    "category": "care_medical_institute",
    "serviceType": "介護医療院",
    "capacity": null,
    "openDays": [],
    "openDaysNote": ""
  },
  {
    "id": "36B0310130",
    "name": "碩心館　介護医療院",
    "kana": "セキシンカン　カイゴイリョウイン",
    "address": "徳島県小松島市江田町字大江田44-1",
    "lat": 34.0143104,
    "lng": 134.5636908,
    "tel": "0885-32-3555",
    "url": "www.sekishinkan.or.jp",
    "pref": "徳島県",
    "city": "小松島市",
    "category": "care_medical_institute",
    "serviceType": "介護医療院",
    "capacity": null,
    "openDays": [],
    "openDaysNote": ""
  },
  {
    "id": "36B0310403",
    "name": "藤野医院介護医療院",
    "kana": "フジノイインカイゴイリョウイン",
    "address": "徳島県小松島市坂野町字平田18番地2",
    "lat": 33.9807897,
    "lng": 134.6330837,
    "tel": "0885-38-1636",
    "url": "http://fujino.ezdns.jp",
    "pref": "徳島県",
    "city": "小松島市",
    "category": "care_medical_institute",
    "serviceType": "介護医療院",
    "capacity": null,
    "openDays": [],
    "openDaysNote": ""
  },
  {
    "id": "36B0310080",
    "name": "徳島ロイヤル病院介護医療院",
    "kana": "トクシマロイヤルビョウインカイゴイリョウイン",
    "address": "徳島県小松島市中田町字新開48番地",
    "lat": 34.0135138174389,
    "lng": 134.583401557672,
    "tel": "0885-32-8833",
    "url": "http://www13.plala.or.jp/royal-hp/",
    "pref": "徳島県",
    "city": "小松島市",
    "category": "care_medical_institute",
    "serviceType": "介護医療院",
    "capacity": 0,
    "openDays": [],
    "openDaysNote": ""
  },
  {
    "id": "36B1510035",
    "name": "浦田病院介護医療院",
    "kana": "ウラタビョウインカイゴイリョウイン",
    "address": "徳島県板野郡松茂町広島字南ハリ13番地",
    "lat": 34.1329813,
    "lng": 134.5774419,
    "tel": "088-699-2921",
    "url": "",
    "pref": "徳島県",
    "city": "松茂町",
    "category": "care_medical_institute",
    "serviceType": "介護医療院",
    "capacity": 0,
    "openDays": [],
    "openDaysNote": ""
  },
  {
    "id": "36B1910136",
    "name": "三加茂田中病院介護医療院",
    "kana": "ミカモタナカビョウインカイゴイリョウイン",
    "address": "徳島県三好郡東みよし町加茂1883番地4",
    "lat": 34.0393065,
    "lng": 133.9262132,
    "tel": "0883-82-3700",
    "url": "http://www.mikamotanakahp.ecnet.jp/",
    "pref": "徳島県",
    "city": "東みよし町",
    "category": "care_medical_institute",
    "serviceType": "介護医療院",
    "capacity": null,
    "openDays": [],
    "openDaysNote": ""
  },
  {
    "id": "36B0123665",
    "name": "リハビリテーション大神子病院介護医療院",
    "kana": "リハビリテーションオオミコビョウインカイゴイリョウイン",
    "address": "徳島県徳島市大原町余慶1番1",
    "lat": 34.0273153882104,
    "lng": 134.572291240384,
    "tel": "088-662-1014",
    "url": "http://www.doushisya.jp",
    "pref": "徳島県",
    "city": "徳島市",
    "category": "care_medical_institute",
    "serviceType": "介護医療院",
    "capacity": null,
    "openDays": [],
    "openDaysNote": ""
  },
  {
    "id": "36B0124168",
    "name": "稲山病院　介護医療院",
    "kana": "イナヤマビョウイン　カイゴイリョウイン",
    "address": "徳島県徳島市南田宮4丁目3番9号",
    "lat": 34.0859042,
    "lng": 134.531523,
    "tel": "088-631-1515",
    "url": "https://www.inayama.or.jp/",
    "pref": "徳島県",
    "city": "徳島市",
    "category": "care_medical_institute",
    "serviceType": "介護医療院",
    "capacity": null,
    "openDays": [],
    "openDaysNote": ""
  },
  {
    "id": "36B0127443",
    "name": "介護医療院名東",
    "kana": "カイゴイリョウインミョウドウ",
    "address": "名東町1丁目91番地",
    "lat": 34.0659176,
    "lng": 134.5048736,
    "tel": "088-624-7236",
    "url": "http://tenma-hpg.com/kaigo/myoudou/",
    "pref": "徳島県",
    "city": "徳島市",
    "category": "care_medical_institute",
    "serviceType": "介護医療院",
    "capacity": 0,
    "openDays": [],
    "openDaysNote": ""
  },
  {
    "id": "36B0127765",
    "name": "協立病院　介護医療院",
    "kana": "キョウリツビョウイン　カイゴイリョウイン",
    "address": "徳島県徳島市八万町寺山１３番地２",
    "lat": 34.0430921,
    "lng": 134.521274,
    "tel": "088-668-1070",
    "url": "http://kyoritsuhp.or.jp",
    "pref": "徳島県",
    "city": "徳島市",
    "category": "care_medical_institute",
    "serviceType": "介護医療院",
    "capacity": null,
    "openDays": [],
    "openDaysNote": ""
  },
  {
    "id": "36B0124390",
    "name": "眉山病院　介護医療院",
    "kana": "ビザンビョウイン　カイゴイリョウイン",
    "address": "徳島県徳島市西二軒屋町２−３９−２",
    "lat": 34.059028,
    "lng": 134.5439798,
    "tel": "088-625-7665",
    "url": "https://bizan-hp.jp/",
    "pref": "徳島県",
    "city": "徳島市",
    "category": "care_medical_institute",
    "serviceType": "介護医療院",
    "capacity": 0,
    "openDays": [],
    "openDaysNote": ""
  },
  {
    "id": "36B0123558",
    "name": "福田整形外科病院介護医療院",
    "kana": "フクタセイケイゲカビョウインカイゴイリョウイン",
    "address": "徳島県徳島市南内町1丁目34番地",
    "lat": 34.0692136,
    "lng": 134.5525843,
    "tel": "886224597",
    "url": "https://reiwa-fs.jp/",
    "pref": "徳島県",
    "city": "徳島市",
    "category": "care_medical_institute",
    "serviceType": "介護医療院",
    "capacity": null,
    "openDays": [],
    "openDaysNote": ""
  },
  {
    "id": "36B0127914",
    "name": "名東天満介護医療院",
    "kana": "ミョウドウテンマカイゴイリョウイン",
    "address": "徳島県徳島市名東町1丁目91番地",
    "lat": 34.0659176,
    "lng": 134.5048736,
    "tel": "088-624-7286",
    "url": "https://tenma-hpg.com/",
    "pref": "徳島県",
    "city": "徳島市",
    "category": "care_medical_institute",
    "serviceType": "介護医療院",
    "capacity": null,
    "openDays": [],
    "openDaysNote": ""
  },
  {
    "id": "36B0123863",
    "name": "木下病院介護医療院",
    "kana": "キノシタビョウインカイゴイリョウイン",
    "address": "徳島県徳島市南末広町4-70木下病院４階 木下病院４階",
    "lat": 34.0602981,
    "lng": 134.5759528,
    "tel": "088-622-7700",
    "url": "http://www.kinoshita-hp.com/index.html",
    "pref": "徳島県",
    "city": "徳島市",
    "category": "care_medical_institute",
    "serviceType": "介護医療院",
    "capacity": null,
    "openDays": [],
    "openDaysNote": ""
  },
  {
    "id": "36B0124770",
    "name": "林内科介護医療院",
    "kana": "ハヤシナイカカイゴイリョウイン",
    "address": "徳島県徳島市中昭和町2丁目94番地",
    "lat": 34.0617215,
    "lng": 134.5586125,
    "tel": "886260003",
    "url": "http//www.tomida.or.jp",
    "pref": "徳島県",
    "city": "徳島市",
    "category": "care_medical_institute",
    "serviceType": "介護医療院",
    "capacity": 6,
    "openDays": [],
    "openDaysNote": ""
  },
  {
    "id": "36B0510085",
    "name": "成田病院介護医療院",
    "kana": "ナリタビョウインカイゴイリョウイン",
    "address": "徳島県美馬市脇町字拝原2576番地201,202,203 201,202,203",
    "lat": 34.0649669,
    "lng": 134.1753264,
    "tel": "0883-52-1258",
    "url": "http://www.fujinokai.net",
    "pref": "徳島県",
    "city": "美馬市",
    "category": "care_medical_institute",
    "serviceType": "介護医療院",
    "capacity": 0,
    "openDays": [],
    "openDaysNote": ""
  },
  {
    "id": "36B0210066",
    "name": "介護医療院鳴門山上病院",
    "kana": "カイゴイリョウインナルトヤマカミビョウイン",
    "address": "徳島県鳴門市鳴門町土佐泊浦字高砂205番地29",
    "lat": 34.2056836,
    "lng": 134.6254274,
    "tel": "088-687-1234",
    "url": "https://kyujinkai-mc.or.jp",
    "pref": "徳島県",
    "city": "鳴門市",
    "category": "care_medical_institute",
    "serviceType": "介護医療院",
    "capacity": 60,
    "openDays": [],
    "openDaysNote": ""
  },
  {
    "id": "36B0213128",
    "name": "橋本介護医療院",
    "kana": "ハシモトカイゴイリョウイン",
    "address": "徳島県鳴門市大津町吉永字四番越４７１番地６",
    "lat": 34.1675519,
    "lng": 134.6007426,
    "tel": "088-685-5211",
    "url": "http://www2s.biglobe.ne.jp/~hasimoto/",
    "pref": "徳島県",
    "city": "鳴門市",
    "category": "care_medical_institute",
    "serviceType": "介護医療院",
    "capacity": 0,
    "openDays": [],
    "openDaysNote": ""
  },
  {
    "id": "36B1510415",
    "name": "清水内科介護医療院",
    "kana": "シミズナイカカイゴイリョウイン",
    "address": "徳島県板野郡藍住町奥野字和田71-13",
    "lat": 34.12102,
    "lng": 134.4937899,
    "tel": "088-692-8900",
    "url": "http://www.seijyukai-med.jp/",
    "pref": "徳島県",
    "city": "藍住町",
    "category": "care_medical_institute",
    "serviceType": "介護医療院",
    "capacity": null,
    "openDays": [],
    "openDaysNote": ""
  }
]