[
  {
    "id": "38B1000027",
    "name": "伊予診療所",
    "kana": "イヨシンリョウショ",
    "address": "愛媛県伊予市下吾川55番地1",
    "lat": 33.7597707944425,
    "lng": 132.712513949889,
    "tel": "089-982-1170",
    "url": "https://iyo-clinic.jp/",
    "pref": "愛媛県",
    "city": "伊予市",
    "category": "care_medical_institute",
    "serviceType": "介護医療院",
    "capacity": 0,
    "openDays": [],
    "openDaysNote": ""
  },
  {
    "id": "38B1000019",
    "name": "介護医療院エバーグリーン",
    "kana": "カイゴイリョウインエバーグリーン",
    "address": "愛媛県伊予市灘町66番地",
    "lat": 33.7556744297043,
    "lng": 132.701035973619,
    "tel": "089-982-0008",
    "url": "https://evergreen.iyo-kofukai.jp/",
    "pref": "愛媛県",
    "city": "伊予市",
    "category": "care_medical_institute",
    "serviceType": "介護医療院",
    "capacity": 0,
    "openDays": [],
    "openDaysNote": ""
  },
  {
    "id": "38B3400019",
    "name": "介護医療院みかわクリニック",
    "kana": "カイゴイリョウインミカワクリニック",
    "address": "愛媛県上浮穴郡久万高原町上黒岩2920番地",
    "lat": 33.6146196,
    "lng": 132.9766392,
    "tel": "0892-56-0908",
    "url": "http://www.mikawa-clinic.sakura.ne.jp/",
    "pref": "愛媛県",
    "city": "久万高原町",
    "category": "care_medical_institute",
    "serviceType": "介護医療院",
    "capacity": null,
    "openDays": [],
    "openDaysNote": ""
  },
  {
    "id": "38B0200024",
    "name": "医療法人三省会　村上病院　介護医療院",
    "kana": "イリョウホウジンサンセイカイ　ムラカミビョウイン　カイゴイリョウイン",
    "address": "愛媛県今治市常盤町五丁目３番３７号",
    "lat": 34.0602314,
    "lng": 132.9940371,
    "tel": "0898-22-8833",
    "url": "http://www.imabari-sanseikai.jp/",
    "pref": "愛媛県",
    "city": "今治市",
    "category": "care_medical_institute",
    "serviceType": "介護医療院",
    "capacity": 0,
    "openDays": [],
    "openDaysNote": ""
  },
  {
    "id": "38B0200032",
    "name": "今治南病院介護医療院",
    "kana": "イマバリミナミビョウインカイゴイリョウイン",
    "address": "愛媛県今治市四村103番地1",
    "lat": 34.0336514,
    "lng": 132.9845917,
    "tel": "0898-22-7300",
    "url": "",
    "pref": "愛媛県",
    "city": "今治市",
    "category": "care_medical_institute",
    "serviceType": "介護医療院",
    "capacity": null,
    "openDays": [],
    "openDaysNote": ""
  },
  {
    "id": "38B0200016",
    "name": "波方中央病院　介護医療院",
    "kana": "ナミカタチュウオウビョウイン　カイゴイリョウイン",
    "address": "愛媛県今治市波方町樋口甲1683番地1",
    "lat": 34.0989838,
    "lng": 132.9499311,
    "tel": "0898-41-5911",
    "url": "http://kouzinkai.jp",
    "pref": "愛媛県",
    "city": "今治市",
    "category": "care_medical_institute",
    "serviceType": "介護医療院",
    "capacity": null,
    "openDays": [],
    "openDaysNote": ""
  },
  {
    "id": "38B1300013",
    "name": "介護医療院コスモス",
    "kana": "カイゴイリョウインコスモス",
    "address": "愛媛県四国中央市金生町下分１２４９番地の１",
    "lat": 33.9980943,
    "lng": 133.5807101,
    "tel": "0896-58-5666",
    "url": "https://meisei-hasegawa.com/",
    "pref": "愛媛県",
    "city": "四国中央市",
    "category": "care_medical_institute",
    "serviceType": "介護医療院",
    "capacity": 0,
    "openDays": [],
    "openDaysNote": ""
  },
  {
    "id": "38B1300021",
    "name": "介護医療院まつかぜ",
    "kana": "カイゴイリョウインマツカゼ",
    "address": "愛媛県四国中央市土居町入野970番地",
    "lat": 33.956059,
    "lng": 133.4221393,
    "tel": "0896-74-2001",
    "url": "http://matsukaze-hp.com",
    "pref": "愛媛県",
    "city": "四国中央市",
    "category": "care_medical_institute",
    "serviceType": "介護医療院",
    "capacity": 22,
    "openDays": [],
    "openDaysNote": ""
  },
  {
    "id": "38B0100034",
    "name": "浦屋医院介護医療院",
    "kana": "ウラヤイインカイゴイリョウイン",
    "address": "愛媛県松山市中一万町５番地10",
    "lat": 33.8467611,
    "lng": 132.7741912,
    "tel": "089-943-0150",
    "url": "http://uraya0150.byoinnavi.jp/pc/",
    "pref": "愛媛県",
    "city": "松山市",
    "category": "care_medical_institute",
    "serviceType": "介護医療院",
    "capacity": 0,
    "openDays": [],
    "openDaysNote": ""
  },
  {
    "id": "38B0100026",
    "name": "南高井病院介護医療院",
    "kana": "ミナミタカイビョウインカイゴイリョウイン",
    "address": "愛媛県松山市南高井町333番地",
    "lat": 33.7877389329148,
    "lng": 132.823964584517,
    "tel": "089-976-7777",
    "url": "http:www.tensinkai.or.jp/",
    "pref": "愛媛県",
    "city": "松山市",
    "category": "care_medical_institute",
    "serviceType": "介護医療院",
    "capacity": 0,
    "openDays": [],
    "openDaysNote": ""
  },
  {
    "id": "38B0600017",
    "name": "介護医療院共立病院",
    "kana": "カイゴイリョウインキョウリツビョウイン",
    "address": "愛媛県西条市三津屋南9番10",
    "lat": 33.931929,
    "lng": 133.089359,
    "tel": "0898-64-2662",
    "url": "http://www.koujin.net/",
    "pref": "愛媛県",
    "city": "西条市",
    "category": "care_medical_institute",
    "serviceType": "介護医療院",
    "capacity": 35,
    "openDays": [],
    "openDaysNote": ""
  },
  {
    "id": "38B0700023",
    "name": "医療法人　肱嵐会　石村病院　介護医療院",
    "kana": "イリョウホウジン　コウランカイ　イシムラビョウイン　カイゴイリョウイン",
    "address": "愛媛県大洲市長浜甲176番地",
    "lat": 33.6123658,
    "lng": 132.4831396,
    "tel": "０８９３－５２－０２７５",
    "url": "",
    "pref": "愛媛県",
    "city": "大洲市",
    "category": "care_medical_institute",
    "serviceType": "介護医療院",
    "capacity": null,
    "openDays": [],
    "openDaysNote": ""
  },
  {
    "id": "38B0700015",
    "name": "介護医療院　ほくと",
    "kana": "カイゴイリョウイン　ホクト",
    "address": "愛媛県大洲市東大洲5番地大洲中央病院 大洲中央病院",
    "lat": 33.5154221,
    "lng": 132.5511901,
    "tel": "0893-24-4551",
    "url": "http://www.oozuchuo-hsp.jp/",
    "pref": "愛媛県",
    "city": "大洲市",
    "category": "care_medical_institute",
    "serviceType": "介護医療院",
    "capacity": null,
    "openDays": [],
    "openDaysNote": ""
  },
  {
    "id": "38B3500016",
    "name": "介護医療院　八倉",
    "kana": "カイゴイリョウイン　ヤクラ",
    "address": "愛媛県伊予郡砥部町重光275番地1",
    "lat": 33.7863661,
    "lng": 132.7786277,
    "tel": "089-958-1555",
    "url": "http://www.atomgroup.net/jyun/yak.htm",
    "pref": "愛媛県",
    "city": "砥部町",
    "category": "care_medical_institute",
    "serviceType": "介護医療院",
    "capacity": 0,
    "openDays": [],
    "openDaysNote": ""
  },
  {
    "id": "38B1500018",
    "name": "池川内科・神経内科　介護医療院",
    "kana": "イケガワナイカシンケイナイカ　カイゴイリョウイン",
    "address": "愛媛県東温市志津川89番地3",
    "lat": 33.8069144,
    "lng": 132.8800005,
    "tel": "899647787",
    "url": "https://ikegawa-clinic.com/",
    "pref": "愛媛県",
    "city": "東温市",
    "category": "care_medical_institute",
    "serviceType": "介護医療院",
    "capacity": 0,
    "openDays": [],
    "openDaysNote": ""
  },
  {
    "id": "38B0400012",
    "name": "介護医療院くじら",
    "kana": "カイゴイリョウインクジラ",
    "address": "愛媛県八幡浜市五反田1番耕地1046番地1",
    "lat": 33.450736,
    "lng": 132.439193,
    "tel": "0894-22-2309",
    "url": "http://www.kujira.biz",
    "pref": "愛媛県",
    "city": "八幡浜市",
    "category": "care_medical_institute",
    "serviceType": "介護医療院",
    "capacity": 0,
    "openDays": [],
    "openDaysNote": ""
  },
  {
    "id": "38B0400038",
    "name": "真網代くじら介護医療院",
    "kana": "マアジロクジラカイゴイリョウイン",
    "address": "愛媛県八幡浜市真網代甲229番地5医療法人青峰会真網代くじらリハビリテーション病院 医療法人青峰会真網代くじらリハビリテーション病院",
    "lat": 33.425688492304,
    "lng": 132.392067160049,
    "tel": "894281123",
    "url": "https://www.kujira.biz/",
    "pref": "愛媛県",
    "city": "八幡浜市",
    "category": "care_medical_institute",
    "serviceType": "介護医療院",
    "capacity": 0,
    "openDays": [],
    "openDaysNote": ""
  },
  {
    "id": "38B0400020",
    "name": "矢野脳神経外科医院　介護医療院",
    "kana": "ヤノノウシンケイゲカイイン　カイゴイリョウイン",
    "address": "愛媛県八幡浜市古町一丁目6番12号",
    "lat": 33.4558402,
    "lng": 132.429976,
    "tel": "0894-23-0210",
    "url": "",
    "pref": "愛媛県",
    "city": "八幡浜市",
    "category": "care_medical_institute",
    "serviceType": "介護医療院",
    "capacity": 0,
    "openDays": [],
    "openDaysNote": ""
  }
]