[
  {
    "id": "23B2100013",
    "name": "医療法人　博報会　岡崎東病院　介護医療院",
    "kana": "イリョウホウジン　ハクホウカイ　オカザキヒガシビョウイン　カイゴイリョウイン",
    "address": "愛知県岡崎市洞町字向山16番地2",
    "lat": 34.9462325,
    "lng": 137.199249,
    "tel": "0564-22-6616",
    "url": "https://okazakihigashi-hp.jp/",
    "pref": "愛知県",
    "city": "岡崎市",
    "category": "care_medical_institute",
    "serviceType": "介護医療院",
    "capacity": 0,
    "openDays": [],
    "openDaysNote": ""
  },
  {
    "id": "23B3400016",
    "name": "いたつ介護医療院",
    "kana": "イタツカイゴイリョウイン",
    "address": "字裏之門５０番地",
    "lat": 35.3307749,
    "lng": 136.9510663,
    "tel": "0568-67-6333",
    "url": "http://itatsu.byouinnavi.jp/pc/",
    "pref": "愛知県",
    "city": "犬山市",
    "category": "care_medical_institute",
    "serviceType": "介護医療院",
    "capacity": null,
    "openDays": [],
    "openDaysNote": ""
  },
  {
    "id": "23B2500014",
    "name": "かちがわ北病院介護医療院",
    "kana": "カチガワキタビョウインカイゴイリョウイン",
    "address": "愛知県春日井市角崎町3番地1",
    "lat": 35.2311188,
    "lng": 136.9541056,
    "tel": "0568-34-1211",
    "url": "www.kita-hosp.com",
    "pref": "愛知県",
    "city": "春日井市",
    "category": "care_medical_institute",
    "serviceType": "介護医療院",
    "capacity": 0,
    "openDays": [],
    "openDaysNote": ""
  },
  {
    "id": "23B4000021",
    "name": "今泉介護医療院",
    "kana": "イマイズミカイゴイリョウイン",
    "address": "愛知県新城市字宮ノ前24の3番地",
    "lat": 34.9018396,
    "lng": 137.4934476,
    "tel": "0536-22-1150",
    "url": "",
    "pref": "愛知県",
    "city": "新城市",
    "category": "care_medical_institute",
    "serviceType": "介護医療院",
    "capacity": 0,
    "openDays": [],
    "openDaysNote": ""
  },
  {
    "id": "23B4000013",
    "name": "星野病院介護医療院",
    "kana": "ホシノビョウインカイゴイリョウイン",
    "address": "愛知県新城市大野字上野70番地3",
    "lat": 34.9504407,
    "lng": 137.6046553,
    "tel": "0536-32-1515",
    "url": "http://www.hoshino-hosp.org",
    "pref": "愛知県",
    "city": "新城市",
    "category": "care_medical_institute",
    "serviceType": "介護医療院",
    "capacity": 0,
    "openDays": [],
    "openDaysNote": ""
  },
  {
    "id": "23B2300019",
    "name": "水野介護医療院",
    "kana": "ミズノカイゴイリョウイン",
    "address": "愛知県瀬戸市小田妻町１丁目190番地の2",
    "lat": 35.2417286,
    "lng": 137.0753362,
    "tel": "0561-48-2231",
    "url": "http://kouseikai2231.jp/",
    "pref": "愛知県",
    "city": "瀬戸市",
    "category": "care_medical_institute",
    "serviceType": "介護医療院",
    "capacity": 0,
    "openDays": [],
    "openDaysNote": ""
  },
  {
    "id": "23B7300014",
    "name": "医療法人真清会　新川病院介護医療院",
    "kana": "イリョウホウジンマスミカイ　シンカワビョウインカイゴイリョウイン",
    "address": "愛知県清須市土器野２６７番地",
    "lat": 35.1938105,
    "lng": 136.8541442,
    "tel": "０５２－４００－２７１１",
    "url": "https://shinkawa-hospital.com/",
    "pref": "愛知県",
    "city": "清須市",
    "category": "care_medical_institute",
    "serviceType": "介護医療院",
    "capacity": 0,
    "openDays": [],
    "openDaysNote": ""
  },
  {
    "id": "23B3200028",
    "name": "医療法人社団福祉会　高須病院　介護医療院",
    "kana": "イリョウホウジンシャダンフクシカイ　タカスビョウイン　カイゴイリョウイン",
    "address": "一色町赤羽上郷中113番地1",
    "lat": 34.8189407,
    "lng": 137.0190053,
    "tel": "0563-72-1701",
    "url": "https://takasu-hp.or.jp",
    "pref": "愛知県",
    "city": "西尾市",
    "category": "care_medical_institute",
    "serviceType": "介護医療院",
    "capacity": null,
    "openDays": [],
    "openDaysNote": ""
  },
  {
    "id": "23B3200010",
    "name": "西尾病院介護医療院",
    "kana": "ニシオビョウインカイゴイリョウイン",
    "address": "愛知県西尾市和泉町22番地",
    "lat": 34.8673682,
    "lng": 137.0551374,
    "tel": "0563-57-5138",
    "url": "http://www.nishio-hp.or.jp/",
    "pref": "愛知県",
    "city": "西尾市",
    "category": "care_medical_institute",
    "serviceType": "介護医療院",
    "capacity": null,
    "openDays": [],
    "openDaysNote": ""
  },
  {
    "id": "23B4300017",
    "name": "医療法人　平病院　介護医療院　平病院",
    "kana": "イリョウホウジン　ヒラビョウイン　カイゴイリョウイン　ヒラビョウイン",
    "address": "愛知県知多市新舞子字落４０番地の１",
    "lat": 34.952879,
    "lng": 136.8473487,
    "tel": "0569-42-5218",
    "url": "https://hira-hospital.jp/",
    "pref": "愛知県",
    "city": "知多市",
    "category": "care_medical_institute",
    "serviceType": "介護医療院",
    "capacity": 0,
    "openDays": [],
    "openDaysNote": ""
  },
  {
    "id": "23B2700010",
    "name": "医療法人宏徳会　安藤病院介護医療院",
    "kana": "イリョウホウジンコウトクカイアンドウビョウインカイゴイリョウイン",
    "address": "愛知県津島市唐臼町半池72番地1",
    "lat": 35.1551861,
    "lng": 136.7494739,
    "tel": "0567-31-4070",
    "url": "http://ando-hp.webmedipr.jp/",
    "pref": "愛知県",
    "city": "津島市",
    "category": "care_medical_institute",
    "serviceType": "介護医療院",
    "capacity": 0,
    "openDays": [],
    "openDaysNote": ""
  },
  {
    "id": "23B2700028",
    "name": "介護医療院　津島中央病院",
    "kana": "カイゴイリョウイン　ツシマチュウオウビョウイン",
    "address": "愛知県津島市葉苅町字綿掛63番地",
    "lat": 35.1911068,
    "lng": 136.7612254,
    "tel": "0567-24-0111",
    "url": "http://www.sanzenkai.or.jp",
    "pref": "愛知県",
    "city": "津島市",
    "category": "care_medical_institute",
    "serviceType": "介護医療院",
    "capacity": 50,
    "openDays": [],
    "openDaysNote": ""
  },
  {
    "id": "23B4900014",
    "name": "医療法人福友会　福友病院介護医療院",
    "kana": "イリョウホウジンフクユウカイ　フクユウビョウインカイゴイリョウイン",
    "address": "愛知県日進市北新町殿ヶ池上539番地",
    "lat": 35.1609992,
    "lng": 137.057872,
    "tel": "0561-73-3151",
    "url": "https://fukuyukai.com",
    "pref": "愛知県",
    "city": "日進市",
    "category": "care_medical_institute",
    "serviceType": "介護医療院",
    "capacity": 0,
    "openDays": [],
    "openDaysNote": ""
  },
  {
    "id": "23B2800026",
    "name": "新川中央病院介護医療院",
    "kana": "シンカワチュウオウビョウインカイゴイリョウイン",
    "address": "愛知県碧南市松江町六丁目83番地",
    "lat": 34.9031190957709,
    "lng": 136.986378404894,
    "tel": "0566-48-0009",
    "url": "http://www.shinkawa-skw.com/",
    "pref": "愛知県",
    "city": "碧南市",
    "category": "care_medical_institute",
    "serviceType": "介護医療院",
    "capacity": 0,
    "openDays": [],
    "openDaysNote": ""
  },
  {
    "id": "23B2000015",
    "name": "医療法人さわらび会　福祉村病院介護医療院",
    "kana": "イリョウホウジンサワラビカイ　フクシムラビョウインカイゴイリョウイン",
    "address": "愛知県豊橋市野依町字山中19番地14",
    "lat": 34.7006515,
    "lng": 137.4028063,
    "tel": "0532-46-7511",
    "url": "https://www.fukushimura.net/",
    "pref": "愛知県",
    "city": "豊橋市",
    "category": "care_medical_institute",
    "serviceType": "介護医療院",
    "capacity": 0,
    "openDays": [],
    "openDaysNote": ""
  },
  {
    "id": "23B2000023",
    "name": "光生会　赤岩介護医療院",
    "kana": "コウセイカイ　アカイワカイゴイリョウイン",
    "address": "豊橋市多米町字蝉川33-70",
    "lat": 34.7667216,
    "lng": 137.4326771,
    "tel": "0532-62-2105",
    "url": "http://www.koseikai-hp.or.jp",
    "pref": "愛知県",
    "city": "豊橋市",
    "category": "care_medical_institute",
    "serviceType": "介護医療院",
    "capacity": 0,
    "openDays": [],
    "openDaysNote": ""
  },
  {
    "id": "23B2600012",
    "name": "桃源堂介護医療院",
    "kana": "トウゲンドウカイゴイリョウイン",
    "address": "愛知県豊川市桜木通4丁目10番地の２",
    "lat": 34.8307532,
    "lng": 137.3898961,
    "tel": "0533-86-8169",
    "url": "http://gotou-hp.jp",
    "pref": "愛知県",
    "city": "豊川市",
    "category": "care_medical_institute",
    "serviceType": "介護医療院",
    "capacity": null,
    "openDays": [],
    "openDaysNote": ""
  },
  {
    "id": "23B2600020",
    "name": "豊川青山介護医療院",
    "kana": "トヨカワアオヤマカイゴイリョウイン",
    "address": "愛知県豊川市西島町中井33番地1",
    "lat": 34.8094804,
    "lng": 137.3956122,
    "tel": "0533-86-8125",
    "url": "http://www.t-aoyama.com/",
    "pref": "愛知県",
    "city": "豊川市",
    "category": "care_medical_institute",
    "serviceType": "介護医療院",
    "capacity": 0,
    "openDays": [],
    "openDaysNote": ""
  },
  {
    "id": "23B3000022",
    "name": "医療法人　豊寿会　斉藤病院　介護医療院",
    "kana": "イリョウホウジン　ホウジュカイ　サイトウビョウイン　カイゴイリョウイン",
    "address": "愛知県豊田市四郷町森前南33-10",
    "lat": 35.1218259877219,
    "lng": 137.167936698147,
    "tel": "0565-44-1177",
    "url": "http://www.saitou-hp.or.jp/",
    "pref": "愛知県",
    "city": "豊田市",
    "category": "care_medical_institute",
    "serviceType": "介護医療院",
    "capacity": null,
    "openDays": [],
    "openDaysNote": ""
  },
  {
    "id": "23B3000014",
    "name": "足助病院　介護医療院",
    "kana": "アスケビョウイン　カイゴイリョウイン",
    "address": "愛知県豊田市岩神町仲田２０番地",
    "lat": 35.1303259,
    "lng": 137.3056576,
    "tel": "0565₋62₋1290",
    "url": "https://asukehp.or.jp/",
    "pref": "愛知県",
    "city": "豊田市",
    "category": "care_medical_institute",
    "serviceType": "介護医療院",
    "capacity": 0,
    "openDays": [],
    "openDaysNote": ""
  },
  {
    "id": "23B7400012",
    "name": "済衆館介護医療院",
    "kana": "サイシュウカンカイゴイリョウイン",
    "address": "愛知県北名古屋市鹿田西村前111番地",
    "lat": 35.2423717,
    "lng": 136.8772697,
    "tel": "0568-21-0811",
    "url": "https://saishukan.com",
    "pref": "愛知県",
    "city": "北名古屋市",
    "category": "care_medical_institute",
    "serviceType": "介護医療院",
    "capacity": null,
    "openDays": [],
    "openDaysNote": ""
  },
  {
    "id": "23B1300010",
    "name": "森孝病院介護医療院",
    "kana": "モリタカビョウインカイゴイリョウイン",
    "address": "四軒家一丁目１０１３番地森孝病院介護医療院 森孝病院介護医療院",
    "lat": 35.193632,
    "lng": 137.014729,
    "tel": "052-775-6670",
    "url": "",
    "pref": "愛知県",
    "city": "名古屋市守山区",
    "category": "care_medical_institute",
    "serviceType": "介護医療院",
    "capacity": 0,
    "openDays": [],
    "openDaysNote": ""
  },
  {
    "id": "23B0700012",
    "name": "介護医療院ごきその杜",
    "kana": "カイゴイリョウインゴキソノモリ",
    "address": "愛知県名古屋市昭和区御器所二丁目９番７号",
    "lat": 35.1483922,
    "lng": 136.9220427,
    "tel": "052-872-1902",
    "url": "https://www.seijukai.or.jp/azzurri/gokisonomori/index.html",
    "pref": "愛知県",
    "city": "名古屋市昭和区",
    "category": "care_medical_institute",
    "serviceType": "介護医療院",
    "capacity": null,
    "openDays": [],
    "openDaysNote": ""
  },
  {
    "id": "23B1000016",
    "name": "医療法人親和会富田病院　介護医療院",
    "kana": "イリョウホウジンシンワカイトミダビョウイン　カイゴイリョウイン",
    "address": "愛知県名古屋市中川区かの里一丁目３０１番地",
    "lat": 35.1335486,
    "lng": 136.8148918,
    "tel": "052-302-4976",
    "url": "http://i-shinwakai.jp/",
    "pref": "愛知県",
    "city": "名古屋市中川区",
    "category": "care_medical_institute",
    "serviceType": "介護医療院",
    "capacity": 0,
    "openDays": [],
    "openDaysNote": ""
  },
  {
    "id": "23B1600013",
    "name": "介護医療院　東樹会",
    "kana": "カイゴイリョウイン　トウジュカイ",
    "address": "愛知県名古屋市天白区原一丁目1307番地",
    "lat": 35.1265917,
    "lng": 136.9994022,
    "tel": "052-802-1101",
    "url": "httpsp/://www.toju-kai.or.j",
    "pref": "愛知県",
    "city": "名古屋市天白区",
    "category": "care_medical_institute",
    "serviceType": "介護医療院",
    "capacity": null,
    "openDays": [],
    "openDaysNote": ""
  },
  {
    "id": "23B1200012",
    "name": "介護医療院名南ふれあい病院",
    "kana": "カイゴイリョウインメイナンフレアイビョウイン",
    "address": "愛知県名古屋市南区豊田五丁目15番18号",
    "lat": 35.1014516,
    "lng": 136.9151275,
    "tel": "052－691－0041",
    "url": "http://www.meinan.or.jp",
    "pref": "愛知県",
    "city": "名古屋市南区",
    "category": "care_medical_institute",
    "serviceType": "介護医療院",
    "capacity": 0,
    "openDays": [],
    "openDaysNote": ""
  },
  {
    "id": "23B1200020",
    "name": "大同介護医療院",
    "kana": "ダイドウカイゴイリョウイン",
    "address": "名古屋市南区白水町40番地の２",
    "lat": 35.0760829,
    "lng": 136.9057616,
    "tel": "052-611-8605",
    "url": "https://roken.daidoho.or.jp",
    "pref": "愛知県",
    "city": "名古屋市南区",
    "category": "care_medical_institute",
    "serviceType": "介護医療院",
    "capacity": null,
    "openDays": [],
    "openDaysNote": ""
  },
  {
    "id": "23B0300011",
    "name": "医療法人福友会　天寿病院介護医療院",
    "kana": "イリョウホウジンフクユウカイ　テンジュビョウインカイゴイリョウイン",
    "address": "米が瀬町１３８",
    "lat": 35.2111808,
    "lng": 136.9281421,
    "tel": "052-792-3151",
    "url": "https://fukuyukai.com/facility/79",
    "pref": "愛知県",
    "city": "名古屋市北区",
    "category": "care_medical_institute",
    "serviceType": "介護医療院",
    "capacity": null,
    "openDays": [],
    "openDaysNote": ""
  }
]