[
  {
    "id": "15B2100013",
    "name": "あがの市民病院介護医療院",
    "kana": "アガノシミンビョウインカイゴイリョウイン",
    "address": "新潟県阿賀野市岡山町13-23",
    "lat": 37.8327957,
    "lng": 139.2211677,
    "tel": "0250-62-2780",
    "url": "https://www.niigata-kouseiren.jp/hospital/aganoshimin/",
    "pref": "新潟県",
    "city": "阿賀野市",
    "category": "care_medical_institute",
    "serviceType": "介護医療院",
    "capacity": 0,
    "openDays": [],
    "openDaysNote": ""
  },
  {
    "id": "15B0400019",
    "name": "かもしか病院介護医療院",
    "kana": "カモシカビョウインカイゴイリョウイン",
    "address": "新潟県三条市南五百川80番地",
    "lat": 37.5374264,
    "lng": 139.1267874,
    "tel": "0256-41-3131",
    "url": "http://www.shitada.jp/",
    "pref": "新潟県",
    "city": "三条市",
    "category": "care_medical_institute",
    "serviceType": "介護医療院",
    "capacity": 0,
    "openDays": [],
    "openDaysNote": ""
  },
  {
    "id": "15B0400035",
    "name": "三条東病院　介護医療院",
    "kana": "サンジョウヒガシビョウイン　カイゴイリョウイン",
    "address": "新潟県三条市北入蔵２丁目１７番２７号",
    "lat": 37.6320933235923,
    "lng": 138.985132604894,
    "tel": "0256-38-1133",
    "url": "http://www.tachibanakoyokai.or.jp/",
    "pref": "新潟県",
    "city": "三条市",
    "category": "care_medical_institute",
    "serviceType": "介護医療院",
    "capacity": 0,
    "openDays": [],
    "openDaysNote": ""
  },
  {
    "id": "15B0400027",
    "name": "富永草野病院　介護医療院",
    "kana": "トミナガクサノビョウイン　カイゴイリョウイン",
    "address": "新潟県三条市興野2-2-25",
    "lat": 37.6326218472433,
    "lng": 138.970380144164,
    "tel": "0256-36-8777",
    "url": "https://www.shihatsudo.or.jp/care/",
    "pref": "新潟県",
    "city": "三条市",
    "category": "care_medical_institute",
    "serviceType": "介護医療院",
    "capacity": 0,
    "openDays": [],
    "openDaysNote": ""
  },
  {
    "id": "15B0800010",
    "name": "新潟県厚生農業協同組合連合会小千谷総合病院介護医療院",
    "kana": "ニイガタケンコウセイノウギョウキョウドウクミアイレンゴウカイオヂヤソウゴウビョウインカイゴイリョウイン",
    "address": "新潟県小千谷市平沢新田111",
    "lat": 37.321551,
    "lng": 138.7929997,
    "tel": "0258-81-1600",
    "url": "https://www.ojiya-ghp.jp/",
    "pref": "新潟県",
    "city": "小千谷市",
    "category": "care_medical_institute",
    "serviceType": "介護医療院",
    "capacity": 80,
    "openDays": [],
    "openDaysNote": ""
  },
  {
    "id": "15B0300011",
    "name": "介護医療院　えがおと虹の森ふもと",
    "kana": "カイゴイリョウイン　エガオトニジノモリフモト",
    "address": "新潟県上越市中央1丁目23-26",
    "lat": 37.1743693,
    "lng": 138.2460496,
    "tel": "025-543-2108",
    "url": "http://www.fumotokai-hp.com/",
    "pref": "新潟県",
    "city": "上越市",
    "category": "care_medical_institute",
    "serviceType": "介護医療院",
    "capacity": null,
    "openDays": [],
    "openDaysNote": ""
  },
  {
    "id": "15B0100015",
    "name": "岩室リハビリテーション病院　介護医療院",
    "kana": "イワムロリハビリテーションビョウイン　カイゴイリョウイン",
    "address": "新潟県新潟市西蒲区岩室温泉772番地1",
    "lat": 37.7325033,
    "lng": 138.8390714,
    "tel": "0256-82-4100",
    "url": "http://iwamurohp.jp/",
    "pref": "新潟県",
    "city": "新潟市西蒲区",
    "category": "care_medical_institute",
    "serviceType": "介護医療院",
    "capacity": null,
    "openDays": [],
    "openDaysNote": ""
  },
  {
    "id": "15B0100064",
    "name": "介護医療院こばり園",
    "kana": "カイゴイリョウインコバリエン",
    "address": "新潟県新潟市西区小針3-25-1介護医療院　こばり園 介護医療院　こばり園",
    "lat": 37.8878318,
    "lng": 138.9995796,
    "tel": "025-232-0200",
    "url": "https://www.niigata-medical.jp/",
    "pref": "新潟県",
    "city": "新潟市西区",
    "category": "care_medical_institute",
    "serviceType": "介護医療院",
    "capacity": 100,
    "openDays": [],
    "openDaysNote": ""
  },
  {
    "id": "15B0100023",
    "name": "黒埼病院介護医療院",
    "kana": "クロサキビョウインカイゴイリョウイン",
    "address": "新潟県新潟市西区黒鳥2339番地1",
    "lat": 37.8412521,
    "lng": 138.9862711,
    "tel": "025-370-7555",
    "url": "https://www.kurosaki-hp.jp/",
    "pref": "新潟県",
    "city": "新潟市西区",
    "category": "care_medical_institute",
    "serviceType": "介護医療院",
    "capacity": null,
    "openDays": [],
    "openDaysNote": ""
  },
  {
    "id": "15B0100049",
    "name": "聖園病院介護医療院",
    "kana": "ミソノビョウインカイゴイリョウイン",
    "address": "新潟県新潟市西区青山7-9-10",
    "lat": 37.8982486,
    "lng": 138.9921299,
    "tel": "025-267-0171",
    "url": "https://www.misono-hp.or.jp",
    "pref": "新潟県",
    "city": "新潟市西区",
    "category": "care_medical_institute",
    "serviceType": "介護医療院",
    "capacity": 0,
    "openDays": [],
    "openDaysNote": ""
  },
  {
    "id": "15B0100056",
    "name": "介護医療院　みどりケアセンター",
    "kana": "カイゴイリョウイン　ミドリケアセンター",
    "address": "新潟県新潟市中央区神道寺2丁目5番1号",
    "lat": 37.8968939,
    "lng": 139.0550952,
    "tel": "025-244-6100",
    "url": "http://www.midori-gr.jp/",
    "pref": "新潟県",
    "city": "新潟市中央区",
    "category": "care_medical_institute",
    "serviceType": "介護医療院",
    "capacity": 0,
    "openDays": [],
    "openDaysNote": ""
  },
  {
    "id": "15B0100031",
    "name": "介護医療院　栞の郷",
    "kana": "カイゴイリョウイン　シオリノサト",
    "address": "新潟県新潟市中央区姥ヶ山２７４番地１",
    "lat": 37.8848005,
    "lng": 139.0798084,
    "tel": "025-286-8811",
    "url": "https://www.higashi-niigata-hp.or.jp",
    "pref": "新潟県",
    "city": "新潟市中央区",
    "category": "care_medical_institute",
    "serviceType": "介護医療院",
    "capacity": 0,
    "openDays": [],
    "openDaysNote": ""
  },
  {
    "id": "15B0100072",
    "name": "白根大通病院　介護医療院",
    "kana": "シロネオオドオリビョウイン　カイゴイリョウイン",
    "address": "新潟県新潟市南区大通黄金4丁目14番地2",
    "lat": 37.8230554,
    "lng": 139.0196744,
    "tel": "025-362-0260",
    "url": "http://www.jojinkai.com/shirone/",
    "pref": "新潟県",
    "city": "新潟市南区",
    "category": "care_medical_institute",
    "serviceType": "介護医療院",
    "capacity": 0,
    "openDays": [],
    "openDaysNote": ""
  },
  {
    "id": "15B0600014",
    "name": "豊浦壱番館",
    "kana": "トヨウライチバンカン",
    "address": "新潟県新発田市荒町甲1611-8",
    "lat": 37.935482,
    "lng": 139.321807,
    "tel": "0254-21-0195",
    "url": "http://www.aiko.or.jp",
    "pref": "新潟県",
    "city": "新発田市",
    "category": "care_medical_institute",
    "serviceType": "介護医療院",
    "capacity": 0,
    "openDays": [],
    "openDaysNote": ""
  },
  {
    "id": "15B1200012",
    "name": "医療法人新光会村上記念病院介護医療院",
    "kana": "イリョウホウジンシンコウカイムラカミキネンビョウインカイゴイリョウイン",
    "address": "新潟県村上市松山204番地1",
    "lat": 38.2177085,
    "lng": 139.4569421,
    "tel": "0254-52-1229",
    "url": "http://murakamikinen-hp.jp/",
    "pref": "新潟県",
    "city": "村上市",
    "category": "care_medical_institute",
    "serviceType": "介護医療院",
    "capacity": 0,
    "openDays": [],
    "openDaysNote": ""
  },
  {
    "id": "15B1200038",
    "name": "介護医療院瀬波",
    "kana": "カイゴイリョウインセナミ",
    "address": "新潟県村上市瀬波温泉２丁目４－１５",
    "lat": 38.2176315,
    "lng": 139.4441757,
    "tel": "0254-50-1900",
    "url": "",
    "pref": "新潟県",
    "city": "村上市",
    "category": "care_medical_institute",
    "serviceType": "介護医療院",
    "capacity": 82,
    "openDays": [],
    "openDaysNote": ""
  },
  {
    "id": "15B1200046",
    "name": "肴町介護医療院",
    "kana": "サカナマチカイゴイリョウイン",
    "address": "新潟県村上市田端町１６番７号",
    "lat": 38.2232197,
    "lng": 139.4642761,
    "tel": "0254-53-2781",
    "url": "http://www.sanpokukai.jp",
    "pref": "新潟県",
    "city": "村上市",
    "category": "care_medical_institute",
    "serviceType": "介護医療院",
    "capacity": 0,
    "openDays": [],
    "openDaysNote": ""
  },
  {
    "id": "15B1200020",
    "name": "山北徳新会介護医療院",
    "kana": "サンポクトクシンカイカイゴイリョウイン",
    "address": "新潟県村上市勝木1340-1山北徳洲会病院　4階 山北徳洲会病院　4階",
    "lat": 38.4903215,
    "lng": 139.5164779,
    "tel": "0254-60-5555",
    "url": "http://sanpoku-hp.or.jp",
    "pref": "新潟県",
    "city": "村上市",
    "category": "care_medical_institute",
    "serviceType": "介護医療院",
    "capacity": 0,
    "openDays": [],
    "openDaysNote": ""
  },
  {
    "id": "15B0200013",
    "name": "介護医療院長岡保養園すま居る",
    "kana": "カイゴイリョウインナガオカホヨウエンスマイル",
    "address": "新潟県長岡市町田町575番地",
    "lat": 37.4171157033339,
    "lng": 138.861515423279,
    "tel": "0258-32-4040",
    "url": "https://www.i-shiseikai.or.jp",
    "pref": "新潟県",
    "city": "長岡市",
    "category": "care_medical_institute",
    "serviceType": "介護医療院",
    "capacity": 0,
    "openDays": [],
    "openDaysNote": ""
  },
  {
    "id": "15B0200021",
    "name": "田宮病院　介護医療院",
    "kana": "タミヤビョウイン　カイゴイリョウイン",
    "address": "新潟県長岡市深沢町２３００番地",
    "lat": 37.4253563720562,
    "lng": 138.772041457286,
    "tel": "0258-46-3200",
    "url": "http://www.sutokukai.or.jp/tamiya-hp/",
    "pref": "新潟県",
    "city": "長岡市",
    "category": "care_medical_institute",
    "serviceType": "介護医療院",
    "capacity": null,
    "openDays": [],
    "openDaysNote": ""
  },
  {
    "id": "15B5800015",
    "name": "湯沢介護医療院ゆきざくら",
    "kana": "ユザワカイゴイリョウインユキザクラ",
    "address": "新潟県南魚沼郡湯沢町大字湯沢２８７７番地１",
    "lat": 36.9388341,
    "lng": 138.8134552,
    "tel": "025-780-6543",
    "url": "https://yuzawa.jadecom.or.jp",
    "pref": "新潟県",
    "city": "湯沢町",
    "category": "care_medical_institute",
    "serviceType": "介護医療院",
    "capacity": 0,
    "openDays": [],
    "openDaysNote": ""
  }
]