[
  {
    "id": "13B2300029",
    "name": "一盛病院介護医療院",
    "kana": "イチモリビョウインカイゴイリョウイン",
    "address": "東京都江戸川区小松川三丁目１０番１号",
    "lat": 35.6977789,
    "lng": 139.850613,
    "tel": "03-3637-0050",
    "url": "http://www.ichimori-hp.or.jp",
    "pref": "東京都",
    "city": "江戸川区",
    "category": "care_medical_institute",
    "serviceType": "介護医療院",
    "capacity": 0,
    "openDays": [],
    "openDaysNote": ""
  },
  {
    "id": "13B2300011",
    "name": "介護医療院松寿会病院",
    "kana": "カイゴイリョウインマツトシカイビョウイン",
    "address": "東京都江戸川区北葛西4-4-28",
    "lat": 35.6720975,
    "lng": 139.8628077,
    "tel": "03-3689-5451",
    "url": "http://www.matsutoshikai.or.jp",
    "pref": "東京都",
    "city": "江戸川区",
    "category": "care_medical_institute",
    "serviceType": "介護医療院",
    "capacity": 0,
    "openDays": [],
    "openDaysNote": ""
  },
  {
    "id": "13B1800029",
    "name": "医療法人社団杏和会　寺田病院介護医療院",
    "kana": "イリョウホウジンシャダンキョウワカイ　テラダビョウインカイゴイリョウイン",
    "address": "東京都荒川区町屋3丁目23番14号",
    "lat": 35.7495398120381,
    "lng": 139.784486942328,
    "tel": "03（3892）5727",
    "url": "https://terada-hp.jp/",
    "pref": "東京都",
    "city": "荒川区",
    "category": "care_medical_institute",
    "serviceType": "介護医療院",
    "capacity": 0,
    "openDays": [],
    "openDaysNote": ""
  },
  {
    "id": "13B1800011",
    "name": "介護医療院磯病院",
    "kana": "カイゴイリョウインイソビョウイン",
    "address": "東京都荒川区南千住1-56-10",
    "lat": 35.7333308,
    "lng": 139.7930755,
    "tel": "03-3807-8171",
    "url": "http://iso-hp.or.jp/",
    "pref": "東京都",
    "city": "荒川区",
    "category": "care_medical_institute",
    "serviceType": "介護医療院",
    "capacity": null,
    "openDays": [],
    "openDaysNote": ""
  },
  {
    "id": "13B4500014",
    "name": "医療法人社団豊徳会　介護医療院　東京多摩病院",
    "kana": "イリョウホウジンシャダンホウトクカイ　カイゴイリョウイン　トウキョウタマビョウイン",
    "address": "東京都狛江市岩戸南2－2－3",
    "lat": 35.6318249,
    "lng": 139.5865682,
    "tel": "03-3489-3191",
    "url": "https://tokyotama.or.jp/",
    "pref": "東京都",
    "city": "狛江市",
    "category": "care_medical_institute",
    "serviceType": "介護医療院",
    "capacity": null,
    "openDays": [],
    "openDaysNote": ""
  },
  {
    "id": "13B3600013",
    "name": "医療法人社団清恵会　介護医療院　篠原病院",
    "kana": "イリョウホウジンシャダンセイケイカイ　カイゴイリョウイン　シノハラビョウイン",
    "address": "東京都三鷹市下連雀6-13-10",
    "lat": 35.6887052,
    "lng": 139.5650701,
    "tel": "0422-46-2251",
    "url": "https://shinohara-hospital.or.jp",
    "pref": "東京都",
    "city": "三鷹市",
    "category": "care_medical_institute",
    "serviceType": "介護医療院",
    "capacity": 129,
    "openDays": [],
    "openDaysNote": ""
  },
  {
    "id": "13B1300012",
    "name": "セントラル介護医療院",
    "kana": "セントラルカイゴイリョウイン",
    "address": "東京都渋谷区神泉25-1",
    "lat": 35.657659,
    "lng": 139.6906389,
    "tel": "03-3465-5131",
    "url": "http://www.central-hospital.or.jp",
    "pref": "東京都",
    "city": "渋谷区",
    "category": "care_medical_institute",
    "serviceType": "介護医療院",
    "capacity": 0,
    "openDays": [],
    "openDaysNote": ""
  },
  {
    "id": "13B4300019",
    "name": "多摩済生病院　介護医療院",
    "kana": "タマサイセイビョウイン　カイゴイリョウイン",
    "address": "東京都小平市美園町3丁目11番地1号",
    "lat": 35.7406486,
    "lng": 139.4893129,
    "tel": "042-341-1611",
    "url": "https://tama-saisei-hp.com",
    "pref": "東京都",
    "city": "小平市",
    "category": "care_medical_institute",
    "serviceType": "介護医療院",
    "capacity": null,
    "openDays": [],
    "openDaysNote": ""
  },
  {
    "id": "13B2400035",
    "name": "介護医療院ユニット菜の花",
    "kana": "カイゴイリョウインユニットナノハナ",
    "address": "東京都西多摩郡瑞穂町殿ヶ谷454-2介護医療院ユニット菜の花 介護医療院ユニット菜の花",
    "lat": 35.7579146321667,
    "lng": 139.356253234254,
    "tel": "042-557-7915",
    "url": "http://www.kanjinkai.net/",
    "pref": "東京都",
    "city": "瑞穂町",
    "category": "care_medical_institute",
    "serviceType": "介護医療院",
    "capacity": null,
    "openDays": [],
    "openDaysNote": ""
  },
  {
    "id": "13B4700010",
    "name": "救世軍清瀬病院介護医療院シャロン",
    "kana": "キュウセイグンキヨセビョウインカイゴイリョウインシャロン",
    "address": "東京都清瀬市竹丘１－１７－９",
    "lat": 35.7699694,
    "lng": 139.5068042,
    "tel": "042-497-8185",
    "url": "https://kiyosehp.salvationarmy.or.jp/sharon/",
    "pref": "東京都",
    "city": "清瀬市",
    "category": "care_medical_institute",
    "serviceType": "介護医療院",
    "capacity": null,
    "openDays": [],
    "openDaysNote": ""
  },
  {
    "id": "13B5400016",
    "name": "田無病院介護医療院",
    "kana": "タナシビョウインカイゴイリョウイン",
    "address": "東京都西東京市緑町3-6-1",
    "lat": 35.7416152,
    "lng": 139.5417356,
    "tel": "042-461-2682",
    "url": "http://www.tanashi-hospital.or.jp/",
    "pref": "東京都",
    "city": "西東京市",
    "category": "care_medical_institute",
    "serviceType": "介護医療院",
    "capacity": 0,
    "openDays": [],
    "openDaysNote": ""
  },
  {
    "id": "13B2800010",
    "name": "医療法人社団　向日葵清心会　青梅今井病院　介護医療院",
    "kana": "イリョウホウジンシャダン　ヒマワリセイシンカイ　オウメイマイビョウイン　カイゴイリョウイン",
    "address": "東京都青梅市今井一丁目2609番地の2",
    "lat": 35.8148347,
    "lng": 139.3149807,
    "tel": "0428-31-8821",
    "url": "http://www.oumeimai.or.jp",
    "pref": "東京都",
    "city": "青梅市",
    "category": "care_medical_institute",
    "serviceType": "介護医療院",
    "capacity": null,
    "openDays": [],
    "openDaysNote": ""
  },
  {
    "id": "13B2800028",
    "name": "医療法人社団倭林会武蔵野台介護医療院",
    "kana": "イリョウホウジンシャダンヤマトバヤシカイムサシノダイビョウインカイゴイリョウイン",
    "address": "東京都青梅市今井1丁目2586",
    "lat": 35.812881,
    "lng": 139.3133654,
    "tel": "428316632",
    "url": "musashinodai-hp.com",
    "pref": "東京都",
    "city": "青梅市",
    "category": "care_medical_institute",
    "serviceType": "介護医療院",
    "capacity": null,
    "openDays": [],
    "openDaysNote": ""
  },
  {
    "id": "13B2800036",
    "name": "長生病院介護医療院",
    "kana": "チョウセイビョウインカイゴイリョウイン",
    "address": "東京都青梅市小曽木一丁目３４３８番地",
    "lat": 35.8235868,
    "lng": 139.2925799,
    "tel": "0428-74-4771",
    "url": "https://chosei-kai.com/chosei",
    "pref": "東京都",
    "city": "青梅市",
    "category": "care_medical_institute",
    "serviceType": "介護医療院",
    "capacity": null,
    "openDays": [],
    "openDaysNote": ""
  },
  {
    "id": "13B2100031",
    "name": "医療法人財団厚生協会　東京足立介護医療院",
    "kana": "イリョウホウジンザイダンコウセイキョウカイ　トウキョウアダチカイゴイリョウイン",
    "address": "東京都足立区保木間5-23-20",
    "lat": 35.8044714,
    "lng": 139.8042759,
    "tel": "03-3883-6331",
    "url": "http://tokyoadachi-med.jp",
    "pref": "東京都",
    "city": "足立区",
    "category": "care_medical_institute",
    "serviceType": "介護医療院",
    "capacity": 60,
    "openDays": [],
    "openDaysNote": ""
  },
  {
    "id": "13B2100023",
    "name": "介護医療院足立鹿浜病院",
    "kana": "カイゴイリョウインアダチシカハマビョウイン",
    "address": "東京都足立区鹿浜三丁目6番1号",
    "lat": 35.7799709,
    "lng": 139.7543458,
    "tel": "03-3857-5871",
    "url": "http://www.shikahamabyoin.com",
    "pref": "東京都",
    "city": "足立区",
    "category": "care_medical_institute",
    "serviceType": "介護医療院",
    "capacity": 0,
    "openDays": [],
    "openDaysNote": ""
  },
  {
    "id": "13B2100015",
    "name": "特定医療法人社団　潤恵会　ひのき介護医療院",
    "kana": "トクテイイリョウホウジンシャダン　ジュンケイカイ　ヒノキカイゴイリョウイン",
    "address": "東京都足立区新田2-16-13",
    "lat": 35.773457,
    "lng": 139.7419217,
    "tel": "03-5902-3121",
    "url": "http://www.keijin-hospital.or.jp",
    "pref": "東京都",
    "city": "足立区",
    "category": "care_medical_institute",
    "serviceType": "介護医療院",
    "capacity": 0,
    "openDays": [],
    "openDaysNote": ""
  },
  {
    "id": "13B1100016",
    "name": "医療法人社団幸栄会幸和病院介護医療院",
    "kana": "イリョウホウジンシャダンコウエイカイコウワビョウインカイゴイリョウイン",
    "address": "東京都大田区萩中三丁目29番5号幸和病院 幸和病院",
    "lat": 35.5509677,
    "lng": 139.734409,
    "tel": "03-3745-3800",
    "url": "https://www.kowa-hospital.com",
    "pref": "東京都",
    "city": "大田区",
    "category": "care_medical_institute",
    "serviceType": "介護医療院",
    "capacity": null,
    "openDays": [],
    "openDaysNote": ""
  },
  {
    "id": "13B1100024",
    "name": "介護医療院セントラル大田",
    "kana": "カイゴイリョウインセントラルオオタ",
    "address": "東京都大田区中央8-34-10",
    "lat": 35.5708216829925,
    "lng": 139.718218001189,
    "tel": "03-3755-5300",
    "url": "https://www.central.or.jp/ohtaku/index_iryoin.html",
    "pref": "東京都",
    "city": "大田区",
    "category": "care_medical_institute",
    "serviceType": "介護医療院",
    "capacity": 0,
    "openDays": [],
    "openDaysNote": ""
  },
  {
    "id": "13B1400010",
    "name": "武蔵野療園病院介護医療院",
    "kana": "ムサシノリョウエンビョウインカイゴイリョウイン",
    "address": "東京都中野区江古田2-24-11",
    "lat": 35.727276,
    "lng": 139.6641051,
    "tel": "03-3389-5511",
    "url": "https://www.musashino-ryoen.com/",
    "pref": "東京都",
    "city": "中野区",
    "category": "care_medical_institute",
    "serviceType": "介護医療院",
    "capacity": 0,
    "openDays": [],
    "openDaysNote": ""
  },
  {
    "id": "13B3200012",
    "name": "ふよう病院介護医療院",
    "kana": "フヨウビョウインカイゴイリョウイン",
    "address": "東京都町田市南町田三丁目43番1号",
    "lat": 35.5160415949437,
    "lng": 139.47194,
    "tel": "042-795-2631",
    "url": "http://www.fuyou.or.jp/",
    "pref": "東京都",
    "city": "町田市",
    "category": "care_medical_institute",
    "serviceType": "介護医療院",
    "capacity": 0,
    "openDays": [],
    "openDaysNote": ""
  },
  {
    "id": "13B2400027",
    "name": "医療法人財団利定会大久野病院介護医療院",
    "kana": "イリョウホウジンザイダントシサダカイオオグノビョウインカイゴイリョウイン",
    "address": "東京都西多摩郡日の出町大字大久野6416番地2階 2階",
    "lat": 35.7563397,
    "lng": 139.2340225,
    "tel": "042-597-0873",
    "url": "http://www.oogunohp.com/",
    "pref": "東京都",
    "city": "日の出町",
    "category": "care_medical_institute",
    "serviceType": "介護医療院",
    "capacity": 58,
    "openDays": [],
    "openDaysNote": ""
  },
  {
    "id": "13B2400019",
    "name": "医療法人社団崎陽会　日の出ヶ丘介護医療院",
    "kana": "イリョウホウジンシャダンキヨウカイ　ヒノデガオカカイゴイリョウイン",
    "address": "東京都西多摩郡日の出町大久野310番地",
    "lat": 35.7429719,
    "lng": 139.2462239,
    "tel": "042-597-0811",
    "url": "http://www.hinodehp.com",
    "pref": "東京都",
    "city": "日の出町",
    "category": "care_medical_institute",
    "serviceType": "介護医療院",
    "capacity": 0,
    "openDays": [],
    "openDaysNote": ""
  },
  {
    "id": "13B3500015",
    "name": "多摩平の森の病院介護医療院",
    "kana": "タマダイラモリノビョウインカイゴイリョウイン",
    "address": "東京都日野市多摩平三丁目1-17多摩平の森の病院 多摩平の森の病院",
    "lat": 35.6653456,
    "lng": 139.3770165,
    "tel": "042-843-1777",
    "url": "https://tamadairanomorino-hospital.com/",
    "pref": "東京都",
    "city": "日野市",
    "category": "care_medical_institute",
    "serviceType": "介護医療院",
    "capacity": null,
    "openDays": [],
    "openDaysNote": ""
  },
  {
    "id": "13B2900034",
    "name": "医療法人社団永生会　永生病院　介護医療院",
    "kana": "イリョウホウジンシャダンエイセイカイ　エイセイビョウイン　カイゴイリョウイン",
    "address": "東京都八王子市椚田町583番地15",
    "lat": 35.6395887579263,
    "lng": 139.30502672209,
    "tel": "042-661-4108",
    "url": "https://www.eisei.or.jp/",
    "pref": "東京都",
    "city": "八王子市",
    "category": "care_medical_institute",
    "serviceType": "介護医療院",
    "capacity": null,
    "openDays": [],
    "openDaysNote": ""
  },
  {
    "id": "13B2900018",
    "name": "介護医療院　陵北病院",
    "kana": "カイゴイリョウイン　リョウホクビョウイン",
    "address": "東京都八王子市西寺方町315",
    "lat": 35.6726663,
    "lng": 139.2656481,
    "tel": "042-651-3231",
    "url": "http://ryohoku-hp.jp",
    "pref": "東京都",
    "city": "八王子市",
    "category": "care_medical_institute",
    "serviceType": "介護医療院",
    "capacity": null,
    "openDays": [],
    "openDaysNote": ""
  },
  {
    "id": "13B2900026",
    "name": "社会医療法人社団愛有会　さんあい介護医療院",
    "kana": "シャカイイリョウホウジンシャダンアイユウカイ　サンアイカイゴイリョウイン",
    "address": "東京都八王子市宮下町３７７番地",
    "lat": 35.7067651398148,
    "lng": 139.30774882209,
    "tel": "042-691-4111",
    "url": "http://sanai-hachioji.jp/",
    "pref": "東京都",
    "city": "八王子市",
    "category": "care_medical_institute",
    "serviceType": "介護医療院",
    "capacity": null,
    "openDays": [],
    "openDaysNote": ""
  },
  {
    "id": "13B1900050",
    "name": "医療法人社団慈誠会　慈誠会記念病院介護医療院",
    "kana": "イリョウホウジンシャダンジセイカイ　ジセイカイキネンビョウインカイゴイリョウイン",
    "address": "東京都板橋区西台三丁目１１番３号",
    "lat": 35.7743323,
    "lng": 139.6674911,
    "tel": "03-5920-1801",
    "url": "https://jiseikaikinen-hp.jp/",
    "pref": "東京都",
    "city": "板橋区",
    "category": "care_medical_institute",
    "serviceType": "介護医療院",
    "capacity": 48,
    "openDays": [],
    "openDaysNote": ""
  },
  {
    "id": "13B1900035",
    "name": "医療法人社団慈誠会　慈誠会前野病院附属介護医療院",
    "kana": "イリョウホウジンシャダンジセイカイ　ジセイカイマエノビョウインフゾクカイゴイリョウイン",
    "address": "東京都板橋区前野町6-38-3",
    "lat": 35.7688422772532,
    "lng": 139.688485991402,
    "tel": "03-3969-1511",
    "url": "https://maeno-hospital.jp/",
    "pref": "東京都",
    "city": "板橋区",
    "category": "care_medical_institute",
    "serviceType": "介護医療院",
    "capacity": null,
    "openDays": [],
    "openDaysNote": ""
  },
  {
    "id": "13B1900027",
    "name": "医療法人社団和好会金子病院介護医療院",
    "kana": "イリョウホウジンシャダンワコウカイカネコビョウインカイゴイリョウイン",
    "address": "東京都板橋区南常盤台1-15-14",
    "lat": 35.7559202,
    "lng": 139.6874227,
    "tel": "03-3956-0145",
    "url": "kanekohosptal.or.jp",
    "pref": "東京都",
    "city": "板橋区",
    "category": "care_medical_institute",
    "serviceType": "介護医療院",
    "capacity": null,
    "openDays": [],
    "openDaysNote": ""
  },
  {
    "id": "13B1900043",
    "name": "富士見病院介護医療院",
    "kana": "フジミビョウインカイゴイリョウイン",
    "address": "東京都板橋区大和町１４番１６号",
    "lat": 35.7604208157024,
    "lng": 139.705517841139,
    "tel": "03-3962-2431",
    "url": "https://www.fujimi-hp.or.jp",
    "pref": "東京都",
    "city": "板橋区",
    "category": "care_medical_institute",
    "serviceType": "介護医療院",
    "capacity": null,
    "openDays": [],
    "openDaysNote": ""
  },
  {
    "id": "13B0900010",
    "name": "康済会介護医療院",
    "kana": "コウサイカイカイゴイリョウイン",
    "address": "東京都品川区小山３丁目４番17号",
    "lat": 35.620724,
    "lng": 139.7041809,
    "tel": "03-3716-8111",
    "url": "https://www.kousai-kai.info/",
    "pref": "東京都",
    "city": "品川区",
    "category": "care_medical_institute",
    "serviceType": "介護医療院",
    "capacity": 0,
    "openDays": [],
    "openDaysNote": ""
  },
  {
    "id": "13B1000018",
    "name": "医療法人財団日扇会第一病院",
    "kana": "イリョウホウジンザイダンニッセンカイダイイチビョウイン",
    "address": "東京都目黒区中根二丁目10番20号",
    "lat": 35.6144827,
    "lng": 139.6769405,
    "tel": "03-3718-7281",
    "url": "http://www.nissenkai.or.jp/",
    "pref": "東京都",
    "city": "目黒区",
    "category": "care_medical_institute",
    "serviceType": "介護医療院",
    "capacity": null,
    "openDays": [],
    "openDaysNote": ""
  }
]