[
  {
    "id": "09B0100013",
    "name": "宇都宮介護医療院",
    "kana": "ウツノミヤカイゴイリョウイン",
    "address": "栃木県宇都宮市平出町401番地",
    "lat": 36.5755816,
    "lng": 139.9495068,
    "tel": "028-661-1165",
    "url": "https://www.hokutokai.or.jp/",
    "pref": "栃木県",
    "city": "宇都宮市",
    "category": "care_medical_institute",
    "serviceType": "介護医療院",
    "capacity": 0,
    "openDays": [],
    "openDaysNote": ""
  },
  {
    "id": "09B2600010",
    "name": "介護医療院　尾形医院",
    "kana": "カイゴイリョウイン　オガタイイン",
    "address": "栃木県塩谷郡塩谷町玉生570番地1",
    "lat": 36.7706584,
    "lng": 139.8499666,
    "tel": "0287-45-2222",
    "url": "https://www.o-ga-ta.or.jp",
    "pref": "栃木県",
    "city": "塩谷町",
    "category": "care_medical_institute",
    "serviceType": "介護医療院",
    "capacity": null,
    "openDays": [],
    "openDaysNote": ""
  },
  {
    "id": "09B2600028",
    "name": "菅又病院介護医療院",
    "kana": "スガマタビョウインカイゴイリョウイン",
    "address": "栃木県塩谷郡高根沢町花岡2351",
    "lat": 36.6555304,
    "lng": 140.0045304,
    "tel": "028-676-0311",
    "url": "https://www.sugamatahp.com/",
    "pref": "栃木県",
    "city": "高根沢町",
    "category": "care_medical_institute",
    "serviceType": "介護医療院",
    "capacity": 88,
    "openDays": [],
    "openDaysNote": ""
  },
  {
    "id": "09B0800018",
    "name": "介護医療院　苅部太陽の家",
    "kana": "カイゴイリョウイン　カリベタイヨウノイエ",
    "address": "栃木県小山市大字南飯田317番地5",
    "lat": 36.2459191,
    "lng": 139.7686433,
    "tel": "0285-41-1311",
    "url": "https://oyama-shinseikai.or.jp/",
    "pref": "栃木県",
    "city": "小山市",
    "category": "care_medical_institute",
    "serviceType": "介護医療院",
    "capacity": null,
    "openDays": [],
    "openDaysNote": ""
  },
  {
    "id": "09B0800019",
    "name": "介護医療院苅部太陽の家",
    "kana": "カイゴイリョウインカリベタイヨウノイエ",
    "address": "栃木県小山市大字南飯田317-5",
    "lat": 36.2459413,
    "lng": 139.7686168,
    "tel": "0285-41-1311",
    "url": "https://taiyou-house.jp/",
    "pref": "栃木県",
    "city": "小山市",
    "category": "care_medical_institute",
    "serviceType": "介護医療院",
    "capacity": null,
    "openDays": [],
    "openDaysNote": ""
  },
  {
    "id": "09B0200011",
    "name": "今井介護医療院",
    "kana": "イマイカイゴイリョウイン",
    "address": "田中町100",
    "lat": 36.3266964,
    "lng": 139.4504135,
    "tel": "0284-71-0181",
    "url": "http://www.anz.or.jp/",
    "pref": "栃木県",
    "city": "足利市",
    "category": "care_medical_institute",
    "serviceType": "介護医療院",
    "capacity": 0,
    "openDays": [],
    "openDaysNote": ""
  },
  {
    "id": "09B0300019",
    "name": "介護医療院ふじぬま",
    "kana": "カイゴイリョウイン　フジヌマ",
    "address": "栃木県栃木市大平町富田5212-7医療法人藤沼医院 医療法人藤沼医院",
    "lat": 36.3379331,
    "lng": 139.699638,
    "tel": "0282-43-2233",
    "url": "https://fujinumaclinic.com/",
    "pref": "栃木県",
    "city": "栃木市",
    "category": "care_medical_institute",
    "serviceType": "介護医療院",
    "capacity": null,
    "openDays": [],
    "openDaysNote": ""
  },
  {
    "id": "09B1300018",
    "name": "介護医療院マロニエ苑",
    "kana": "カイゴイリョウインマロニエエン",
    "address": "栃木県那須塩原市井口５３３－４",
    "lat": 36.9116106,
    "lng": 139.9713419,
    "tel": "0287-36-6622",
    "url": "",
    "pref": "栃木県",
    "city": "那須塩原市",
    "category": "care_medical_institute",
    "serviceType": "介護医療院",
    "capacity": 51,
    "openDays": [],
    "openDaysNote": ""
  },
  {
    "id": "09B1300026",
    "name": "黒磯病院介護医療院",
    "kana": "クロイソビョウインカイゴイリョウイン",
    "address": "高砂町3番5号",
    "lat": null,
    "lng": null,
    "tel": "0287-62-0961",
    "url": "https://www.kuroiso-hp.jp",
    "pref": "栃木県",
    "city": "那須塩原市",
    "category": "care_medical_institute",
    "serviceType": "介護医療院",
    "capacity": 33,
    "openDays": [],
    "openDaysNote": ""
  },
  {
    "id": "09B0600012",
    "name": "医療法人社団　双愛会　介護医療院そうあい",
    "kana": "イリョウホウジンシャダン　ソウアイカイ　カイゴイリョウインソウアイ",
    "address": "栃木県日光市足尾町砂畑４１４７－２",
    "lat": 36.6290086905546,
    "lng": 139.433862153361,
    "tel": "0288-93-2011",
    "url": "http://www.ashiohp.com/",
    "pref": "栃木県",
    "city": "日光市",
    "category": "care_medical_institute",
    "serviceType": "介護医療院",
    "capacity": 0,
    "openDays": [],
    "openDaysNote": ""
  },
  {
    "id": "09B0600020",
    "name": "介護医療院　だんえん",
    "kana": "カイゴイリョウイン　ダンエン",
    "address": "栃木県日光市木和田島3008-10",
    "lat": 36.681731385434,
    "lng": 139.75270695264,
    "tel": "0288-32-2210",
    "url": "https://yaoitakinenkai.or.jp",
    "pref": "栃木県",
    "city": "日光市",
    "category": "care_medical_institute",
    "serviceType": "介護医療院",
    "capacity": 60,
    "openDays": [],
    "openDaysNote": ""
  }
]