[
  {
    "id": "47B0800012",
    "name": "介護医療院にしばる",
    "kana": "カイゴイリョウインニシバル",
    "address": "沖縄県浦添市西原三丁目20番10号",
    "lat": 26.2518081,
    "lng": 127.7525099,
    "tel": "988780055",
    "url": "https://ohirakai.or.jp/",
    "pref": "沖縄県",
    "city": "浦添市",
    "category": "care_medical_institute",
    "serviceType": "介護医療院",
    "capacity": 100,
    "openDays": [],
    "openDaysNote": ""
  },
  {
    "id": "47B2300011",
    "name": "医療法人仁誠会　名嘉病院（介護医療院）",
    "kana": "イリョウホウジン　ジンセイカイ　ナカビョウイン　（カイゴイリョウイン）",
    "address": "沖縄県中頭郡嘉手納町字嘉手納258番地",
    "lat": 26.3672686,
    "lng": 127.7550329,
    "tel": "（098）956-1161",
    "url": "https://nakahp.com/",
    "pref": "沖縄県",
    "city": "嘉手納町",
    "category": "care_medical_institute",
    "serviceType": "介護医療院",
    "capacity": null,
    "openDays": [],
    "openDaysNote": ""
  },
  {
    "id": "47B1400010",
    "name": "医療法人光風会北山病院(介護医療院）",
    "kana": "イリョウホウジンコウフウカイホクザンビョウインカイゴイリョウイン",
    "address": "沖縄県国頭郡今帰仁村字今泊307番地",
    "lat": 26.6991745547627,
    "lng": 127.925336346639,
    "tel": "0980-56-2339",
    "url": "https:/www.oki-kofukai.or.jp",
    "pref": "沖縄県",
    "city": "今帰仁村",
    "category": "care_medical_institute",
    "serviceType": "介護医療院",
    "capacity": 60,
    "openDays": [],
    "openDaysNote": ""
  },
  {
    "id": "47B1000026",
    "name": "介護医療院ウェルネス",
    "kana": "カイゴイリョウイン　ウェルネス",
    "address": "沖縄県糸満市字糸満2041番地の5",
    "lat": 26.1349315,
    "lng": 127.6701447,
    "tel": "098-994-2582",
    "url": "https://iwakikai.net/wp-content/themes/iwakikai/assets/pdf/wellness/kaigoiryouin-wellness.pdf",
    "pref": "沖縄県",
    "city": "糸満市",
    "category": "care_medical_institute",
    "serviceType": "介護医療院",
    "capacity": null,
    "openDays": [],
    "openDaysNote": ""
  },
  {
    "id": "47B0700014",
    "name": "医療法人徳洲会　石垣島徳洲会介護医療院",
    "kana": "イリョウホウジントクシュウカイ　イシガキジマトクシュウカイカイゴイリョウイン",
    "address": "大浜字南大浜446－1",
    "lat": null,
    "lng": null,
    "tel": "0980－87－0551",
    "url": "ishigakitoku.com",
    "pref": "沖縄県",
    "city": "石垣市",
    "category": "care_medical_institute",
    "serviceType": "介護医療院",
    "capacity": null,
    "openDays": [],
    "openDaysNote": ""
  },
  {
    "id": "47B0100017",
    "name": "介護医療院　小禄みなみ",
    "kana": "カイゴイリョウイン　オロクミナミ",
    "address": "沖縄県那覇市宮城１－１－３７小禄みなみ診療所　２階 小禄みなみ診療所　２階",
    "lat": 26.1873313,
    "lng": 127.6585817,
    "tel": "098-857-3949",
    "url": "http://www.jonan.or.jp",
    "pref": "沖縄県",
    "city": "那覇市",
    "category": "care_medical_institute",
    "serviceType": "介護医療院",
    "capacity": 21,
    "openDays": [],
    "openDaysNote": ""
  },
  {
    "id": "47B3600013",
    "name": "介護医療院はくあい",
    "kana": "カイゴイリョウインハクアイ",
    "address": "沖縄県島尻郡南風原町新川484番地の1",
    "lat": 26.2113571,
    "lng": 127.7273814,
    "tel": "098-889-4830",
    "url": "https://hakuai-hsp.jp/",
    "pref": "沖縄県",
    "city": "南風原町",
    "category": "care_medical_institute",
    "serviceType": "介護医療院",
    "capacity": 0,
    "openDays": [],
    "openDaysNote": ""
  }
]