[
  {
    "id": "25B2300017",
    "name": "介護医療院生田病院",
    "kana": "カイゴイリョウインイクタビョウイン",
    "address": "滋賀県湖南市菩提寺104-13",
    "lat": 35.0228445,
    "lng": 136.073374,
    "tel": "0748-74-8577",
    "url": "http://ikuta-hospital.com",
    "pref": "滋賀県",
    "city": "湖南市",
    "category": "care_medical_institute",
    "serviceType": "介護医療院",
    "capacity": 0,
    "openDays": [],
    "openDaysNote": ""
  },
  {
    "id": "25B0600012",
    "name": "社会医療法人　誠光会　草津介護医療院",
    "kana": "シャカイイリョウホウジン　セイコウカイ　クサツカイゴイリョウイン",
    "address": "滋賀県草津市矢橋町1629-5",
    "lat": 35.0111239126474,
    "lng": 135.928253571967,
    "tel": "077-516-2121",
    "url": "https://www.kusatsu-gh.or.jp/ghk/",
    "pref": "滋賀県",
    "city": "草津市",
    "category": "care_medical_institute",
    "serviceType": "介護医療院",
    "capacity": 0,
    "openDays": [],
    "openDaysNote": ""
  },
  {
    "id": "25B0500014",
    "name": "近江温泉病院介護医療院",
    "kana": "オウミオンセンビョウインカイゴイリョウイン",
    "address": "滋賀県東近江市北坂町966近江温泉病院 近江温泉病院",
    "lat": 35.1321583,
    "lng": 136.2752349,
    "tel": "0749-46-1125",
    "url": "http://www.oumi-hp.or.jp",
    "pref": "滋賀県",
    "city": "東近江市",
    "category": "care_medical_institute",
    "serviceType": "介護医療院",
    "capacity": 0,
    "openDays": [],
    "openDaysNote": ""
  },
  {
    "id": "25B0200011",
    "name": "彦根中央介護医療院",
    "kana": "ヒコネチュウオウカイゴイリョウイン",
    "address": "滋賀県彦根市西今町421",
    "lat": 35.2488835,
    "lng": 136.2411178,
    "tel": "0749-23-1211",
    "url": "https://www.hikone.or.jp/",
    "pref": "滋賀県",
    "city": "彦根市",
    "category": "care_medical_institute",
    "serviceType": "介護医療院",
    "capacity": 0,
    "openDays": [],
    "openDaysNote": ""
  }
]