[
  {
    "id": "43B1400014",
    "name": "大阿蘇病院　介護医療院",
    "kana": "オオアソビョウイン　カイゴイリョウイン",
    "address": "熊本県阿蘇市一の宮町宮地5833番地",
    "lat": 32.9330641,
    "lng": 131.1117041,
    "tel": "0967-22-2111",
    "url": "http://www.daitokukai.info/",
    "pref": "熊本県",
    "city": "阿蘇市",
    "category": "care_medical_institute",
    "serviceType": "介護医療院",
    "capacity": null,
    "openDays": [],
    "openDaysNote": ""
  },
  {
    "id": "43B3000010",
    "name": "介護医療院篠原医院",
    "kana": "カイゴイリョウインシノハライイン",
    "address": "熊本県葦北郡芦北町佐敷３７０番地１",
    "lat": 32.3061181,
    "lng": 130.5032937,
    "tel": "0966-82-2046",
    "url": "",
    "pref": "熊本県",
    "city": "芦北町",
    "category": "care_medical_institute",
    "serviceType": "介護医療院",
    "capacity": 0,
    "openDays": [],
    "openDaysNote": ""
  },
  {
    "id": "43B1300024",
    "name": "みずたみ医院　介護医療院",
    "kana": "ミズタミイイン　カイゴイリョウイン",
    "address": "熊本県宇城市松橋町竹崎1115-32",
    "lat": 32.6281796,
    "lng": 130.7099905,
    "tel": "0964-32-3372",
    "url": "",
    "pref": "熊本県",
    "city": "宇城市",
    "category": "care_medical_institute",
    "serviceType": "介護医療院",
    "capacity": 19,
    "openDays": [],
    "openDaysNote": ""
  },
  {
    "id": "43B1300016",
    "name": "桜十字熊本宇城病院介護医療院",
    "kana": "サクラジュウジクマモトウキビョウインカイゴイリョウイン",
    "address": "熊本県宇城市小川町北新田5",
    "lat": 32.5983078220676,
    "lng": 130.704534547476,
    "tel": "0964-43-5566",
    "url": "https://www.sj-kumamoto-uki.jp/",
    "pref": "熊本県",
    "city": "宇城市",
    "category": "care_medical_institute",
    "serviceType": "介護医療院",
    "capacity": 0,
    "openDays": [],
    "openDaysNote": ""
  },
  {
    "id": "43B2800022",
    "name": "西村病院介護医療院",
    "kana": "ニシムラビョウインカイゴイリョウイン",
    "address": "熊本県上益城郡嘉島町北甘木2083番地",
    "lat": 32.7481804,
    "lng": 130.7707198,
    "tel": "096-237-1551",
    "url": "",
    "pref": "熊本県",
    "city": "嘉島町",
    "category": "care_medical_institute",
    "serviceType": "介護医療院",
    "capacity": 0,
    "openDays": [],
    "openDaysNote": ""
  },
  {
    "id": "43B1000020",
    "name": "介護医療院　菊池中央病院",
    "kana": "カイゴイリョウイン　キクチチュウオウビョウイン",
    "address": "熊本県菊池市隈府４９４番地菊池中央病院４階 菊池中央病院４階",
    "lat": 32.9796292,
    "lng": 130.8069205,
    "tel": "0968-25-3141",
    "url": "http://www.nobuokakai@ecnet.jp",
    "pref": "熊本県",
    "city": "菊池市",
    "category": "care_medical_institute",
    "serviceType": "介護医療院",
    "capacity": 0,
    "openDays": [],
    "openDaysNote": ""
  },
  {
    "id": "43B2600018",
    "name": "菊陽台病院介護医療院",
    "kana": "キクヨウダイビョウインカイゴイリョウイン",
    "address": "熊本県菊池郡菊陽町久保田2984",
    "lat": 32.8615860269213,
    "lng": 130.833954203041,
    "tel": "096-232-1191",
    "url": "https://www.kikuyodai-hospital.com/",
    "pref": "熊本県",
    "city": "菊陽町",
    "category": "care_medical_institute",
    "serviceType": "介護医療院",
    "capacity": null,
    "openDays": [],
    "openDaysNote": ""
  },
  {
    "id": "43B0600010",
    "name": "介護医療院　ゆうきの里",
    "kana": "カイゴイリョウイン　ユウキノサト",
    "address": "熊本県玉名市上小田1063番地",
    "lat": 32.9517825,
    "lng": 130.5868365,
    "tel": "0968-74-1131",
    "url": "http://www.yukikai.or.jp",
    "pref": "熊本県",
    "city": "玉名市",
    "category": "care_medical_institute",
    "serviceType": "介護医療院",
    "capacity": 0,
    "openDays": [],
    "openDaysNote": ""
  },
  {
    "id": "43B0100177",
    "name": "みこころ介護医療院",
    "kana": "ミココロカイゴイリョウイン",
    "address": "熊本県熊本市西区上熊本2丁目１１－２４",
    "lat": 32.812944,
    "lng": 130.6999328,
    "tel": "096-352-7181",
    "url": "https://www.mikokorohp.com/",
    "pref": "熊本県",
    "city": "熊本市西区",
    "category": "care_medical_institute",
    "serviceType": "介護医療院",
    "capacity": 0,
    "openDays": [],
    "openDaysNote": ""
  },
  {
    "id": "43B0100144",
    "name": "介護医療院せいじの",
    "kana": "カイゴイリョウインセイジノ",
    "address": "熊本市西区島崎2丁目22番15号",
    "lat": 32.8078753,
    "lng": 130.6917044,
    "tel": "096-354-1731",
    "url": "https://www.seijino.or.jp/",
    "pref": "熊本県",
    "city": "熊本市西区",
    "category": "care_medical_institute",
    "serviceType": "介護医療院",
    "capacity": 0,
    "openDays": [],
    "openDaysNote": ""
  },
  {
    "id": "43B0100136",
    "name": "末次介護医療院",
    "kana": "スエツグカイゴイリョウイン",
    "address": "熊本県熊本市西区上高橋２丁目１３番６号",
    "lat": 32.7861854,
    "lng": 130.6565289,
    "tel": "096-329-4755",
    "url": "https://suetsugu-naika.com",
    "pref": "熊本県",
    "city": "熊本市西区",
    "category": "care_medical_institute",
    "serviceType": "介護医療院",
    "capacity": null,
    "openDays": [],
    "openDaysNote": ""
  },
  {
    "id": "43B0100219",
    "name": "九州記念病院介護医療院",
    "kana": "キュウシュウキネンビョウインカイゴイリョウイン",
    "address": "水前寺公園3-38",
    "lat": 32.7909603,
    "lng": 130.7316985,
    "tel": "096-383-2121",
    "url": "htttp://kkh.jp/",
    "pref": "熊本県",
    "city": "熊本市中央区",
    "category": "care_medical_institute",
    "serviceType": "介護医療院",
    "capacity": null,
    "openDays": [],
    "openDaysNote": ""
  },
  {
    "id": "43B0100185",
    "name": "表参道吉田病院　介護医療院",
    "kana": "オモテサンドウヨシダビョウイン　カイゴイリョウイン",
    "address": "熊本市中央区北千反畑町2-5",
    "lat": 32.809054,
    "lng": 130.7160265,
    "tel": "096-343-6161",
    "url": "http：//www.kiseikai.or.jp",
    "pref": "熊本県",
    "city": "熊本市中央区",
    "category": "care_medical_institute",
    "serviceType": "介護医療院",
    "capacity": 0,
    "openDays": [],
    "openDaysNote": ""
  },
  {
    "id": "43B0100011",
    "name": "介護医療院　くまもと成仁病院",
    "kana": "カイゴイリョウイン　クマモトセイジンビョウイン",
    "address": "熊本県熊本市東区戸島2丁目3番15号",
    "lat": 32.8167306,
    "lng": 130.7928578,
    "tel": "096-380-7011",
    "url": "http://seijin-kumamoto.or.jp",
    "pref": "熊本県",
    "city": "熊本市東区",
    "category": "care_medical_institute",
    "serviceType": "介護医療院",
    "capacity": 0,
    "openDays": [],
    "openDaysNote": ""
  },
  {
    "id": "43B0100029",
    "name": "介護医療院心ほか",
    "kana": "カイゴイリョウインシンホカ",
    "address": "新外3丁目9番1号",
    "lat": 32.7979225,
    "lng": 130.7631968,
    "tel": "096-285-6225",
    "url": "http://www.honjyo-hp.jp",
    "pref": "熊本県",
    "city": "熊本市東区",
    "category": "care_medical_institute",
    "serviceType": "介護医療院",
    "capacity": 29,
    "openDays": [],
    "openDaysNote": ""
  },
  {
    "id": "43B0100102",
    "name": "悠愛病院　介護医療院",
    "kana": "ユウアイビョウイン　カイゴイリョウイン",
    "address": "画図町下無田1139",
    "lat": 32.756733,
    "lng": 130.734993,
    "tel": "096-378-3355",
    "url": "https://www.yuuaihospital.com",
    "pref": "熊本県",
    "city": "熊本市東区",
    "category": "care_medical_institute",
    "serviceType": "介護医療院",
    "capacity": null,
    "openDays": [],
    "openDaysNote": ""
  },
  {
    "id": "43B0100045",
    "name": "介護医療院　ゆずりは",
    "kana": "カイゴイリョウイン　ユズリハ",
    "address": "熊本県熊本市南区城南町高1099番地",
    "lat": 32.7341937,
    "lng": 130.7083876,
    "tel": "0964-28-6311",
    "url": "http://yuzuriha-k.or.jp/",
    "pref": "熊本県",
    "city": "熊本市南区",
    "category": "care_medical_institute",
    "serviceType": "介護医療院",
    "capacity": 72,
    "openDays": [],
    "openDaysNote": ""
  },
  {
    "id": "43B0100128",
    "name": "介護医療院あきた",
    "kana": "カイゴイリョウインアキタ",
    "address": "熊本県熊本市南区会富町１１２０",
    "lat": 32.7526808,
    "lng": 130.6536484,
    "tel": "096-227-1611",
    "url": "http://www.akita-hospital.or.jp",
    "pref": "熊本県",
    "city": "熊本市南区",
    "category": "care_medical_institute",
    "serviceType": "介護医療院",
    "capacity": 0,
    "openDays": [],
    "openDaysNote": ""
  },
  {
    "id": "43B0100151",
    "name": "小林病院　介護医療院",
    "kana": "コバヤシビョウイン　カイゴイリョウイン",
    "address": "熊本県熊本市南区城南町隈庄574",
    "lat": 32.7037725787081,
    "lng": 130.729223544844,
    "tel": "0964-28-2025",
    "url": "http://www.k-group.jp/kobayashihp/index.html",
    "pref": "熊本県",
    "city": "熊本市南区",
    "category": "care_medical_institute",
    "serviceType": "介護医療院",
    "capacity": 0,
    "openDays": [],
    "openDaysNote": ""
  },
  {
    "id": "43B0100193",
    "name": "くまもと成城介護医療院",
    "kana": "クマモトセイジョウカイゴイリョウイン",
    "address": "熊本市北区室園町10番17号",
    "lat": 32.8236548,
    "lng": 130.723263,
    "tel": "096-344-3311",
    "url": "https://www.k-seijo.or.jp/",
    "pref": "熊本県",
    "city": "熊本市北区",
    "category": "care_medical_institute",
    "serviceType": "介護医療院",
    "capacity": 0,
    "openDays": [],
    "openDaysNote": ""
  },
  {
    "id": "43B0100086",
    "name": "介護医療院　ひらた苑",
    "kana": "カイゴイリョウイン　ヒラタエン",
    "address": "熊本県熊本市北区植木町平原２２１番地",
    "lat": 32.921963,
    "lng": 130.6544313,
    "tel": "096-272-5486",
    "url": "https://www.touyoukai.com/hirataen",
    "pref": "熊本県",
    "city": "熊本市北区",
    "category": "care_medical_institute",
    "serviceType": "介護医療院",
    "capacity": null,
    "openDays": [],
    "openDaysNote": ""
  },
  {
    "id": "43B0100078",
    "name": "介護医療院はくあい",
    "kana": "カイゴイリョウインハクアイ",
    "address": "熊本県熊本市北区楠６丁目６番６０号",
    "lat": 32.8505536,
    "lng": 130.7630084,
    "tel": "096-338-7117",
    "url": "uenokai.com/kaigo.html",
    "pref": "熊本県",
    "city": "熊本市北区",
    "category": "care_medical_institute",
    "serviceType": "介護医療院",
    "capacity": null,
    "openDays": [],
    "openDaysNote": ""
  },
  {
    "id": "43B0100060",
    "name": "菊南病院介護医療院",
    "kana": "キクナンビョウイン　カイゴイリョウイン",
    "address": "熊本県熊本市北区鶴羽田3丁目1-53",
    "lat": 32.8588318,
    "lng": 130.7268667,
    "tel": "096-344-1711",
    "url": "http://www.kikunan-hospital.com",
    "pref": "熊本県",
    "city": "熊本市北区",
    "category": "care_medical_institute",
    "serviceType": "介護医療院",
    "capacity": null,
    "openDays": [],
    "openDaysNote": ""
  },
  {
    "id": "43B0100169",
    "name": "橋本整形外科内科　介護医療院",
    "kana": "ハシモトセイケイゲカナイカ　カイゴイリョウイン",
    "address": "熊本県熊本市北区改寄町2380-5",
    "lat": 32.8951722,
    "lng": 130.6926637,
    "tel": "096-272-0052",
    "url": "https：//hashimotoseikei.com/",
    "pref": "熊本県",
    "city": "熊本市北区",
    "category": "care_medical_institute",
    "serviceType": "介護医療院",
    "capacity": null,
    "openDays": [],
    "openDaysNote": ""
  },
  {
    "id": "43B0100094",
    "name": "寺尾病院介護医療院",
    "kana": "テラオビョウインカイゴイリョウイン",
    "address": "熊本市北区小糸山町759",
    "lat": 32.8928989420226,
    "lng": 130.693310320902,
    "tel": "096-272-0601",
    "url": "http://www.terao.or.jp",
    "pref": "熊本県",
    "city": "熊本市北区",
    "category": "care_medical_institute",
    "serviceType": "介護医療院",
    "capacity": 42,
    "openDays": [],
    "openDaysNote": ""
  },
  {
    "id": "43B0100110",
    "name": "八景水谷クリニック介護医療院",
    "kana": "ハケミヤクリニックカイゴイリョウイン",
    "address": "熊本県熊本市北区八景水谷1丁目31番16号",
    "lat": 32.8506669,
    "lng": 130.7249752,
    "tel": "096-344-8811",
    "url": "http://www.hakemiya.com/dr.html",
    "pref": "熊本県",
    "city": "熊本市北区",
    "category": "care_medical_institute",
    "serviceType": "介護医療院",
    "capacity": null,
    "openDays": [],
    "openDaysNote": ""
  },
  {
    "id": "43B2800030",
    "name": "荒瀬病院介護医療院",
    "kana": "アラセビョウインカイゴイリョウイン",
    "address": "熊本県上益城郡甲佐町緑町３３１",
    "lat": 32.6490579,
    "lng": 130.8088581,
    "tel": "０９６－２３４－１１６１",
    "url": "www.arase-hp.com",
    "pref": "熊本県",
    "city": "甲佐町",
    "category": "care_medical_institute",
    "serviceType": "介護医療院",
    "capacity": null,
    "openDays": [],
    "openDaysNote": ""
  },
  {
    "id": "43B2800014",
    "name": "谷田病院介護医療院",
    "kana": "ヤツダビョウインカイゴイリョウイン",
    "address": "熊本県上益城郡甲佐町岩下１２３",
    "lat": 32.6509365,
    "lng": 130.810163,
    "tel": "096-234-1248",
    "url": "https://www.yatsuda-kai.jp/",
    "pref": "熊本県",
    "city": "甲佐町",
    "category": "care_medical_institute",
    "serviceType": "介護医療院",
    "capacity": 0,
    "openDays": [],
    "openDaysNote": ""
  },
  {
    "id": "43B0400023",
    "name": "ふれあいクリニック介護医療院",
    "kana": "フレアイクリニックカイゴイリョウイン",
    "address": "熊本県荒尾市川登1761-24",
    "lat": 32.986737,
    "lng": 130.4330435,
    "tel": "0968-68-6565",
    "url": "",
    "pref": "熊本県",
    "city": "荒尾市",
    "category": "care_medical_institute",
    "serviceType": "介護医療院",
    "capacity": null,
    "openDays": [],
    "openDaysNote": ""
  },
  {
    "id": "43B0400015",
    "name": "荒尾中央病院介護医療院",
    "kana": "アラオチュウオウビョウインカイゴイリョウイン",
    "address": "熊本県荒尾市増永1544番地1",
    "lat": 32.9730825,
    "lng": 130.4408894,
    "tel": "0968-64-1333",
    "url": "https://www.senshinkai.or.jp/chuoh/",
    "pref": "熊本県",
    "city": "荒尾市",
    "category": "care_medical_institute",
    "serviceType": "介護医療院",
    "capacity": 0,
    "openDays": [],
    "openDaysNote": ""
  },
  {
    "id": "43B1600019",
    "name": "介護医療院　平瀬内科医院",
    "kana": "カイゴイリョウイン　ヒラセナイカイイン",
    "address": "熊本県合志市幾久富1909-227",
    "lat": 32.8640193,
    "lng": 130.7678349,
    "tel": "096-248-5227",
    "url": "https://hirase.clinic/",
    "pref": "熊本県",
    "city": "合志市",
    "category": "care_medical_institute",
    "serviceType": "介護医療院",
    "capacity": null,
    "openDays": [],
    "openDaysNote": ""
  },
  {
    "id": "43B0800016",
    "name": "医療法人至誠会保利病院介護医療院",
    "kana": "イリョウホウジンシセイカイホリビョウインカイゴイリョウイン",
    "address": "熊本県山鹿市古閑984保利病院介護医療院　225号室・226号室 保利病院介護医療院　225号室・226号室",
    "lat": 33.0095489,
    "lng": 130.7170452,
    "tel": "0968-43-1212",
    "url": "ｈｏｒｉ－ｈｐ＠ｉｓｉｓ．ｏｃｎ．ｎｅ．ｊｐ",
    "pref": "熊本県",
    "city": "山鹿市",
    "category": "care_medical_institute",
    "serviceType": "介護医療院",
    "capacity": 0,
    "openDays": [],
    "openDaysNote": ""
  },
  {
    "id": "43B2800048",
    "name": "瀬戸病院介護医療院",
    "kana": "セトビョウインカイゴイリョウイン",
    "address": "上益城郡山都町北中島2806",
    "lat": 32.7353892,
    "lng": 130.9366675,
    "tel": "0967-75-0111",
    "url": "https://www.seto-hosp.or.jp/",
    "pref": "熊本県",
    "city": "山都町",
    "category": "care_medical_institute",
    "serviceType": "介護医療院",
    "capacity": 0,
    "openDays": [],
    "openDaysNote": ""
  },
  {
    "id": "43B2800055",
    "name": "浜町中央介護医療院",
    "kana": "ハママチチュウオウカイゴイリョウイン",
    "address": "熊本県上益城郡山都町浜町167番地",
    "lat": 32.6838844,
    "lng": 130.9872942,
    "tel": "0967-72-0029",
    "url": "",
    "pref": "熊本県",
    "city": "山都町",
    "category": "care_medical_institute",
    "serviceType": "介護医療院",
    "capacity": null,
    "openDays": [],
    "openDaysNote": ""
  },
  {
    "id": "43B1200018",
    "name": "宮﨑外科胃腸科医院介護医療院",
    "kana": "ミヤザキゲカイチョウカイインカイゴイリョウイン",
    "address": "熊本県上天草市大矢野町上1519",
    "lat": 32.5865016,
    "lng": 130.4304267,
    "tel": "0964-56-0600",
    "url": "http://www.miyazaki-gekaichoka-iin.com",
    "pref": "熊本県",
    "city": "上天草市",
    "category": "care_medical_institute",
    "serviceType": "介護医療院",
    "capacity": 0,
    "openDays": [],
    "openDaysNote": ""
  },
  {
    "id": "43B0300025",
    "name": "医療法人蘇春堂　球磨病院介護医療院",
    "kana": "イリョウホウジンソシュンドウ　クマビョウインカイゴイリョウイン",
    "address": "上青井町170-1",
    "lat": 32.2131535,
    "lng": 130.756796,
    "tel": "0966-24-2854",
    "url": "http://www.soshundo.jp/hitoyoshi/",
    "pref": "熊本県",
    "city": "人吉市",
    "category": "care_medical_institute",
    "serviceType": "介護医療院",
    "capacity": null,
    "openDays": [],
    "openDaysNote": ""
  },
  {
    "id": "43B0300041",
    "name": "介護医療院　人吉リハビリテーション病院",
    "kana": "カイゴイリョウイン　ヒトヨシリハビリテーションビョウイン",
    "address": "熊本県人吉市下新町359番地",
    "lat": 32.2151457,
    "lng": 130.7690048,
    "tel": "966246111",
    "url": "http://oyakuen-g.or.jp",
    "pref": "熊本県",
    "city": "人吉市",
    "category": "care_medical_institute",
    "serviceType": "介護医療院",
    "capacity": 18,
    "openDays": [],
    "openDaysNote": ""
  },
  {
    "id": "43B0300017",
    "name": "外山胃腸病院　介護医療院",
    "kana": "トヤマイチョウビョウイン　カイゴイリョウイン",
    "address": "熊本県人吉市南泉田町1番地",
    "lat": 32.217871,
    "lng": 130.7607142,
    "tel": "0966-22-4818",
    "url": "http://www.gh-toyama.or.jp/",
    "pref": "熊本県",
    "city": "人吉市",
    "category": "care_medical_institute",
    "serviceType": "介護医療院",
    "capacity": 0,
    "openDays": [],
    "openDaysNote": ""
  },
  {
    "id": "43B0500038",
    "name": "岡部病院　介護医療院",
    "kana": "オカベビョウイン　カイゴイリョウイン",
    "address": "熊本県水俣市桜井町3丁目3番3号",
    "lat": 32.2075629,
    "lng": 130.3984134,
    "tel": "0966-63-3311",
    "url": "http://www.okabehospital.jp/",
    "pref": "熊本県",
    "city": "水俣市",
    "category": "care_medical_institute",
    "serviceType": "介護医療院",
    "capacity": null,
    "openDays": [],
    "openDaysNote": ""
  },
  {
    "id": "43B0500012",
    "name": "介護医療院ふちがみ",
    "kana": "カイゴイリョウインフチガミ",
    "address": "熊本県水俣市塩浜町2番19号渕上病院 渕上病院",
    "lat": 32.212527,
    "lng": 130.3948298,
    "tel": "0966-63-6551",
    "url": "https://www.sue-hirokai.com",
    "pref": "熊本県",
    "city": "水俣市",
    "category": "care_medical_institute",
    "serviceType": "介護医療院",
    "capacity": 0,
    "openDays": [],
    "openDaysNote": ""
  },
  {
    "id": "43B0500020",
    "name": "白梅病院介護医療院",
    "kana": "シラウメビョウインカイゴイリョウイン",
    "address": "熊本県水俣市浜4089番地1白梅病院3階 白梅病院3階",
    "lat": 32.2302275,
    "lng": 130.4132273,
    "tel": "0966-63-7575",
    "url": "http://www.kaigocsc.co.jp/shiraume/hospital/",
    "pref": "熊本県",
    "city": "水俣市",
    "category": "care_medical_institute",
    "serviceType": "介護医療院",
    "capacity": 60,
    "openDays": [],
    "openDaysNote": ""
  },
  {
    "id": "43B2400021",
    "name": "ながすクリニック　介護医療院",
    "kana": "ナガスクリニック　カイゴイリョウイン",
    "address": "熊本県玉名郡長洲町長洲1354番地",
    "lat": 32.9330502,
    "lng": 130.445385,
    "tel": "0968-78-0527",
    "url": "",
    "pref": "熊本県",
    "city": "長洲町",
    "category": "care_medical_institute",
    "serviceType": "介護医療院",
    "capacity": 15,
    "openDays": [],
    "openDaysNote": ""
  },
  {
    "id": "43B2400013",
    "name": "介護医療院せいわの里",
    "kana": "カイゴイリョウインセイワノサト",
    "address": "熊本県玉名郡長洲町宮野2775番地",
    "lat": 32.9508208,
    "lng": 130.4930242,
    "tel": "0968-78-1133",
    "url": "http://www.ariakeseijin.or.jp",
    "pref": "熊本県",
    "city": "長洲町",
    "category": "care_medical_institute",
    "serviceType": "介護医療院",
    "capacity": null,
    "openDays": [],
    "openDaysNote": ""
  },
  {
    "id": "43B1500011",
    "name": "ニュー天草病院介護医療院",
    "kana": "ニューアマクサビョウインカイゴイリョウイン",
    "address": "熊本県天草市太田町2番地1",
    "lat": 32.4491328,
    "lng": 130.198721,
    "tel": "0969－22－3191",
    "url": "http://newamakusa-hospital.com/",
    "pref": "熊本県",
    "city": "天草市",
    "category": "care_medical_institute",
    "serviceType": "介護医療院",
    "capacity": 48,
    "openDays": [],
    "openDaysNote": ""
  },
  {
    "id": "43B1500029",
    "name": "介護医療院　松本内科・眼科",
    "kana": "カイゴイリョウイン　マツモトナイカ・ガンカ",
    "address": "熊本県天草市久玉町５７１６－６",
    "lat": 32.2137431,
    "lng": 130.0278767,
    "tel": "0969-72-2833",
    "url": "http://www.matsumotonaikaganka.jp/",
    "pref": "熊本県",
    "city": "天草市",
    "category": "care_medical_institute",
    "serviceType": "介護医療院",
    "capacity": null,
    "openDays": [],
    "openDaysNote": ""
  },
  {
    "id": "43B1500052",
    "name": "介護医療院小松医院",
    "kana": "カイゴイリョウインコマツイイン",
    "address": "熊本県天草市牛深町1498番地27",
    "lat": 32.202516,
    "lng": 130.0314542,
    "tel": "0969-72-6111",
    "url": "",
    "pref": "熊本県",
    "city": "天草市",
    "category": "care_medical_institute",
    "serviceType": "介護医療院",
    "capacity": null,
    "openDays": [],
    "openDaysNote": ""
  },
  {
    "id": "43B1500045",
    "name": "中邑医院介護医療院",
    "kana": "ナカムライインカイゴイリョウイン",
    "address": "熊本県天草市久玉町1411番地133",
    "lat": 32.21659,
    "lng": 130.0329256,
    "tel": "0969-74-0370",
    "url": "",
    "pref": "熊本県",
    "city": "天草市",
    "category": "care_medical_institute",
    "serviceType": "介護医療院",
    "capacity": 0,
    "openDays": [],
    "openDaysNote": ""
  },
  {
    "id": "43B1500037",
    "name": "福本病院　介護医療院",
    "kana": "フクモトビョウイン　カイゴイリョウイン",
    "address": "熊本県天草市牛深町1522-46",
    "lat": 32.2005272,
    "lng": 130.0302209,
    "tel": "0969-73-3131",
    "url": "",
    "pref": "熊本県",
    "city": "天草市",
    "category": "care_medical_institute",
    "serviceType": "介護医療院",
    "capacity": 40,
    "openDays": [],
    "openDaysNote": ""
  },
  {
    "id": "43B0200019",
    "name": "八代敬仁病院　介護医療院",
    "kana": "ヤツシロケイジンビョウイン　カイゴイリョウイン",
    "address": "熊本県八代市海士江町2817番地",
    "lat": 32.524344,
    "lng": 130.6227786,
    "tel": "0965-34-7911",
    "url": "http://www.yatsushirokeijin.com",
    "pref": "熊本県",
    "city": "八代市",
    "category": "care_medical_institute",
    "serviceType": "介護医療院",
    "capacity": 0,
    "openDays": [],
    "openDaysNote": ""
  },
  {
    "id": "43B0200027",
    "name": "平成病院介護医療院",
    "kana": "ヘイセイビョウインカイゴイリョウイン",
    "address": "熊本県八代市大村町720-1",
    "lat": 32.5145181715213,
    "lng": 130.617277737959,
    "tel": "0965-32-8171",
    "url": "https://heiseikai-k.or.jp/kaigoiryo",
    "pref": "熊本県",
    "city": "八代市",
    "category": "care_medical_institute",
    "serviceType": "介護医療院",
    "capacity": null,
    "openDays": [],
    "openDaysNote": ""
  },
  {
    "id": "43B2300031",
    "name": "くまもと温石病院　介護医療院",
    "kana": "クマモトオンジャクビョウイン　カイゴイリョウイン",
    "address": "熊本県下益城郡美里町中小路835",
    "lat": 32.6405481,
    "lng": 130.7792757,
    "tel": "0964-46-3000",
    "url": "http://www.onjaku.jp",
    "pref": "熊本県",
    "city": "美里町",
    "category": "care_medical_institute",
    "serviceType": "介護医療院",
    "capacity": null,
    "openDays": [],
    "openDaysNote": ""
  },
  {
    "id": "43B2300023",
    "name": "介護医療院間部病院",
    "kana": "カイゴイリョウインマベビョウイン",
    "address": "熊本県下益城郡美里町永富328",
    "lat": 32.618009,
    "lng": 130.8586315,
    "tel": "0964-47-0032",
    "url": "http://www.mabe-hosp.jp",
    "pref": "熊本県",
    "city": "美里町",
    "category": "care_medical_institute",
    "serviceType": "介護医療院",
    "capacity": null,
    "openDays": [],
    "openDaysNote": ""
  },
  {
    "id": "43B2300015",
    "name": "美里リハビリテーション病院介護医療院",
    "kana": "ミサトリハビリテーションビョウインカイゴイリョウイン",
    "address": "熊本県下益城郡美里町洞岳1308番地",
    "lat": 32.6351358,
    "lng": 130.9224476,
    "tel": "0964-48-0211",
    "url": "hospital@misato-riha.jp",
    "pref": "熊本県",
    "city": "美里町",
    "category": "care_medical_institute",
    "serviceType": "介護医療院",
    "capacity": null,
    "openDays": [],
    "openDaysNote": ""
  },
  {
    "id": "43B3200016",
    "name": "天草慈恵病院　介護医療院",
    "kana": "アマクサジケイビョウイン　カイゴイリョウイン",
    "address": "熊本県天草郡苓北町上津深江278-10",
    "lat": 32.5177206744106,
    "lng": 130.068016897428,
    "tel": "0969-37-1111",
    "url": "http://www.inahokai.com/",
    "pref": "熊本県",
    "city": "苓北町",
    "category": "care_medical_institute",
    "serviceType": "介護医療院",
    "capacity": 0,
    "openDays": [],
    "openDaysNote": ""
  }
]