[
  {
    "id": "17B2100011",
    "name": "二ツ屋病院　介護医療院",
    "kana": "フタツヤビョウイン　カイゴイリョウイン",
    "address": "石川県かほく市二ツ屋ソ７２",
    "lat": 36.7846775,
    "lng": 136.7385139,
    "tel": "076-281-0172",
    "url": "http://www.futatsuya-hp.jp/",
    "pref": "石川県",
    "city": "かほく市",
    "category": "care_medical_institute",
    "serviceType": "介護医療院",
    "capacity": 0,
    "openDays": [],
    "openDaysNote": ""
  },
  {
    "id": "17B0600020",
    "name": "加賀温泉ケアセンター",
    "kana": "カガオンセンケアセンター",
    "address": "石川県加賀市直下町ヲ91番地",
    "lat": 36.2770376,
    "lng": 136.3275591,
    "tel": "0761-73-3315",
    "url": "https://www.jihoukai.or.jp/carecenter/",
    "pref": "石川県",
    "city": "加賀市",
    "category": "care_medical_institute",
    "serviceType": "介護医療院",
    "capacity": 0,
    "openDays": [],
    "openDaysNote": ""
  },
  {
    "id": "17B0600012",
    "name": "介護医療院　まごころ",
    "kana": "カイゴイリョウイン　マゴコロ",
    "address": "石川県加賀市大聖寺永町イ17番地久藤総合病院5階 久藤総合病院5階",
    "lat": 36.3078389,
    "lng": 136.3200677,
    "tel": "0761-75-7013",
    "url": "https://www.jihoukai.or.jp/magokoro/",
    "pref": "石川県",
    "city": "加賀市",
    "category": "care_medical_institute",
    "serviceType": "介護医療院",
    "capacity": null,
    "openDays": [],
    "openDaysNote": ""
  },
  {
    "id": "17B0100054",
    "name": "医療法人社団　白銀会　林病院",
    "kana": "イリョウホウジンシャダン　シロガネカイ　ハヤシビョウイン",
    "address": "石川県金沢市本町1丁目2番27号",
    "lat": 36.5745092,
    "lng": 136.6517777,
    "tel": "076-261-8181",
    "url": "https://hayashibyouin.or.jp/",
    "pref": "石川県",
    "city": "金沢市",
    "category": "care_medical_institute",
    "serviceType": "介護医療院",
    "capacity": null,
    "openDays": [],
    "openDaysNote": ""
  },
  {
    "id": "17B0100013",
    "name": "医療法人社団　和宏会　敬愛病院　介護医療院",
    "kana": "イリョウホウジンシャダン　ワコウカイ　ケイアイビョウイン　カイゴイリョウイン",
    "address": "石川県金沢市兼六元町14番21号",
    "lat": 36.5652819,
    "lng": 136.667378,
    "tel": "076-222-1301",
    "url": "http://www.keiai-hosp.jp/",
    "pref": "石川県",
    "city": "金沢市",
    "category": "care_medical_institute",
    "serviceType": "介護医療院",
    "capacity": null,
    "openDays": [],
    "openDaysNote": ""
  },
  {
    "id": "17B0100047",
    "name": "医療法人社団浅ノ川　千木病院介護医療院",
    "kana": "イリョウホウジンシャダンアワノガワ　センギビョウインカイゴイリョウイン",
    "address": "金沢市千木町へ33番地1",
    "lat": 36.6113094264128,
    "lng": 136.672927906746,
    "tel": "076-257-8600",
    "url": "http://www.sengi-hp.jp",
    "pref": "石川県",
    "city": "金沢市",
    "category": "care_medical_institute",
    "serviceType": "介護医療院",
    "capacity": 100,
    "openDays": [],
    "openDaysNote": ""
  },
  {
    "id": "17B0100021",
    "name": "医療法人社団和宏会大手町病院　介護医療院",
    "kana": "イ）オオテマチビョウイン　カイゴイリョウイン",
    "address": "大手町5番32号",
    "lat": 36.5686361,
    "lng": 136.662948,
    "tel": "076-221-1863",
    "url": "http://www.ootemachi-hosp.jp./",
    "pref": "石川県",
    "city": "金沢市",
    "category": "care_medical_institute",
    "serviceType": "介護医療院",
    "capacity": 0,
    "openDays": [],
    "openDaysNote": ""
  },
  {
    "id": "17B0100039",
    "name": "小池病院介護医療院",
    "kana": "コイケビョウインカイゴイリョウイン",
    "address": "石川県金沢市大手町８番２０号",
    "lat": 36.5676722,
    "lng": 136.6641949,
    "tel": "076-263-5521",
    "url": "http://www.koike-hospital.jp",
    "pref": "石川県",
    "city": "金沢市",
    "category": "care_medical_institute",
    "serviceType": "介護医療院",
    "capacity": null,
    "openDays": [],
    "openDaysNote": ""
  },
  {
    "id": "17B1700019",
    "name": "介護医療院　恵寿鳩ヶ丘",
    "kana": "カイゴイリョウイン　ケイジュハトガオカ",
    "address": "石川県鳳珠郡穴水町字麦ヶ浦15、39番8",
    "lat": 37.2730729,
    "lng": 136.9211083,
    "tel": "0768-52-3335",
    "url": "http://www.keiju.co.jp/hato/",
    "pref": "石川県",
    "city": "穴水町",
    "category": "care_medical_institute",
    "serviceType": "介護医療院",
    "capacity": 0,
    "openDays": [],
    "openDaysNote": ""
  },
  {
    "id": "17B1500021",
    "name": "介護医療院　悠悠",
    "kana": "カイゴイリョウインユウユウ",
    "address": "羽咋郡志賀町富来領家町ハの30番地",
    "lat": 37.143879,
    "lng": 136.7299329,
    "tel": "0767-42-1151",
    "url": "https://mukai.clinic/",
    "pref": "石川県",
    "city": "志賀町",
    "category": "care_medical_institute",
    "serviceType": "介護医療院",
    "capacity": null,
    "openDays": [],
    "openDaysNote": ""
  },
  {
    "id": "17B1500039",
    "name": "介護医療院笑福",
    "kana": "カイゴイリョウインショウフク",
    "address": "石川県羽咋郡志賀町高浜町ヘの１番地１",
    "lat": 37.0046459260191,
    "lng": 136.770661285844,
    "tel": "0767-32-1251",
    "url": "",
    "pref": "石川県",
    "city": "志賀町",
    "category": "care_medical_institute",
    "serviceType": "介護医療院",
    "capacity": null,
    "openDays": [],
    "openDaysNote": ""
  },
  {
    "id": "17B1500013",
    "name": "町立介護医療院夕なぎ",
    "kana": "チョウリツカイゴイリョウインユウナギ",
    "address": "石川県羽咋郡志賀町富来地頭町7-110-1",
    "lat": 37.1369893,
    "lng": 136.7300161,
    "tel": "0767-42-1122",
    "url": "http://www.town.shika.ishikawa.jp/togihospital/",
    "pref": "石川県",
    "city": "志賀町",
    "category": "care_medical_institute",
    "serviceType": "介護医療院",
    "capacity": 34,
    "openDays": [],
    "openDaysNote": ""
  },
  {
    "id": "17B0210945",
    "name": "浜野介護医療院",
    "kana": "ハマノカイゴイリョウイン",
    "address": "石川県七尾市津向町野中20番1",
    "lat": 37.0632446,
    "lng": 136.9546776,
    "tel": "0767-52-3262",
    "url": "http://www.hamano-hp.or.jp/nishihospital.htm",
    "pref": "石川県",
    "city": "七尾市",
    "category": "care_medical_institute",
    "serviceType": "介護医療院",
    "capacity": null,
    "openDays": [],
    "openDaysNote": ""
  },
  {
    "id": "17B0210937",
    "name": "北村病院介護医療院",
    "kana": "キタムラビョウインカイゴイリョウイン",
    "address": "石川県七尾市御祓町ホ部２６番地の５",
    "lat": 37.043916,
    "lng": 136.963487,
    "tel": "0767-52-1173",
    "url": "http://kitamurahospital.iza-yoi.net/",
    "pref": "石川県",
    "city": "七尾市",
    "category": "care_medical_institute",
    "serviceType": "介護医療院",
    "capacity": 17,
    "openDays": [],
    "openDaysNote": ""
  },
  {
    "id": "17B1700027",
    "name": "柳田温泉病院介護医療院",
    "kana": "ヤナギダオンセンビョウインカイゴイリョウイン",
    "address": "石川県鳳珠郡能登町字上町８字３９３番地",
    "lat": 37.3501492,
    "lng": 137.1111485,
    "tel": "0768-76-1223",
    "url": "https://www.onsenhp.com/",
    "pref": "石川県",
    "city": "能登町",
    "category": "care_medical_institute",
    "serviceType": "介護医療院",
    "capacity": 0,
    "openDays": [],
    "openDaysNote": ""
  },
  {
    "id": "17B2300017",
    "name": "芳珠記念病院　介護医療院　陽だまり",
    "kana": "ホウジュキネンビョウイン　カイゴイリョウイン　ヒダマリ",
    "address": "石川県能美市緑が丘11丁目71番地",
    "lat": 36.4419115,
    "lng": 136.5358871,
    "tel": "0761-51-5551",
    "url": "http://www.houju.or.jp",
    "pref": "石川県",
    "city": "能美市",
    "category": "care_medical_institute",
    "serviceType": "介護医療院",
    "capacity": null,
    "openDays": [],
    "openDaysNote": ""
  }
]