[
  {
    "id": "14B3200011",
    "name": "横浜鶴ヶ峰病院介護医療院",
    "kana": "ヨコハマツルガミネビョウインカイゴイリョウイン",
    "address": "神奈川県横浜市旭区川島町1764番地",
    "lat": 35.4705695,
    "lng": 139.5540237,
    "tel": "045-371-2511",
    "url": "http://www.tsurugaminehospital.com/",
    "pref": "神奈川県",
    "city": "横浜市旭区",
    "category": "care_medical_institute",
    "serviceType": "介護医療院",
    "capacity": null,
    "openDays": [],
    "openDaysNote": ""
  },
  {
    "id": "14B1000017",
    "name": "十慈堂病院介護医療院",
    "kana": "ジュウジドウビョウインカイゴイリョウイン",
    "address": "神奈川県横浜市戸塚区南舞岡1-23-9",
    "lat": 35.3960721,
    "lng": 139.5573198,
    "tel": "045-823-1010",
    "url": "https://www.jujidou.or.jp/",
    "pref": "神奈川県",
    "city": "横浜市戸塚区",
    "category": "care_medical_institute",
    "serviceType": "介護医療院",
    "capacity": null,
    "openDays": [],
    "openDaysNote": ""
  },
  {
    "id": "14B0900019",
    "name": "横浜市総合保健医療センター　介護医療院",
    "kana": "ヨコハマシソウゴウホケンイリョウセンター　カイゴイリョウイン",
    "address": "神奈川県横浜市港北区鳥山町1735",
    "lat": 35.5096357,
    "lng": 139.6090021,
    "tel": "045-475-0001",
    "url": "https://yccc.jp/care/clinic/",
    "pref": "神奈川県",
    "city": "横浜市港北区",
    "category": "care_medical_institute",
    "serviceType": "介護医療院",
    "capacity": null,
    "openDays": [],
    "openDaysNote": ""
  },
  {
    "id": "14B3400017",
    "name": "三ツ境病院介護医療院",
    "kana": "ミツキョウビョウインカイゴイリョウイン",
    "address": "神奈川県横浜市瀬谷区三ツ境２３番地8",
    "lat": 35.4650507,
    "lng": 139.5023085,
    "tel": "045-391-0006",
    "url": "http://www.mitu.or.jp/",
    "pref": "神奈川県",
    "city": "横浜市瀬谷区",
    "category": "care_medical_institute",
    "serviceType": "介護医療院",
    "capacity": 24,
    "openDays": [],
    "openDaysNote": ""
  },
  {
    "id": "14B3300019",
    "name": "医療法人社団元気会横浜病院　介護医療院",
    "kana": "イリョウホウジンシャダンゲンキカイヨコハマビョウイン　カイゴイリョウイン",
    "address": "神奈川県横浜市緑区寺山町７２９",
    "lat": 35.5017957,
    "lng": 139.5419511,
    "tel": "045-933-1011",
    "url": "http://genkikaiyokohama.jp/",
    "pref": "神奈川県",
    "city": "横浜市緑区",
    "category": "care_medical_institute",
    "serviceType": "介護医療院",
    "capacity": 56,
    "openDays": [],
    "openDaysNote": ""
  },
  {
    "id": "14B2400018",
    "name": "介護医療院　湘南の丘",
    "kana": "カイゴイリョウイン　ショウナンノオカ",
    "address": "神奈川県茅ケ崎市赤羽根3685",
    "lat": 35.3528748466541,
    "lng": 139.434060292065,
    "tel": "0467-53-1811",
    "url": "https://www.nagaoka-hp.com/",
    "pref": "神奈川県",
    "city": "茅ヶ崎市",
    "category": "care_medical_institute",
    "serviceType": "介護医療院",
    "capacity": 56,
    "openDays": [],
    "openDaysNote": ""
  },
  {
    "id": "14B4100012",
    "name": "相武台リハビリテーション病院介護医療院",
    "kana": "相武台リハビリテーションビョウインカイゴイリョウイン",
    "address": "神奈川県座間市相武台1-9-7",
    "lat": 35.5059524,
    "lng": 139.4117555,
    "tel": "046-256-5111",
    "url": "https://www.smg-net.com",
    "pref": "神奈川県",
    "city": "座間市",
    "category": "care_medical_institute",
    "serviceType": "介護医療院",
    "capacity": 0,
    "openDays": [],
    "openDaysNote": ""
  },
  {
    "id": "14B2300010",
    "name": "公益財団法人積善会　介護医療院こもれび",
    "kana": "コウエキザイダンホウジンセキゼンカイ　カイゴイリョウインコモレビ",
    "address": "神奈川県小田原市曽我岸148",
    "lat": 35.3028712,
    "lng": 139.1812768,
    "tel": "0465-42-9898",
    "url": "https://soga-hp.com/komorebi/",
    "pref": "神奈川県",
    "city": "小田原市",
    "category": "care_medical_institute",
    "serviceType": "介護医療院",
    "capacity": 0,
    "openDays": [],
    "openDaysNote": ""
  },
  {
    "id": "14B2800019",
    "name": "医療法人社団　三喜会　鶴巻温泉病院介護医療院",
    "kana": "イリョウホウジンシャダン　サンキカイ　ツルマキオンセンビョウインカイゴイリョウイン",
    "address": "神奈川県秦野市鶴巻北1-16-1",
    "lat": 35.3829411,
    "lng": 139.2796656,
    "tel": "0463-78-1311",
    "url": "http://www.sankikai.or.jp/tsurumaki/",
    "pref": "神奈川県",
    "city": "秦野市",
    "category": "care_medical_institute",
    "serviceType": "介護医療院",
    "capacity": 0,
    "openDays": [],
    "openDaysNote": ""
  },
  {
    "id": "14B2600039",
    "name": "田名病院介護医療院",
    "kana": "タナビョウインカイゴイリョウイン",
    "address": "神奈川県相模原市中央区田名塩田３丁目１４番３６号",
    "lat": 35.5308634,
    "lng": 139.3545273,
    "tel": "042-778-3080",
    "url": "https://www.tanabyouin.com",
    "pref": "神奈川県",
    "city": "相模原市中央区",
    "category": "care_medical_institute",
    "serviceType": "介護医療院",
    "capacity": null,
    "openDays": [],
    "openDaysNote": ""
  },
  {
    "id": "14B2600047",
    "name": "医療法人相愛会相愛病院介護医療院",
    "kana": "イリョウホウジンソウアイカイソウアイビョウインカイゴイリョウイン",
    "address": "神奈川県相模原市南区当麻1632",
    "lat": 35.5248828,
    "lng": 139.3749377,
    "tel": "042-778-2111",
    "url": "http://souai-hp.or.jp",
    "pref": "神奈川県",
    "city": "相模原市南区",
    "category": "care_medical_institute",
    "serviceType": "介護医療院",
    "capacity": null,
    "openDays": [],
    "openDaysNote": ""
  },
  {
    "id": "14B2600021",
    "name": "相模原南病院　介護医療院",
    "kana": "サガミハラミナミビョウイン　カイゴイリョウイン",
    "address": "神奈川県相模原市南区大野台7-10-7",
    "lat": 35.5495476,
    "lng": 139.4145966,
    "tel": "042-759-3911",
    "url": "http://minami-h.or.jp/",
    "pref": "神奈川県",
    "city": "相模原市南区",
    "category": "care_medical_institute",
    "serviceType": "介護医療院",
    "capacity": 0,
    "openDays": [],
    "openDaysNote": ""
  },
  {
    "id": "14B2600013",
    "name": "相模原友愛温泉病院　介護医療院",
    "kana": "サガミハラユウアイオンセンビョウイン　カイゴイリョウイン",
    "address": "神奈川県相模原市南区麻溝台697番地",
    "lat": 35.5373501752397,
    "lng": 139.390449652147,
    "tel": "042-778-1181",
    "url": "https://www.yuuai-byouinkai.or.jp/facilities/sagamihara/",
    "pref": "神奈川県",
    "city": "相模原市南区",
    "category": "care_medical_institute",
    "serviceType": "介護医療院",
    "capacity": 89,
    "openDays": [],
    "openDaysNote": ""
  },
  {
    "id": "14B1500024",
    "name": "湯河原中央温泉病院介護医療院",
    "kana": "ユガワラチュウオウオンセンビョウインカイゴイリョウイン",
    "address": "神奈川県足柄下郡湯河原町中央四丁目11番地2",
    "lat": 35.1511355,
    "lng": 139.1120709,
    "tel": "0465-63-2555",
    "url": "https://www.yugawara-hp.com",
    "pref": "神奈川県",
    "city": "湯河原町",
    "category": "care_medical_institute",
    "serviceType": "介護医療院",
    "capacity": 0,
    "openDays": [],
    "openDaysNote": ""
  },
  {
    "id": "14B2200012",
    "name": "湘南長寿園病院　介護医療院",
    "kana": "ショウナンチョウジュエンビョウイン　カイゴイリョウイン",
    "address": "神奈川県藤沢市白旗１丁目１１番１号",
    "lat": 35.3526428,
    "lng": 139.4796351,
    "tel": "0466-82-7311",
    "url": "http://www.chojuen.com",
    "pref": "神奈川県",
    "city": "藤沢市",
    "category": "care_medical_institute",
    "serviceType": "介護医療院",
    "capacity": 60,
    "openDays": [],
    "openDaysNote": ""
  },
  {
    "id": "14B1500016",
    "name": "特定医療法人社団研精会　介護医療院箱根リハビリテーション病院",
    "kana": "トクテイイリョウホウジンシャダンケンセイカイ　カイゴイリョウインハコネリハビリテーションビョウイン",
    "address": "神奈川県足柄下郡箱根町仙石原1285",
    "lat": 35.263786254462,
    "lng": 139.021353853271,
    "tel": "0460-84-9111",
    "url": "https://www.kensei-hakone.com/",
    "pref": "神奈川県",
    "city": "箱根町",
    "category": "care_medical_institute",
    "serviceType": "介護医療院",
    "capacity": null,
    "openDays": [],
    "openDaysNote": ""
  }
]