[
  {
    "id": "18B0300018",
    "name": "介護医療院　今立中央病院",
    "kana": "カイゴイリョウイン　イマダテチュウオウビョウイン",
    "address": "福井県越前市粟田部町33-1一般財団法人　今立中央病院内　併設 一般財団法人　今立中央病院内　併設",
    "lat": 35.9171079,
    "lng": 136.244086,
    "tel": "0778-42-1800",
    "url": "https://www.imadatechuo-hp.com",
    "pref": "福井県",
    "city": "越前市",
    "category": "care_medical_institute",
    "serviceType": "介護医療院",
    "capacity": 0,
    "openDays": [],
    "openDaysNote": ""
  },
  {
    "id": "18B0300026",
    "name": "笠原病院　介護医療院",
    "kana": "カサハラビョウイン　カイゴイリョウイン",
    "address": "福井県越前市塚町２１４番地",
    "lat": 35.9034961,
    "lng": 136.1687173,
    "tel": "0778-23-1155",
    "url": "http://www.kasahara-hosp.or.jp",
    "pref": "福井県",
    "city": "越前市",
    "category": "care_medical_institute",
    "serviceType": "介護医療院",
    "capacity": null,
    "openDays": [],
    "openDaysNote": ""
  },
  {
    "id": "18B0700019",
    "name": "介護医療院　かがやき",
    "kana": "カイゴイリョウイン　カガヤキ",
    "address": "福井県鯖江市旭町4丁目9番10号",
    "lat": 35.9501475,
    "lng": 136.1882406,
    "tel": "0778-51-2755",
    "url": "https://www.jujinkai.or.jp/",
    "pref": "福井県",
    "city": "鯖江市",
    "category": "care_medical_institute",
    "serviceType": "介護医療院",
    "capacity": null,
    "openDays": [],
    "openDaysNote": ""
  },
  {
    "id": "18B0700035",
    "name": "広瀬病院介護医療院サンク",
    "kana": "ヒロセビョウインカイゴイリョウインサンク",
    "address": "福井県鯖江市旭町1-2-8",
    "lat": 35.9438976,
    "lng": 136.1873295,
    "tel": "0778-51-3030",
    "url": "https://www.hirosebyouin.com",
    "pref": "福井県",
    "city": "鯖江市",
    "category": "care_medical_institute",
    "serviceType": "介護医療院",
    "capacity": null,
    "openDays": [],
    "openDaysNote": ""
  },
  {
    "id": "18B0700027",
    "name": "谷川病院介護医療院",
    "kana": "タニカワビョウインカイゴイリョウイン",
    "address": "本町4丁目3番14号",
    "lat": 35.9498910909718,
    "lng": 136.184920647156,
    "tel": "0778-51-4132",
    "url": "",
    "pref": "福井県",
    "city": "鯖江市",
    "category": "care_medical_institute",
    "serviceType": "介護医療院",
    "capacity": 36,
    "openDays": [],
    "openDaysNote": ""
  },
  {
    "id": "18B0400016",
    "name": "田中病院　介護医療院",
    "kana": "タナカビョウイン　カイゴイリョウイン",
    "address": "福井県小浜市遠敷10丁目601番地の1",
    "lat": 35.4852564,
    "lng": 135.77488997791,
    "tel": "0770-56-5353",
    "url": "https://sites.google.com/view/tanakahospital-obama/",
    "pref": "福井県",
    "city": "小浜市",
    "category": "care_medical_institute",
    "serviceType": "介護医療院",
    "capacity": null,
    "openDays": [],
    "openDaysNote": ""
  },
  {
    "id": "18B0500021",
    "name": "介護医療院　キラキラの家",
    "kana": "カイゴイリョウイン　キラキラノイエ",
    "address": "要町1-13",
    "lat": 35.7343722,
    "lng": 139.6995197,
    "tel": "0779-64-4332",
    "url": "",
    "pref": "福井県",
    "city": "大野市",
    "category": "care_medical_institute",
    "serviceType": "介護医療院",
    "capacity": null,
    "openDays": [],
    "openDaysNote": ""
  },
  {
    "id": "18B0500013",
    "name": "介護医療院あかり",
    "kana": "カイゴイリョウインアカリ",
    "address": "福井県大野市明倫町11-2尾崎病院 尾崎病院",
    "lat": 35.9825724,
    "lng": 136.490674,
    "tel": "779663067",
    "url": "",
    "pref": "福井県",
    "city": "大野市",
    "category": "care_medical_institute",
    "serviceType": "介護医療院",
    "capacity": 0,
    "openDays": [],
    "openDaysNote": ""
  },
  {
    "id": "18B0100012",
    "name": "福井リハビリテーション病院介護医療院",
    "kana": "フクイリハビリテーションビョウインカイゴイリョウイン",
    "address": "福井市南楢原町20字大畑2番地",
    "lat": 36.0978243,
    "lng": 136.1798797,
    "tel": "0776-59-1126",
    "url": "http://www.otaki-hp.or.jp/group/fukui-rehabilitation/",
    "pref": "福井県",
    "city": "福井市",
    "category": "care_medical_institute",
    "serviceType": "介護医療院",
    "capacity": null,
    "openDays": [],
    "openDaysNote": ""
  }
]