[
  {
    "id": "40B7300013",
    "name": "筑後川温泉病院介護医療院",
    "kana": "チクゴガワオンセンビョウインカイゴイリョウイン",
    "address": "福岡県うきは市浮羽町古川1055番地筑後川温泉病院 筑後川温泉病院",
    "lat": 33.3577295,
    "lng": 130.8095923,
    "tel": "0943-77-7251",
    "url": "https://www.onsen-hp.or.jp",
    "pref": "福岡県",
    "city": "うきは市",
    "category": "care_medical_institute",
    "serviceType": "介護医療院",
    "capacity": 0,
    "openDays": [],
    "openDaysNote": ""
  },
  {
    "id": "40B2100020",
    "name": "医療法人遊心会大塚病院　大塚病院介護医療院",
    "kana": "イリョウホウジンユウシンカイオオツカビョウイン　オオツカビョウインカイゴイリョウイン",
    "address": "福岡県嘉麻市上山田1440番地7",
    "lat": 33.5581899,
    "lng": 130.7673626,
    "tel": "0948-52-0871",
    "url": "otsuka-hospital.jp",
    "pref": "福岡県",
    "city": "嘉麻市",
    "category": "care_medical_institute",
    "serviceType": "介護医療院",
    "capacity": 48,
    "openDays": [],
    "openDaysNote": ""
  },
  {
    "id": "40B2100012",
    "name": "社会保険稲築病院介護医療院いなつき",
    "kana": "シャカイホケンイナツキビョウインカイゴイリョウインイナツキ",
    "address": "嘉麻市口春７４４番地１",
    "lat": 33.6004446,
    "lng": 130.7134013,
    "tel": "0948-42-1110",
    "url": "",
    "pref": "福岡県",
    "city": "嘉麻市",
    "category": "care_medical_institute",
    "serviceType": "介護医療院",
    "capacity": null,
    "openDays": [],
    "openDaysNote": ""
  },
  {
    "id": "40B1600012",
    "name": "医療法人　十連会　介護医療院　十連",
    "kana": "イリョウホウジン　ジュウレンカイ　カイゴイリョウイン　ジュウレン",
    "address": "福岡県久留米市三瀦町西牟田6557番地89",
    "lat": 33.2525736,
    "lng": 130.4880243,
    "tel": "0942-65-1133",
    "url": "jyuuren.or.jp",
    "pref": "福岡県",
    "city": "久留米市",
    "category": "care_medical_institute",
    "serviceType": "介護医療院",
    "capacity": null,
    "openDays": [],
    "openDaysNote": ""
  },
  {
    "id": "40B1600046",
    "name": "博愛介護医療院",
    "kana": "ハクアイカイゴイリョウイン",
    "address": "福岡県久留米市国分町２２３番地１",
    "lat": 33.294584,
    "lng": 130.540387,
    "tel": "0942-21-4857",
    "url": "http://hakuaikurume.jp",
    "pref": "福岡県",
    "city": "久留米市",
    "category": "care_medical_institute",
    "serviceType": "介護医療院",
    "capacity": null,
    "openDays": [],
    "openDaysNote": ""
  },
  {
    "id": "40B5500010",
    "name": "有吉病院介護医療院",
    "kana": "アリヨシビョウインカイゴイリョウイン",
    "address": "上有木397番地1",
    "lat": 33.7617117521464,
    "lng": 130.623377623279,
    "tel": "0949-34-6077",
    "url": "http://www.ariyoshi-hp.jp/",
    "pref": "福岡県",
    "city": "宮若市",
    "category": "care_medical_institute",
    "serviceType": "介護医療院",
    "capacity": 0,
    "openDays": [],
    "openDaysNote": ""
  },
  {
    "id": "40B5700016",
    "name": "嘉穂信和病院介護医療院",
    "kana": "カホシンワビョウインカイゴイリョウイン",
    "address": "福岡県嘉穂郡桂川町大字土師２８番地",
    "lat": 33.574031,
    "lng": 130.6989319,
    "tel": "0948-62-2788",
    "url": "",
    "pref": "福岡県",
    "city": "桂川町",
    "category": "care_medical_institute",
    "serviceType": "介護医療院",
    "capacity": null,
    "openDays": [],
    "openDaysNote": ""
  },
  {
    "id": "40B3600010",
    "name": "北九州古賀病院介護医療院",
    "kana": "キタキュウシュウコガビョウインカイゴイリョウイン",
    "address": "福岡県古賀市千鳥二丁目12番1号",
    "lat": 33.7434518,
    "lng": 130.4762363,
    "tel": "092－942－4131",
    "url": "http://www.kitakyu-hp.or.jp/contents/kitahos_koga.htm",
    "pref": "福岡県",
    "city": "古賀市",
    "category": "care_medical_institute",
    "serviceType": "介護医療院",
    "capacity": 0,
    "openDays": [],
    "openDaysNote": ""
  },
  {
    "id": "40B2600011",
    "name": "大原病院介護医療院",
    "kana": "オオハラビョウインカイゴイリョウイン",
    "address": "福岡県行橋市宮市町２－５大原病院 大原病院",
    "lat": 33.7298412,
    "lng": 130.9725345,
    "tel": "0930－23－2345",
    "url": "www.kisei-kai.net/",
    "pref": "福岡県",
    "city": "行橋市",
    "category": "care_medical_institute",
    "serviceType": "介護医療院",
    "capacity": 0,
    "openDays": [],
    "openDaysNote": ""
  },
  {
    "id": "40B3500012",
    "name": "介護医療院　すみれ",
    "kana": "カイゴイリョウイン　スミレ",
    "address": "福岡県糸島市神在西1丁目1番15号",
    "lat": 33.5475091744387,
    "lng": 130.17708672209,
    "tel": "092-331-1165",
    "url": "http://www.itoshima.tanakaclinic.jp/",
    "pref": "福岡県",
    "city": "糸島市",
    "category": "care_medical_institute",
    "serviceType": "介護医療院",
    "capacity": 0,
    "openDays": [],
    "openDaysNote": ""
  },
  {
    "id": "40B3500020",
    "name": "小富士病院介護医療院",
    "kana": "コフジビョウインカイゴイリョウイン",
    "address": "福岡県糸島市志摩久家2400番地",
    "lat": 33.5637346,
    "lng": 130.1401939,
    "tel": "092-328-2334",
    "url": "https://www.contrive.biz/kofuji/index.html",
    "pref": "福岡県",
    "city": "糸島市",
    "category": "care_medical_institute",
    "serviceType": "介護医療院",
    "capacity": 0,
    "openDays": [],
    "openDaysNote": ""
  },
  {
    "id": "40B3900022",
    "name": "篠栗病院介護医療院",
    "kana": "ササグリビョウインカイゴイリョウイン",
    "address": "福岡県糟屋郡篠栗町田中１丁目１０番１号",
    "lat": 33.624316,
    "lng": 130.521512,
    "tel": "092-947-0711",
    "url": "http://www.sasaguri.or.jp",
    "pref": "福岡県",
    "city": "篠栗町",
    "category": "care_medical_institute",
    "serviceType": "介護医療院",
    "capacity": null,
    "openDays": [],
    "openDaysNote": ""
  },
  {
    "id": "40B3900014",
    "name": "社会医療法人　北九州病院　北九州若杉病院介護医療院",
    "kana": "シャカイイリョウホウジン　キタキュウシュウビョウイン　キタキュウシュウワカスギビョウインカイゴイリョウイン",
    "address": "福岡県糟屋郡篠栗町田中四丁目１番１号",
    "lat": 33.6260857,
    "lng": 130.5173302,
    "tel": "092-947-0511",
    "url": "https://www.kitakyu-hp.or.jp/wakasugi/",
    "pref": "福岡県",
    "city": "篠栗町",
    "category": "care_medical_institute",
    "serviceType": "介護医療院",
    "capacity": 0,
    "openDays": [],
    "openDaysNote": ""
  },
  {
    "id": "40B3300017",
    "name": "医療法人光洋会　赤間病院　介護医療院",
    "kana": "イリョウホウジンコウヨウカイ　アカマビョウイン　カイゴイリョウイン",
    "address": "福岡県宗像市石丸一丁目6番7号",
    "lat": 33.8051177,
    "lng": 130.594763,
    "tel": "0940-39-3870",
    "url": "https://www.akama-hp.or.jp/",
    "pref": "福岡県",
    "city": "宗像市",
    "category": "care_medical_institute",
    "serviceType": "介護医療院",
    "capacity": null,
    "openDays": [],
    "openDaysNote": ""
  },
  {
    "id": "40B2900031",
    "name": "みらい介護医療院",
    "kana": "ミライカイゴイリョウイン",
    "address": "福岡県小郡市山隈字弥八郎273番地11",
    "lat": 33.4082458,
    "lng": 130.5977127,
    "tel": "0942-73-0011",
    "url": "https://www.tenjinkai.or,jp",
    "pref": "福岡県",
    "city": "小郡市",
    "category": "care_medical_institute",
    "serviceType": "介護医療院",
    "capacity": null,
    "openDays": [],
    "openDaysNote": ""
  },
  {
    "id": "40B2900015",
    "name": "聖和記念病院　介護医療院",
    "kana": "セイワキネンビョウイン　カイゴイリョウイン",
    "address": "小郡市津古1470-1",
    "lat": 33.4449986,
    "lng": 130.5666638,
    "tel": "0942-75-1230",
    "url": "https://www.seiwa-kai.com",
    "pref": "福岡県",
    "city": "小郡市",
    "category": "care_medical_institute",
    "serviceType": "介護医療院",
    "capacity": null,
    "openDays": [],
    "openDaysNote": ""
  },
  {
    "id": "40B4100028",
    "name": "水戸病院介護医療院",
    "kana": "ミトビョウインカイゴイリョウイン",
    "address": "福岡県糟屋郡須恵町大字旅石115番地483水戸病院 水戸病院",
    "lat": 33.5844308,
    "lng": 130.4969066,
    "tel": "092-935-3755",
    "url": "www.s-mito.org",
    "pref": "福岡県",
    "city": "須恵町",
    "category": "care_medical_institute",
    "serviceType": "介護医療院",
    "capacity": 0,
    "openDays": [],
    "openDaysNote": ""
  },
  {
    "id": "40B4100010",
    "name": "泰平病院介護医療院",
    "kana": "タイヘイビョウインカイゴイリョウイン",
    "address": "福岡県糟屋郡須惠町大字新原14-7",
    "lat": 33.579582,
    "lng": 130.5143835,
    "tel": "092-932-5881",
    "url": "www.taihei.or.jp",
    "pref": "福岡県",
    "city": "須恵町",
    "category": "care_medical_institute",
    "serviceType": "介護医療院",
    "capacity": 60,
    "openDays": [],
    "openDaysNote": ""
  },
  {
    "id": "40B5000011",
    "name": "医療法人正周会　水巻共立病院介護医療院",
    "kana": "イリョウホウジンセイシュウカイ　ミズマキキョウリツビョウインカイゴイリョウイン",
    "address": "福岡県遠賀郡水巻町吉田西４丁目２番１号",
    "lat": 33.8439487,
    "lng": 130.7036526,
    "tel": "093-201-1394",
    "url": "https://care-net.biz/40/seishukai/mizumaki.php",
    "pref": "福岡県",
    "city": "水巻町",
    "category": "care_medical_institute",
    "serviceType": "介護医療院",
    "capacity": 0,
    "openDays": [],
    "openDaysNote": ""
  },
  {
    "id": "40B3400023",
    "name": "介護医療院さくら",
    "kana": "カイゴイリョウインサクラ",
    "address": "福岡県太宰府市坂本1丁目4番6号",
    "lat": 33.5139423,
    "lng": 130.5064817,
    "tel": "092-922-9001",
    "url": "https://maruyamahosp.jp/",
    "pref": "福岡県",
    "city": "太宰府市",
    "category": "care_medical_institute",
    "serviceType": "介護医療院",
    "capacity": null,
    "openDays": [],
    "openDaysNote": ""
  },
  {
    "id": "40B3400015",
    "name": "水城病院　介護医療院",
    "kana": "ミズキビョウイン　カイゴイリョウイン",
    "address": "福岡県太宰府市通古賀3丁目10番1号",
    "lat": 33.5115802,
    "lng": 130.5065533,
    "tel": "092-922-2050",
    "url": "https://www.mizuki.or.jp",
    "pref": "福岡県",
    "city": "太宰府市",
    "category": "care_medical_institute",
    "serviceType": "介護医療院",
    "capacity": 224,
    "openDays": [],
    "openDaysNote": ""
  },
  {
    "id": "40B1500022",
    "name": "介護医療院　ありあけ",
    "kana": "カイゴイリョウイン　アリアケ",
    "address": "福岡県大牟田市船津町440番地3",
    "lat": 33.006894,
    "lng": 130.438064,
    "tel": "0944-52-5245",
    "url": "http://www.ariake.or.jp/",
    "pref": "福岡県",
    "city": "大牟田市",
    "category": "care_medical_institute",
    "serviceType": "介護医療院",
    "capacity": null,
    "openDays": [],
    "openDaysNote": ""
  },
  {
    "id": "40B1500048",
    "name": "介護医療院　くさかべ",
    "kana": "カイゴイリョウインクサカベ",
    "address": "大字吉野859",
    "lat": 33.0751423,
    "lng": 130.479199,
    "tel": "0944-58-1234",
    "url": "www.soga-hospital.jp",
    "pref": "福岡県",
    "city": "大牟田市",
    "category": "care_medical_institute",
    "serviceType": "介護医療院",
    "capacity": 60,
    "openDays": [],
    "openDaysNote": ""
  },
  {
    "id": "40B1500030",
    "name": "今野病院　介護医療院",
    "kana": "コンノビョウイン　カイゴイリョウイン",
    "address": "福岡県大牟田市末広町5番地2",
    "lat": 33.0187809,
    "lng": 130.4583566,
    "tel": "0944-52-5580",
    "url": "http//www.konno-hp.jp/",
    "pref": "福岡県",
    "city": "大牟田市",
    "category": "care_medical_institute",
    "serviceType": "介護医療院",
    "capacity": 0,
    "openDays": [],
    "openDaysNote": ""
  },
  {
    "id": "40B1500055",
    "name": "南大牟田介護医療院",
    "kana": "ミナミオオムタカイゴイリョウイン",
    "address": "福岡県大牟田市臼井町２３番地の１",
    "lat": 33.0059291,
    "lng": 130.4608649,
    "tel": "0944-57-2000",
    "url": "http://www.zaidan-omtiryo.jp/kaigo/kaigo-iryoin",
    "pref": "福岡県",
    "city": "大牟田市",
    "category": "care_medical_institute",
    "serviceType": "介護医療院",
    "capacity": null,
    "openDays": [],
    "openDaysNote": ""
  },
  {
    "id": "40B1500014",
    "name": "白川病院介護医療院",
    "kana": "シラカワビョウインカイゴイリョウイン",
    "address": "福岡県大牟田市上白川町1丁目146番地",
    "lat": 33.0475681,
    "lng": 130.4613004,
    "tel": "0944-53-4173",
    "url": "https://shirakawa.or.jp",
    "pref": "福岡県",
    "city": "大牟田市",
    "category": "care_medical_institute",
    "serviceType": "介護医療院",
    "capacity": null,
    "openDays": [],
    "openDaysNote": ""
  },
  {
    "id": "40B3200027",
    "name": "医療法人つくし会病院　介護医療院",
    "kana": "イリョウホウジンツクシカイビョウインカイゴイリョウイン",
    "address": "福岡県大野城市乙金３丁目18番20号",
    "lat": 33.5418787,
    "lng": 130.4978868,
    "tel": "092-503-2261",
    "url": "https://tsukushi-kai.com/",
    "pref": "福岡県",
    "city": "大野城市",
    "category": "care_medical_institute",
    "serviceType": "介護医療院",
    "capacity": null,
    "openDays": [],
    "openDaysNote": ""
  },
  {
    "id": "40B3200019",
    "name": "医療法人同仁会　おとがね介護医療院",
    "kana": "イリョウホウジンドウジンカイ　オトガネカイゴイリョウイン",
    "address": "福岡県大野城市乙金東4丁目12-1おとかね介護医療院 おとかね介護医療院",
    "lat": 33.557335,
    "lng": 130.5008442,
    "tel": "092-503-7070",
    "url": "https://www.otogane.or.jp/",
    "pref": "福岡県",
    "city": "大野城市",
    "category": "care_medical_institute",
    "serviceType": "介護医療院",
    "capacity": null,
    "openDays": [],
    "openDaysNote": ""
  },
  {
    "id": "40B2300018",
    "name": "介護医療院やひめ",
    "kana": "カイゴイリョウインヤヒメ",
    "address": "福岡県八女市本1486",
    "lat": 33.2294239,
    "lng": 130.5826643,
    "tel": "0943-22-4176",
    "url": "https://www.yahimehp.jp/",
    "pref": "福岡県",
    "city": "八女市",
    "category": "care_medical_institute",
    "serviceType": "介護医療院",
    "capacity": null,
    "openDays": [],
    "openDaysNote": ""
  },
  {
    "id": "40B1800018",
    "name": "医療法人社団　親和会　共立病院介護医療院",
    "kana": "イリョウホウジンシャダン　シンワカイ　キョウリツビョウインカイゴイリョウイン",
    "address": "福岡県飯塚市横田770番地3",
    "lat": 33.6493116,
    "lng": 130.668111,
    "tel": "0948-22-0725",
    "url": "http://f-shinwakai.or.jp",
    "pref": "福岡県",
    "city": "飯塚市",
    "category": "care_medical_institute",
    "serviceType": "介護医療院",
    "capacity": 0,
    "openDays": [],
    "openDaysNote": ""
  },
  {
    "id": "40B1200011",
    "name": "シーサイド病院介護医療院",
    "kana": "シーサイドビョウインカイゴイリョウイン",
    "address": "福岡県福岡市西区今津3810番地",
    "lat": 33.6116857,
    "lng": 130.2290865,
    "tel": "092-806-7171",
    "url": "https://www.seaside-hp.or.jp/",
    "pref": "福岡県",
    "city": "福岡市西区",
    "category": "care_medical_institute",
    "serviceType": "介護医療院",
    "capacity": null,
    "openDays": [],
    "openDaysNote": ""
  },
  {
    "id": "40B1200029",
    "name": "医療法人輝松会松尾内科病院介護医療院",
    "kana": "イリョウホウジンキショウカイマツオナイカビョウインカイゴイリョウイン",
    "address": "福岡県福岡市西区下山門団地40番5号",
    "lat": 33.5777007,
    "lng": 130.305584,
    "tel": "092-891-5071",
    "url": "https://matsuohosp.kisyoukai.jp/",
    "pref": "福岡県",
    "city": "福岡市西区",
    "category": "care_medical_institute",
    "serviceType": "介護医療院",
    "capacity": 21,
    "openDays": [],
    "openDaysNote": ""
  },
  {
    "id": "40B0800027",
    "name": "みどりの介護医療院",
    "kana": "ミドリノカイゴイリョウイン",
    "address": "名子1丁目18番9号",
    "lat": 33.6388638,
    "lng": 130.4758186,
    "tel": "092-691-5022",
    "url": "https://www.haradoi-hospital.com/",
    "pref": "福岡県",
    "city": "福岡市東区",
    "category": "care_medical_institute",
    "serviceType": "介護医療院",
    "capacity": 0,
    "openDays": [],
    "openDaysNote": ""
  },
  {
    "id": "40B0800043",
    "name": "永野外科胃腸科医院介護医療院",
    "kana": "ナガノゲカイチョウカイインカイゴイリョウイン",
    "address": "福岡県福岡市東区高美台2丁目4-27",
    "lat": 33.6893574,
    "lng": 130.4434862,
    "tel": "092-607-3261",
    "url": "",
    "pref": "福岡県",
    "city": "福岡市東区",
    "category": "care_medical_institute",
    "serviceType": "介護医療院",
    "capacity": null,
    "openDays": [],
    "openDaysNote": ""
  },
  {
    "id": "40B0800019",
    "name": "介護医療院　東福岡和仁会病院",
    "kana": "カイゴイリョウイン　ヒガシフクオカワジンカイビョウイン",
    "address": "福岡県福岡市東区奈多1丁目4番1号",
    "lat": 33.6914117,
    "lng": 130.4192271,
    "tel": "092-608-1511",
    "url": "higashifukuoka-wajinkai.jp",
    "pref": "福岡県",
    "city": "福岡市東区",
    "category": "care_medical_institute",
    "serviceType": "介護医療院",
    "capacity": 0,
    "openDays": [],
    "openDaysNote": ""
  },
  {
    "id": "40B0800035",
    "name": "原土井病院介護医療院",
    "kana": "ハラドイビョウインカイゴイリョウイン",
    "address": "福岡県福岡市東区青葉6-40-8",
    "lat": 33.6448257,
    "lng": 130.4689378,
    "tel": "092-691-6387",
    "url": "",
    "pref": "福岡県",
    "city": "福岡市東区",
    "category": "care_medical_institute",
    "serviceType": "介護医療院",
    "capacity": 0,
    "openDays": [],
    "openDaysNote": ""
  },
  {
    "id": "4070805132",
    "name": "香椎原病院介護医療院",
    "kana": "カシイハラビョウインカイゴイリョウイン",
    "address": "福岡県福岡市東区香椎３丁目３番１号",
    "lat": 33.6569633,
    "lng": 130.450943,
    "tel": "092-662-1333",
    "url": "http://www.kashiihara.or.jp/",
    "pref": "福岡県",
    "city": "福岡市東区",
    "category": "care_medical_institute",
    "serviceType": "介護医療院",
    "capacity": 0,
    "openDays": [],
    "openDaysNote": ""
  },
  {
    "id": "40B0900033",
    "name": "こもり介護医療院",
    "kana": "コモリカイゴイリョウイン",
    "address": "福岡県福岡市博多区対馬小路9番13号",
    "lat": 33.6000225,
    "lng": 130.4017881,
    "tel": "092-291-3945",
    "url": "https://komori-hp.cloud-line.com/",
    "pref": "福岡県",
    "city": "福岡市博多区",
    "category": "care_medical_institute",
    "serviceType": "介護医療院",
    "capacity": 0,
    "openDays": [],
    "openDaysNote": ""
  },
  {
    "id": "40B0900025",
    "name": "医療法人永野病院介護医療院",
    "kana": "イリョウホウジンナガノビョウインカイゴイリョウイン",
    "address": "福岡県福岡市博多区浦田１丁目３１－１",
    "lat": 33.5732099,
    "lng": 130.4737667,
    "tel": "092-504-0611",
    "url": "https://naganohp.com/",
    "pref": "福岡県",
    "city": "福岡市博多区",
    "category": "care_medical_institute",
    "serviceType": "介護医療院",
    "capacity": 0,
    "openDays": [],
    "openDaysNote": ""
  },
  {
    "id": "40B0900017",
    "name": "介護医療院かねのくま",
    "kana": "カイゴイリョウインカネノクマ",
    "address": "福岡県福岡市博多区金の隈３丁目２４番１６号",
    "lat": 33.5565336,
    "lng": 130.481173,
    "tel": "092-504-0097",
    "url": "http:www.kanenokuma-hp.jp",
    "pref": "福岡県",
    "city": "福岡市博多区",
    "category": "care_medical_institute",
    "serviceType": "介護医療院",
    "capacity": 0,
    "openDays": [],
    "openDaysNote": ""
  },
  {
    "id": "40B4500029",
    "name": "医療法人静かな海の会　津屋崎中央病院　介護医療院",
    "kana": "イリョウホウジンシズカナウミノカイ　ツヤザキチュウオウビョウイン　カイゴイリョウイン",
    "address": "福岡県福津市渡1564番地",
    "lat": 33.7886971168323,
    "lng": 130.455695356483,
    "tel": "0940-52-0120",
    "url": "http://www.tuyazaki-hp.jp/",
    "pref": "福岡県",
    "city": "福津市",
    "category": "care_medical_institute",
    "serviceType": "介護医療院",
    "capacity": 0,
    "openDays": [],
    "openDaysNote": ""
  },
  {
    "id": "40B4500011",
    "name": "東福間病院介護医療院",
    "kana": "ヒガシフクマビョウインカイゴイリョウイン",
    "address": "福岡県福津市津丸1164番地の3",
    "lat": 33.772423159184,
    "lng": 130.505068162566,
    "tel": "0940-43-1311",
    "url": "https://www.souseikai-hp.or.jp",
    "pref": "福岡県",
    "city": "福津市",
    "category": "care_medical_institute",
    "serviceType": "介護医療院",
    "capacity": 99,
    "openDays": [],
    "openDaysNote": ""
  },
  {
    "id": "40B0500023",
    "name": "医療法人東谷医院介護医療院",
    "kana": "イリョウホウジンヒガシタニイイン",
    "address": "福岡県北九州市小倉南区大字新道寺129-4",
    "lat": 33.7814832,
    "lng": 130.8641381,
    "tel": "093-451-1331",
    "url": "http://wwwhigashitani-iin.net/",
    "pref": "福岡県",
    "city": "北九州市小倉南区",
    "category": "care_medical_institute",
    "serviceType": "介護医療院",
    "capacity": 15,
    "openDays": [],
    "openDaysNote": ""
  },
  {
    "id": "40B0500031",
    "name": "社会医療法人北九州病院　北九州湯川病院　介護医療院",
    "kana": "シャカイイリョウホウジンキタキュウシュウビョウイン　キタキュウシュウユガワビョウイン　カイゴイリョウイン",
    "address": "福岡県北九州市小倉南区湯川五丁目10番10号",
    "lat": 33.8455556,
    "lng": 130.9061698,
    "tel": "093-923-8833",
    "url": "https://www.kitakyu-hp.or.jp",
    "pref": "福岡県",
    "city": "北九州市小倉南区",
    "category": "care_medical_institute",
    "serviceType": "介護医療院",
    "capacity": null,
    "openDays": [],
    "openDaysNote": ""
  },
  {
    "id": "40B0400018",
    "name": "小倉中井病院介護医療院",
    "kana": "コクラナカイビョウイン　カイゴイリョウイン",
    "address": "福岡県北九州市小倉北区中井5丁目11番8号",
    "lat": 33.8878494,
    "lng": 130.8468463,
    "tel": "093-581-0181",
    "url": "https://www.kokura-nakai.jp",
    "pref": "福岡県",
    "city": "北九州市小倉北区",
    "category": "care_medical_institute",
    "serviceType": "介護医療院",
    "capacity": null,
    "openDays": [],
    "openDaysNote": ""
  },
  {
    "id": "40B0400026",
    "name": "新栄会病院介護医療院",
    "kana": "シンエイカイビョウインカイゴイリョウイン",
    "address": "福岡県北九州市小倉北区弁天町12-11",
    "lat": 33.8696898294277,
    "lng": 130.863403992065,
    "tel": "093-571-0086",
    "url": "http://www.shin-eikai.com/byouin/",
    "pref": "福岡県",
    "city": "北九州市小倉北区",
    "category": "care_medical_institute",
    "serviceType": "介護医療院",
    "capacity": 60,
    "openDays": [],
    "openDaysNote": ""
  },
  {
    "id": "40B0700011",
    "name": "医療法人　末廣医院　介護医療院",
    "kana": "イリョウホウジン　スエヒロイイン　カイゴイリョウイン",
    "address": "福岡県北九州市八幡西区香月中央３丁目２番１５号",
    "lat": 33.8019998,
    "lng": 130.7273765,
    "tel": "093-617-1212",
    "url": "https://www.suehiro-clinic.com/",
    "pref": "福岡県",
    "city": "北九州市八幡西区",
    "category": "care_medical_institute",
    "serviceType": "介護医療院",
    "capacity": 17,
    "openDays": [],
    "openDaysNote": ""
  },
  {
    "id": "40B0600013",
    "name": "北九州八幡東病院介護医療院",
    "kana": "キタキュウシュウヤハタヒガイシビョウインカイゴイリョウイン",
    "address": "福岡県北九州市八幡東区東田一丁目4番3号社会医療法人北九州病院　北九州八幡東病院　併設 社会医療法人北九州病院　北九州八幡東病院　併設",
    "lat": 33.8704140461965,
    "lng": 130.79839374101,
    "tel": "093-661-5915",
    "url": "https://www.kitakyu-hp.or.jp/contents/kitahos_yahatahigasi.htm",
    "pref": "福岡県",
    "city": "北九州市八幡東区",
    "category": "care_medical_institute",
    "serviceType": "介護医療院",
    "capacity": 0,
    "openDays": [],
    "openDaysNote": ""
  },
  {
    "id": "40B0100030",
    "name": "介護医療院　光寿荘",
    "kana": "カイゴイリョウイン　コウジュソウ",
    "address": "福岡県北九州市門司区大字田野浦1018-1",
    "lat": 33.9606813,
    "lng": 131.000045,
    "tel": "093-331-0800",
    "url": "http://www.moji-tanoura.jp/",
    "pref": "福岡県",
    "city": "北九州市門司区",
    "category": "care_medical_institute",
    "serviceType": "介護医療院",
    "capacity": null,
    "openDays": [],
    "openDaysNote": ""
  },
  {
    "id": "40B0100048",
    "name": "介護医療院植田外科",
    "kana": "カイゴイリョウインウエダゲカ",
    "address": "福岡県北九州市門司区東門司1-10-20",
    "lat": 33.9492721,
    "lng": 130.9699469,
    "tel": "093-321-2852",
    "url": "",
    "pref": "福岡県",
    "city": "北九州市門司区",
    "category": "care_medical_institute",
    "serviceType": "介護医療院",
    "capacity": 0,
    "openDays": [],
    "openDaysNote": ""
  },
  {
    "id": "40B0100022",
    "name": "春日病院介護医療院",
    "kana": "カスガビョウインカイゴイリョウイン",
    "address": "福岡県北九州市門司区春日町22番19号",
    "lat": 33.929078,
    "lng": 130.9725932,
    "tel": "093-341-1416",
    "url": "http:www.yojuen.com/kasugahospital/",
    "pref": "福岡県",
    "city": "北九州市門司区",
    "category": "care_medical_institute",
    "serviceType": "介護医療院",
    "capacity": 0,
    "openDays": [],
    "openDaysNote": ""
  },
  {
    "id": "40B0100014",
    "name": "鳥巣病院介護医療院",
    "kana": "トリスビョウインカイゴイリョウイン",
    "address": "福岡県北九州市門司区吉志5丁目5番10号",
    "lat": 33.8652396282668,
    "lng": 130.960217438623,
    "tel": "093-481-1831",
    "url": "http://www.torisu-hp.or.jp/torisu_hospital/hosptal_care.php",
    "pref": "福岡県",
    "city": "北九州市門司区",
    "category": "care_medical_institute",
    "serviceType": "介護医療院",
    "capacity": null,
    "openDays": [],
    "openDaysNote": ""
  },
  {
    "id": "40B2000014",
    "name": "金子病院介護医療院",
    "kana": "カネコビョウインカイゴイリョウイン",
    "address": "福岡県柳川市久々原65番地",
    "lat": 33.1682342,
    "lng": 130.382122,
    "tel": "0944-73-3407",
    "url": "http://www.kaneko－hp.or.jp",
    "pref": "福岡県",
    "city": "柳川市",
    "category": "care_medical_institute",
    "serviceType": "介護医療院",
    "capacity": 0,
    "openDays": [],
    "openDaysNote": ""
  }
]