[
  {
    "id": "07B0400027",
    "name": "かしま病院介護医療院",
    "kana": "カシマビョウインカイゴイリョウイン",
    "address": "福島県いわき市鹿島町下蔵持字中沢目22-1",
    "lat": 36.9929457,
    "lng": 140.9111824,
    "tel": "0246-58-8010",
    "url": "http://www.kashima.jp",
    "pref": "福島県",
    "city": "いわき市",
    "category": "care_medical_institute",
    "serviceType": "介護医療院",
    "capacity": 0,
    "openDays": [],
    "openDaysNote": ""
  },
  {
    "id": "07B0400050",
    "name": "医療法人　双美会　クリニック田畑",
    "kana": "イリョウホウジン　フタミカイ　クリニックタバタ",
    "address": "福島県いわき市中岡町3丁目7-3",
    "lat": 36.9214302,
    "lng": 140.7826583,
    "tel": "0246-63-1476",
    "url": "",
    "pref": "福島県",
    "city": "いわき市",
    "category": "care_medical_institute",
    "serviceType": "介護医療院",
    "capacity": null,
    "openDays": [],
    "openDaysNote": ""
  },
  {
    "id": "07B0400076",
    "name": "医療法人松尾会松尾病院　介護医療院",
    "kana": "イリョウホウジンマツオカイマツオビョウイン　カイゴイリョウイン",
    "address": "福島県いわき市平字新田前2番地の５医療法人松尾会　松尾病院介護医療院 医療法人松尾会　松尾病院介護医療院",
    "lat": 37.0503211,
    "lng": 140.8960501,
    "tel": "0246-22-4421",
    "url": "matsuo-iwaki.or.jp",
    "pref": "福島県",
    "city": "いわき市",
    "category": "care_medical_institute",
    "serviceType": "介護医療院",
    "capacity": 0,
    "openDays": [],
    "openDaysNote": ""
  },
  {
    "id": "07B0400035",
    "name": "呉羽総合病院　介護医療院",
    "kana": "クレハソウゴウビョウイン　カイゴイリョウイン",
    "address": "福島県いわき市錦町落合1番地1",
    "lat": 36.8999142,
    "lng": 140.7825517,
    "tel": "0246-62-8505",
    "url": "",
    "pref": "福島県",
    "city": "いわき市",
    "category": "care_medical_institute",
    "serviceType": "介護医療院",
    "capacity": null,
    "openDays": [],
    "openDaysNote": ""
  },
  {
    "id": "07B0400043",
    "name": "社団医療法人　容雅会　中村病院介護医療院",
    "kana": "シャダンイリョウホウジン　ヨウガカイ　ナカムラビョウインカイゴイリョウイン",
    "address": "福島県いわき市小名浜大原字下小滝146-2",
    "lat": 36.9613052,
    "lng": 140.8972698,
    "tel": "0246-53-3141",
    "url": "",
    "pref": "福島県",
    "city": "いわき市",
    "category": "care_medical_institute",
    "serviceType": "介護医療院",
    "capacity": null,
    "openDays": [],
    "openDaysNote": ""
  },
  {
    "id": "07B0400068",
    "name": "春山医院　介護医療院",
    "kana": "ハルヤマイイン　カイゴイリョウイン",
    "address": "福島県いわき市常磐下湯長谷町二丁目1番地",
    "lat": 36.9908757,
    "lng": 140.855846,
    "tel": "0246-44-4011",
    "url": "http://syunyoukai.sakura.ne.jp/",
    "pref": "福島県",
    "city": "いわき市",
    "category": "care_medical_institute",
    "serviceType": "介護医療院",
    "capacity": 15,
    "openDays": [],
    "openDaysNote": ""
  },
  {
    "id": "07B0400019",
    "name": "小名浜生協病院　介護医療院",
    "kana": "オナハマセイキョウビョウイン　カイゴイリョウイン",
    "address": "福島県いわき市小名浜岡小名字山ノ神３２番地",
    "lat": 36.9705333,
    "lng": 140.9095533,
    "tel": "0246-53-4374",
    "url": "",
    "pref": "福島県",
    "city": "いわき市",
    "category": "care_medical_institute",
    "serviceType": "介護医療院",
    "capacity": 0,
    "openDays": [],
    "openDaysNote": ""
  },
  {
    "id": "07B0400084",
    "name": "矢吹病院介護医療院",
    "kana": "ヤブキビョウインカイゴイリョウイン",
    "address": "福島県いわき市佐糠町東1丁目18-3",
    "lat": 36.9178781,
    "lng": 140.8047989,
    "tel": "0246-63-1818",
    "url": "https://yabuki-hp.skr.jp/",
    "pref": "福島県",
    "city": "いわき市",
    "category": "care_medical_institute",
    "serviceType": "介護医療院",
    "capacity": null,
    "openDays": [],
    "openDaysNote": ""
  },
  {
    "id": "07B0200013",
    "name": "介護医療院　さくら",
    "kana": "カイゴイリョウイン　サクラ",
    "address": "福島県会津若松市宮町１-１",
    "lat": 37.4951779,
    "lng": 139.9335618,
    "tel": "0242-22-4075",
    "url": "http://www.sakura-anazawa..jp",
    "pref": "福島県",
    "city": "会津若松市",
    "category": "care_medical_institute",
    "serviceType": "介護医療院",
    "capacity": 0,
    "openDays": [],
    "openDaysNote": ""
  },
  {
    "id": "07B0800036",
    "name": "介護医療院　鳴瀬病院",
    "kana": "カイゴイリョウイン　ナルセビョウイン",
    "address": "福島県喜多方市字稲荷宮7307番地の1",
    "lat": 37.6467867,
    "lng": 139.8770199,
    "tel": "0241-24-3333",
    "url": "",
    "pref": "福島県",
    "city": "喜多方市",
    "category": "care_medical_institute",
    "serviceType": "介護医療院",
    "capacity": 0,
    "openDays": [],
    "openDaysNote": ""
  },
  {
    "id": "07B0800028",
    "name": "介護医療院いりさわ",
    "kana": "カイゴイリョウインイリサワ",
    "address": "福島県喜多方市字蒔田3106番地の2",
    "lat": 37.6557792,
    "lng": 139.8822919,
    "tel": "0241-22-2610",
    "url": "https://keiwakai.net/",
    "pref": "福島県",
    "city": "喜多方市",
    "category": "care_medical_institute",
    "serviceType": "介護医療院",
    "capacity": 0,
    "openDays": [],
    "openDaysNote": ""
  },
  {
    "id": "07B0300037",
    "name": "郡山市医療介護病院介護医療院",
    "kana": "コオリヤマシイリョウカイゴビョウインカイゴイリョウイン",
    "address": "福島県郡山市字上亀田１番地の１",
    "lat": 37.4085252,
    "lng": 140.3458391,
    "tel": "024-934-1240",
    "url": "http://bigheart-hp.net/",
    "pref": "福島県",
    "city": "郡山市",
    "category": "care_medical_institute",
    "serviceType": "介護医療院",
    "capacity": 0,
    "openDays": [],
    "openDaysNote": ""
  },
  {
    "id": "07B0300029",
    "name": "寿泉堂香久山病院　介護医療院",
    "kana": "ジュセンドウカグヤマビョウイン　カイゴイリョウイン",
    "address": "福島県郡山市香久池一丁目18番11号",
    "lat": 37.3817065139789,
    "lng": 140.369867855156,
    "tel": "024-932-6368",
    "url": "http://www.jusendo.or.jp/kgy",
    "pref": "福島県",
    "city": "郡山市",
    "category": "care_medical_institute",
    "serviceType": "介護医療院",
    "capacity": 51,
    "openDays": [],
    "openDaysNote": ""
  },
  {
    "id": "07B0300011",
    "name": "土屋病院介護医療院",
    "kana": "ツチヤビョウインカイゴイリョウイン",
    "address": "福島県郡山市字山崎76番1",
    "lat": 37.3780083,
    "lng": 140.3676274,
    "tel": "024-932-5425",
    "url": "https://jihankai.jp/",
    "pref": "福島県",
    "city": "郡山市",
    "category": "care_medical_institute",
    "serviceType": "介護医療院",
    "capacity": 0,
    "openDays": [],
    "openDaysNote": ""
  },
  {
    "id": "07B1200012",
    "name": "小野田病院介護医療院",
    "kana": "オノダビョウインカイゴイリョウイン",
    "address": "福島県南相馬市原町区旭町3-21",
    "lat": 37.6363967,
    "lng": 140.968942,
    "tel": "0244-24-1111",
    "url": "www.onodahp.or.jp",
    "pref": "福島県",
    "city": "南相馬市",
    "category": "care_medical_institute",
    "serviceType": "介護医療院",
    "capacity": 0,
    "openDays": [],
    "openDaysNote": ""
  },
  {
    "id": "07B1400018",
    "name": "介護医療院　うぐいすの森",
    "kana": "カイゴイリョウイン　ウグイスノモリ",
    "address": "福島県本宮市青田字花掛20番地",
    "lat": 37.5022610706559,
    "lng": 140.392996901189,
    "tel": "0243-24-8720",
    "url": "https://www.ochiaikai.jp/",
    "pref": "福島県",
    "city": "本宮市",
    "category": "care_medical_institute",
    "serviceType": "介護医療院",
    "capacity": null,
    "openDays": [],
    "openDaysNote": ""
  }
]