[
  {
    "id": "05B0900028",
    "name": "鹿角中央病院・介護医療院",
    "kana": "カヅノチュウオウビョウイン・カイゴイリョウイン",
    "address": "秋田県鹿角市花輪字六月田97番地",
    "lat": 40.2003082,
    "lng": 140.7899134,
    "tel": "0186-23-4131",
    "url": "keiai4134.cloodfree.jp",
    "pref": "秋田県",
    "city": "鹿角市",
    "category": "care_medical_institute",
    "serviceType": "介護医療院",
    "capacity": 0,
    "openDays": [],
    "openDaysNote": ""
  },
  {
    "id": "05B0900014",
    "name": "大湯リハビリ温泉病院介護医療院",
    "kana": "オオユリハビリオンセンビョウインカイゴイリョウイン",
    "address": "秋田県鹿角市十和田大湯字湯ノ岱１６番２",
    "lat": 40.2988789,
    "lng": 140.8396932,
    "tel": "0186-37-3511",
    "url": "https://oyu-reha.com/",
    "pref": "秋田県",
    "city": "鹿角市",
    "category": "care_medical_institute",
    "serviceType": "介護医療院",
    "capacity": 0,
    "openDays": [],
    "openDaysNote": ""
  },
  {
    "id": "05B0400011",
    "name": "介護医療院西大館病院",
    "kana": "カイゴイリョウインニシオオダテビョウイン",
    "address": "秋田県大館市川口字上野6番地125",
    "lat": 40.2790409,
    "lng": 140.4753297,
    "tel": "0186-49-3211",
    "url": "https://kochikai.jp",
    "pref": "秋田県",
    "city": "大館市",
    "category": "care_medical_institute",
    "serviceType": "介護医療院",
    "capacity": 170,
    "openDays": [],
    "openDaysNote": ""
  },
  {
    "id": "05B0700014",
    "name": "医療法人小野崎医院　介護医療院",
    "kana": "イリョウホウジンオノザキイイン　カイゴイリョウイン",
    "address": "秋田県湯沢市表町3-1-29",
    "lat": 39.1668272,
    "lng": 140.4907776,
    "tel": "0183-73-2540",
    "url": "http://www.onozaki-h.or.jp/",
    "pref": "秋田県",
    "city": "湯沢市",
    "category": "care_medical_institute",
    "serviceType": "介護医療院",
    "capacity": 14,
    "openDays": [],
    "openDaysNote": ""
  },
  {
    "id": "05B0700022",
    "name": "介護医療院　菅医院",
    "kana": "カイゴイリョウイン　スガイイン",
    "address": "秋田県湯沢市小野字東堺77番地1",
    "lat": 39.0645266605267,
    "lng": 140.45487258214,
    "tel": "0183-52-2000",
    "url": "http://kamuro5111.com/publics/index/6/",
    "pref": "秋田県",
    "city": "湯沢市",
    "category": "care_medical_institute",
    "serviceType": "介護医療院",
    "capacity": 0,
    "openDays": [],
    "openDaysNote": ""
  },
  {
    "id": "05B0200015",
    "name": "介護医療院　京病院",
    "kana": "カイゴイリョウイン　キョウビョウイン",
    "address": "能代市大町1番8号",
    "lat": 40.2126976,
    "lng": 140.0264411,
    "tel": "0185-52-1315",
    "url": "http://kyohospital.com/kaiseikai/",
    "pref": "秋田県",
    "city": "能代市",
    "category": "care_medical_institute",
    "serviceType": "介護医療院",
    "capacity": 93,
    "openDays": [],
    "openDaysNote": ""
  },
  {
    "id": "05B0500018",
    "name": "由利本荘医師会病院介護医療院",
    "kana": "ユリホンジョウイシカイビョウインカイゴイリョウイン",
    "address": "秋田県由利本荘市水林456番地4",
    "lat": 39.3775046,
    "lng": 140.0255725,
    "tel": "0184-22-0054",
    "url": "http://yurihon-hospital.jp/",
    "pref": "秋田県",
    "city": "由利本荘市",
    "category": "care_medical_institute",
    "serviceType": "介護医療院",
    "capacity": 0,
    "openDays": [],
    "openDaysNote": ""
  }
]