[
  {
    "id": "10B1200017",
    "name": "みどり病院介護医療院",
    "kana": "ミドリビョウインカイゴイリョウイン",
    "address": "群馬県みどり市笠懸町鹿2646-2",
    "lat": 36.4002995,
    "lng": 139.2813706,
    "tel": "0277-76-1110",
    "url": "https://sunhope.or.jp",
    "pref": "群馬県",
    "city": "みどり市",
    "category": "care_medical_institute",
    "serviceType": "介護医療院",
    "capacity": 0,
    "openDays": [],
    "openDaysNote": ""
  },
  {
    "id": "10B1100019",
    "name": "介護医療院　本多病院",
    "kana": "カイゴイリョウイン　ホンダビョウイン",
    "address": "群馬県安中市鷺宮205-1",
    "lat": 36.3051851,
    "lng": 138.8969105,
    "tel": "027-382-1255",
    "url": "http://www.honda-hospital.jp/",
    "pref": "群馬県",
    "city": "安中市",
    "category": "care_medical_institute",
    "serviceType": "介護医療院",
    "capacity": 0,
    "openDays": [],
    "openDaysNote": ""
  },
  {
    "id": "10B2400012",
    "name": "下仁田南牧医療事務組合下仁田厚生病院介護医療院",
    "kana": "シモニタナンモクイリョウジムクミアイシモニタコウセイビョウインカイゴイリョウイン",
    "address": "群馬県甘楽郡下仁田町大字下仁田４０９",
    "lat": 36.2131455,
    "lng": 138.78604,
    "tel": "０２７４－８２－３５５５",
    "url": "https://www.shimonitakosei-hosp.jp/",
    "pref": "群馬県",
    "city": "下仁田町",
    "category": "care_medical_institute",
    "serviceType": "介護医療院",
    "capacity": null,
    "openDays": [],
    "openDaysNote": ""
  },
  {
    "id": "10B0700017",
    "name": "新橋病院　介護医療院",
    "kana": "シンバシビョウイン　カイゴイリョウイン",
    "address": "群馬県館林市下三林市452番地",
    "lat": 36.2228047,
    "lng": 139.5050946,
    "tel": "0276-75-3011",
    "url": "https://www.shinbashi.or/",
    "pref": "群馬県",
    "city": "館林市",
    "category": "care_medical_institute",
    "serviceType": "介護医療院",
    "capacity": null,
    "openDays": [],
    "openDaysNote": ""
  },
  {
    "id": "10B0200018",
    "name": "松岡医院介護医療院",
    "kana": "マツオカイインカイゴイリョウイン",
    "address": "群馬県高崎市片岡町1丁目17番31号",
    "lat": 36.3184047,
    "lng": 138.9967669,
    "tel": "027(323)0954",
    "url": "",
    "pref": "群馬県",
    "city": "高崎市",
    "category": "care_medical_institute",
    "serviceType": "介護医療院",
    "capacity": 0,
    "openDays": [],
    "openDaysNote": ""
  },
  {
    "id": "10B0100010",
    "name": "介護医療院ふえき",
    "kana": "カイゴイリョウインフエキ",
    "address": "群馬県前橋市表町２丁目27-22前橋ふえきクリニック（介護医療院ふえき） 前橋ふえきクリニック（介護医療院ふえき）",
    "lat": 36.3846862708658,
    "lng": 139.074624991643,
    "tel": "272242818",
    "url": "http://ubukatakai.webmedipr.jp/contents/about.html",
    "pref": "群馬県",
    "city": "前橋市",
    "category": "care_medical_institute",
    "serviceType": "介護医療院",
    "capacity": 0,
    "openDays": [],
    "openDaysNote": ""
  },
  {
    "id": "10B0500011",
    "name": "医療法人　慶仁会　城山病院　介護医療医療院",
    "kana": "イリョウホウジン　ケイジンカイ　シロヤマビョウイン　カイゴイリョウイン",
    "address": "群馬県太田市飯塚町1番地",
    "lat": 36.2800551,
    "lng": 139.3789504,
    "tel": "0276-46-0311",
    "url": "https://www.shiroyama-hospital.or.jp/",
    "pref": "群馬県",
    "city": "太田市",
    "category": "care_medical_institute",
    "serviceType": "介護医療院",
    "capacity": 48,
    "openDays": [],
    "openDaysNote": ""
  },
  {
    "id": "10B0500029",
    "name": "介護医療院　冨士ヶ丘病院",
    "kana": "カイゴイリョウイン　フジガオカビョウイン",
    "address": "群馬県太田市熊野町３８－８１",
    "lat": 36.3074686,
    "lng": 139.3842892,
    "tel": "0276-22-1281",
    "url": "http://www.fujigaoka-hosp.jp/",
    "pref": "群馬県",
    "city": "太田市",
    "category": "care_medical_institute",
    "serviceType": "介護医療院",
    "capacity": 97,
    "openDays": [],
    "openDaysNote": ""
  },
  {
    "id": "10B2600017",
    "name": "吾妻さくら病院介護医療院",
    "kana": "アガツマサクラビョウインカイゴイリョウイン",
    "address": "群馬県吾妻郡中之条町大字伊勢町782-1",
    "lat": 36.5859438,
    "lng": 138.853027,
    "tel": "0279-75-3011",
    "url": "http://www.a-sakurahosp.com/",
    "pref": "群馬県",
    "city": "中之条町",
    "category": "care_medical_institute",
    "serviceType": "介護医療院",
    "capacity": 47,
    "openDays": [],
    "openDaysNote": ""
  },
  {
    "id": "10B0900013",
    "name": "介護医療院　しのづか",
    "kana": "カイゴイリョウイン　シノヅカ",
    "address": "群馬県藤岡市篠塚105-1",
    "lat": 36.2588617,
    "lng": 139.0647439,
    "tel": "0274-23-9261",
    "url": "http://www.shinozuka-hp.or.jp",
    "pref": "群馬県",
    "city": "藤岡市",
    "category": "care_medical_institute",
    "serviceType": "介護医療院",
    "capacity": null,
    "openDays": [],
    "openDaysNote": ""
  },
  {
    "id": "10B1000011",
    "name": "介護医療院　細谷",
    "kana": "カイゴイリョウイン　ホソヤ",
    "address": "群馬県　富岡市富岡1375番地",
    "lat": 36.2577470376025,
    "lng": 138.893994849074,
    "tel": "0274-67-7728",
    "url": "https://www.hosoya.or.jp",
    "pref": "群馬県",
    "city": "富岡市",
    "category": "care_medical_institute",
    "serviceType": "介護医療院",
    "capacity": 0,
    "openDays": [],
    "openDaysNote": ""
  },
  {
    "id": "10B1000029",
    "name": "西毛病院介護医療院",
    "kana": "セイモウビョウインカイゴイリョウイン",
    "address": "群馬県富岡市神農原559-1",
    "lat": 36.2438843360074,
    "lng": 138.840873003705,
    "tel": "0274-62-3156",
    "url": "http://www.seimou.org/",
    "pref": "群馬県",
    "city": "富岡市",
    "category": "care_medical_institute",
    "serviceType": "介護医療院",
    "capacity": 0,
    "openDays": [],
    "openDaysNote": ""
  }
]