[
  {
    "id": "08B2900015",
    "name": "宮本病院介護医療院",
    "kana": "ミヤモトビョウインカイゴイリョウイン",
    "address": "茨城県稲敷市幸田953",
    "lat": 34.8644762,
    "lng": 137.1656831,
    "tel": "0299-95-7522",
    "url": "https://miyamoto-hp.or.jp",
    "pref": "茨城県",
    "city": "稲敷市",
    "category": "care_medical_institute",
    "serviceType": "介護医療院",
    "capacity": 48,
    "openDays": [],
    "openDaysNote": ""
  },
  {
    "id": "08B0400018",
    "name": "介護医療院はまだクリニック",
    "kana": "カイゴイリョウインハマダクリニック",
    "address": "坂間185-11",
    "lat": null,
    "lng": null,
    "tel": "0280-48-7575",
    "url": "http://hama-cl.byoinnavi.jp/pc/",
    "pref": "茨城県",
    "city": "古河市",
    "category": "care_medical_institute",
    "serviceType": "介護医療院",
    "capacity": null,
    "openDays": [],
    "openDaysNote": ""
  },
  {
    "id": "08B1700010",
    "name": "にしまぎ介護医療院",
    "kana": "ニシマギカイゴイリョウイン",
    "address": "戸頭1-8-21",
    "lat": 35.9190319,
    "lng": 140.0129229,
    "tel": "0297-78-3365",
    "url": "https://nishimagi-hospital.com/",
    "pref": "茨城県",
    "city": "取手市",
    "category": "care_medical_institute",
    "serviceType": "介護医療院",
    "capacity": 27,
    "openDays": [],
    "openDaysNote": ""
  },
  {
    "id": "08B1200029",
    "name": "介護医療院　はすみ敬愛",
    "kana": "カイゴイリョウイン　ハスミケイアイ",
    "address": "茨城県常陸太田市木崎二町　931-2",
    "lat": 36.5318633,
    "lng": 140.5244757,
    "tel": "0294-72-5121",
    "url": "https://nishiyamado.teishinkai.or.jp",
    "pref": "茨城県",
    "city": "常陸太田市",
    "category": "care_medical_institute",
    "serviceType": "介護医療院",
    "capacity": null,
    "openDays": [],
    "openDaysNote": ""
  },
  {
    "id": "08B1200011",
    "name": "介護医療院太田病院",
    "kana": "カイゴイリョウインオオタビョウイン",
    "address": "茨城県常陸太田市中城町１７３番地",
    "lat": 36.5447518,
    "lng": 140.5215612,
    "tel": "0294-72-2580",
    "url": "",
    "pref": "茨城県",
    "city": "常陸太田市",
    "category": "care_medical_institute",
    "serviceType": "介護医療院",
    "capacity": 0,
    "openDays": [],
    "openDaysNote": ""
  },
  {
    "id": "08B2500013",
    "name": "高村外科医院介護医療院",
    "kana": "タカムラゲカイインカイゴイリョウイン",
    "address": "茨城県常陸大宮市山方1117-1",
    "lat": 36.6195033,
    "lng": 140.4019846,
    "tel": "0295-57-2031",
    "url": "",
    "pref": "茨城県",
    "city": "常陸大宮市",
    "category": "care_medical_institute",
    "serviceType": "介護医療院",
    "capacity": null,
    "openDays": [],
    "openDaysNote": ""
  },
  {
    "id": "08B3100011",
    "name": "介護医療院おおあらい",
    "kana": "カイゴイリョウインオオアライ",
    "address": "茨城県東茨城郡大洗町大貫町９１５",
    "lat": 36.3016263,
    "lng": 140.5587344,
    "tel": "029-267-2191",
    "url": "http://www.watanabekai.net/",
    "pref": "茨城県",
    "city": "大洗町",
    "category": "care_medical_institute",
    "serviceType": "介護医療院",
    "capacity": null,
    "openDays": [],
    "openDaysNote": ""
  },
  {
    "id": "08B2700027",
    "name": "三岳荘小松崎病院介護医療院",
    "kana": "サンガクソウコマツザキビョウインカイゴイリョウイン",
    "address": "茨城県筑西市中館２２６５番地",
    "lat": 36.3274596388909,
    "lng": 139.975469496295,
    "tel": "0296-24-2331",
    "url": "http://www.sangakusou.or.jp",
    "pref": "茨城県",
    "city": "筑西市",
    "category": "care_medical_institute",
    "serviceType": "介護医療院",
    "capacity": 0,
    "openDays": [],
    "openDaysNote": ""
  },
  {
    "id": "08B0300010",
    "name": "土浦リハビリテーション病院介護医療院",
    "kana": "ツチウラリハビリテーションビョウインカイゴイリョウイン",
    "address": "茨城県土浦市真鍋新町11-7",
    "lat": 36.0898274,
    "lng": 140.2097307,
    "tel": "029-875-7888",
    "url": "https://www.central.or.jp/iryoin/",
    "pref": "茨城県",
    "city": "土浦市",
    "category": "care_medical_institute",
    "serviceType": "介護医療院",
    "capacity": 0,
    "openDays": [],
    "openDaysNote": ""
  },
  {
    "id": "08B0200012",
    "name": "医療法人惇慈会日立港病院介護医療院",
    "kana": "イリョウホウジンジュンジカイヒタチコウビョウインカイゴイリョウイン",
    "address": "茨城県日立市みなと町１１番１０号",
    "lat": 36.4954767,
    "lng": 140.6195728,
    "tel": "０２９４－５２－３５７６",
    "url": "http://hitachikoh‐hp.com/",
    "pref": "茨城県",
    "city": "日立市",
    "category": "care_medical_institute",
    "serviceType": "介護医療院",
    "capacity": 48,
    "openDays": [],
    "openDaysNote": ""
  },
  {
    "id": "08B0200020",
    "name": "日鉱記念病院　介護医療院",
    "kana": "ニッコウキネンビョウイン　カイゴイリョウイン",
    "address": "茨城県日立市宮田町1-4-1",
    "lat": 36.601151864598,
    "lng": 140.6495683,
    "tel": "0294-24-1212",
    "url": "http://nikko-memorial-hos.or.jp/",
    "pref": "茨城県",
    "city": "日立市",
    "category": "care_medical_institute",
    "serviceType": "介護医療院",
    "capacity": null,
    "openDays": [],
    "openDaysNote": ""
  },
  {
    "id": "08B1500014",
    "name": "瀧病院　介護医療院",
    "kana": "タキビョウイン　カイゴイリョウイン",
    "address": "茨城県北茨城市磯原町磯原2-305",
    "lat": 36.7911522,
    "lng": 140.7398042,
    "tel": "0293-42-1221",
    "url": "https://www.takih.jp/info.html",
    "pref": "茨城県",
    "city": "北茨城市",
    "category": "care_medical_institute",
    "serviceType": "介護医療院",
    "capacity": 0,
    "openDays": [],
    "openDaysNote": ""
  },
  {
    "id": "08B0800019",
    "name": "牛尾病院介護医療院",
    "kana": "ウシオビョウインカイゴイリョウイン",
    "address": "茨城県龍ケ崎市馴柴町1-15-1",
    "lat": 35.9292996,
    "lng": 140.1479957,
    "tel": "0297-66-6333",
    "url": "http://www.ryujinkai.or.jp/",
    "pref": "茨城県",
    "city": "龍ヶ崎市",
    "category": "care_medical_institute",
    "serviceType": "介護医療院",
    "capacity": 60,
    "openDays": [],
    "openDaysNote": ""
  }
]