[
  {
    "id": "42B0200044",
    "name": "医療法人梶田医院介護医療院みのりの里",
    "kana": "イリョウホウジンカジタイインカイゴイリョウインミノリノサト",
    "address": "佐世保市南風崎町133-2介護医療院みのりの里 介護医療院みのりの里",
    "lat": 33.0867938,
    "lng": 129.8057772,
    "tel": "0956-59-2818",
    "url": "",
    "pref": "長崎県",
    "city": "佐世保市",
    "category": "care_medical_institute",
    "serviceType": "介護医療院",
    "capacity": 0,
    "openDays": [],
    "openDaysNote": ""
  },
  {
    "id": "42B0200028",
    "name": "医療法人誠愛会　佐世保記念病院　介護医療院",
    "kana": "イリョウホウジンセイアイカイ　サセボキネンビョウイン　カイゴイリョウイン",
    "address": "長崎県佐世保市鹿子前町１０４番地",
    "lat": 33.1567259,
    "lng": 129.683204,
    "tel": "0956-28-1111",
    "url": "http://seiaikai-group.or.jp",
    "pref": "長崎県",
    "city": "佐世保市",
    "category": "care_medical_institute",
    "serviceType": "介護医療院",
    "capacity": null,
    "openDays": [],
    "openDaysNote": ""
  },
  {
    "id": "42B0200036",
    "name": "最勝寺内科医院　介護医療院",
    "kana": "サイショウジナイカイイン　カイゴイリョウイン",
    "address": "長崎県佐世保市光町1-18",
    "lat": 33.2070288,
    "lng": 129.6517017,
    "tel": "0956-47-2613",
    "url": "saishoji_iin_clin@yahoo.co.jp",
    "pref": "長崎県",
    "city": "佐世保市",
    "category": "care_medical_institute",
    "serviceType": "介護医療院",
    "capacity": 0,
    "openDays": [],
    "openDaysNote": ""
  },
  {
    "id": "42B0200010",
    "name": "特定医療法人雄博会　千住介護医療院",
    "kana": "トクテイイリョウホウジンユウハクカイ　センジュウカイゴイリョウイン",
    "address": "長崎県佐世保市宮地町5番5号",
    "lat": 33.1743616,
    "lng": 129.722273,
    "tel": "0956-24-1010",
    "url": "http://www.1010hosp.or.jp/",
    "pref": "長崎県",
    "city": "佐世保市",
    "category": "care_medical_institute",
    "serviceType": "介護医療院",
    "capacity": null,
    "openDays": [],
    "openDaysNote": ""
  },
  {
    "id": "42B0800017",
    "name": "医療法人長愛会　菊地病院介護医療院",
    "kana": "イリョウホウジンチョウアイカイ　キクチビョウインカイゴイリョウイン",
    "address": "長崎県松浦市志佐町浦免１７６５－４",
    "lat": 33.3413477,
    "lng": 129.7046141,
    "tel": "0956-72-0151",
    "url": "http://www.kikuchi-hp.com",
    "pref": "長崎県",
    "city": "松浦市",
    "category": "care_medical_institute",
    "serviceType": "介護医療院",
    "capacity": 0,
    "openDays": [],
    "openDaysNote": ""
  },
  {
    "id": "42B0100020",
    "name": "介護医療院　　学び舎",
    "kana": "カイゴイリョウイン　　マナビヤ",
    "address": "長崎県長崎市富士見町18－24長崎みどり病院　2階 長崎みどり病院　2階",
    "lat": 32.7731467,
    "lng": 129.854672,
    "tel": "095－818－0020",
    "url": "",
    "pref": "長崎県",
    "city": "長崎市",
    "category": "care_medical_institute",
    "serviceType": "介護医療院",
    "capacity": null,
    "openDays": [],
    "openDaysNote": ""
  },
  {
    "id": "42B0100038",
    "name": "介護医療院カリタス",
    "kana": "カイゴイリョウインカリタス",
    "address": "長崎県長崎市新牧野町132番地1",
    "lat": 32.8526146,
    "lng": 129.7050572,
    "tel": "0959-25-0741",
    "url": "",
    "pref": "長崎県",
    "city": "長崎市",
    "category": "care_medical_institute",
    "serviceType": "介護医療院",
    "capacity": null,
    "openDays": [],
    "openDaysNote": ""
  },
  {
    "id": "42B0300018",
    "name": "介護医療院　リハサポート",
    "kana": "カイゴイリョウイン　リハサポート",
    "address": "長崎県島原市湖南町6893-2",
    "lat": 32.7782645,
    "lng": 130.3683116,
    "tel": "0957-62-5161",
    "url": "toyokai-medi.jp/",
    "pref": "長崎県",
    "city": "島原市",
    "category": "care_medical_institute",
    "serviceType": "介護医療院",
    "capacity": 0,
    "openDays": [],
    "openDaysNote": ""
  },
  {
    "id": "42B2500011",
    "name": "医療法人　弘池会　介護医療院くちのつ",
    "kana": "イリョウホウジン　コウチカイ　カイゴイリョウインクチノツ",
    "address": "長崎県南島原市口之津町丁5615",
    "lat": 32.6107701,
    "lng": 130.1941656,
    "tel": "0957-86-2200",
    "url": "http://ｗｗｗ.kouchikai.com",
    "pref": "長崎県",
    "city": "南島原市",
    "category": "care_medical_institute",
    "serviceType": "介護医療院",
    "capacity": null,
    "openDays": [],
    "openDaysNote": ""
  },
  {
    "id": "42B0700019",
    "name": "国民健康保険　平戸市民病院　介護医療院",
    "kana": "コクミンケンコウホケン　ヒラドシミンビョウイン　カイゴイリョウイン",
    "address": "長崎県平戸市草積町1125番地12",
    "lat": 33.2843607,
    "lng": 129.4654286,
    "tel": "0950-28-1113",
    "url": "https://hirado-municipal-hospital.com/",
    "pref": "長崎県",
    "city": "平戸市",
    "category": "care_medical_institute",
    "serviceType": "介護医療院",
    "capacity": 13,
    "openDays": [],
    "openDaysNote": ""
  },
  {
    "id": "42B0400032",
    "name": "医療法人祐里会　あねがわ介護医療院",
    "kana": "イリョウホウジンユウリカイ　アネガワカイゴイリョウイン",
    "address": "長崎県諫早市小野島町2378-2",
    "lat": 32.8510374,
    "lng": 130.088434,
    "tel": "0957-24-3180",
    "url": "https://anegawa‐hp.jp/",
    "pref": "長崎県",
    "city": "諫早市",
    "category": "care_medical_institute",
    "serviceType": "介護医療院",
    "capacity": 38,
    "openDays": [],
    "openDaysNote": ""
  },
  {
    "id": "42B0400024",
    "name": "介護医療院　からこ",
    "kana": "カイゴイリョウイン　カラコ",
    "address": "長崎県諫早市森山町唐比西1165番地介護医療院　からこ 介護医療院　からこ",
    "lat": 32.7970810142112,
    "lng": 130.124302022615,
    "tel": "0957-36-0011",
    "url": "http://karako-hp.jp/",
    "pref": "長崎県",
    "city": "諫早市",
    "category": "care_medical_institute",
    "serviceType": "介護医療院",
    "capacity": 0,
    "openDays": [],
    "openDaysNote": ""
  },
  {
    "id": "42B0400016",
    "name": "介護医療院　恵愛荘",
    "kana": "カイゴイリョウイン　ケイアイソウ",
    "address": "長崎県諫早市有喜町５９３番地１",
    "lat": 32.7917008,
    "lng": 130.0777745,
    "tel": "0957-28-6570",
    "url": "http://uki-fukushimura.jp/keiaisou/",
    "pref": "長崎県",
    "city": "諫早市",
    "category": "care_medical_institute",
    "serviceType": "介護医療院",
    "capacity": null,
    "openDays": [],
    "openDaysNote": ""
  }
]