[
  {
    "id": "20B2500025",
    "name": "介護医療院　橋上医院",
    "kana": "カイゴイリョウイン　ハシガミイイン",
    "address": "長野県下伊那郡阿智村駒場359番地1",
    "lat": 35.4459330993714,
    "lng": 137.75011028884,
    "tel": "0265-43-2118",
    "url": "alten-hein.com",
    "pref": "長野県",
    "city": "阿智村",
    "category": "care_medical_institute",
    "serviceType": "介護医療院",
    "capacity": 0,
    "openDays": [],
    "openDaysNote": ""
  },
  {
    "id": "20B0900011",
    "name": "介護医療院じんあい",
    "kana": "カイゴイリョウインジンアイ",
    "address": "長野県伊那市西町4906",
    "lat": 35.8360590753327,
    "lng": 137.958003259,
    "tel": "0265-78-3333",
    "url": "https://jinai-h.org",
    "pref": "長野県",
    "city": "伊那市",
    "category": "care_medical_institute",
    "serviceType": "介護医療院",
    "capacity": 0,
    "openDays": [],
    "openDaysNote": ""
  },
  {
    "id": "20B1500026",
    "name": "医療法人元山会中村病院介護医療院えんらいふ",
    "kana": "イリョウホウジンゲンザンカイナカムラビョウインカイゴイリョウインエンライフ",
    "address": "長野県塩尻市広丘高出1612番地3",
    "lat": 36.1218949,
    "lng": 137.958335,
    "tel": "0263-52-3321",
    "url": "http://www.nakamura-hospital.jp/",
    "pref": "長野県",
    "city": "塩尻市",
    "category": "care_medical_institute",
    "serviceType": "介護医療院",
    "capacity": null,
    "openDays": [],
    "openDaysNote": ""
  },
  {
    "id": "20B1500018",
    "name": "医療法人社団敬仁会　介護医療院　添え木",
    "kana": "イリョウホウジンシャダンケイジンカイ　カイゴイリョウイン　ソエギ",
    "address": "長野県塩尻市宗賀1295番地",
    "lat": 36.1112491,
    "lng": 137.9324494,
    "tel": "0263-53-2050",
    "url": "https://www.keijin-kai.jp/",
    "pref": "長野県",
    "city": "塩尻市",
    "category": "care_medical_institute",
    "serviceType": "介護医療院",
    "capacity": 0,
    "openDays": [],
    "openDaysNote": ""
  },
  {
    "id": "20B2500017",
    "name": "下伊那厚生病院介護医療院",
    "kana": "シモイナコウセイビョウインカイゴイリョウイン",
    "address": "長野県下伊那郡高森町吉田481番地13",
    "lat": 35.5511657,
    "lng": 137.8886715,
    "tel": "0265-35-7511",
    "url": "http://shimoina-hp.jp/",
    "pref": "長野県",
    "city": "高森町",
    "category": "care_medical_institute",
    "serviceType": "介護医療院",
    "capacity": 0,
    "openDays": [],
    "openDaysNote": ""
  },
  {
    "id": "20B2000018",
    "name": "佐久穂町立千曲病院介護医療院",
    "kana": "サクホチョウリツチクマビョウインカイゴイリョウイン",
    "address": "長野県南佐久郡佐久穂町大字高野町３２８佐久穂町立千曲病院 佐久穂町立千曲病院",
    "lat": 36.161831,
    "lng": 138.4774165,
    "tel": "０２６７ー８６－２３６０",
    "url": "https://www.chikumahospital.jp/",
    "pref": "長野県",
    "city": "佐久穂町",
    "category": "care_medical_institute",
    "serviceType": "介護医療院",
    "capacity": 0,
    "openDays": [],
    "openDaysNote": ""
  },
  {
    "id": "20B0800021",
    "name": "小諸病院介護医療院",
    "kana": "コモロビョウインカイゴイリョウイン",
    "address": "長野県小諸市荒町2丁目1-1",
    "lat": 36.3262241312975,
    "lng": 138.426874893254,
    "tel": "0267-22-0250",
    "url": "http://komoro-hosp.jp/",
    "pref": "長野県",
    "city": "小諸市",
    "category": "care_medical_institute",
    "serviceType": "介護医療院",
    "capacity": 0,
    "openDays": [],
    "openDaysNote": ""
  },
  {
    "id": "20B2500033",
    "name": "下伊那赤十字病院介護医療院",
    "kana": "シモイナセキジュウジビョウインカイゴイリョウイン",
    "address": "長野県下伊那郡松川町元大島3159-1",
    "lat": 35.6002061,
    "lng": 137.9108844,
    "tel": "0265-36-2255",
    "url": "https://shimoina.jrc.or.jp/",
    "pref": "長野県",
    "city": "松川町",
    "category": "care_medical_institute",
    "serviceType": "介護医療院",
    "capacity": null,
    "openDays": [],
    "openDaysNote": ""
  },
  {
    "id": "2010217335",
    "name": "医療法人心泉会上條記念病院",
    "kana": "シンセンカイカミジョウキネンビョウイン",
    "address": "長野県松本市村井町西2-16-1",
    "lat": 36.1723094,
    "lng": 137.9474622,
    "tel": "0263-57-3800",
    "url": "http://www.kamijyomhp.or.jp/",
    "pref": "長野県",
    "city": "松本市",
    "category": "care_medical_institute",
    "serviceType": "介護医療院",
    "capacity": 0,
    "openDays": [],
    "openDaysNote": ""
  },
  {
    "id": "20B0200016",
    "name": "社会医療法人城西医療財団城西病院介護医療院",
    "kana": "シャカイイリョウホウジンシロニシイリョウザイダンシロニシビョウインカイゴイリョウイン",
    "address": "長野県松本市城西1丁目5番16号",
    "lat": 36.2394851,
    "lng": 137.9624723,
    "tel": "0263-33-2201",
    "url": "http://www.shironishi.or.jp/sh/",
    "pref": "長野県",
    "city": "松本市",
    "category": "care_medical_institute",
    "serviceType": "介護医療院",
    "capacity": null,
    "openDays": [],
    "openDaysNote": ""
  },
  {
    "id": "20B0300014",
    "name": "丸子中央病院",
    "kana": "マルコチュウオウビョウイン",
    "address": "長野県上田市中丸子1771番地1",
    "lat": 36.338161,
    "lng": 138.2703063,
    "tel": "0268-42-1111",
    "url": "http://maruyamakai.or.jp/maruko-hp/",
    "pref": "長野県",
    "city": "上田市",
    "category": "care_medical_institute",
    "serviceType": "介護医療院",
    "capacity": null,
    "openDays": [],
    "openDaysNote": ""
  },
  {
    "id": "20B1100017",
    "name": "介護医療院　長寿の里",
    "kana": "カイゴイリョウイン　チョウジュノサト",
    "address": "長野県中野市上今井601",
    "lat": 36.7508669,
    "lng": 138.3188329,
    "tel": "0269-38-3311",
    "url": "https://issh.jp/chojyu/index.html",
    "pref": "長野県",
    "city": "中野市",
    "category": "care_medical_institute",
    "serviceType": "介護医療院",
    "capacity": null,
    "openDays": [],
    "openDaysNote": ""
  },
  {
    "id": "20B0100026",
    "name": "医療法人社団温心会　東和田病院介護医療院",
    "kana": "イリョウホウジンシャダン　ヒガシワダビョウインカイゴイリョウイン",
    "address": "長野県長野市東和田723番地",
    "lat": 36.6535301,
    "lng": 138.2296317,
    "tel": "026-243-4895",
    "url": "http://www.higashiwada-h.com/",
    "pref": "長野県",
    "city": "長野市",
    "category": "care_medical_institute",
    "serviceType": "介護医療院",
    "capacity": 149,
    "openDays": [],
    "openDaysNote": ""
  },
  {
    "id": "20B0100018",
    "name": "介護医療院とよの",
    "kana": "カイゴイリョウイントヨノ",
    "address": "長野県長野市豊野町豊野634",
    "lat": 36.7107324,
    "lng": 138.2827552,
    "tel": "026－257-2470",
    "url": "https://san-ikukai.or.jp/toyono/",
    "pref": "長野県",
    "city": "長野市",
    "category": "care_medical_institute",
    "serviceType": "介護医療院",
    "capacity": null,
    "openDays": [],
    "openDaysNote": ""
  },
  {
    "id": "20B0500019",
    "name": "介護医療院　西澤病院",
    "kana": "カイゴイリョウイン　ニシザワビョウイン",
    "address": "長野県飯田市本町4丁目5番地",
    "lat": 35.517001,
    "lng": 137.8216253,
    "tel": "0265-24-3800",
    "url": "https://nishizawa-hp.jp/",
    "pref": "長野県",
    "city": "飯田市",
    "category": "care_medical_institute",
    "serviceType": "介護医療院",
    "capacity": 0,
    "openDays": [],
    "openDaysNote": ""
  },
  {
    "id": "20B2600015",
    "name": "長野県立木曽病院介護医療院",
    "kana": "ナガノケンリツキソビョウインカイゴイリョウイン",
    "address": "長野県木曽郡木曽町福島６６１３－４",
    "lat": 35.8347978,
    "lng": 137.6834008,
    "tel": "0264-22-2703",
    "url": "https://kiso-hosp.jp/",
    "pref": "長野県",
    "city": "木曽町",
    "category": "care_medical_institute",
    "serviceType": "介護医療院",
    "capacity": 0,
    "openDays": [],
    "openDaysNote": ""
  }
]