[
  {
    "id": "02B2500019",
    "name": "医療法人正恵会　石田温泉病院",
    "kana": "イリョウホウジンセイケイカイ　イシダオンセンビョウイン",
    "address": "青森県上北郡おいらせ町上前田２１－１",
    "lat": 40.6025489,
    "lng": 141.4312921,
    "tel": "0178-52-3611",
    "url": "https://seikeikai-ao.jp",
    "pref": "青森県",
    "city": "おいらせ町",
    "category": "care_medical_institute",
    "serviceType": "介護医療院",
    "capacity": 40,
    "openDays": [],
    "openDaysNote": ""
  },
  {
    "id": "02B0900013",
    "name": "医療法人誠仁会　介護医療院　尾野病院",
    "kana": "イリョウホウジンセイジンカイ　カイゴイリョウイン　オノビョウイン",
    "address": "青森県つがる市木造若竹5",
    "lat": 40.8077891,
    "lng": 140.3919104,
    "tel": "0173-42-2133",
    "url": "http://www.aomori-seijinkai.or.jp",
    "pref": "青森県",
    "city": "つがる市",
    "category": "care_medical_institute",
    "serviceType": "介護医療院",
    "capacity": 0,
    "openDays": [],
    "openDaysNote": ""
  },
  {
    "id": "02B0500029",
    "name": "医療法人慈仁会　尾野病院",
    "kana": "イリョウホウジンジジンカイ　オノビョウイン",
    "address": "青森県五所川原市金木町朝日山453",
    "lat": 40.9034856521248,
    "lng": 140.453265049074,
    "tel": "0173-53-2071",
    "url": "http://www.ono-hospital.com",
    "pref": "青森県",
    "city": "五所川原市",
    "category": "care_medical_institute",
    "serviceType": "介護医療院",
    "capacity": null,
    "openDays": [],
    "openDaysNote": ""
  },
  {
    "id": "02B0200034",
    "name": "医療法人聖誠会オリーブ介護医療院",
    "kana": "イリョウホウジンセイセイカイオリーブカイゴイリョウイン",
    "address": "青森県弘前市大字新町１５１番地",
    "lat": 40.6071544,
    "lng": 140.4552736,
    "tel": "0172-34-3252",
    "url": "http://www.myclinic.ne.jp/ishizawa",
    "pref": "青森県",
    "city": "弘前市",
    "category": "care_medical_institute",
    "serviceType": "介護医療院",
    "capacity": null,
    "openDays": [],
    "openDaysNote": ""
  },
  {
    "id": "02B0200026",
    "name": "介護医療院くどう",
    "kana": "カイゴイリョウインクドウ",
    "address": "青森県弘前市大字石川字石川97番地",
    "lat": 40.5524522,
    "lng": 140.5430957,
    "tel": "0172-92-3316",
    "url": "",
    "pref": "青森県",
    "city": "弘前市",
    "category": "care_medical_institute",
    "serviceType": "介護医療院",
    "capacity": 0,
    "openDays": [],
    "openDaysNote": ""
  },
  {
    "id": "02B0200018",
    "name": "梅村介護医療院",
    "kana": "ウメムラカイゴイリョウイン",
    "address": "青森県弘前市石渡一丁目1番地6",
    "lat": 40.6264567,
    "lng": 140.4544633,
    "tel": "0172-32-3593",
    "url": "",
    "pref": "青森県",
    "city": "弘前市",
    "category": "care_medical_institute",
    "serviceType": "介護医療院",
    "capacity": 0,
    "openDays": [],
    "openDaysNote": ""
  },
  {
    "id": "02B0100010",
    "name": "介護医療院　石木医院",
    "kana": "カイゴイリョウイン　イシキイイン",
    "address": "青森県青森市大字浅虫字蛍谷65番地37",
    "lat": 40.8895801,
    "lng": 140.8628488,
    "tel": "017-752-3015",
    "url": "",
    "pref": "青森県",
    "city": "青森市",
    "category": "care_medical_institute",
    "serviceType": "介護医療院",
    "capacity": 0,
    "openDays": [],
    "openDaysNote": ""
  },
  {
    "id": "02B0100028",
    "name": "介護医療院　白取医院",
    "kana": "カイゴイリョウイン　シラトリイイン",
    "address": "青森県青森市大字高田字川瀬２９４番地９",
    "lat": 40.7682220017911,
    "lng": 140.722828933799,
    "tel": "017-739-2342",
    "url": "",
    "pref": "青森県",
    "city": "青森市",
    "category": "care_medical_institute",
    "serviceType": "介護医療院",
    "capacity": 0,
    "openDays": [],
    "openDaysNote": ""
  },
  {
    "id": "02B0100036",
    "name": "介護医療院カトレア",
    "kana": "カイゴイリョウインカトレア",
    "address": "高田川瀬110－1",
    "lat": 40.7615871,
    "lng": 140.7208127,
    "tel": "017-739-6100",
    "url": "https://heigenkai.jp/",
    "pref": "青森県",
    "city": "青森市",
    "category": "care_medical_institute",
    "serviceType": "介護医療院",
    "capacity": 0,
    "openDays": [],
    "openDaysNote": ""
  },
  {
    "id": "02B0300024",
    "name": "みちのく記念病院介護医療院",
    "kana": "ミチノクキネンビョウインカイゴイリョウイン",
    "address": "青森県八戸市小中野４丁目１番６０号",
    "lat": 40.5195727,
    "lng": 141.5081381,
    "tel": "0178-22-3999",
    "url": "",
    "pref": "青森県",
    "city": "八戸市",
    "category": "care_medical_institute",
    "serviceType": "介護医療院",
    "capacity": null,
    "openDays": [],
    "openDaysNote": ""
  },
  {
    "id": "02B0300016",
    "name": "湊病院介護医療院",
    "kana": "ミナトビョウインカイゴイリョウイン",
    "address": "青森県八戸市大字新井田字松山下野場7番地15",
    "lat": 40.5039241,
    "lng": 141.5339873,
    "tel": "0178-25-0011",
    "url": "https://www.seishou.jp/careclinic/",
    "pref": "青森県",
    "city": "八戸市",
    "category": "care_medical_institute",
    "serviceType": "介護医療院",
    "capacity": 48,
    "openDays": [],
    "openDaysNote": ""
  },
  {
    "id": "02B1000011",
    "name": "みらい会介護医療院",
    "kana": "ミライカイカイゴイリョウイン",
    "address": "青森県平川市柏木町藤山37-5",
    "lat": 40.5857843,
    "lng": 140.5633922,
    "tel": "0172-44-3100",
    "url": "https://miraikai.cloud-line.com/kaigoiryouinn/",
    "pref": "青森県",
    "city": "平川市",
    "category": "care_medical_institute",
    "serviceType": "介護医療院",
    "capacity": 0,
    "openDays": [],
    "openDaysNote": ""
  }
]