[
  {
    "id": "22B0700013",
    "name": "伊豆慶友介護医療院",
    "kana": "イズケイユウカイゴイリョウイン",
    "address": "静岡県伊豆市月ヶ瀬380-2",
    "lat": 34.9181985095901,
    "lng": 138.924934196295,
    "tel": "0558-85-1701",
    "url": "https://www.izukeiyu.jp/",
    "pref": "静岡県",
    "city": "伊豆市",
    "category": "care_medical_institute",
    "serviceType": "介護医療院",
    "capacity": 0,
    "openDays": [],
    "openDaysNote": ""
  },
  {
    "id": "22B0700021",
    "name": "伊豆赤十字介護医療院",
    "kana": "イズセキジュウジカイゴイリョウイン",
    "address": "静岡県伊豆市小立野１００－２",
    "lat": 34.9760307,
    "lng": 138.9453578,
    "tel": "0558-74-3300",
    "url": "http://izurckaigoiryouin.jp/",
    "pref": "静岡県",
    "city": "伊豆市",
    "category": "care_medical_institute",
    "serviceType": "介護医療院",
    "capacity": 0,
    "openDays": [],
    "openDaysNote": ""
  },
  {
    "id": "22B0700039",
    "name": "医療法人社団同仁会　中島介護医療院",
    "kana": "イリョウホウジンシャダンドウジンカイ　ナカジマカイゴイリョウイン",
    "address": "静岡県伊豆市松ヶ瀬７５",
    "lat": 34.9963807,
    "lng": 138.9761422,
    "tel": "0558-87-0333",
    "url": "nakajimahospital.or.jp",
    "pref": "静岡県",
    "city": "伊豆市",
    "category": "care_medical_institute",
    "serviceType": "介護医療院",
    "capacity": null,
    "openDays": [],
    "openDaysNote": ""
  },
  {
    "id": "22B0200014",
    "name": "医療法人社団　桑寿会　下田温泉病院介護医療院",
    "kana": "イリョウホウジンシャダン　ソウジュカイ　シモダオンセンビョウインカイゴイリョウイン",
    "address": "静岡県下田市柿崎997-2",
    "lat": 34.6722574,
    "lng": 138.967411,
    "tel": "0558-22-5001",
    "url": "",
    "pref": "静岡県",
    "city": "下田市",
    "category": "care_medical_institute",
    "serviceType": "介護医療院",
    "capacity": 0,
    "openDays": [],
    "openDaysNote": ""
  },
  {
    "id": "22B7400021",
    "name": "医療法人社団　綾和会　掛川北病院　介護医療院",
    "kana": "イリョウホウジンシャダン　リョウワカイ　カケガワキタビョウイン　カイゴイリョウイン",
    "address": "掛川市下垂木3350番地",
    "lat": 34.7871272,
    "lng": 137.9959968,
    "tel": "0537-62-3111",
    "url": "http://www.ryouwa-kai.com/",
    "pref": "静岡県",
    "city": "掛川市",
    "category": "care_medical_institute",
    "serviceType": "介護医療院",
    "capacity": null,
    "openDays": [],
    "openDaysNote": ""
  },
  {
    "id": "22B7400013",
    "name": "掛川東病院　介護医療院",
    "kana": "カケガワヒガシビョウイン　カイゴイリョウイン",
    "address": "静岡県掛川市杉谷南1丁目1-1",
    "lat": 34.7619733,
    "lng": 138.0272033,
    "tel": "0537-23-7111",
    "url": "www.kakegawa-higasi.com",
    "pref": "静岡県",
    "city": "掛川市",
    "category": "care_medical_institute",
    "serviceType": "介護医療院",
    "capacity": 0,
    "openDays": [],
    "openDaysNote": ""
  },
  {
    "id": "22B5500012",
    "name": "医療法人社団　八洲会　介護医療院　はいなん吉田病院",
    "kana": "イリョウホウジンシャダン　ヤシマカイ　カイゴイリョウイン　ハイナンヨシダビョウイン",
    "address": "静岡県榛原郡吉田町神戸2571-6",
    "lat": 34.7776198,
    "lng": 138.2419187,
    "tel": "548329111",
    "url": "https://www.hainan-yoshida.jp/",
    "pref": "静岡県",
    "city": "吉田町",
    "category": "care_medical_institute",
    "serviceType": "介護医療院",
    "capacity": null,
    "openDays": [],
    "openDaysNote": ""
  },
  {
    "id": "22B8400012",
    "name": "浜名病院介護医療院",
    "kana": "ハマナビョウインカイゴイリョウイン",
    "address": "静岡県湖西市新所岡崎梅田入会地15番地の70浜名病院本館　5階 浜名病院本館　5階",
    "lat": 34.723602,
    "lng": 137.493442,
    "tel": "053－577－2333",
    "url": "http://www.hamanakai.or.jp/",
    "pref": "静岡県",
    "city": "湖西市",
    "category": "care_medical_institute",
    "serviceType": "介護医療院",
    "capacity": null,
    "openDays": [],
    "openDaysNote": ""
  },
  {
    "id": "22B1200021",
    "name": "医療法人社団清陽会　富士山麓病院介護医療院",
    "kana": "イリョウホウジンシャダンセイヨウカイ　フジサンロクビョウインカイゴイリョウイン",
    "address": "静岡県御殿場市中畑字飯塚1932番地",
    "lat": 35.314099858806,
    "lng": 138.88585776741,
    "tel": "0550-89-5671",
    "url": "http://www.ninchisyo.jp",
    "pref": "静岡県",
    "city": "御殿場市",
    "category": "care_medical_institute",
    "serviceType": "介護医療院",
    "capacity": 0,
    "openDays": [],
    "openDaysNote": ""
  },
  {
    "id": "22B1200013",
    "name": "一般財団法人神山復生会　神山復生病院介護医療院",
    "kana": "イッパンザイダンホウジンコウヤマフクセイカイ　コウヤマフクセイビョウインカイゴイリョウイン",
    "address": "静岡県御殿場市神山109番地",
    "lat": 35.2393103,
    "lng": 138.9228213,
    "tel": "0550-87-0004",
    "url": "http:www.fukusei.jp",
    "pref": "静岡県",
    "city": "御殿場市",
    "category": "care_medical_institute",
    "serviceType": "介護医療院",
    "capacity": null,
    "openDays": [],
    "openDaysNote": ""
  },
  {
    "id": "22B1100015",
    "name": "介護医療院　あしたか",
    "kana": "カイゴイリョウイン　アシタカ",
    "address": "222038静岡県沼津市今沢西畑３７２番5 静岡県沼津市今沢西畑３７２番5",
    "lat": null,
    "lng": null,
    "tel": "055-967-3711",
    "url": "",
    "pref": "静岡県",
    "city": "沼津市",
    "category": "care_medical_institute",
    "serviceType": "介護医療院",
    "capacity": 0,
    "openDays": [],
    "openDaysNote": ""
  },
  {
    "id": "22B5100011",
    "name": "駿河西病院　介護医療院",
    "kana": "スルガニシビョウイン　カイゴイリョウイン",
    "address": "中根新田1315",
    "lat": 34.8291716,
    "lng": 138.286918,
    "tel": "054-623-5111",
    "url": "http://www.suruga-nishi.com/",
    "pref": "静岡県",
    "city": "焼津市",
    "category": "care_medical_institute",
    "serviceType": "介護医療院",
    "capacity": 0,
    "openDays": [],
    "openDaysNote": ""
  },
  {
    "id": "22B1400019",
    "name": "医療法人社団榮紀会　東名裾野病院　介護医療院",
    "kana": "イリョウホウジンシャダンエイキカイ　トウメイスソノビョウイン　カイゴイリョウイン",
    "address": "御宿1472",
    "lat": 35.2125437,
    "lng": 138.9106416,
    "tel": "055-997-0200",
    "url": "eikikai.or.jp",
    "pref": "静岡県",
    "city": "裾野市",
    "category": "care_medical_institute",
    "serviceType": "介護医療院",
    "capacity": 0,
    "openDays": [],
    "openDaysNote": ""
  },
  {
    "id": "22B4200028",
    "name": "静岡瀬名病院　介護医療院",
    "kana": "シズオカセナビョウイン　カイゴイリョウイン",
    "address": "静岡県静岡市葵区瀬名4629番地の1",
    "lat": 35.035684,
    "lng": 138.4276013,
    "tel": "054-264-2111",
    "url": "https://kojinkai-iryou.com/senahp/",
    "pref": "静岡県",
    "city": "静岡市葵区",
    "category": "care_medical_institute",
    "serviceType": "介護医療院",
    "capacity": 0,
    "openDays": [],
    "openDaysNote": ""
  },
  {
    "id": "22B4200010",
    "name": "静岡広野病院介護医療院",
    "kana": "シズオカヒロノビョウインカイゴイリョウイン",
    "address": "静岡市駿河区広野1494-8",
    "lat": 34.9278612,
    "lng": 138.3762222,
    "tel": "054-258-6666",
    "url": "https://kojinkai-iryou.com/hironohp/",
    "pref": "静岡県",
    "city": "静岡市駿河区",
    "category": "care_medical_institute",
    "serviceType": "介護医療院",
    "capacity": 198,
    "openDays": [],
    "openDaysNote": ""
  },
  {
    "id": "22B4200044",
    "name": "静岡徳洲会病院　介護医療院　ゆうかりの木陰",
    "kana": "シズオカトクシュウカイビョウイン　カイゴイリョウイン　ユウカリノコカゲ",
    "address": "静岡県静岡市駿河区下川原南１１番１号",
    "lat": 34.9315149000001,
    "lng": 138.3843257,
    "tel": "054-270-3027",
    "url": "https://www.shizutoku.jp/",
    "pref": "静岡県",
    "city": "静岡市駿河区",
    "category": "care_medical_institute",
    "serviceType": "介護医療院",
    "capacity": 41,
    "openDays": [],
    "openDaysNote": ""
  },
  {
    "id": "22B4200036",
    "name": "山の上介護医療院",
    "kana": "ヤマノウエカイゴイリョウイン",
    "address": "静岡県静岡市清水区草ヶ谷651番地の7",
    "lat": 35.0524728,
    "lng": 138.4896206,
    "tel": "054-340-2755",
    "url": "https://yamanoue-hospital.jp",
    "pref": "静岡県",
    "city": "静岡市清水区",
    "category": "care_medical_institute",
    "serviceType": "介護医療院",
    "capacity": null,
    "openDays": [],
    "openDaysNote": ""
  },
  {
    "id": "22B7300015",
    "name": "医療法人社団八洲会　介護医療院　袋井みつかわ病院",
    "kana": "イリョウホウジンシャダンヤシマカイ　カイゴイリョウイン　フクロイミツカワビョウイン",
    "address": "静岡県袋井市友永1111番地",
    "lat": 34.7998464,
    "lng": 137.8893655,
    "tel": "0538-49-2211",
    "url": "http://www.mitsukawa-fukuroi.jp",
    "pref": "静岡県",
    "city": "袋井市",
    "category": "care_medical_institute",
    "serviceType": "介護医療院",
    "capacity": null,
    "openDays": [],
    "openDaysNote": ""
  },
  {
    "id": "22B5300017",
    "name": "介護医療院誠和藤枝病院",
    "kana": "カイゴイリョウインセイワフジエダビョウイン",
    "address": "静岡県藤枝市中ノ合26-1",
    "lat": 34.9089451,
    "lng": 138.2461564,
    "tel": "054-638-3111",
    "url": "https://seiwa-fujieda.jp",
    "pref": "静岡県",
    "city": "藤枝市",
    "category": "care_medical_institute",
    "serviceType": "介護医療院",
    "capacity": 40,
    "openDays": [],
    "openDaysNote": ""
  },
  {
    "id": "22B0300012",
    "name": "伊豆平和病院　介護医療院",
    "kana": "イズヘイワビョウイン　カイゴイリョウイン",
    "address": "静岡県田方郡函南町平井1690-13",
    "lat": 35.1067566,
    "lng": 138.9874237,
    "tel": "055-974-1355",
    "url": "http://izuheiwa-hp.jp/",
    "pref": "静岡県",
    "city": "函南町",
    "category": "care_medical_institute",
    "serviceType": "介護医療院",
    "capacity": null,
    "openDays": [],
    "openDaysNote": ""
  },
  {
    "id": "22B6900013",
    "name": "白梅豊岡介護医療院",
    "kana": "シラウメトヨオカカイゴイリョウイン",
    "address": "磐田市下神増185-19",
    "lat": 34.8071929,
    "lng": 137.8370541,
    "tel": "0539-62-1600",
    "url": "https://www.shiraume.or.jp",
    "pref": "静岡県",
    "city": "磐田市",
    "category": "care_medical_institute",
    "serviceType": "介護医療院",
    "capacity": 0,
    "openDays": [],
    "openDaysNote": ""
  },
  {
    "id": "22B7200033",
    "name": "医療法人社団和恵会　湖東ケアセンター",
    "kana": "イリョウホウジンシャダンワケイカイ　コトウケアセンター",
    "address": "浜松市中央区伊左地町8151",
    "lat": 34.7464783,
    "lng": 137.654796,
    "tel": "053-486-2222",
    "url": "http://www.kotou-wakiekai.com",
    "pref": "静岡県",
    "city": "浜松市中央区",
    "category": "care_medical_institute",
    "serviceType": "介護医療院",
    "capacity": 0,
    "openDays": [],
    "openDaysNote": ""
  },
  {
    "id": "22B7200074",
    "name": "介護医療院　湖東病院",
    "kana": "カイゴイリョウイン　コトウビョウイン",
    "address": "浜松市中央区伊左地町8151",
    "lat": 34.7464783,
    "lng": 137.654796,
    "tel": "053-486-2222",
    "url": "http://www.kotou-wakeikai.com",
    "pref": "静岡県",
    "city": "浜松市中央区",
    "category": "care_medical_institute",
    "serviceType": "介護医療院",
    "capacity": 0,
    "openDays": [],
    "openDaysNote": ""
  },
  {
    "id": "22B7200025",
    "name": "介護医療院　西山ナーシング",
    "kana": "カイゴイリョウイン　ニシヤマナーシング",
    "address": "静岡県浜松市中央区西山町411-1",
    "lat": 34.7364567,
    "lng": 137.6896406,
    "tel": "053-485-5151",
    "url": "https://www.nishiyama.or.jp",
    "pref": "静岡県",
    "city": "浜松市中央区",
    "category": "care_medical_institute",
    "serviceType": "介護医療院",
    "capacity": 0,
    "openDays": [],
    "openDaysNote": ""
  },
  {
    "id": "22B7200090",
    "name": "介護医療院　西山病院",
    "kana": "カイゴイリョウイン　ニシヤマビョウイン",
    "address": "静岡県浜松市中央区西山町500番地",
    "lat": 34.7370582079571,
    "lng": 137.688702513631,
    "tel": "053-485-5558",
    "url": "https://www.nishiyama.or.jp",
    "pref": "静岡県",
    "city": "浜松市中央区",
    "category": "care_medical_institute",
    "serviceType": "介護医療院",
    "capacity": null,
    "openDays": [],
    "openDaysNote": ""
  },
  {
    "id": "22B7200116",
    "name": "介護医療院　有玉病院",
    "kana": "カイゴイリョウイン　アリタマビョウイン",
    "address": "静岡県浜松市中央区有玉南町1436番地",
    "lat": 34.7524622,
    "lng": 137.7535626,
    "tel": "053-433-5255",
    "url": "http://www.okazakikai.or.jp/",
    "pref": "静岡県",
    "city": "浜松市中央区",
    "category": "care_medical_institute",
    "serviceType": "介護医療院",
    "capacity": null,
    "openDays": [],
    "openDaysNote": ""
  },
  {
    "id": "22B7200082",
    "name": "和恵会ケアセンター",
    "kana": "ワケイカイケアセンター",
    "address": "静岡県浜松市中央区入野町6413",
    "lat": 34.6969564,
    "lng": 137.68666,
    "tel": "053-440-5500",
    "url": "http://www.kotou-wakeikai.com",
    "pref": "静岡県",
    "city": "浜松市中央区",
    "category": "care_medical_institute",
    "serviceType": "介護医療院",
    "capacity": 0,
    "openDays": [],
    "openDaysNote": ""
  },
  {
    "id": "22B7200066",
    "name": "和恵会医療院",
    "kana": "ワケイカイイリョウイン",
    "address": "浜松市中央区入野町6413",
    "lat": 34.6967039433415,
    "lng": 137.686730273827,
    "tel": "053-440-5500",
    "url": "http://www.kotou-wakeikai.com",
    "pref": "静岡県",
    "city": "浜松市中央区",
    "category": "care_medical_institute",
    "serviceType": "介護医療院",
    "capacity": 80,
    "openDays": [],
    "openDaysNote": ""
  },
  {
    "id": "22B7200041",
    "name": "天竜すずかけ病院・介護医療院",
    "kana": "テンリュウスズカケビョウイン・カイゴイリョウイン",
    "address": "二俣町二俣2396-56",
    "lat": 34.857156,
    "lng": 137.8138457,
    "tel": "053-925-8111",
    "url": "https://www.suzukake.or.jp/tenryu/",
    "pref": "静岡県",
    "city": "浜松市天竜区",
    "category": "care_medical_institute",
    "serviceType": "介護医療院",
    "capacity": 55,
    "openDays": [],
    "openDaysNote": ""
  },
  {
    "id": "22B7200058",
    "name": "医療法人社団　誠心会　介護医療院　浜北さくら台",
    "kana": "イリョウホウジンシャダン　セイシンカイ　カイゴイリョウイン　ハマキタサクラダイ",
    "address": "浜松市浜名区四大地9-68",
    "lat": 34.8379995,
    "lng": 137.7593174,
    "tel": "053-582-2311",
    "url": "http://www.sakuradai.or.jp/",
    "pref": "静岡県",
    "city": "浜松市浜名区",
    "category": "care_medical_institute",
    "serviceType": "介護医療院",
    "capacity": 54,
    "openDays": [],
    "openDaysNote": ""
  },
  {
    "id": "22B7200108",
    "name": "遠江病院介護医療院",
    "kana": "トオトウミビョウインカイゴイリョウイン",
    "address": "浜松市浜名区中瀬3832-1",
    "lat": 34.8201017634006,
    "lng": 137.811252003041,
    "tel": "053-588-1880",
    "url": "https://totomihp.com",
    "pref": "静岡県",
    "city": "浜松市浜名区",
    "category": "care_medical_institute",
    "serviceType": "介護医療院",
    "capacity": null,
    "openDays": [],
    "openDaysNote": ""
  },
  {
    "id": "22B2300010",
    "name": "新富士ケアセンター",
    "kana": "シンフジケアセンター",
    "address": "静岡県富士市大淵3898-1",
    "lat": 35.2159191,
    "lng": 138.6695183,
    "tel": "0545-36-2212",
    "url": "http://www.shinfuji.or.jp",
    "pref": "静岡県",
    "city": "富士市",
    "category": "care_medical_institute",
    "serviceType": "介護医療院",
    "capacity": null,
    "openDays": [],
    "openDaysNote": ""
  }
]