[
  {
    "id": "37B0600018",
    "name": "医療法人日昭会　岡病院　介護医療院",
    "kana": "イリョウホウジンニッショウカイ　オカビョウイン　カイゴイリョウイン",
    "address": "香川県さぬき市志度1562番地",
    "lat": 34.3202271,
    "lng": 134.1951402,
    "tel": "087-894-5050",
    "url": "https://sanuki-oka-hosp.sakura.ne.jp/kaigoiryouin/",
    "pref": "香川県",
    "city": "さぬき市",
    "category": "care_medical_institute",
    "serviceType": "介護医療院",
    "capacity": 60,
    "openDays": [],
    "openDaysNote": ""
  },
  {
    "id": "37B1600017",
    "name": "医療法人圭良会　永生病院介護医療院",
    "kana": "イリョウホウジンケイリョウカイ　エイセイビョウインカイゴイリョウイン",
    "address": "香川県仲多度郡まんのう町買田221-3永生病院 永生病院",
    "lat": 34.1721428,
    "lng": 133.827381,
    "tel": "0877-73-3300",
    "url": "http://www.eisei-hp.or.jp/",
    "pref": "香川県",
    "city": "まんのう町",
    "category": "care_medical_institute",
    "serviceType": "介護医療院",
    "capacity": 0,
    "openDays": [],
    "openDaysNote": ""
  },
  {
    "id": "37B1600033",
    "name": "医療法人社団　小国医院　介護医療院",
    "kana": "イリョウホウジンシャダン　オグニイイン　カイゴイリョウイン",
    "address": "香川県仲多度郡まんのう町四條７７７",
    "lat": 34.1950557,
    "lng": 133.8369007,
    "tel": "0877-75-2317",
    "url": "http://www.oguni.or.jp",
    "pref": "香川県",
    "city": "まんのう町",
    "category": "care_medical_institute",
    "serviceType": "介護医療院",
    "capacity": null,
    "openDays": [],
    "openDaysNote": ""
  },
  {
    "id": "37B0500010",
    "name": "松井病院介護医療院",
    "kana": "マツイビョウインカイゴイリョウイン",
    "address": "香川県観音寺市村黒町739番地",
    "lat": 34.1339,
    "lng": 133.6663889,
    "tel": "0875-23-2111",
    "url": "http://www.matsui-hp.com",
    "pref": "香川県",
    "city": "観音寺市",
    "category": "care_medical_institute",
    "serviceType": "介護医療院",
    "capacity": 0,
    "openDays": [],
    "openDaysNote": ""
  },
  {
    "id": "37B1600025",
    "name": "おおにし介護医療院",
    "kana": "オオニシカイゴイリョウイン",
    "address": "香川県仲多度郡琴平町350－10",
    "lat": 34.1927724,
    "lng": 133.8192533,
    "tel": "0877－75－5101",
    "url": "https://keisyokai.com",
    "pref": "香川県",
    "city": "琴平町",
    "category": "care_medical_institute",
    "serviceType": "介護医療院",
    "capacity": 0,
    "openDays": [],
    "openDaysNote": ""
  },
  {
    "id": "37B0100027",
    "name": "伊達病院　介護医療院",
    "kana": "ダテビョウイン　カイゴイリョウイン",
    "address": "香川県高松市観光町588－8",
    "lat": 34.3339891,
    "lng": 134.0609986,
    "tel": "087－831－1701",
    "url": "https://date-med.or.jp/",
    "pref": "香川県",
    "city": "高松市",
    "category": "care_medical_institute",
    "serviceType": "介護医療院",
    "capacity": null,
    "openDays": [],
    "openDaysNote": ""
  },
  {
    "id": "37B0100043",
    "name": "医療法人社団光風会介護医療院　コリーナ",
    "kana": "イリョウホウジンシャダンコウフウカイカイゴイリョウインコリーナ",
    "address": "高松市牟礼町原943-1",
    "lat": 34.3310215,
    "lng": 134.150257,
    "tel": "087-845-7750",
    "url": "",
    "pref": "香川県",
    "city": "高松市",
    "category": "care_medical_institute",
    "serviceType": "介護医療院",
    "capacity": 0,
    "openDays": [],
    "openDaysNote": ""
  },
  {
    "id": "37B0100019",
    "name": "介護医療院　やわらぎ",
    "kana": "カイゴイリョウイン　ヤワラギ",
    "address": "香川県高松市香南町由佐102-1",
    "lat": 34.236402,
    "lng": 134.0215571,
    "tel": "087-813-7301",
    "url": "http://www.iwaki-hospital.or.jp/yawaragi/",
    "pref": "香川県",
    "city": "高松市",
    "category": "care_medical_institute",
    "serviceType": "介護医療院",
    "capacity": 42,
    "openDays": [],
    "openDaysNote": ""
  },
  {
    "id": "37B1200016",
    "name": "小豆島病院介護医療院",
    "kana": "ショウドシマビョウインカイゴイリョウイン",
    "address": "香川県小豆郡小豆島町池田２５１９－４",
    "lat": 34.4844656636935,
    "lng": 134.230887526984,
    "tel": "0879-75-0570",
    "url": "https://www.syodoshima-hp.jp/main/iryouin.html",
    "pref": "香川県",
    "city": "小豆島町",
    "category": "care_medical_institute",
    "serviceType": "介護医療院",
    "capacity": 40,
    "openDays": [],
    "openDaysNote": ""
  },
  {
    "id": "37B0400013",
    "name": "介護医療院千手苑",
    "kana": "カイゴイリョウインセンジュエン",
    "address": "香川県善通寺市原田町1486番地3",
    "lat": 34.2537342,
    "lng": 133.7876313,
    "tel": "0877-63-1010",
    "url": "http://www.senju-group.or.jp",
    "pref": "香川県",
    "city": "善通寺市",
    "category": "care_medical_institute",
    "serviceType": "介護医療院",
    "capacity": null,
    "openDays": [],
    "openDaysNote": ""
  },
  {
    "id": "3717011344",
    "name": "直島町立診療所介護医療院",
    "kana": "ナオシマチョウリツシンリョウショカイゴイリョウイン",
    "address": "２３１０－１",
    "lat": null,
    "lng": null,
    "tel": "087-892-2266",
    "url": "https://www.town.naoshima.lg.jp/",
    "pref": "香川県",
    "city": "直島町",
    "category": "care_medical_institute",
    "serviceType": "介護医療院",
    "capacity": 0,
    "openDays": [],
    "openDaysNote": ""
  },
  {
    "id": "37B0700016",
    "name": "医療法人社団聖心会　阪本病院　介護医療院",
    "kana": "イリョウホウジンシャダンセイシンカイサカモトビョウインカイゴイリョウイン",
    "address": "香川県東かがわ市川東103番地1",
    "lat": 35.7745398,
    "lng": 139.5029661,
    "tel": "0879-25-1121",
    "url": "https://www.sakamoto-hosp.or.jp/sakamoto/htm/",
    "pref": "香川県",
    "city": "東かがわ市",
    "category": "care_medical_institute",
    "serviceType": "介護医療院",
    "capacity": 0,
    "openDays": [],
    "openDaysNote": ""
  }
]