[
  {
    "id": "39B2400035",
    "name": "いの町立国民健康保険仁淀病院介護医療院",
    "kana": "イノチョウリツコクミンケンコウホケンニヨドビョウインカイゴイリョウイン",
    "address": "高知県吾川郡いの町1369",
    "lat": 33.5482713,
    "lng": 133.4271148,
    "tel": "088-893-1551",
    "url": "https://www.town.ino.kochi.jp/niyodo-hospital/",
    "pref": "高知県",
    "city": "いの町",
    "category": "care_medical_institute",
    "serviceType": "介護医療院",
    "capacity": null,
    "openDays": [],
    "openDaysNote": ""
  },
  {
    "id": "39B2400027",
    "name": "医療法人　岡本会　さくら病院介護医療院",
    "kana": "イリョウホウジン　オカモトカイ　サクラビョウインカイゴイリョウイン",
    "address": "高知県吾川郡いの町鹿敷162",
    "lat": 33.565773,
    "lng": 133.3689493,
    "tel": "088-893-5111",
    "url": "https://okamotokai-sakurahospital.jimdofree.com",
    "pref": "高知県",
    "city": "いの町",
    "category": "care_medical_institute",
    "serviceType": "介護医療院",
    "capacity": 0,
    "openDays": [],
    "openDaysNote": ""
  },
  {
    "id": "39B2500040",
    "name": "介護医療院山﨑外科整形外科病院",
    "kana": "カイゴイリョウインヤマサキゲカセイケイゲカビョウイン",
    "address": "高知県高岡郡越知町越知甲２１０７番地１",
    "lat": 33.5306717008255,
    "lng": 133.25019199259,
    "tel": "０８８９－２６－１１３６",
    "url": "",
    "pref": "高知県",
    "city": "越知町",
    "category": "care_medical_institute",
    "serviceType": "介護医療院",
    "capacity": null,
    "openDays": [],
    "openDaysNote": ""
  },
  {
    "id": "39B2500032",
    "name": "介護医療院山﨑病院",
    "kana": "カイゴイリョウインヤマサキビョウイン",
    "address": "高知県高岡郡越知町越知甲2041-3",
    "lat": 33.5327897,
    "lng": 133.2509795,
    "tel": "0889-26-1123",
    "url": "http://www.yamasaki.or.jp/",
    "pref": "高知県",
    "city": "越知町",
    "category": "care_medical_institute",
    "serviceType": "介護医療院",
    "capacity": null,
    "openDays": [],
    "openDaysNote": ""
  },
  {
    "id": "39B1100016",
    "name": "三谷介護医療院",
    "kana": "ミタニカイゴイリョウイン",
    "address": "高知県香南市野市町西野555-2",
    "lat": 33.5635352,
    "lng": 133.7001886,
    "tel": "0887-56-0152",
    "url": "",
    "pref": "高知県",
    "city": "香南市",
    "category": "care_medical_institute",
    "serviceType": "介護医療院",
    "capacity": null,
    "openDays": [],
    "openDaysNote": ""
  },
  {
    "id": "39B1200014",
    "name": "香北介護医療院",
    "kana": "カホクカイゴイリョウイン",
    "address": "高知県香美市香北町美良布1064-9医療法人豊秋会　香北病院 医療法人豊秋会　香北病院",
    "lat": 33.6500424,
    "lng": 133.7786794,
    "tel": "0887-59-2251",
    "url": "",
    "pref": "高知県",
    "city": "香美市",
    "category": "care_medical_institute",
    "serviceType": "介護医療院",
    "capacity": 0,
    "openDays": [],
    "openDaysNote": ""
  },
  {
    "id": "39B0100025",
    "name": "医療法人　厚愛会　高知城東病院",
    "kana": "イリョウホウジン　コウアイカイ　コウチジョウトウビョウイン",
    "address": "高知県高知市大津乙719",
    "lat": 33.5679461356077,
    "lng": 133.597177126984,
    "tel": "088-866-2326",
    "url": "http://www.kochijoto.or.jp/",
    "pref": "高知県",
    "city": "高知市",
    "category": "care_medical_institute",
    "serviceType": "介護医療院",
    "capacity": 0,
    "openDays": [],
    "openDaysNote": ""
  },
  {
    "id": "39B0100132",
    "name": "医療法人　島本慈愛会　島本病院付属介護医療院",
    "kana": "イリョウホウジン　シマモトジアイカイ　シマモトビョウインフゾクカイゴイリョウイン",
    "address": "帯屋町２丁目６番３号",
    "lat": 33.5601856,
    "lng": 133.5352074,
    "tel": "088-873-6131",
    "url": "https://shimamotohp.or.jp/",
    "pref": "高知県",
    "city": "高知市",
    "category": "care_medical_institute",
    "serviceType": "介護医療院",
    "capacity": 19,
    "openDays": [],
    "openDaysNote": ""
  },
  {
    "id": "39B0100108",
    "name": "医療法人　平田会　平田病院　介護医療院",
    "kana": "イリョウホウジン　ヒラタカイ　ヒラタビョウイン　カイゴイリョウイン",
    "address": "高知市本町5丁目4-23",
    "lat": 33.5574097179545,
    "lng": 133.530205313492,
    "tel": "088-875-6221",
    "url": "http://www.hirata-hp.com/",
    "pref": "高知県",
    "city": "高知市",
    "category": "care_medical_institute",
    "serviceType": "介護医療院",
    "capacity": 0,
    "openDays": [],
    "openDaysNote": ""
  },
  {
    "id": "39B0100041",
    "name": "医療法人新松田会　愛宕病院介護医療院",
    "kana": "イリョウホウジンシンマツダカイアタゴビョウインカイゴイリョウイン",
    "address": "高知県高知市愛宕町1丁目1番13号",
    "lat": 33.5653651,
    "lng": 133.53731,
    "tel": "088-823-3301",
    "url": "http://atago-hp.or.jp/",
    "pref": "高知県",
    "city": "高知市",
    "category": "care_medical_institute",
    "serviceType": "介護医療院",
    "capacity": 0,
    "openDays": [],
    "openDaysNote": ""
  },
  {
    "id": "39B0100082",
    "name": "永井病院介護医療院",
    "kana": "ナガイビョウインカイゴイリョウイン",
    "address": "高知市春野町西分2027-3",
    "lat": 33.4991819,
    "lng": 133.4960336,
    "tel": "088-894-6611",
    "url": "http//www.nagai-hp.com/",
    "pref": "高知県",
    "city": "高知市",
    "category": "care_medical_institute",
    "serviceType": "介護医療院",
    "capacity": null,
    "openDays": [],
    "openDaysNote": ""
  },
  {
    "id": "39B0100124",
    "name": "介護医療院　とさたむら",
    "kana": "カイゴイリョウイン　トサタムラ",
    "address": "高知市稲荷町11番20号",
    "lat": 33.5569521,
    "lng": 133.5612893,
    "tel": "088-883-3544",
    "url": "https://www.tosatamura.jp",
    "pref": "高知県",
    "city": "高知市",
    "category": "care_medical_institute",
    "serviceType": "介護医療院",
    "capacity": 0,
    "openDays": [],
    "openDaysNote": ""
  },
  {
    "id": "39B0100090",
    "name": "介護医療院　朝倉",
    "kana": "カイゴイリョウイン　アサクラ",
    "address": "高知県高知市朝倉丙1653-12",
    "lat": 33.5550274,
    "lng": 133.474019,
    "tel": "088-844-2701",
    "url": "http:asakura-hospital.jp",
    "pref": "高知県",
    "city": "高知市",
    "category": "care_medical_institute",
    "serviceType": "介護医療院",
    "capacity": 0,
    "openDays": [],
    "openDaysNote": ""
  },
  {
    "id": "39B0100140",
    "name": "介護医療院きむら",
    "kana": "カイゴイリョウインキムラ",
    "address": "高知県高知市寿町8番8号",
    "lat": 33.5664708,
    "lng": 133.5353185,
    "tel": "088-822-7231",
    "url": "http://www.kimuraho.jp/",
    "pref": "高知県",
    "city": "高知市",
    "category": "care_medical_institute",
    "serviceType": "介護医療院",
    "capacity": 0,
    "openDays": [],
    "openDaysNote": ""
  },
  {
    "id": "39B0100066",
    "name": "介護医療院さんあい",
    "kana": "カイゴイリョウインサンアイ",
    "address": "高知県高知市一宮西町1丁目7番25号",
    "lat": 33.5832983917641,
    "lng": 133.567696822684,
    "tel": "088-845-5291",
    "url": "http://www.sanai-hospital.jp/top/",
    "pref": "高知県",
    "city": "高知市",
    "category": "care_medical_institute",
    "serviceType": "介護医療院",
    "capacity": 0,
    "openDays": [],
    "openDaysNote": ""
  },
  {
    "id": "39B0100116",
    "name": "介護医療院中ノ橋",
    "kana": "カイゴイリョウインナカノハシ",
    "address": "高知県高知市永国寺町1-46中ノ橋病院 中ノ橋病院",
    "lat": 33.5636562,
    "lng": 133.5367892,
    "tel": "088-872-4069",
    "url": "https//www.nakanohashi-hp.jp/",
    "pref": "高知県",
    "city": "高知市",
    "category": "care_medical_institute",
    "serviceType": "介護医療院",
    "capacity": 0,
    "openDays": [],
    "openDaysNote": ""
  },
  {
    "id": "39B0100017",
    "name": "高知総合リハビリテーション病院　介護医療院",
    "kana": "コウチソウゴウリハビリテーションビョウイン　カイゴイリョウイン",
    "address": "高知県高知市一宮南町一丁目10番地15号",
    "lat": 33.5790491,
    "lng": 133.5637121,
    "tel": "(088)845-1641",
    "url": "https://www.jojinkai.com/kouchi/",
    "pref": "高知県",
    "city": "高知市",
    "category": "care_medical_institute",
    "serviceType": "介護医療院",
    "capacity": null,
    "openDays": [],
    "openDaysNote": ""
  },
  {
    "id": "39B0100058",
    "name": "山村介護医療院和",
    "kana": "ヤマムラカイゴイリョウインナゴミ",
    "address": "高知県高知市下島町106番地",
    "lat": 33.5547294802931,
    "lng": 133.50764536627,
    "tel": "088-872-5038",
    "url": "http://www.yamamurakai.coｍ",
    "pref": "高知県",
    "city": "高知市",
    "category": "care_medical_institute",
    "serviceType": "介護医療院",
    "capacity": null,
    "openDays": [],
    "openDaysNote": ""
  },
  {
    "id": "39B0100074",
    "name": "上町病院　介護医療院",
    "kana": "カミマチビョウイン　カイゴイリョウイン",
    "address": "高知県高知市上町１丁目７番３４号",
    "lat": 33.5570925,
    "lng": 133.5260462,
    "tel": "088-823-3271",
    "url": "http://www.kamimachi-hp.or.jp/",
    "pref": "高知県",
    "city": "高知市",
    "category": "care_medical_institute",
    "serviceType": "介護医療院",
    "capacity": null,
    "openDays": [],
    "openDaysNote": ""
  },
  {
    "id": "39B0100157",
    "name": "図南病院　介護医療院",
    "kana": "トナンビョウイン　カイゴイリョウイン",
    "address": "高知県高知市知寄町1丁目5-15",
    "lat": 33.5589072,
    "lng": 133.55608,
    "tel": "088-882-3126",
    "url": "http://www.hisakai.or.jp/tonan/",
    "pref": "高知県",
    "city": "高知市",
    "category": "care_medical_institute",
    "serviceType": "介護医療院",
    "capacity": null,
    "openDays": [],
    "openDaysNote": ""
  },
  {
    "id": "39B2600014",
    "name": "介護医療院ことぶき",
    "kana": "カイゴイリョウインコトブキ",
    "address": "高知県幡多郡黒潮町出口2070番地",
    "lat": 32.9808046013605,
    "lng": 132.99428443373,
    "tel": "0880-43-3331",
    "url": "http://kotobuki-ideguchi.jp/",
    "pref": "高知県",
    "city": "黒潮町",
    "category": "care_medical_institute",
    "serviceType": "介護医療院",
    "capacity": 80,
    "openDays": [],
    "openDaysNote": ""
  },
  {
    "id": "39B1000059",
    "name": "あいさんさん",
    "kana": "アイサンサン",
    "address": "高知県四万十市駅前町９－１６",
    "lat": 32.9833219,
    "lng": 132.9443969,
    "tel": "0880-35-2000",
    "url": "",
    "pref": "高知県",
    "city": "四万十市",
    "category": "care_medical_institute",
    "serviceType": "介護医療院",
    "capacity": null,
    "openDays": [],
    "openDaysNote": ""
  },
  {
    "id": "39B1000026",
    "name": "介護医療院　もりした",
    "kana": "カイゴイリョウイン　モリシタ",
    "address": "高知県四万十市中村一条通2-44",
    "lat": 32.9920269,
    "lng": 132.9364139,
    "tel": "0880-34-2030",
    "url": "http:www.morishitahp.jp/",
    "pref": "高知県",
    "city": "四万十市",
    "category": "care_medical_institute",
    "serviceType": "介護医療院",
    "capacity": null,
    "openDays": [],
    "openDaysNote": ""
  },
  {
    "id": "39B1000034",
    "name": "介護医療院きだわら",
    "kana": "カイゴイリョウインキダワラ",
    "address": "高知県四万十市中村一条通３－３－２５",
    "lat": 32.9920632179549,
    "lng": 132.937164918385,
    "tel": "0880-34-1211",
    "url": "",
    "pref": "高知県",
    "city": "四万十市",
    "category": "care_medical_institute",
    "serviceType": "介護医療院",
    "capacity": 0,
    "openDays": [],
    "openDaysNote": ""
  },
  {
    "id": "39B1000018",
    "name": "介護医療院なかむら",
    "kana": "カイゴイリョウインナカムラ",
    "address": "中村小姓町75番地中村病院 中村病院",
    "lat": 32.9946726,
    "lng": 132.9323839,
    "tel": "0880-34-3177",
    "url": "https://nakamura-hospital.com/",
    "pref": "高知県",
    "city": "四万十市",
    "category": "care_medical_institute",
    "serviceType": "介護医療院",
    "capacity": 60,
    "openDays": [],
    "openDaysNote": ""
  },
  {
    "id": "39B1000042",
    "name": "幡多クリニック介護医療院",
    "kana": "ハタクリニックカイゴイリョウイン",
    "address": "高知県四万十市右山天神町10-12",
    "lat": 32.9844923,
    "lng": 132.941812,
    "tel": "0880-34-6211",
    "url": "http://hatabyouin.net./",
    "pref": "高知県",
    "city": "四万十市",
    "category": "care_medical_institute",
    "serviceType": "介護医療院",
    "capacity": 0,
    "openDays": [],
    "openDaysNote": ""
  },
  {
    "id": "39B2500016",
    "name": "大西病院介護医療院",
    "kana": "オオニシビョウインカイゴイリョウイン",
    "address": "高知県高岡郡四万十町古市町6番12号",
    "lat": 33.2095531,
    "lng": 133.1412997,
    "tel": "0880-22-1191",
    "url": "http://www.oonishi-hp.or.jp/",
    "pref": "高知県",
    "city": "四万十町",
    "category": "care_medical_institute",
    "serviceType": "介護医療院",
    "capacity": null,
    "openDays": [],
    "openDaysNote": ""
  },
  {
    "id": "39B0900010",
    "name": "医療法人長生会　介護医療院おおいだ",
    "kana": "イリョウホウジンチョウセイカイ　カイゴイリョウインオオイダ",
    "address": "高知県宿毛市中央8丁目3番6号大井田病院内　３階 大井田病院内　３階",
    "lat": 32.935314,
    "lng": 132.7314999,
    "tel": "0880-63-2101",
    "url": "http://www.ooida-hp.net",
    "pref": "高知県",
    "city": "宿毛市",
    "category": "care_medical_institute",
    "serviceType": "介護医療院",
    "capacity": 43,
    "openDays": [],
    "openDaysNote": ""
  },
  {
    "id": "39B2400019",
    "name": "安部介護医療院",
    "kana": "アベカイゴイリョウイン",
    "address": "高知県吾川郡仁淀川町岩丸102番地",
    "lat": 33.6128199170955,
    "lng": 133.173677766271,
    "tel": "0889-34-2011",
    "url": "http://abehospital.com/",
    "pref": "高知県",
    "city": "仁淀川町",
    "category": "care_medical_institute",
    "serviceType": "介護医療院",
    "capacity": 0,
    "openDays": [],
    "openDaysNote": ""
  },
  {
    "id": "39B0600016",
    "name": "介護医療院ちひろ",
    "kana": "カイゴイリョウインチヒロ",
    "address": "高知県須崎市中町１－６－２５",
    "lat": 33.3884947,
    "lng": 133.2836688,
    "tel": "0889-42-2530",
    "url": "https://chihiro-susaki.com",
    "pref": "高知県",
    "city": "須崎市",
    "category": "care_medical_institute",
    "serviceType": "介護医療院",
    "capacity": null,
    "openDays": [],
    "openDaysNote": ""
  },
  {
    "id": "39B0600024",
    "name": "高陵病院介護医療院",
    "kana": "コウリョウビョウインカイゴイリョウイン",
    "address": "高知県須崎市横町1番28号",
    "lat": 33.3908687791108,
    "lng": 133.284368917197,
    "tel": "0889-42-2485",
    "url": "http://www.koryo-hp.or.jp/",
    "pref": "高知県",
    "city": "須崎市",
    "category": "care_medical_institute",
    "serviceType": "介護医療院",
    "capacity": null,
    "openDays": [],
    "openDaysNote": ""
  },
  {
    "id": "39B2500024",
    "name": "介護医療院なかとさ",
    "kana": "カイゴイリョウインナカトサ",
    "address": "高知県高岡郡中土佐町久礼6614",
    "lat": 33.3280841,
    "lng": 133.2284764,
    "tel": "0889-52-2040",
    "url": "",
    "pref": "高知県",
    "city": "中土佐町",
    "category": "care_medical_institute",
    "serviceType": "介護医療院",
    "capacity": null,
    "openDays": [],
    "openDaysNote": ""
  },
  {
    "id": "39B0500018",
    "name": "介護医療院　あさがお",
    "kana": "カイゴイリョウイン　アサガオ",
    "address": "高知県土佐市高岡町甲2044",
    "lat": 33.4962278,
    "lng": 133.4270339,
    "tel": "088-852-2131",
    "url": "",
    "pref": "高知県",
    "city": "土佐市",
    "category": "care_medical_institute",
    "serviceType": "介護医療院",
    "capacity": 0,
    "openDays": [],
    "openDaysNote": ""
  },
  {
    "id": "39B0800012",
    "name": "足摺病院　介護医療院",
    "kana": "アシズリビョウイン　カイゴイリョウイン",
    "address": "土佐清水市旭町18番71号",
    "lat": 32.77916,
    "lng": 132.9615356,
    "tel": "0880-82-1275",
    "url": "www.ashizuribyouin.com",
    "pref": "高知県",
    "city": "土佐清水市",
    "category": "care_medical_institute",
    "serviceType": "介護医療院",
    "capacity": null,
    "openDays": [],
    "openDaysNote": ""
  },
  {
    "id": "39B2300011",
    "name": "早明浦病院介護医療院",
    "kana": "サメウラビョウインカイゴイリョウイン",
    "address": "高知県土佐郡土佐町田井1372番地",
    "lat": 33.7468393,
    "lng": 133.5572855,
    "tel": "0887-82-0456",
    "url": "http://juzen-kai.or.jp/",
    "pref": "高知県",
    "city": "土佐町",
    "category": "care_medical_institute",
    "serviceType": "介護医療院",
    "capacity": 100,
    "openDays": [],
    "openDaysNote": ""
  }
]