[
  {
    "id": "31B0400019",
    "name": "鳥取県済生会介護医療院なでしこ境港",
    "kana": "トットリケンサイセイカイカイゴイリョウインナデシコサカイミナト",
    "address": "鳥取県境港市米川町44番地",
    "lat": 35.5397526,
    "lng": 133.2219257,
    "tel": "0859-42-3161",
    "url": "http://sakaiminato-saiseikai.jp",
    "pref": "鳥取県",
    "city": "境港市",
    "category": "care_medical_institute",
    "serviceType": "介護医療院",
    "capacity": 0,
    "openDays": [],
    "openDaysNote": ""
  },
  {
    "id": "31B0300011",
    "name": "介護医療院ふじい",
    "kana": "カイゴイリョウインフジイ",
    "address": "鳥取県倉吉市山根43",
    "lat": 35.4522501,
    "lng": 133.8559343,
    "tel": "0858-27-2210",
    "url": "https://www.med-wel.jp/fujii/kaigoiryou/",
    "pref": "鳥取県",
    "city": "倉吉市",
    "category": "care_medical_institute",
    "serviceType": "介護医療院",
    "capacity": 0,
    "openDays": [],
    "openDaysNote": ""
  },
  {
    "id": "31B0100015",
    "name": "介護医療院　レインボーしかの",
    "kana": "カイゴイリョウイン　レインボーシカノ",
    "address": "鳥取県鳥取市鹿野町今市242",
    "lat": 35.4621858,
    "lng": 134.0503916,
    "tel": "0857-84-2311",
    "url": "http://www.shikano.mcoop-tottori.jp/",
    "pref": "鳥取県",
    "city": "鳥取市",
    "category": "care_medical_institute",
    "serviceType": "介護医療院",
    "capacity": 0,
    "openDays": [],
    "openDaysNote": ""
  },
  {
    "id": "31B0100056",
    "name": "介護医療院　鳥取産院",
    "kana": "カイゴイリョウイン　トットリサンイン",
    "address": "鳥取県鳥取市吉方温泉1丁目653番地",
    "lat": 35.4955058,
    "lng": 134.2322872,
    "tel": "0857-23-3151",
    "url": "https://www.asupiosu.jp",
    "pref": "鳥取県",
    "city": "鳥取市",
    "category": "care_medical_institute",
    "serviceType": "介護医療院",
    "capacity": 58,
    "openDays": [],
    "openDaysNote": ""
  },
  {
    "id": "31B0100023",
    "name": "社会医療法人　明和会医療福祉センター",
    "kana": "シャカイイリョウホウジン　メイワカイイリョウフクシセンター　ウェルフェアキタゾノワタナベビョウイン",
    "address": "鳥取県鳥取市覚寺181番地",
    "lat": 35.5234442,
    "lng": 134.2336275,
    "tel": "0857-27-1151",
    "url": "https://www.mmwc.or.jp/",
    "pref": "鳥取県",
    "city": "鳥取市",
    "category": "care_medical_institute",
    "serviceType": "介護医療院",
    "capacity": null,
    "openDays": [],
    "openDaysNote": ""
  },
  {
    "id": "31B0100031",
    "name": "社会医療法人　明和会医療福祉センター",
    "kana": "シャカイイリョウホウジン　メイワカイイリョウフクシセンター　ウェルフェアキタゾノワタナベビョウイン",
    "address": "鳥取県鳥取市覚寺181番地",
    "lat": 35.5234442,
    "lng": 134.2336275,
    "tel": "0857-27-1151",
    "url": "https://www.mmwc.or.jp/",
    "pref": "鳥取県",
    "city": "鳥取市",
    "category": "care_medical_institute",
    "serviceType": "介護医療院",
    "capacity": null,
    "openDays": [],
    "openDaysNote": ""
  },
  {
    "id": "31B0100064",
    "name": "社会医療法人　明和会医療福祉センター",
    "kana": "シャカイイリョウホウジン　メイワカイイリョウフクシセンター　ウェルフェアキタゾノワタナベビョウイン",
    "address": "鳥取県鳥取市覚寺181番地",
    "lat": 35.5234442,
    "lng": 134.2336275,
    "tel": "0857-27-1151",
    "url": "https://www.mmwc.or.jp/",
    "pref": "鳥取県",
    "city": "鳥取市",
    "category": "care_medical_institute",
    "serviceType": "介護医療院",
    "capacity": null,
    "openDays": [],
    "openDaysNote": ""
  },
  {
    "id": "31B0100049",
    "name": "渡辺病院介護医療院センテナリアンハウス",
    "kana": "ワタナベビョウイン　カイゴイリョウイン　センテナリアンハウス",
    "address": "鳥取県鳥取市東町3丁目307番地",
    "lat": 35.5082506,
    "lng": 134.2338277,
    "tel": "0857-24-1151",
    "url": "http://www.mmwc.or.jp/",
    "pref": "鳥取県",
    "city": "鳥取市",
    "category": "care_medical_institute",
    "serviceType": "介護医療院",
    "capacity": 26,
    "openDays": [],
    "openDaysNote": ""
  },
  {
    "id": "31B1500049",
    "name": "西伯病院介護医療院さくら",
    "kana": "サイハクビョウイン　カイゴイリョウイン　サクラ",
    "address": "鳥取県西伯郡南部町倭397",
    "lat": 35.3475883,
    "lng": 133.325599,
    "tel": "0859-66-2211",
    "url": "https://www.saihaku-hospital.com/",
    "pref": "鳥取県",
    "city": "南部町",
    "category": "care_medical_institute",
    "serviceType": "介護医療院",
    "capacity": null,
    "openDays": [],
    "openDaysNote": ""
  },
  {
    "id": "31B0200013",
    "name": "介護医療院まり",
    "kana": "カイゴイリョウインマリ",
    "address": "鳥取県米子市淀江町今津150",
    "lat": 35.4647471,
    "lng": 133.4311751,
    "tel": "0859-56-5111",
    "url": "http://www.mari-cl.com/",
    "pref": "鳥取県",
    "city": "米子市",
    "category": "care_medical_institute",
    "serviceType": "介護医療院",
    "capacity": 0,
    "openDays": [],
    "openDaysNote": ""
  },
  {
    "id": "31B0200039",
    "name": "養和病院介護医療院",
    "kana": "ヨウワビョウインカイゴイリョウイン",
    "address": "鳥取県米子市上後藤3-5-1",
    "lat": 35.4484183,
    "lng": 133.3180819,
    "tel": "0859-29-5351",
    "url": "http://www/yowakai.com",
    "pref": "鳥取県",
    "city": "米子市",
    "category": "care_medical_institute",
    "serviceType": "介護医療院",
    "capacity": 0,
    "openDays": [],
    "openDaysNote": ""
  }
]