[
  {
    "id": "46B0500019",
    "name": "市来内科介護医療院",
    "kana": "イチキナイカカイゴイリョウイン",
    "address": "鹿児島県いちき串木野市大里3869-6",
    "lat": 31.687023282712,
    "lng": 130.298389238623,
    "tel": "0996-36-5000",
    "url": "https://ichiki-naikahifuka.com/",
    "pref": "鹿児島県",
    "city": "いちき串木野市",
    "category": "care_medical_institute",
    "serviceType": "介護医療院",
    "capacity": 0,
    "openDays": [],
    "openDaysNote": ""
  },
  {
    "id": "46B3900018",
    "name": "立志クリニック介護医療院",
    "kana": "タテシクリニックカイゴイリョウイン",
    "address": "鹿児島県薩摩郡さつま町湯田1502-10",
    "lat": 31.9499773,
    "lng": 130.4664851,
    "tel": "0996-55-9119",
    "url": "",
    "pref": "鹿児島県",
    "city": "さつま町",
    "category": "care_medical_institute",
    "serviceType": "介護医療院",
    "capacity": 0,
    "openDays": [],
    "openDaysNote": ""
  },
  {
    "id": "46B4500031",
    "name": "ザ王病院介護医療院",
    "kana": "ザオウビョウインカイゴイリョウイン",
    "address": "鹿児島県姶良市加治木町反土２１５１－１",
    "lat": 31.7463187,
    "lng": 130.6656411,
    "tel": "0995-62-4611",
    "url": "http://zaouhp.jp",
    "pref": "鹿児島県",
    "city": "姶良市",
    "category": "care_medical_institute",
    "serviceType": "介護医療院",
    "capacity": null,
    "openDays": [],
    "openDaysNote": ""
  },
  {
    "id": "46B4500015",
    "name": "加治木温泉病院介護医療院",
    "kana": "カジキオンセンビョウインカイゴイリョウイン",
    "address": "鹿児島県姶良市加治木町木田4714番地",
    "lat": 31.7498792,
    "lng": 130.6630171,
    "tel": "0995-62-0001",
    "url": "http://www.gyokushoukai.com/",
    "pref": "鹿児島県",
    "city": "姶良市",
    "category": "care_medical_institute",
    "serviceType": "介護医療院",
    "capacity": null,
    "openDays": [],
    "openDaysNote": ""
  },
  {
    "id": "46B4500023",
    "name": "介護医療院おはな",
    "kana": "カイゴイリョウインオハナ",
    "address": "鹿児島県姶良市加治木町反土2156番地5",
    "lat": 31.7463962,
    "lng": 130.6651776,
    "tel": "0995-63-8889",
    "url": "https://www.joy-mc.com/ohana",
    "pref": "鹿児島県",
    "city": "姶良市",
    "category": "care_medical_institute",
    "serviceType": "介護医療院",
    "capacity": 0,
    "openDays": [],
    "openDaysNote": ""
  },
  {
    "id": "46B4400018",
    "name": "水間病院　介護医療院",
    "kana": "ミズマビョウイン　カイゴイリョウイン",
    "address": "鹿児島県伊佐市菱刈前目2125番地水間病院 水間病院",
    "lat": 32.0110168,
    "lng": 130.6437372,
    "tel": "0995-26-1211",
    "url": "http://www.mizumahp.company.guide.jp/",
    "pref": "鹿児島県",
    "city": "伊佐市",
    "category": "care_medical_institute",
    "serviceType": "介護医療院",
    "capacity": 0,
    "openDays": [],
    "openDaysNote": ""
  },
  {
    "id": "46B0700015",
    "name": "大島郡医師会病院介護医療院",
    "kana": "オオシマグンイシカイビョウインカイゴイリョウイン",
    "address": "鹿児島県奄美市名瀬小宿3411番地",
    "lat": 28.386565,
    "lng": 129.4744325,
    "tel": "0997-54-8111",
    "url": "https://hp.oshima-med.or.jp/",
    "pref": "鹿児島県",
    "city": "奄美市",
    "category": "care_medical_institute",
    "serviceType": "介護医療院",
    "capacity": 18,
    "openDays": [],
    "openDaysNote": ""
  },
  {
    "id": "46B1500026",
    "name": "介護医療院　坂口医院",
    "kana": "カイゴイリョウイン　サカグチイイン",
    "address": "鹿児島県薩摩川内市大王町1-1",
    "lat": 31.8236843,
    "lng": 130.2996687,
    "tel": "0996-23-4509",
    "url": "https://sakaguchi-hospital.jp/",
    "pref": "鹿児島県",
    "city": "薩摩川内市",
    "category": "care_medical_institute",
    "serviceType": "介護医療院",
    "capacity": null,
    "openDays": [],
    "openDaysNote": ""
  },
  {
    "id": "46B1700014",
    "name": "介護医療院とうご",
    "kana": "カイゴイリョウイントウゴ",
    "address": "鹿児島県志布志市志布志町志布志一丁目11番12号",
    "lat": 31.4771384,
    "lng": 131.1028141,
    "tel": "099-472-1236",
    "url": "http://www.sayuukai.or.jp/tougo/index.php",
    "pref": "鹿児島県",
    "city": "志布志市",
    "category": "care_medical_institute",
    "serviceType": "介護医療院",
    "capacity": null,
    "openDays": [],
    "openDaysNote": ""
  },
  {
    "id": "46B1000019",
    "name": "介護医療院宮薗クリニック",
    "kana": "カイゴイリョウインミヤゾノクリニック",
    "address": "鹿児島県指宿市開聞十町1266番地",
    "lat": 31.2044393,
    "lng": 130.5396158,
    "tel": "0993-32-2001",
    "url": "https://jikoukai.het/",
    "pref": "鹿児島県",
    "city": "指宿市",
    "category": "care_medical_institute",
    "serviceType": "介護医療院",
    "capacity": 0,
    "openDays": [],
    "openDaysNote": ""
  },
  {
    "id": "46B0300030",
    "name": "かのや東病院　介護医療院",
    "kana": "カノヤヒガシビョウイン　カイゴイリョウイン",
    "address": "鹿児島県鹿屋市笠之原町2923-1　3Ｆ",
    "lat": 31.387076,
    "lng": 130.8857208,
    "tel": "0994-36-0678",
    "url": "",
    "pref": "鹿児島県",
    "city": "鹿屋市",
    "category": "care_medical_institute",
    "serviceType": "介護医療院",
    "capacity": 0,
    "openDays": [],
    "openDaysNote": ""
  },
  {
    "id": "46B0300048",
    "name": "井ノ上病院　介護医療院",
    "kana": "イノウエビョウイン　カイゴイリョウイン",
    "address": "鹿児島県鹿屋市王子町３９８０番地１",
    "lat": 31.4017557,
    "lng": 130.8628909,
    "tel": "0994-42-5275",
    "url": "https://inouehosp.org/",
    "pref": "鹿児島県",
    "city": "鹿屋市",
    "category": "care_medical_institute",
    "serviceType": "介護医療院",
    "capacity": 0,
    "openDays": [],
    "openDaysNote": ""
  },
  {
    "id": "46B0300022",
    "name": "介護医療院ちとせ",
    "kana": "カイゴイリョウインチトセ",
    "address": "鹿児島県鹿屋市寿5丁目2番39号",
    "lat": 31.385015,
    "lng": 130.8587002,
    "tel": "0994-35-1861",
    "url": "https://kodamakamimae-hos.jp",
    "pref": "鹿児島県",
    "city": "鹿屋市",
    "category": "care_medical_institute",
    "serviceType": "介護医療院",
    "capacity": 28,
    "openDays": [],
    "openDaysNote": ""
  },
  {
    "id": "46B0300014",
    "name": "介護医療院リリーフ",
    "kana": "カイゴイリョウインリリーフ",
    "address": "鹿児島県鹿屋市寿3丁目11番2号",
    "lat": 31.3875816,
    "lng": 130.8709465,
    "tel": "0994-36-0330",
    "url": "https://fukuda-hos.org/",
    "pref": "鹿児島県",
    "city": "鹿屋市",
    "category": "care_medical_institute",
    "serviceType": "介護医療院",
    "capacity": 58,
    "openDays": [],
    "openDaysNote": ""
  },
  {
    "id": "46B0100034",
    "name": "吉田記念病院介護医療院",
    "kana": "ヨシダキネンビョウインカイゴイリョウイン",
    "address": "鹿児島県鹿児島市本名町470番地",
    "lat": 31.6920168,
    "lng": 130.5465702,
    "tel": "099-294-2161",
    "url": "https://www.sekisaikai.jp/index.php",
    "pref": "鹿児島県",
    "city": "鹿児島市",
    "category": "care_medical_institute",
    "serviceType": "介護医療院",
    "capacity": 0,
    "openDays": [],
    "openDaysNote": ""
  },
  {
    "id": "46B0100026",
    "name": "桜島病院介護医療院",
    "kana": "サクラジマビョウインカイゴイリョウイン",
    "address": "鹿児島県鹿児島市野尻町５９",
    "lat": 31.5680132,
    "lng": 130.6163746,
    "tel": "０９９－２２１－２０３１",
    "url": "http://www.tenyoukai.org/sakurajima/index.html",
    "pref": "鹿児島県",
    "city": "鹿児島市",
    "category": "care_medical_institute",
    "serviceType": "介護医療院",
    "capacity": null,
    "openDays": [],
    "openDaysNote": ""
  },
  {
    "id": "46B0100075",
    "name": "社会福祉法人恩賜財団済生会かごしま介護医療院",
    "kana": "シャカイフクシホウジンオンシザイダンサイセカイカゴシマカイゴイリョウイン",
    "address": "鹿児島県鹿児島市南林寺町1番11号（済生会鹿児島病院内）",
    "lat": 31.5848272,
    "lng": 130.5579669,
    "tel": "099-223-0101",
    "url": "http://www.saiseikai-kagoshima.jp/",
    "pref": "鹿児島県",
    "city": "鹿児島市",
    "category": "care_medical_institute",
    "serviceType": "介護医療院",
    "capacity": null,
    "openDays": [],
    "openDaysNote": ""
  },
  {
    "id": "46B0100059",
    "name": "西田橋介護医療院",
    "kana": "ニシダバシカイゴイリョウイン",
    "address": "平之町１番２７号西田橋介護医療院 西田橋介護医療院",
    "lat": 31.5891141,
    "lng": 130.5458782,
    "tel": "099-813-7531",
    "url": "kagoiryo.shouaikai.com",
    "pref": "鹿児島県",
    "city": "鹿児島市",
    "category": "care_medical_institute",
    "serviceType": "介護医療院",
    "capacity": null,
    "openDays": [],
    "openDaysNote": ""
  },
  {
    "id": "46B0100018",
    "name": "川島病院介護医療院",
    "kana": "カワシマビョウインカイゴイリョウイン",
    "address": "鹿児島市谷山中央1丁目4196番地川島病院４階 川島病院４階",
    "lat": 31.5259231861803,
    "lng": 130.518963465607,
    "tel": "099-800-8800",
    "url": "https://kawashima-hp.com/",
    "pref": "鹿児島県",
    "city": "鹿児島市",
    "category": "care_medical_institute",
    "serviceType": "介護医療院",
    "capacity": null,
    "openDays": [],
    "openDaysNote": ""
  },
  {
    "id": "46B0100042",
    "name": "冨永内科介護医療院",
    "kana": "トミナガナイカカイゴイリョウイン",
    "address": "鹿児島県鹿児島市西伊敷4丁目7番4号",
    "lat": 31.6404779,
    "lng": 130.5326303,
    "tel": "099-229-2323",
    "url": "",
    "pref": "鹿児島県",
    "city": "鹿児島市",
    "category": "care_medical_institute",
    "serviceType": "介護医療院",
    "capacity": null,
    "openDays": [],
    "openDaysNote": ""
  },
  {
    "id": "46B0100067",
    "name": "野上病院介護医療院",
    "kana": "ノガミビョウインカイゴイリョウイン",
    "address": "鹿児島県鹿児島市小松原1丁目４番1号",
    "lat": 31.5396815,
    "lng": 130.5353549,
    "tel": "099-268-4185",
    "url": "https://www.nogamibyouin.com",
    "pref": "鹿児島県",
    "city": "鹿児島市",
    "category": "care_medical_institute",
    "serviceType": "介護医療院",
    "capacity": 19,
    "openDays": [],
    "openDaysNote": ""
  },
  {
    "id": "46B0800013",
    "name": "出水郡医師会立第二病院介護医療院",
    "kana": "イズミグンイシカイリツダイニビョウインカイゴイリョウイン",
    "address": "鹿児島県出水市高尾野町柴引2574",
    "lat": 32.0499222,
    "lng": 130.302417,
    "tel": "0996-82-5900",
    "url": "https://izumidaini.jp/",
    "pref": "鹿児島県",
    "city": "出水市",
    "category": "care_medical_institute",
    "serviceType": "介護医療院",
    "capacity": 0,
    "openDays": [],
    "openDaysNote": ""
  },
  {
    "id": "46B1600016",
    "name": "財部記念介護医療院",
    "kana": "タカラベキネンカイゴイリョウイン",
    "address": "鹿児島県曽於市財部町南俣3619番地1",
    "lat": 31.7041491,
    "lng": 130.9620226,
    "tel": "986-72-1000",
    "url": "https://takarabekai.com/",
    "pref": "鹿児島県",
    "city": "曽於市",
    "category": "care_medical_institute",
    "serviceType": "介護医療院",
    "capacity": 0,
    "openDays": [],
    "openDaysNote": ""
  },
  {
    "id": "46B4000016",
    "name": "南さつま市立坊津病院介護医療院",
    "kana": "ミナミサツマシリツボウノツビョウインカイゴイリョウイン",
    "address": "鹿児島県南さつま市坊津町泊19番地",
    "lat": 31.2749478,
    "lng": 130.2246394,
    "tel": "0993-67-1141",
    "url": "https://www.city.minamisatsuma.lg.jp/bounotsuhospital/",
    "pref": "鹿児島県",
    "city": "南さつま市",
    "category": "care_medical_institute",
    "serviceType": "介護医療院",
    "capacity": 0,
    "openDays": [],
    "openDaysNote": ""
  },
  {
    "id": "46B4300010",
    "name": "南薩ケアほすぴたる介護医療院",
    "kana": "ナンサツケアホスピタルカイゴイリョウイン",
    "address": "川辺町平山5860",
    "lat": 31.3889082464489,
    "lng": 130.395127589688,
    "tel": "0993-56-1155",
    "url": "http://k-nch.jp/",
    "pref": "鹿児島県",
    "city": "南九州市",
    "category": "care_medical_institute",
    "serviceType": "介護医療院",
    "capacity": 0,
    "openDays": [],
    "openDaysNote": ""
  },
  {
    "id": "46B1500018",
    "name": "博悠会温泉病院介護医療院",
    "kana": "ハクユウカイオンセンビョウインカイゴイリョウイン",
    "address": "鹿児島県日置市東市来町湯田4648番地",
    "lat": 31.6752566,
    "lng": 130.3492909,
    "tel": "099-274-2238",
    "url": "hakuyukai-group.jp",
    "pref": "鹿児島県",
    "city": "日置市",
    "category": "care_medical_institute",
    "serviceType": "介護医療院",
    "capacity": 0,
    "openDays": [],
    "openDaysNote": ""
  },
  {
    "id": "4610410336",
    "name": "立神リハビリテーション温泉病院介護医療院",
    "kana": "タテガミリハビリテーションオンセンビョウインカイゴイリョウイン",
    "address": "鹿児島県枕崎市火之神町620番地",
    "lat": 31.2537428,
    "lng": 130.2765457,
    "tel": "0993-72-7711",
    "url": "https://tategami.ko-seikai.jp/",
    "pref": "鹿児島県",
    "city": "枕崎市",
    "category": "care_medical_institute",
    "serviceType": "介護医療院",
    "capacity": 0,
    "openDays": [],
    "openDaysNote": ""
  },
  {
    "id": "46B1200015",
    "name": "介護医療院　悠愛",
    "kana": "カイゴイリョウイン　ユウアイ",
    "address": "鹿児島県霧島市隼人町小田２４５番地",
    "lat": 31.7399064,
    "lng": 130.7183918,
    "tel": "0995-73-8000",
    "url": "",
    "pref": "鹿児島県",
    "city": "霧島市",
    "category": "care_medical_institute",
    "serviceType": "介護医療院",
    "capacity": 0,
    "openDays": [],
    "openDaysNote": ""
  },
  {
    "id": "46B1200023",
    "name": "介護医療院すぎやす",
    "kana": "カイゴイリョウインスギヤス",
    "address": "鹿児島県霧島市霧島田口2143番地",
    "lat": 31.8485483114631,
    "lng": 130.8556382,
    "tel": "0995-57-1221",
    "url": "http://www.kouseikai.info/",
    "pref": "鹿児島県",
    "city": "霧島市",
    "category": "care_medical_institute",
    "serviceType": "介護医療院",
    "capacity": null,
    "openDays": [],
    "openDaysNote": ""
  },
  {
    "id": "46B1200031",
    "name": "国分中央病院介護医療院",
    "kana": "コクブチュウオウビョウインカイゴイリョウイン",
    "address": "鹿児島県霧島市国分中央1丁目25-70",
    "lat": 31.7417869,
    "lng": 130.7686288,
    "tel": "0995-45-3085",
    "url": "http://www.misakikai.or.jp",
    "pref": "鹿児島県",
    "city": "霧島市",
    "category": "care_medical_institute",
    "serviceType": "介護医療院",
    "capacity": null,
    "openDays": [],
    "openDaysNote": ""
  },
  {
    "id": "46B5700010",
    "name": "あいらの森ホスピタル介護医療院",
    "kana": "アイラノモリホスピタルカイゴイリョウイン",
    "address": "鹿児島県姶良郡湧水町北方１８５４",
    "lat": 31.9577537,
    "lng": 130.7129511,
    "tel": "0995-74-2503",
    "url": "https://airaforest.jp/",
    "pref": "鹿児島県",
    "city": "湧水町",
    "category": "care_medical_institute",
    "serviceType": "介護医療院",
    "capacity": null,
    "openDays": [],
    "openDaysNote": ""
  }
]