[
  {
    "id": "2692100031",
    "name": "介護レスキュー宮津事業所",
    "kana": "カイゴレスキューミヤヅジギョウショ",
    "address": "京都府宮津市字本町1000番地",
    "lat": 35.5362390851753,
    "lng": 135.193175709573,
    "tel": "0772-22-6611",
    "url": "",
    "pref": "京都府",
    "city": "宮津市",
    "category": "night_home_help",
    "serviceType": "夜間対応型訪問介護",
    "capacity": 0,
    "openDays": [
      "平日",
      "土曜日",
      "日曜日",
      "祝日"
    ],
    "openDaysNote": "年中無休"
  },
  {
    "id": "2690700436",
    "name": "ＳＯＭＰＯケア　京都西　夜間訪問介護",
    "kana": "ソンポケアキョウトシヤカンホウモンカイゴ",
    "address": "京都府京都市右京区山ノ内五反田町9-1かどの御池ビル３階 かどの御池ビル３階",
    "lat": 35.0106173,
    "lng": 135.7205781,
    "tel": "075-432-8265",
    "url": "https://www.sompocare.com/",
    "pref": "京都府",
    "city": "京都市右京区",
    "category": "night_home_help",
    "serviceType": "夜間対応型訪問介護",
    "capacity": null,
    "openDays": [
      "平日",
      "土曜日",
      "日曜日",
      "祝日"
    ],
    "openDaysNote": ""
  },
  {
    "id": "2690700014",
    "name": "キャビック夜間対応型訪問介護事業所",
    "kana": "キャビックヤカンタイオウガタホウモンカイゴジギョウショ",
    "address": "京都市右京区梅津段町８",
    "lat": 35.0041471,
    "lng": 135.7061434,
    "tel": "075-881-7770",
    "url": "http://www.cabikcare.jp",
    "pref": "京都府",
    "city": "京都市右京区",
    "category": "night_home_help",
    "serviceType": "夜間対応型訪問介護",
    "capacity": 0,
    "openDays": [
      "平日",
      "土曜日",
      "日曜日",
      "祝日"
    ],
    "openDaysNote": "任意により、２４時間対応加算契約者については２４時間随時訪問対応をする。"
  },
  {
    "id": "2690700162",
    "name": "ＳＯＭＰＯケア　京都　夜間訪問介護",
    "kana": "ソンポケアキョウトヤカンホウモンカイゴ",
    "address": "京都府京都市下京区五条通河原町西入本覚寺前町801損保ジャパン京都ビル7F 損保ジャパン京都ビル7F",
    "lat": 34.9963594,
    "lng": 135.7649458,
    "tel": "075-353-2107",
    "url": "https://www.sompocare.com/service/zaitaku/teikijunkai/Z000776/",
    "pref": "京都府",
    "city": "京都市下京区",
    "category": "night_home_help",
    "serviceType": "夜間対応型訪問介護",
    "capacity": 0,
    "openDays": [
      "平日",
      "土曜日",
      "日曜日",
      "祝日"
    ],
    "openDaysNote": ""
  },
  {
    "id": "2690400177",
    "name": "シニアみまもり隊大宮",
    "kana": "シニアミマモリタイ　オオミヤ",
    "address": "京都府京都市下京区高辻大宮町123モンテベルデ壬生　2階 モンテベルデ壬生　2階",
    "lat": 34.9992501,
    "lng": 135.748952,
    "tel": "075-432-7766",
    "url": "http://www.rakufuku.jp",
    "pref": "京都府",
    "city": "京都市下京区",
    "category": "night_home_help",
    "serviceType": "夜間対応型訪問介護",
    "capacity": null,
    "openDays": [
      "平日",
      "土曜日",
      "日曜日",
      "祝日"
    ],
    "openDaysNote": ""
  },
  {
    "id": "2690600164",
    "name": "夜間対応型訪問介護スマイルドア",
    "kana": "ヤカンタイオウガタホウモンカイゴスマイルドア",
    "address": "京都府京都市左京区岩倉幡枝町333番地3",
    "lat": 35.0660155425835,
    "lng": 135.767952379623,
    "tel": "075-203-6480",
    "url": "",
    "pref": "京都府",
    "city": "京都市左京区",
    "category": "night_home_help",
    "serviceType": "夜間対応型訪問介護",
    "capacity": 0,
    "openDays": [
      "平日",
      "土曜日",
      "日曜日",
      "祝日"
    ],
    "openDaysNote": "365日稼動しています。"
  },
  {
    "id": "2694000338",
    "name": "ホームケア２４くつかけ七彩の家",
    "kana": "ホームケア２４クツカケナナイロノイエ",
    "address": "大枝北沓掛町一丁目３番地１七彩すまいる館 七彩すまいる館",
    "lat": 34.9882572674795,
    "lng": 135.655082296258,
    "tel": "075-333-6026",
    "url": "https://www.rakufuku.jp/",
    "pref": "京都府",
    "city": "京都市西京区",
    "category": "night_home_help",
    "serviceType": "夜間対応型訪問介護",
    "capacity": null,
    "openDays": [
      "平日",
      "土曜日",
      "日曜日",
      "祝日"
    ],
    "openDaysNote": ""
  },
  {
    "id": "2694000080",
    "name": "京都夜間訪問介護センター",
    "kana": "キョウトヤカンホウモンカイゴセンター",
    "address": "京都府京都市中京区阪東屋町658都証券ビル3階 都証券ビル3階",
    "lat": 35.0046923059829,
    "lng": 135.760945379734,
    "tel": "075-253-0580",
    "url": "",
    "pref": "京都府",
    "city": "京都市中京区",
    "category": "night_home_help",
    "serviceType": "夜間対応型訪問介護",
    "capacity": null,
    "openDays": [
      "平日",
      "土曜日",
      "日曜日",
      "祝日"
    ],
    "openDaysNote": ""
  },
  {
    "id": "2690500174",
    "name": "吉祥ホーム　ホームヘルプサービスセンター",
    "kana": "キッショウホーム　ホームヘルプサービスセンター",
    "address": "京都府京都市南区吉祥院石原橋上1-4",
    "lat": 34.9681927,
    "lng": 135.7240157,
    "tel": "075-682-8162",
    "url": "https://www.seiwaen.or.jp/",
    "pref": "京都府",
    "city": "京都市南区",
    "category": "night_home_help",
    "serviceType": "夜間対応型訪問介護",
    "capacity": 10,
    "openDays": [
      "平日",
      "土曜日",
      "日曜日",
      "祝日"
    ],
    "openDaysNote": "＊上記時間以外は24時間通報対応加算を取ることにより訪問介護での対応いたします。"
  },
  {
    "id": "2690500257",
    "name": "吉祥院訪問介護事業所",
    "kana": "キッショウインホウモンカイゴジギョウショ",
    "address": "京都市南区吉祥院砂ノ町50",
    "lat": 34.9685342,
    "lng": 135.7326705,
    "tel": "075-661-891",
    "url": "https://www.seiwaen.or.jp/",
    "pref": "京都府",
    "city": "京都市南区",
    "category": "night_home_help",
    "serviceType": "夜間対応型訪問介護",
    "capacity": 0,
    "openDays": [
      "平日",
      "土曜日",
      "日曜日",
      "祝日"
    ],
    "openDaysNote": "年中無休"
  },
  {
    "id": "2690500109",
    "name": "久世ホーム訪問介護事業所　夜間対応型訪問介護",
    "kana": "クゼホームホウモンカイゴジギョウショ　ヤカンタイオウガタホウモンカイゴ",
    "address": "京都府京都市南区久世築山町70",
    "lat": 34.9576684639274,
    "lng": 135.724546427626,
    "tel": "075-933-5777",
    "url": "http://www.seiwaen.or.jp",
    "pref": "京都府",
    "city": "京都市南区",
    "category": "night_home_help",
    "serviceType": "夜間対応型訪問介護",
    "capacity": 22,
    "openDays": [
      "平日",
      "土曜日",
      "日曜日",
      "祝日"
    ],
    "openDaysNote": "24時間通報加算有の場合は24時間"
  },
  {
    "id": "2690500034",
    "name": "社会福祉法人　京都福祉サービス協会　ナイトケアセンター南",
    "kana": "シャカイフクシホウジン　キョウトフクシサービスキョウカイ　ナイトケアセンターミナミ",
    "address": "西九条大国町４８番地の２",
    "lat": 34.9765197,
    "lng": 135.743054,
    "tel": "０７５-６９４-１９１１",
    "url": "https://www.kyoto-fukushi.org/",
    "pref": "京都府",
    "city": "京都市南区",
    "category": "night_home_help",
    "serviceType": "夜間対応型訪問介護",
    "capacity": 0,
    "openDays": [
      "平日",
      "土曜日",
      "日曜日",
      "祝日"
    ],
    "openDaysNote": ""
  },
  {
    "id": "2690500141",
    "name": "鳥羽ホームホームヘルプサービスセンター",
    "kana": "トバホームホームヘルプサービスセンター",
    "address": "京都府京都市南区上鳥羽堀子町88番地",
    "lat": 34.9690238,
    "lng": 135.7443875,
    "tel": "075-692-1149",
    "url": "https://www.seiwaen.or.jp",
    "pref": "京都府",
    "city": "京都市南区",
    "category": "night_home_help",
    "serviceType": "夜間対応型訪問介護",
    "capacity": 10,
    "openDays": [
      "平日",
      "土曜日",
      "日曜日",
      "祝日"
    ],
    "openDaysNote": ""
  },
  {
    "id": "2690500281",
    "name": "夜間対応型訪問介護ビハーラ十条",
    "kana": "ヤカンタイオウガタホウモンカイゴビハーラジュウジョウ",
    "address": "京都府京都市南区吉祥院南落合町40番4",
    "lat": 34.9729516,
    "lng": 135.7409019,
    "tel": "075-585-6878",
    "url": "http://www.vhr10.jp/",
    "pref": "京都府",
    "city": "京都市南区",
    "category": "night_home_help",
    "serviceType": "夜間対応型訪問介護",
    "capacity": null,
    "openDays": [
      "平日",
      "土曜日",
      "日曜日",
      "祝日"
    ],
    "openDaysNote": ""
  },
  {
    "id": "2690900051",
    "name": "あんしんサポート伏見",
    "kana": "アンシンサポートフシミ",
    "address": "京都市伏見区深草大亀谷東古御香町59番地60番地",
    "lat": 34.9438934,
    "lng": 135.7879075,
    "tel": "075-645-6564",
    "url": "http://www.kyoro.or.jp",
    "pref": "京都府",
    "city": "京都市伏見区",
    "category": "night_home_help",
    "serviceType": "夜間対応型訪問介護",
    "capacity": 0,
    "openDays": [
      "平日",
      "土曜日",
      "日曜日",
      "祝日"
    ],
    "openDaysNote": "面接時間は、8：30～17：00"
  },
  {
    "id": "2690900580",
    "name": "城南ホーム夜間対応型訪問介護事業所",
    "kana": "ジョウナンホームヤカンタイオウガタホウモンカイゴジギョウショ",
    "address": "京都市伏見区竹田中内畑町53特別養護老人ホーム城南ホーム 特別養護老人ホーム城南ホーム",
    "lat": 34.9534720000001,
    "lng": 135.7536747,
    "tel": "075-622-6530",
    "url": "https://www.seiwaen.or.jp/index.html",
    "pref": "京都府",
    "city": "京都市伏見区",
    "category": "night_home_help",
    "serviceType": "夜間対応型訪問介護",
    "capacity": 0,
    "openDays": [
      "平日",
      "土曜日",
      "日曜日",
      "祝日"
    ],
    "openDaysNote": ""
  },
  {
    "id": "2690100033",
    "name": "新大宮ナイトヘルパーステーション",
    "kana": "シンオオミヤナイトヘルパーステーション",
    "address": "京都府京都市北区紫竹西南町６５－３４たいほうセンター３階 たいほうセンター３階",
    "lat": 35.0468107985538,
    "lng": 135.745919879701,
    "tel": "075-492-3979",
    "url": "http://www.nananokai.com/",
    "pref": "京都府",
    "city": "京都市北区",
    "category": "night_home_help",
    "serviceType": "夜間対応型訪問介護",
    "capacity": 0,
    "openDays": [
      "平日",
      "土曜日",
      "日曜日",
      "祝日"
    ],
    "openDaysNote": "営業時間以外でも緊急コールによる相談、随時派遣は可能です。"
  }
]