[
  {
    "id": "192900314",
    "name": "旭川中央ケアサポート安心コールセンター",
    "kana": "アサヒカワチュウオウケアサポートアンシンコールセンター",
    "address": "旭川市東光15条3丁目6-10",
    "lat": 43.7413437701484,
    "lng": 142.39717717348,
    "tel": "0166-37-7110",
    "url": "http://www.chuuo-hire.com",
    "pref": "北海道",
    "city": "旭川市",
    "category": "night_home_help",
    "serviceType": "夜間対応型訪問介護",
    "capacity": 0,
    "openDays": [
      "平日",
      "土曜日",
      "日曜日",
      "祝日"
    ],
    "openDaysNote": "利用者の状況に応じて柔軟に対応し、２４時間３６５日連絡の取れる体制となっております。"
  },
  {
    "id": "194100137",
    "name": "釧路市社会福祉協議会夜間対応型訪問介護事業所",
    "kana": "クシロシシャカイフクシキョウギカイヤカンタイオウガタホウモンカイゴジギョウショ",
    "address": "釧路市旭町１２番３号釧路市総合福祉センター内 釧路市総合福祉センター内",
    "lat": 42.9852739,
    "lng": 144.3910602,
    "tel": "0154-24-1595",
    "url": "http://www.kushiro-city-shakyo.or.jp",
    "pref": "北海道",
    "city": "釧路市",
    "category": "night_home_help",
    "serviceType": "夜間対応型訪問介護",
    "capacity": 0,
    "openDays": [
      "平日",
      "土曜日",
      "日曜日",
      "祝日"
    ],
    "openDaysNote": "なし"
  },
  {
    "id": "190400333",
    "name": "すこやか介護サービス夜間対応型訪問介護事業所",
    "kana": "スコヤカカイゴサービスヤカンタイオウガタホウモンカイゴジギョウショ",
    "address": "北海道札幌市西区西野4条7丁目7番35号サービス付き高齢者向け住宅　すこやか苑西野 サービス付き高齢者向け住宅　すこやか苑西野",
    "lat": 43.0764192601751,
    "lng": 141.270498858197,
    "tel": "011-668-6000",
    "url": "http://www.kaigo-sukoyaka.co.jp",
    "pref": "北海道",
    "city": "札幌市西区",
    "category": "night_home_help",
    "serviceType": "夜間対応型訪問介護",
    "capacity": 10,
    "openDays": [
      "平日",
      "土曜日",
      "日曜日",
      "祝日"
    ],
    "openDaysNote": ""
  },
  {
    "id": "190100271",
    "name": "社会福祉法人札幌市社会福祉協議会ナイトケアセンター",
    "kana": "シャカイフクシホウジンサッポロシシャカイフクシキョウギカイナイトケアセンター",
    "address": "北海道札幌市中央区北１条西13丁目4FWD札幌ビル　1階 FWD札幌ビル　1階",
    "lat": 43.060721256914,
    "lng": 141.336340062119,
    "tel": "011-208-3800",
    "url": "http://www.sapporo-shakyo.or.jp/",
    "pref": "北海道",
    "city": "札幌市中央区",
    "category": "night_home_help",
    "serviceType": "夜間対応型訪問介護",
    "capacity": 0,
    "openDays": [
      "平日",
      "土曜日",
      "日曜日",
      "祝日"
    ],
    "openDaysNote": "オペレーションサービスはサービス提供時間以外でも２４時間可能。（改行）ただし、２４時間通報対応加算算定の場合のみ20:00～8:00のサービス提供に加え、日中も対応可能。"
  },
  {
    "id": "190100081",
    "name": "あいコールセンター",
    "kana": "アイコールセンター",
    "address": "札幌市北区新川5条4丁目1-10",
    "lat": 43.1027011,
    "lng": 141.3224434,
    "tel": "011-209-2288",
    "url": "http://www.jncc24.jp",
    "pref": "北海道",
    "city": "札幌市北区",
    "category": "night_home_help",
    "serviceType": "夜間対応型訪問介護",
    "capacity": 0,
    "openDays": [
      "平日",
      "土曜日",
      "日曜日",
      "祝日"
    ],
    "openDaysNote": ""
  },
  {
    "id": "191513571",
    "name": "夜間対応型訪問介護ステーションな菜",
    "kana": "ヤカンタイオウガタホウモンステーションナナ",
    "address": "北海道亀田郡七飯町桜町665-3",
    "lat": 41.9055909,
    "lng": 140.6980796,
    "tel": "0138-83-7728",
    "url": "",
    "pref": "北海道",
    "city": "七飯町",
    "category": "night_home_help",
    "serviceType": "夜間対応型訪問介護",
    "capacity": null,
    "openDays": [
      "平日"
    ],
    "openDaysNote": ""
  },
  {
    "id": "191400944",
    "name": "ＳＯＭＰＯケア函館昭和夜間訪問介護",
    "kana": "ソンポケアハコダテショウワヤカンホウモンカイゴ",
    "address": "北海道函館市昭和4丁目30-35そんぽの家Ｓ函館昭和 そんぽの家Ｓ函館昭和",
    "lat": 41.8166858,
    "lng": 140.7319664,
    "tel": "0138-44-0105",
    "url": "https://www.sompocare.com",
    "pref": "北海道",
    "city": "函館市",
    "category": "night_home_help",
    "serviceType": "夜間対応型訪問介護",
    "capacity": 0,
    "openDays": [
      "平日",
      "土曜日",
      "日曜日",
      "祝日"
    ],
    "openDaysNote": ""
  },
  {
    "id": "191401041",
    "name": "夜間対応型訪問介護事業所　あい",
    "kana": "ヤカンタイオウガタホウモンカイゴジギョウショアイ",
    "address": "北海道函館市日吉町2丁目12-22",
    "lat": 41.7923459,
    "lng": 140.7933963,
    "tel": "0138-85-6865",
    "url": "",
    "pref": "北海道",
    "city": "函館市",
    "category": "night_home_help",
    "serviceType": "夜間対応型訪問介護",
    "capacity": 0,
    "openDays": [
      "平日",
      "土曜日",
      "日曜日",
      "祝日"
    ],
    "openDaysNote": ""
  },
  {
    "id": "191300201",
    "name": "北広島ホームヘルプサービスステーション四恩園",
    "kana": "キタヒロシマホームヘルプサービスステーションシオンエン",
    "address": "北海道北広島市緑陽町1丁目2番地",
    "lat": 34.5071041,
    "lng": 133.3687462,
    "tel": "011-373-7755",
    "url": "http://www.shionen.or.jp",
    "pref": "北海道",
    "city": "北広島市",
    "category": "night_home_help",
    "serviceType": "夜間対応型訪問介護",
    "capacity": null,
    "openDays": [
      "平日",
      "土曜日",
      "日曜日",
      "祝日"
    ],
    "openDaysNote": ""
  }
]