[
  {
    "id": "2794200580",
    "name": "ＳＯＭＰＯケア茨木　夜間訪問介護",
    "kana": "ソンポケアイバラキヤカンホウモンカイゴ",
    "address": "大阪府茨木市双葉町2-27茨木シティライフビル3階 茨木シティライフビル3階",
    "lat": 34.8172659740626,
    "lng": 135.577139619605,
    "tel": "072-665-9765",
    "url": "https://www.sompocare.com",
    "pref": "大阪府",
    "city": "茨木市",
    "category": "night_home_help",
    "serviceType": "夜間対応型訪問介護",
    "capacity": null,
    "openDays": [
      "平日",
      "土曜日",
      "日曜日",
      "祝日"
    ],
    "openDaysNote": "18：00～08：00（改行）（サービスによって24時間対応）"
  },
  {
    "id": "2791100049",
    "name": "夜間対応型訪問介護　ナイトヘルパー萬寿園",
    "kana": "ヤカンタイオウガタホウモンカイゴ　ナイトヘルパー　マンジュエン",
    "address": "大阪府岸和田市尾生町808番地",
    "lat": 34.4513474,
    "lng": 135.4074175,
    "tel": "072-445-0749",
    "url": "",
    "pref": "大阪府",
    "city": "岸和田市",
    "category": "night_home_help",
    "serviceType": "夜間対応型訪問介護",
    "capacity": 0,
    "openDays": [
      "平日",
      "土曜日",
      "日曜日",
      "祝日"
    ],
    "openDaysNote": "随時訪問に関しては22:00～7:00までの間、対応しております。"
  },
  {
    "id": "2792300150",
    "name": "SOMPOケア阿倍野　夜間訪問介護",
    "kana": "ソンポケアアベノ　ヤカンホウモンカイゴ",
    "address": "大阪府大阪市阿倍野区西田辺町二丁目8番6号TASTEビル　2階A号室 TASTEビル　2階A号室",
    "lat": 34.6180491,
    "lng": 135.5144215,
    "tel": "06-4700-8870",
    "url": "",
    "pref": "大阪府",
    "city": "大阪市阿倍野区",
    "category": "night_home_help",
    "serviceType": "夜間対応型訪問介護",
    "capacity": null,
    "openDays": [
      "平日",
      "土曜日",
      "日曜日",
      "祝日"
    ],
    "openDaysNote": ""
  },
  {
    "id": "2793100336",
    "name": "夜間対応型ヘルパーステーション　ライフライト",
    "kana": "ヤカンタイオウガタヘルパーステーション　ライフライト",
    "address": "大阪府大阪市旭区赤川二丁目1番20号",
    "lat": 34.7244091,
    "lng": 135.5309091,
    "tel": "06-6923-5400",
    "url": "https://hoshino-kai.com",
    "pref": "大阪府",
    "city": "大阪市旭区",
    "category": "night_home_help",
    "serviceType": "夜間対応型訪問介護",
    "capacity": null,
    "openDays": [
      "平日",
      "土曜日",
      "日曜日",
      "祝日"
    ],
    "openDaysNote": ""
  },
  {
    "id": "2792000024",
    "name": "株式会社シルバーサービスモリタナイトケア",
    "kana": "カブシキカイシャシルバーサービスモリタナイトケア",
    "address": "大阪府大阪市住吉区大領四丁目7番21号",
    "lat": 34.6152274,
    "lng": 135.5047724,
    "tel": "06-6691-4141",
    "url": "http://www.silver-morita.com",
    "pref": "大阪府",
    "city": "大阪市住吉区",
    "category": "night_home_help",
    "serviceType": "夜間対応型訪問介護",
    "capacity": null,
    "openDays": [
      "平日",
      "土曜日",
      "日曜日",
      "祝日"
    ],
    "openDaysNote": ""
  },
  {
    "id": "2794400255",
    "name": "ＳＯＭＰＯケア　城東　夜間訪問介護",
    "kana": "ソンポケアジョウトウヤカンホウモンカイゴ",
    "address": "大阪府大阪市城東区鴫野東3-2-1",
    "lat": 34.6910813,
    "lng": 135.5462949,
    "tel": "06-4258-4691",
    "url": "https://www.sompocare.com/service/zaitaku/kaigo/Z000714",
    "pref": "大阪府",
    "city": "大阪市城東区",
    "category": "night_home_help",
    "serviceType": "夜間対応型訪問介護",
    "capacity": 0,
    "openDays": [
      "平日",
      "土曜日",
      "日曜日",
      "祝日"
    ],
    "openDaysNote": "サービスによっては24時間対応"
  },
  {
    "id": "2793300381",
    "name": "かなうヘルパーステーション",
    "kana": "カナウヘルパーステーション",
    "address": "大阪府大阪市西成区萩之茶屋１－８－１０レジデンス桜久２０２ レジデンス桜久２０２",
    "lat": 34.6476878281668,
    "lng": 135.502459195107,
    "tel": "06‐6655‐0191",
    "url": "",
    "pref": "大阪府",
    "city": "大阪市西成区",
    "category": "night_home_help",
    "serviceType": "夜間対応型訪問介護",
    "capacity": 0,
    "openDays": [
      "平日"
    ],
    "openDaysNote": ""
  },
  {
    "id": "2790800011",
    "name": "医療法人　西中医学会　西中夜間対応型ヘルパーステーション",
    "kana": "イリョウホウジン　ニシナカイガクカイ　ニシナカヤカンタイオウガタヘルパーステーション",
    "address": "大阪市東住吉区公園南矢田4-19-29",
    "lat": 34.5987867436418,
    "lng": 135.524761078413,
    "tel": "06-6698-9339",
    "url": "http://www.nishinaka.or.jp",
    "pref": "大阪府",
    "city": "大阪市東住吉区",
    "category": "night_home_help",
    "serviceType": "夜間対応型訪問介護",
    "capacity": 0,
    "openDays": [
      "平日",
      "土曜日",
      "日曜日",
      "祝日"
    ],
    "openDaysNote": ""
  },
  {
    "id": "2794100111",
    "name": "グッドライフケア夜間対応型訪問介護大阪",
    "kana": "グッドライフケアヤカンタイオウガタホウモンカイゴオオサカ",
    "address": "大阪府大阪市北区紅梅町1-6カザリーノビル6階 カザリーノビル6階",
    "lat": 34.6985709,
    "lng": 135.5139528,
    "tel": "06-6948-6520",
    "url": "https://goodlifecare.co.jp/",
    "pref": "大阪府",
    "city": "大阪市北区",
    "category": "night_home_help",
    "serviceType": "夜間対応型訪問介護",
    "capacity": 0,
    "openDays": [
      "平日",
      "土曜日",
      "日曜日",
      "祝日"
    ],
    "openDaysNote": "随時対応サービス:24時間"
  },
  {
    "id": "2795500186",
    "name": "夜間対応安心コール中谷",
    "kana": "ヤカンタイオウアンシンコールナカタニ",
    "address": "八尾市八尾木北３丁目１２３番地",
    "lat": 34.6151876,
    "lng": 135.6156428,
    "tel": "072-993-5585",
    "url": "http://www.nakataniclinic.or.jp",
    "pref": "大阪府",
    "city": "八尾市",
    "category": "night_home_help",
    "serviceType": "夜間対応型訪問介護",
    "capacity": 200,
    "openDays": [
      "平日",
      "土曜日",
      "日曜日",
      "祝日"
    ],
    "openDaysNote": "３６５日コール対応可能"
  },
  {
    "id": "2795500491",
    "name": "夜間対応型訪問介護　ステラ",
    "kana": "ヤカンタイオウガタホウモンカイゴ　ステラ",
    "address": "八尾市太田新町8丁目181番地",
    "lat": 34.5953992,
    "lng": 135.6018569,
    "tel": "072-968-8164",
    "url": "http://sutera24-365.com",
    "pref": "大阪府",
    "city": "八尾市",
    "category": "night_home_help",
    "serviceType": "夜間対応型訪問介護",
    "capacity": 0,
    "openDays": [
      "平日",
      "土曜日",
      "日曜日",
      "祝日"
    ],
    "openDaysNote": "24時間365日コール対応可能"
  },
  {
    "id": "2794000857",
    "name": "ＳＯＭＰＯケア　豊中　夜間訪問介護",
    "kana": "ソンポケア　トヨナカ　ヤカンホウモンカイゴ",
    "address": "大阪府豊中市岡町北3丁目5番22号",
    "lat": 34.7816040854079,
    "lng": 135.462648406871,
    "tel": "06-6842-2170",
    "url": "",
    "pref": "大阪府",
    "city": "豊中市",
    "category": "night_home_help",
    "serviceType": "夜間対応型訪問介護",
    "capacity": 0,
    "openDays": [
      "平日",
      "土曜日",
      "日曜日",
      "祝日"
    ],
    "openDaysNote": ""
  },
  {
    "id": "2792400083",
    "name": "アーバンナイト",
    "kana": "アーバンナイト",
    "address": "大阪府枚方市三矢町2-10",
    "lat": 34.8149567,
    "lng": 135.6434949,
    "tel": "072-844-3690",
    "url": "http://www.care-life.jp",
    "pref": "大阪府",
    "city": "枚方市",
    "category": "night_home_help",
    "serviceType": "夜間対応型訪問介護",
    "capacity": 60,
    "openDays": [
      "平日",
      "土曜日",
      "日曜日",
      "祝日"
    ],
    "openDaysNote": "365日対応です。"
  }
]