[
  {
    "id": "1690200728",
    "name": "あさひの里ヘルパーステーション",
    "kana": "アサヒノサトヘルパーステーション",
    "address": "富山県高岡市鷲北新185",
    "lat": 36.7664172999441,
    "lng": 137.03784522025,
    "tel": "0766-21-8688",
    "url": "http://akanekai.toyama.jp/",
    "pref": "富山県",
    "city": "高岡市",
    "category": "night_home_help",
    "serviceType": "夜間対応型訪問介護",
    "capacity": 0,
    "openDays": [
      "平日",
      "土曜日",
      "日曜日",
      "祝日"
    ],
    "openDaysNote": ""
  },
  {
    "id": "1691100182",
    "name": "福祉プラザ七美　夜間対応型訪問介護",
    "kana": "フクシプラザシチミ　ヤカンタイオウガタホウモンカイゴ",
    "address": "富山県射水市七美879-1",
    "lat": 36.7522095,
    "lng": 137.1407535,
    "tel": "0766-86-4545",
    "url": "http://www.imizu-manyoukai.or.jp",
    "pref": "富山県",
    "city": "射水市",
    "category": "night_home_help",
    "serviceType": "夜間対応型訪問介護",
    "capacity": 0,
    "openDays": [
      "平日",
      "土曜日",
      "日曜日",
      "祝日"
    ],
    "openDaysNote": "訪問は22時～翌朝7時までの間　コールを受け必要と判断した場合に致します。"
  },
  {
    "id": "1690100258",
    "name": "射水万葉会天正寺サポートセンター夜間対応型訪問介護",
    "kana": "イミズマンヨウカイテンショウジサポートセンターヤカンタイオウガタホウモンカイゴ",
    "address": "富山市天正寺４８４番1",
    "lat": 36.6870483,
    "lng": 137.2492852,
    "tel": "076-411-4343",
    "url": "http://www.imizu-manyoukai.or.jp",
    "pref": "富山県",
    "city": "富山市",
    "category": "night_home_help",
    "serviceType": "夜間対応型訪問介護",
    "capacity": 60,
    "openDays": [
      "平日",
      "土曜日",
      "日曜日",
      "祝日"
    ],
    "openDaysNote": "コールの受付は朝７時まで行います、訪問はコールを受け必要と判断した場合に致します。"
  }
]