[
  {
    "id": "2190102588",
    "name": "ケアサポート岐阜25",
    "kana": "ケアサポートギフ25",
    "address": "岐阜県岐阜市徹明通4丁目4番地",
    "lat": 35.417593685965,
    "lng": 136.754571014049,
    "tel": "058-265-6662",
    "url": "https://www.wakokai.or.jp",
    "pref": "岐阜県",
    "city": "岐阜市",
    "category": "night_home_help",
    "serviceType": "夜間対応型訪問介護",
    "capacity": 0,
    "openDays": [
      "平日",
      "土曜日",
      "日曜日",
      "祝日"
    ],
    "openDaysNote": "24時間連絡体制があるが、訪問は21時～翌7時の間で対応。"
  },
  {
    "id": "2190104485",
    "name": "ケアサポート長良25",
    "kana": "ケアサポートナガラニジュウゴ",
    "address": "岐阜県岐阜市長良3丁目93",
    "lat": 35.4527711,
    "lng": 136.7824294,
    "tel": "058-215-8585",
    "url": "wakokai.or.jp",
    "pref": "岐阜県",
    "city": "岐阜市",
    "category": "night_home_help",
    "serviceType": "夜間対応型訪問介護",
    "capacity": 0,
    "openDays": [
      "平日",
      "土曜日",
      "日曜日",
      "祝日"
    ],
    "openDaysNote": "コールセンター　24時間（改行）夜間対応訪問介護　21時～翌7時"
  },
  {
    "id": "2190700019",
    "name": "ケアサポート瑞穂25",
    "kana": "ケアサポートミズホニジュウゴ",
    "address": "岐阜県瑞穂市別府1494番地1　岐阜県本巣郡北方町柱本3丁目90番地",
    "lat": 35.3953038125964,
    "lng": 136.684871338137,
    "tel": "058-216-6226",
    "url": "http://www.caresupport-kitagata25-night.jp",
    "pref": "岐阜県",
    "city": "瑞穂市",
    "category": "night_home_help",
    "serviceType": "夜間対応型訪問介護",
    "capacity": 0,
    "openDays": [
      "平日",
      "土曜日",
      "日曜日",
      "祝日"
    ],
    "openDaysNote": "訪問時間は21：00～翌7：00まで"
  }
]