[
  {
    "id": "1395100058",
    "name": "ホームヘルパーステーションやのくち正吉苑",
    "kana": "ホームヘルパーステーションヤノクチショウキチエン",
    "address": "東京都稲城市矢野口1804-3",
    "lat": 35.6366527,
    "lng": 139.5191384,
    "tel": "042-370-2202",
    "url": "http://www.shoukichi.org/",
    "pref": "東京都",
    "city": "稲城市",
    "category": "night_home_help",
    "serviceType": "夜間対応型訪問介護",
    "capacity": 0,
    "openDays": [
      "平日",
      "土曜日",
      "日曜日",
      "祝日"
    ],
    "openDaysNote": ""
  },
  {
    "id": "1392200711",
    "name": "ＳＯＭＰＯケア在宅老人ホーム葛飾　夜間訪問介護",
    "kana": "ソンポケアザイタクロウジンホームカツシカヤカンホウモンカイゴ",
    "address": "東京都葛飾区青戸3-33-14サンプラザビル601 サンプラザビル601",
    "lat": 35.7468706,
    "lng": 139.855839,
    "tel": "03-5629-2178",
    "url": "https://www.sompocare.com/",
    "pref": "東京都",
    "city": "葛飾区",
    "category": "night_home_help",
    "serviceType": "夜間対応型訪問介護",
    "capacity": 30,
    "openDays": [
      "平日",
      "土曜日",
      "日曜日",
      "祝日"
    ],
    "openDaysNote": ""
  },
  {
    "id": "1392301089",
    "name": "しろひげレンジャー24時（夜間対応型訪問介護）",
    "kana": "シロヒゲレンジャーニジュウヨジ",
    "address": "東京都江戸川区船堀1-8-18ポエールビル201号 ポエールビル201号",
    "lat": 35.6839535,
    "lng": 139.8632383,
    "tel": "03-6808-9071",
    "url": "https://shirohige.clinic",
    "pref": "東京都",
    "city": "江戸川区",
    "category": "night_home_help",
    "serviceType": "夜間対応型訪問介護",
    "capacity": 0,
    "openDays": [
      "平日",
      "土曜日",
      "日曜日",
      "祝日"
    ],
    "openDaysNote": ""
  },
  {
    "id": "1392300974",
    "name": "夜間訪問型訪問介護泰山",
    "kana": "ヤカンタイオウガタホウモンカイゴタイザン",
    "address": "東京都江戸川区北小岩5-34-10",
    "lat": 35.7397065,
    "lng": 139.8916497,
    "tel": "03-5622-1165",
    "url": "http://www.hakusyuu.jimusho.jp",
    "pref": "東京都",
    "city": "江戸川区",
    "category": "night_home_help",
    "serviceType": "夜間対応型訪問介護",
    "capacity": 0,
    "openDays": [
      "平日",
      "土曜日",
      "日曜日",
      "祝日"
    ],
    "openDaysNote": ""
  },
  {
    "id": "1390800405",
    "name": "ＳＯＭＰＯケア江東　夜間訪問介護",
    "kana": "ソンポケアコウトウ　ヤカンホウモンカイゴ",
    "address": "東京都江東区東陽5-30-13東京原木会館7階 東京原木会館7階",
    "lat": 35.6736760049848,
    "lng": 139.815713150355,
    "tel": "03-6666-4925",
    "url": "",
    "pref": "東京都",
    "city": "江東区",
    "category": "night_home_help",
    "serviceType": "夜間対応型訪問介護",
    "capacity": 0,
    "openDays": [
      "平日",
      "土曜日",
      "日曜日",
      "祝日"
    ],
    "openDaysNote": "365日"
  },
  {
    "id": "1390800264",
    "name": "グッドライフケア２４",
    "kana": "グッドライフケア　ニジュウヨン",
    "address": "東京都江東区豊洲４－２－２豊南堂ビル4階 豊南堂ビル4階",
    "lat": 35.6550889029811,
    "lng": 139.797716555191,
    "tel": "03-6204-9633",
    "url": "https://goodlifecare.co.jp/",
    "pref": "東京都",
    "city": "江東区",
    "category": "night_home_help",
    "serviceType": "夜間対応型訪問介護",
    "capacity": 0,
    "openDays": [
      "平日",
      "土曜日",
      "日曜日",
      "祝日"
    ],
    "openDaysNote": "定期巡回及び随時訪問サービスの提供は、午後6時から午前8時までとします。（改行）オペレーションセンターサービスの提供は、24時間365日とし、電話等により，24時間常時連絡が可能な体制とします。"
  },
  {
    "id": "1390300240",
    "name": "グッドライフケア２４",
    "kana": "グッドライフケアニジュウヨン",
    "address": "東京都港区東麻布1-7-3第二渡邊ビル2階 第二渡邊ビル2階",
    "lat": 35.6576991453343,
    "lng": 139.743605128836,
    "tel": "03-6441-0895",
    "url": "https://goodlifecare.co.jp/",
    "pref": "東京都",
    "city": "港区",
    "category": "night_home_help",
    "serviceType": "夜間対応型訪問介護",
    "capacity": 0,
    "openDays": [
      "平日",
      "土曜日",
      "日曜日",
      "祝日"
    ],
    "openDaysNote": "オペレーションセンターサービスの提供は、24時間365日とし、電話等により，24時間（改行）常時連絡が可能な体制とする。"
  },
  {
    "id": "1391800636",
    "name": "SOMPOケア　荒川　夜間訪問介護",
    "kana": "ソンポケア　アラカワ　ヤカンホウモンカイゴ",
    "address": "東京都荒川区東尾久6-5-5富士産業ビル2階　203号室 富士産業ビル2階　203号室",
    "lat": 35.7454578,
    "lng": 139.7749925,
    "tel": "03-6807-9946",
    "url": "https://www.sompocare.com/service/zaitaku/yakan/Z000965",
    "pref": "東京都",
    "city": "荒川区",
    "category": "night_home_help",
    "serviceType": "夜間対応型訪問介護",
    "capacity": null,
    "openDays": [
      "平日",
      "土曜日",
      "日曜日",
      "祝日"
    ],
    "openDaysNote": ""
  },
  {
    "id": "1393100092",
    "name": "JNCC夜間介護",
    "kana": "ジェイエヌシーシーヤカンカイゴ",
    "address": "東京都国分寺市西町2-6-5",
    "lat": 35.7050924,
    "lng": 139.4378036,
    "tel": "042-512-5921",
    "url": "",
    "pref": "東京都",
    "city": "国分寺市",
    "category": "night_home_help",
    "serviceType": "夜間対応型訪問介護",
    "capacity": 50,
    "openDays": [
      "平日",
      "土曜日",
      "日曜日",
      "祝日"
    ],
    "openDaysNote": ""
  },
  {
    "id": "1393600323",
    "name": "SOMPOケア三鷹夜間訪問介護",
    "kana": "ソンポケアミタカヤカンホウモンカイゴ",
    "address": "東京都三鷹市上連雀4-3-3川口ビル1階 川口ビル1階",
    "lat": 35.6963542,
    "lng": 139.5589912,
    "tel": "0422-26-5205",
    "url": "https://www.sompocare.com",
    "pref": "東京都",
    "city": "三鷹市",
    "category": "night_home_help",
    "serviceType": "夜間対応型訪問介護",
    "capacity": 0,
    "openDays": [
      "平日",
      "土曜日",
      "日曜日",
      "祝日"
    ],
    "openDaysNote": "24時間加算をつけていただくで日中の対応も可能です。"
  },
  {
    "id": "1393600315",
    "name": "カイゴいるてと",
    "kana": "カイゴイルテト",
    "address": "東京都三鷹市野崎2-6-32",
    "lat": 35.6831137,
    "lng": 139.5477901,
    "tel": "0422-30-8022",
    "url": "https://iruteto.jp/",
    "pref": "東京都",
    "city": "三鷹市",
    "category": "night_home_help",
    "serviceType": "夜間対応型訪問介護",
    "capacity": 0,
    "openDays": [
      "平日",
      "土曜日",
      "日曜日",
      "祝日"
    ],
    "openDaysNote": ""
  },
  {
    "id": "1391300330",
    "name": "SOMPOケア　渋谷　夜間対応型訪問介護",
    "kana": "ソンポケア　シブヤ　ヤカンタイオウガタホウモンカイゴ",
    "address": "東京都渋谷区代々木3-28-6いちご西参道ビルA棟2階A室 いちご西参道ビルA棟2階A室",
    "lat": 35.6835778,
    "lng": 139.6921545,
    "tel": "03-6300-5848",
    "url": "https://www.sompocare.com/service/zaitaku/yakan/Z000960",
    "pref": "東京都",
    "city": "渋谷区",
    "category": "night_home_help",
    "serviceType": "夜間対応型訪問介護",
    "capacity": null,
    "openDays": [
      "平日",
      "土曜日",
      "日曜日",
      "祝日"
    ],
    "openDaysNote": ""
  },
  {
    "id": "1394300337",
    "name": "夜間訪問介護テラス",
    "kana": "ヤカンホウモンカイゴテラス",
    "address": "東京都小平市学園東町1-7-1黒木ビル2F 黒木ビル2F",
    "lat": 35.7239195,
    "lng": 139.4801221,
    "tel": "042-348-8317",
    "url": "https://hp.kaipoke.biz/cyd/",
    "pref": "東京都",
    "city": "小平市",
    "category": "night_home_help",
    "serviceType": "夜間対応型訪問介護",
    "capacity": null,
    "openDays": [
      "平日",
      "土曜日",
      "日曜日",
      "祝日"
    ],
    "openDaysNote": ""
  },
  {
    "id": "1394000077",
    "name": "昭和郷訪問介護センター",
    "kana": "ショウワゴウホウモンカイゴセンター",
    "address": "東京都昭島市中神町1260",
    "lat": 35.7093327,
    "lng": 139.3822334,
    "tel": "042-519-2010",
    "url": "https://syouwagou.jp/",
    "pref": "東京都",
    "city": "昭島市",
    "category": "night_home_help",
    "serviceType": "夜間対応型訪問介護",
    "capacity": 0,
    "openDays": [
      "平日",
      "土曜日",
      "日曜日",
      "祝日"
    ],
    "openDaysNote": ""
  },
  {
    "id": "1390400446",
    "name": "ＳＯＭＰＯケア　在宅老人ホーム新宿　夜間訪問介護",
    "kana": "ソンポケア　ザイタクロウジンホームシンジュク　ヤカンホウモンカイゴ",
    "address": "東京都新宿区高田馬場2-5-23第1桂城ビル4階 第1桂城ビル4階",
    "lat": 35.7137960680348,
    "lng": 139.710904130113,
    "tel": "03-6302-1017",
    "url": "https://www.sompocare.com/service/zaitaku/elderly/Z000625",
    "pref": "東京都",
    "city": "新宿区",
    "category": "night_home_help",
    "serviceType": "夜間対応型訪問介護",
    "capacity": 100,
    "openDays": [
      "平日",
      "土曜日",
      "日曜日",
      "祝日"
    ],
    "openDaysNote": "24時間対応加算ご利用であれば、24時間対応可能。"
  },
  {
    "id": "1390400230",
    "name": "エイプレイス新宿",
    "kana": "エイプレイスシンジュク",
    "address": "東京都新宿区高田馬場4－4－11内藤ビル1階 内藤ビル1階",
    "lat": 35.7124895121463,
    "lng": 139.701606893904,
    "tel": "03-5337-5228",
    "url": "https://www.a-place.co.jp/",
    "pref": "東京都",
    "city": "新宿区",
    "category": "night_home_help",
    "serviceType": "夜間対応型訪問介護",
    "capacity": 0,
    "openDays": [
      "平日",
      "土曜日",
      "日曜日",
      "祝日"
    ],
    "openDaysNote": "24時間365日営業"
  },
  {
    "id": "1391500863",
    "name": "ＳＯＭＰＯケア在宅老人ホーム杉並　夜間対応型訪問介護",
    "kana": "ソンポケアザイタクロウジンホームスギナミ",
    "address": "東京都杉並区阿佐谷南1-17-18阿佐谷下田ビル２階 阿佐谷下田ビル２階",
    "lat": 35.7009177855252,
    "lng": 139.63705645991,
    "tel": "03-5929-8685",
    "url": "https://www.sompocare.com/",
    "pref": "東京都",
    "city": "杉並区",
    "category": "night_home_help",
    "serviceType": "夜間対応型訪問介護",
    "capacity": 0,
    "openDays": [
      "平日",
      "土曜日",
      "日曜日",
      "祝日"
    ],
    "openDaysNote": "サービス提供時間は22～7時。（改行）24時間対応も可能となりました。"
  },
  {
    "id": "1391501077",
    "name": "スギコー定期巡回",
    "kana": "スギコーテイキジュンカイ",
    "address": "東京都杉並区高井戸東3-18-7杉並第2ビル 杉並第2ビル",
    "lat": 35.6856468535488,
    "lng": 139.62160945215,
    "tel": "03-5344-9222",
    "url": "https://sugiko-welfare.com/",
    "pref": "東京都",
    "city": "杉並区",
    "category": "night_home_help",
    "serviceType": "夜間対応型訪問介護",
    "capacity": 0,
    "openDays": [
      "平日",
      "土曜日",
      "日曜日",
      "祝日"
    ],
    "openDaysNote": ""
  },
  {
    "id": "1391500186",
    "name": "ホームヘルパーステーションすぎなみ正吉苑",
    "kana": "ホームヘルパーステーションスギナミショウキチエン",
    "address": "東京都杉並区清水２－１５－２４",
    "lat": 35.7142778,
    "lng": 139.6177947,
    "tel": "03-5303-5822",
    "url": "http://www.shoukichi.org",
    "pref": "東京都",
    "city": "杉並区",
    "category": "night_home_help",
    "serviceType": "夜間対応型訪問介護",
    "capacity": 0,
    "openDays": [
      "平日",
      "土曜日",
      "日曜日",
      "祝日"
    ],
    "openDaysNote": "・オペレーター業務は24時間体制"
  },
  {
    "id": "1391201058",
    "name": "ＳＯＭＰＯケア世田谷",
    "kana": "ソンポケアセタガヤ",
    "address": "東京都世田谷区三軒茶屋1-37-8ワコーレ三軒茶屋64　10F ワコーレ三軒茶屋64　10F",
    "lat": 35.6429417300378,
    "lng": 139.670889173895,
    "tel": "03-5431-0373",
    "url": "https://www.sompocare.com",
    "pref": "東京都",
    "city": "世田谷区",
    "category": "night_home_help",
    "serviceType": "夜間対応型訪問介護",
    "capacity": 0,
    "openDays": [
      "平日",
      "土曜日",
      "日曜日",
      "祝日"
    ],
    "openDaysNote": "サービスは24時間365日行っています。"
  },
  {
    "id": "1391201207",
    "name": "青藍会在宅医療支援センターハートハウス成城",
    "kana": "セイランカイザイタクイリョウシエンセンターハートハウスセイジョウ",
    "address": "東京都世田谷区成城2-35-3101 101",
    "lat": 35.6395896,
    "lng": 139.6001331,
    "tel": "03-3416-4160",
    "url": "https://www.seirankai.or.jp",
    "pref": "東京都",
    "city": "世田谷区",
    "category": "night_home_help",
    "serviceType": "夜間対応型訪問介護",
    "capacity": null,
    "openDays": [
      "平日",
      "土曜日",
      "日曜日",
      "祝日"
    ],
    "openDaysNote": ""
  },
  {
    "id": "1395400383",
    "name": "SOMPOケア　在宅老人ホーム　西東京　夜間訪問介護",
    "kana": "ソンポケア　ザイタクロウジンホーム　ニシトウキョウ　ヤカンホウモンカイゴ",
    "address": "東京都西東京市田無町4-2-11Aビル２階 Aビル２階",
    "lat": 35.727997,
    "lng": 139.5391769,
    "tel": "042-439-5640",
    "url": "https://www.sompocare.com/",
    "pref": "東京都",
    "city": "西東京市",
    "category": "night_home_help",
    "serviceType": "夜間対応型訪問介護",
    "capacity": null,
    "openDays": [],
    "openDaysNote": ""
  },
  {
    "id": "1390100145",
    "name": "SOMPOケア　千代田港　夜間訪問介護",
    "kana": "ソンポケア　チヨダミナト　ヤカンホウモンカイゴ",
    "address": "東京都千代田区麹町四丁目5番地4号桜井ビル5階 桜井ビル5階",
    "lat": 35.6835258,
    "lng": 139.7368447,
    "tel": "03-6272-3045",
    "url": "https://www.sompocare.com/service/zaitaku/kaigo/Z000870",
    "pref": "東京都",
    "city": "千代田区",
    "category": "night_home_help",
    "serviceType": "夜間対応型訪問介護",
    "capacity": null,
    "openDays": [
      "平日",
      "土曜日",
      "日曜日",
      "祝日"
    ],
    "openDaysNote": "オペレーター24時間365日対応"
  },
  {
    "id": "1392100895",
    "name": "ＳＯＭＰＯケア　在宅老人ホーム足立　夜間訪問介護",
    "kana": "ソンポケア　ザイタクロウジンホームアダチ　ヤカンホウモンカイゴ",
    "address": "東京都足立区千住中居町33-3大橋ビル4階 大橋ビル4階",
    "lat": 35.7510648,
    "lng": 139.7991835,
    "tel": "03-5813-5200",
    "url": "",
    "pref": "東京都",
    "city": "足立区",
    "category": "night_home_help",
    "serviceType": "夜間対応型訪問介護",
    "capacity": 0,
    "openDays": [
      "平日",
      "土曜日",
      "日曜日",
      "祝日"
    ],
    "openDaysNote": ""
  },
  {
    "id": "1390600375",
    "name": "SOMPOケア台東夜間訪問介護",
    "kana": "ソンポケアタイトウヤカンホウモンカイゴ",
    "address": "東京都台東区寿1-5-9盛光伸光ビル8階 盛光伸光ビル8階",
    "lat": 35.7068587,
    "lng": 139.7904714,
    "tel": "03-6231-6120",
    "url": "https://www.sompocare.com/service/zaitaku/kaigo/Z000044",
    "pref": "東京都",
    "city": "台東区",
    "category": "night_home_help",
    "serviceType": "夜間対応型訪問介護",
    "capacity": 100,
    "openDays": [
      "平日",
      "土曜日",
      "日曜日",
      "祝日"
    ],
    "openDaysNote": ""
  },
  {
    "id": "1391101126",
    "name": "ＳＯＭＰＯケア大田　夜間訪問介護",
    "kana": "ソンポケアオオタヤカンホウモンカイゴ",
    "address": "東京都大田区西蒲田6-36-11西蒲田NSビル5階 西蒲田NSビル5階",
    "lat": 35.5606542,
    "lng": 139.7245032,
    "tel": "03-6428-7609",
    "url": "https://www.sompocare.com/service/zaitaku/elderly/Z000642/message/",
    "pref": "東京都",
    "city": "大田区",
    "category": "night_home_help",
    "serviceType": "夜間対応型訪問介護",
    "capacity": 100,
    "openDays": [
      "平日",
      "土曜日",
      "日曜日",
      "祝日"
    ],
    "openDaysNote": ""
  },
  {
    "id": "1391101530",
    "name": "カラーズ24",
    "kana": "カラーズ24",
    "address": "東京都大田区大森西3-19-21",
    "lat": 35.5726786795033,
    "lng": 139.729840941458,
    "tel": "03-6450-0164",
    "url": "https://www.colors-g.co.jp/",
    "pref": "東京都",
    "city": "大田区",
    "category": "night_home_help",
    "serviceType": "夜間対応型訪問介護",
    "capacity": null,
    "openDays": [
      "平日",
      "土曜日",
      "日曜日",
      "祝日"
    ],
    "openDaysNote": ""
  },
  {
    "id": "1390200150",
    "name": "グッドライフケア24",
    "kana": "グッドライフケアニジュウヨン",
    "address": "東京都中央区新川1-25-2新川STビル1階 新川STビル1階",
    "lat": 35.6767507826736,
    "lng": 139.784149431179,
    "tel": "03-5244-9002",
    "url": "https://goodlifecare.co.jp/",
    "pref": "東京都",
    "city": "中央区",
    "category": "night_home_help",
    "serviceType": "夜間対応型訪問介護",
    "capacity": 0,
    "openDays": [
      "平日",
      "土曜日",
      "日曜日",
      "祝日"
    ],
    "openDaysNote": "定期巡回及び随時訪問サービスの提供は、午前6時から午後8時までとします。（改行）オペレーションセンターサービスの提供は、24時間265日とし、電話等により、24時間常時連絡が可能な体制とします。"
  },
  {
    "id": "1390200036",
    "name": "新川訪問介護ステーション",
    "kana": "シンカワホウモンカイゴステーション",
    "address": "東京都中央区新川二丁目２７番３号",
    "lat": 35.6730416718666,
    "lng": 139.783972602377,
    "tel": "03-3552-5670",
    "url": "https://www.san-ikukai.or.jp/chuo/shinkawa/",
    "pref": "東京都",
    "city": "中央区",
    "category": "night_home_help",
    "serviceType": "夜間対応型訪問介護",
    "capacity": 0,
    "openDays": [
      "平日",
      "土曜日",
      "日曜日",
      "祝日"
    ],
    "openDaysNote": "利用者の希望時間等を尊重し、柔軟に対応するうよう努める。"
  },
  {
    "id": "1391400759",
    "name": "SOMPOケア中野夜間訪問介護",
    "kana": "ソンポケアナカノヤカンホウモンカイゴ",
    "address": "東京都中野区中野三丁目33番18号フェルテ中野302号室 フェルテ中野302号室",
    "lat": 35.7029854,
    "lng": 139.6653383,
    "tel": "03-6382-8202",
    "url": "https://www.sompocare.com",
    "pref": "東京都",
    "city": "中野区",
    "category": "night_home_help",
    "serviceType": "夜間対応型訪問介護",
    "capacity": null,
    "openDays": [
      "平日",
      "土曜日",
      "日曜日",
      "祝日"
    ],
    "openDaysNote": ""
  },
  {
    "id": "1391400825",
    "name": "エイプレイス中野",
    "kana": "エイプレイスナカノ",
    "address": "東京都中野区中野5-24-18クロス・スクエアNAKANO901 クロス・スクエアNAKANO901",
    "lat": 35.7096374,
    "lng": 139.6694048,
    "tel": "03-5318-2550",
    "url": "https://www.a-place.co.jp/",
    "pref": "東京都",
    "city": "中野区",
    "category": "night_home_help",
    "serviceType": "夜間対応型訪問介護",
    "capacity": 0,
    "openDays": [
      "平日",
      "土曜日",
      "日曜日",
      "祝日"
    ],
    "openDaysNote": ""
  },
  {
    "id": "1394200271",
    "name": "SOMPOケア　在宅老人ホーム調布　夜間訪問介護",
    "kana": "ソンポケアザイタクロウジンホームヤカンホウモンカイゴ",
    "address": "東京都調布市布田1丁目50-1フジヨシビル　501号室 フジヨシビル　501号室",
    "lat": 35.6517484,
    "lng": 139.5464426,
    "tel": "042-444-0926",
    "url": "https://www.sompocare.com/service/zaitaku/kaigo/Z000212",
    "pref": "東京都",
    "city": "調布市",
    "category": "night_home_help",
    "serviceType": "夜間対応型訪問介護",
    "capacity": 0,
    "openDays": [],
    "openDaysNote": ""
  },
  {
    "id": "1392900013",
    "name": "いつでも安心介護センター",
    "kana": "イツデモアンシンカイゴセンター",
    "address": "東京都八王子市散田町3-18-15カネヒビル２階 カネヒビル２階",
    "lat": 35.655549,
    "lng": 139.3141033,
    "tel": "042-667-0877",
    "url": "http://zaitaku-hachioji.jp",
    "pref": "東京都",
    "city": "八王子市",
    "category": "night_home_help",
    "serviceType": "夜間対応型訪問介護",
    "capacity": 0,
    "openDays": [
      "平日",
      "土曜日",
      "日曜日",
      "祝日"
    ],
    "openDaysNote": "24時間加算にて対応しております。"
  },
  {
    "id": "1392900831",
    "name": "ジョイステージ八王子夜間訪問介護ステーション",
    "kana": "ジョイステージハチオウジヤカンホウモンカイゴステーション",
    "address": "東京都八王子市横川町924-2",
    "lat": 35.66332,
    "lng": 139.2950042,
    "tel": "042-622-0101",
    "url": "http://www.joystage.com/",
    "pref": "東京都",
    "city": "八王子市",
    "category": "night_home_help",
    "serviceType": "夜間対応型訪問介護",
    "capacity": 5,
    "openDays": [
      "平日",
      "土曜日",
      "日曜日",
      "祝日"
    ],
    "openDaysNote": ""
  },
  {
    "id": "1392900807",
    "name": "偕楽園ホーム夜間対応型訪問介護事業所",
    "kana": "カイラクエンホームヤカンタイオウガタホウモンカイゴジギョウショ",
    "address": "東京都八王子市宮下町９８３番地偕楽園ホーム 偕楽園ホーム",
    "lat": 35.7004824,
    "lng": 139.3123494,
    "tel": "042-659-3366",
    "url": "",
    "pref": "東京都",
    "city": "八王子市",
    "category": "night_home_help",
    "serviceType": "夜間対応型訪問介護",
    "capacity": null,
    "openDays": [
      "平日",
      "土曜日",
      "日曜日",
      "祝日"
    ],
    "openDaysNote": ""
  },
  {
    "id": "1391900899",
    "name": "SOMPOケア　徳丸　夜間訪問介護",
    "kana": "ソンポケア　トクマル　ヤカンホウモンカイゴ",
    "address": "東京都板橋区徳丸2-17-9",
    "lat": 35.7726597,
    "lng": 139.6614714,
    "tel": "03-5922-6247",
    "url": "",
    "pref": "東京都",
    "city": "板橋区",
    "category": "night_home_help",
    "serviceType": "夜間対応型訪問介護",
    "capacity": 0,
    "openDays": [
      "平日",
      "土曜日",
      "日曜日",
      "祝日"
    ],
    "openDaysNote": ""
  },
  {
    "id": "1391901038",
    "name": "アウケアホーム板橋・夜間対応",
    "kana": "アウケアホームイタバシ・ヤカンタイオウ",
    "address": "東京都板橋区前野町2-4-5大商第一マンション201 大商第一マンション201",
    "lat": 35.7637529,
    "lng": 139.6902085,
    "tel": "03-6279-8670",
    "url": "https://pages.3s.care/hr/2022/",
    "pref": "東京都",
    "city": "板橋区",
    "category": "night_home_help",
    "serviceType": "夜間対応型訪問介護",
    "capacity": 0,
    "openDays": [
      "平日",
      "土曜日",
      "日曜日",
      "祝日"
    ],
    "openDaysNote": ""
  },
  {
    "id": "1391901228",
    "name": "ソンポケア　ワカギ　ヤカンホウモンカイゴ",
    "kana": "SOMPOケア　若木　夜間訪問介護",
    "address": "東京都板橋区若木3-3-1",
    "lat": 35.7738433,
    "lng": 139.6770801,
    "tel": "03-5922-3397",
    "url": "https://www.sompocare.com/service/home/satsuki/H000369/",
    "pref": "東京都",
    "city": "板橋区",
    "category": "night_home_help",
    "serviceType": "夜間対応型訪問介護",
    "capacity": 0,
    "openDays": [
      "平日",
      "土曜日",
      "日曜日",
      "祝日"
    ],
    "openDaysNote": ""
  },
  {
    "id": "1390900452",
    "name": "ＳＯＭＰＯケア　品川　夜間訪問介護",
    "kana": "ソンポケア　シナガワ　ヤカンホウモンカイゴ",
    "address": "東京都品川区北品川3-11-16品川第一地域センタービル内1階 品川第一地域センタービル内1階",
    "lat": 35.6167200549037,
    "lng": 139.740056970676,
    "tel": "03-5479-7013",
    "url": "",
    "pref": "東京都",
    "city": "品川区",
    "category": "night_home_help",
    "serviceType": "夜間対応型訪問介護",
    "capacity": 0,
    "openDays": [
      "平日",
      "土曜日",
      "日曜日",
      "祝日"
    ],
    "openDaysNote": ""
  },
  {
    "id": "1393800337",
    "name": "SOMPOケア　府中　夜間訪問介護",
    "kana": "ソンポケア　フチュウ　ヤカンホウモンカイゴ",
    "address": "東京都府中市宮西町2-16-2府中第一生命ビル2階 府中第一生命ビル2階",
    "lat": 35.6698001,
    "lng": 139.4781053,
    "tel": "042-370-1991",
    "url": "https://www.sompocare.com",
    "pref": "東京都",
    "city": "府中市",
    "category": "night_home_help",
    "serviceType": "夜間対応型訪問介護",
    "capacity": 0,
    "openDays": [
      "平日",
      "土曜日",
      "日曜日",
      "祝日"
    ],
    "openDaysNote": ""
  },
  {
    "id": "1390500245",
    "name": "SOMPOケア　白山　夜間訪問介護",
    "kana": "ソンポケア　ハクサン　ヤカンホウモンカイゴ",
    "address": "東京都文京区白山5-17-19鳥居本ビル２F 鳥居本ビル２F",
    "lat": 35.7103006,
    "lng": 139.7473672,
    "tel": "03-5395-7667",
    "url": "",
    "pref": "東京都",
    "city": "文京区",
    "category": "night_home_help",
    "serviceType": "夜間対応型訪問介護",
    "capacity": null,
    "openDays": [
      "平日",
      "土曜日",
      "日曜日",
      "祝日"
    ],
    "openDaysNote": "営業日365日"
  },
  {
    "id": "1391600259",
    "name": "SOMPOケア　在宅老人ホーム豊島　夜間訪問介護",
    "kana": "ソンポケア　ザイタクロウジンホームトシマ　ヤカンホウモンカイゴ",
    "address": "東京都豊島区東池袋五丁目44番15号東信東池袋ビル4階 東信東池袋ビル4階",
    "lat": 35.7278245156106,
    "lng": 139.726571280763,
    "tel": "03-5962-0176",
    "url": "https://www.sompocare.com",
    "pref": "東京都",
    "city": "豊島区",
    "category": "night_home_help",
    "serviceType": "夜間対応型訪問介護",
    "capacity": 0,
    "openDays": [
      "平日",
      "土曜日",
      "日曜日",
      "祝日"
    ],
    "openDaysNote": ""
  },
  {
    "id": "1391700455",
    "name": "SOMPOケア　中十条　夜間訪問介護",
    "kana": "ソンポケア　ナカジュウジョウ　ヤカンホウモンカイゴ",
    "address": "東京都北区中十条1-4-7ｲﾝｸﾘｰｽﾋﾞﾙ301号室 ｲﾝｸﾘｰｽﾋﾞﾙ301号室",
    "lat": 35.7579341,
    "lng": 139.7301583,
    "tel": "03-5963-6809",
    "url": "",
    "pref": "東京都",
    "city": "北区",
    "category": "night_home_help",
    "serviceType": "夜間対応型訪問介護",
    "capacity": 100,
    "openDays": [
      "平日",
      "土曜日",
      "日曜日",
      "祝日"
    ],
    "openDaysNote": "地震・洪水等の天災、電話回線容量超過、断線等による通信不可、その他事業者の責に帰すべからざる事由により夜間対応型訪問介護の実施ができなくなった場合には、事業者はご利用者に対して当該夜間対応型訪問介護を提供すべき義務を負いません。"
  },
  {
    "id": "1391000443",
    "name": "ＳＯＭＰＯケア　目黒　夜間訪問介護",
    "kana": "ソンポケア　メグロ　ヤカンホウモンカイゴ",
    "address": "東京都目黒区自由が丘1－20－19光進自由が丘ビル　B1階一号室 光進自由が丘ビル　B1階一号室",
    "lat": 35.6137007062576,
    "lng": 139.668943938243,
    "tel": "03-6421ｰ1914",
    "url": "https://www.sompocare.com",
    "pref": "東京都",
    "city": "目黒区",
    "category": "night_home_help",
    "serviceType": "夜間対応型訪問介護",
    "capacity": 0,
    "openDays": [
      "平日",
      "土曜日",
      "日曜日",
      "祝日"
    ],
    "openDaysNote": ""
  },
  {
    "id": "1392000376",
    "name": "２４時間めぐみの会",
    "kana": "２４ジカンメグミノカイ",
    "address": "東京都練馬区石神井町５丁目３番１２号石神井公園ハイツ　１階 石神井公園ハイツ　１階",
    "lat": 35.7388661,
    "lng": 139.6063894,
    "tel": "03-6913-1593",
    "url": "http://www.medicalart.co.jp/megumi/index.html",
    "pref": "東京都",
    "city": "練馬区",
    "category": "night_home_help",
    "serviceType": "夜間対応型訪問介護",
    "capacity": 200,
    "openDays": [
      "平日",
      "土曜日",
      "日曜日",
      "祝日"
    ],
    "openDaysNote": ""
  },
  {
    "id": "1392000871",
    "name": "ＳＯＭＰＯケア練馬　夜間訪問介護",
    "kana": "ソンポケアネリマ　ヤカンホウモンカイゴ",
    "address": "東京都練馬区豊玉北4－11－10東洋ライス東日本支店　1階 東洋ライス東日本支店　1階",
    "lat": 35.7352725996045,
    "lng": 139.658984905527,
    "tel": "03-6915-8968",
    "url": "",
    "pref": "東京都",
    "city": "練馬区",
    "category": "night_home_help",
    "serviceType": "夜間対応型訪問介護",
    "capacity": 300,
    "openDays": [
      "平日",
      "土曜日",
      "日曜日",
      "祝日"
    ],
    "openDaysNote": "※２４時間通報加算算定により8：00～18：00までの通報可能。随時訪問は、日中連携先が必要。"
  }
]