[
  {
    "id": "1494000217",
    "name": "宝命",
    "kana": "ホウメイ",
    "address": "神奈川県伊勢原市下糟屋3005-2",
    "lat": 35.4068794677742,
    "lng": 139.320447042328,
    "tel": "0463-97-1012",
    "url": "https://homeikango.com/",
    "pref": "神奈川県",
    "city": "伊勢原市",
    "category": "night_home_help",
    "serviceType": "夜間対応型訪問介護",
    "capacity": null,
    "openDays": [
      "平日",
      "土曜日",
      "日曜日",
      "祝日"
    ],
    "openDaysNote": ""
  },
  {
    "id": "1494000050",
    "name": "夜間ヘルパーステーション絆",
    "kana": "ヤカンヘルパーステーションキズナ",
    "address": "神奈川県伊勢原市高森3004-2",
    "lat": 35.4090654408151,
    "lng": 139.332055209293,
    "tel": "0463-75-9850",
    "url": "http://www.well-age.com/service/night.php",
    "pref": "神奈川県",
    "city": "伊勢原市",
    "category": "night_home_help",
    "serviceType": "夜間対応型訪問介護",
    "capacity": 0,
    "openDays": [
      "平日",
      "土曜日",
      "日曜日",
      "祝日"
    ],
    "openDaysNote": "年中無休"
  },
  {
    "id": "1493200354",
    "name": "横浜市福祉サービス協会　訪問介護看護あさひ",
    "kana": "ヨコハマシフクシサービスキョウカイ　ホウモンカイゴカンゴアサヒ",
    "address": "神奈川県横浜市旭区柏町131-5",
    "lat": 35.4590466,
    "lng": 139.533271,
    "tel": "045-360-3296",
    "url": "http://www.hama-wel.or.jp/branch/detail/visitkaigoasahi/",
    "pref": "神奈川県",
    "city": "横浜市旭区",
    "category": "night_home_help",
    "serviceType": "夜間対応型訪問介護",
    "capacity": 0,
    "openDays": [
      "平日",
      "土曜日",
      "日曜日",
      "祝日"
    ],
    "openDaysNote": ""
  },
  {
    "id": "1493200313",
    "name": "銀の舞ヘルパーステーション",
    "kana": "ギンノマイヘルパーステーション",
    "address": "神奈川県横浜市旭区二俣川2-50-14コプレ二俣川オフィス905号 コプレ二俣川オフィス905号",
    "lat": 35.4635037153814,
    "lng": 139.532952645369,
    "tel": "045-364-9955",
    "url": "http://www.shuhokai.or.jp/",
    "pref": "神奈川県",
    "city": "横浜市旭区",
    "category": "night_home_help",
    "serviceType": "夜間対応型訪問介護",
    "capacity": 0,
    "openDays": [
      "平日",
      "土曜日",
      "日曜日",
      "祝日"
    ],
    "openDaysNote": ""
  },
  {
    "id": "1490700232",
    "name": "ハートケア　磯子",
    "kana": "ハートケア　イソゴ",
    "address": "広地町7-12",
    "lat": 35.4169394,
    "lng": 139.6231851,
    "tel": "045-754-2911",
    "url": "https://kaigo-heart.wixsite.com/tukusiisogo",
    "pref": "神奈川県",
    "city": "横浜市磯子区",
    "category": "night_home_help",
    "serviceType": "夜間対応型訪問介護",
    "capacity": 0,
    "openDays": [
      "平日",
      "土曜日",
      "日曜日",
      "祝日"
    ],
    "openDaysNote": ""
  },
  {
    "id": "1490700166",
    "name": "磯風の謡ヘルパーステーション",
    "kana": "イソカゼノウタヘルパーステーション",
    "address": "神奈川県横浜市磯子区磯子3-8-20サムティレジデンス横濱磯子1階 サムティレジデンス横濱磯子1階",
    "lat": 35.4047884,
    "lng": 139.6194216,
    "tel": "045-353-8881",
    "url": "https://shuhokai.or.jp/office/isogo-ku/hh-isokaze.php",
    "pref": "神奈川県",
    "city": "横浜市磯子区",
    "category": "night_home_help",
    "serviceType": "夜間対応型訪問介護",
    "capacity": 0,
    "openDays": [
      "平日",
      "土曜日",
      "日曜日",
      "祝日"
    ],
    "openDaysNote": "オペレーションシステム　24時間（改行）サテライト事業所（南区法人内事業所）"
  },
  {
    "id": "1490700414",
    "name": "横浜市福祉サービス協会　ヘルパーステーションいそご",
    "kana": "ヨコハマシフクシサービスキョウカイ　ヘルパーステーションイソゴ",
    "address": "神奈川県横浜市磯子区東町15-32モンビル横浜根岸306号室 モンビル横浜根岸306号室",
    "lat": 35.4168045108208,
    "lng": 139.635467908136,
    "tel": "045-750-1522",
    "url": "http://www.hama-wel.jp/branch/detail/hps_isogo/",
    "pref": "神奈川県",
    "city": "横浜市磯子区",
    "category": "night_home_help",
    "serviceType": "夜間対応型訪問介護",
    "capacity": 0,
    "openDays": [
      "平日",
      "土曜日",
      "日曜日",
      "祝日"
    ],
    "openDaysNote": ""
  },
  {
    "id": "1493500175",
    "name": "フルライフ本郷台",
    "kana": "フルライフホンゴウダイ",
    "address": "神奈川県横浜市栄区公田町596-7橋本ビル201 橋本ビル201",
    "lat": 35.3630341,
    "lng": 139.5552061,
    "tel": "045-890-4322",
    "url": "http://www.fulllife.co.jp/",
    "pref": "神奈川県",
    "city": "横浜市栄区",
    "category": "night_home_help",
    "serviceType": "夜間対応型訪問介護",
    "capacity": 0,
    "openDays": [
      "平日",
      "土曜日",
      "日曜日",
      "祝日"
    ],
    "openDaysNote": "オペレーションサービスは24時間対応"
  },
  {
    "id": "1490800198",
    "name": "横浜市福祉サービス協会　訪問介護看護かなざわ",
    "kana": "ヨコハマシフクシサービスキョウカイ　ホウモンカイゴカンゴカナザワ",
    "address": "神奈川県横浜市金沢区泥亀１－１７－１５大西第３ビル２階 大西第３ビル２階",
    "lat": 35.3402388,
    "lng": 139.6236055,
    "tel": "045-780-5139",
    "url": "http://www.hama-wel.or.jp/",
    "pref": "神奈川県",
    "city": "横浜市金沢区",
    "category": "night_home_help",
    "serviceType": "夜間対応型訪問介護",
    "capacity": 0,
    "openDays": [
      "平日",
      "土曜日",
      "日曜日",
      "祝日"
    ],
    "openDaysNote": "365日対応"
  },
  {
    "id": "1490800263",
    "name": "陽光の大地ヘルパーステーション",
    "kana": "ヨウコウノダイチヘルパーステーション",
    "address": "神奈川県横浜市金沢区釜利谷東2－3－10いしかたビル4Ｆ いしかたビル4Ｆ",
    "lat": 35.3427688,
    "lng": 139.6183171,
    "tel": "045-349-4410",
    "url": "http://www.shuhokai.or.jp",
    "pref": "神奈川県",
    "city": "横浜市金沢区",
    "category": "night_home_help",
    "serviceType": "夜間対応型訪問介護",
    "capacity": 50,
    "openDays": [
      "平日",
      "土曜日",
      "日曜日",
      "祝日"
    ],
    "openDaysNote": "２４時間対応を行っているので、２４時間加算の同意を受けている利用者は、随時対応を行っている。（08：00～18：00）地震、災害等で交通機関が停止した場合や、道路が使用できない状態等が発生した場合、台風や悪天候等または訪問担当の緊急やむを得ない事情で、訪問できない場合があります。"
  },
  {
    "id": "1491000657",
    "name": "ＳＯＭＰＯケア　横浜戸塚　夜間訪問介護",
    "kana": "ソンポケア　ヨコハマトツカ　ヤカンホウモンカイゴ",
    "address": "神奈川県横浜市戸塚区戸塚町１４５番地秀文堂ビル２０２号 秀文堂ビル２０２号",
    "lat": 35.3971670866346,
    "lng": 139.531634423943,
    "tel": "045-869-2161",
    "url": "https://www.sompocare.com/",
    "pref": "神奈川県",
    "city": "横浜市戸塚区",
    "category": "night_home_help",
    "serviceType": "夜間対応型訪問介護",
    "capacity": null,
    "openDays": [
      "平日",
      "土曜日",
      "日曜日",
      "祝日"
    ],
    "openDaysNote": "なし。"
  },
  {
    "id": "1491000483",
    "name": "希望の大地ヘルパーステーション",
    "kana": "キボウノダイチヘルパーステーション",
    "address": "神奈川県横浜市戸塚区品濃町545-30クライテリア東戸塚１階 クライテリア東戸塚１階",
    "lat": 35.4332388,
    "lng": 139.5587522,
    "tel": "045-443-5021",
    "url": "https://shuhokai.or.jp/office/totsuka-ku/hk-kibo.php",
    "pref": "神奈川県",
    "city": "横浜市戸塚区",
    "category": "night_home_help",
    "serviceType": "夜間対応型訪問介護",
    "capacity": 0,
    "openDays": [
      "平日",
      "土曜日",
      "日曜日",
      "祝日"
    ],
    "openDaysNote": "身体状況や介護状況に応じて、24時間通報対応加算の同意をおこなっているご利用者の場合は、24時間いつでも連絡が可能です。（改行）地震、災害等で交通機関が停止した場合や、道路が使用できない状況等が発生した場合、台風や荒天時等または訪問担当者の緊急やむを得ない事情で、訪問できない場合があります。"
  },
  {
    "id": "1493100711",
    "name": "横浜市福祉サービス協会　訪問介護看護こうなん",
    "kana": "ヨコハマシフクシサービスキョウカイ　ホウモンカイゴコウナン",
    "address": "神奈川県横浜市港南区上大岡西1-12-5朝日生命上大岡ビル4階 朝日生命上大岡ビル4階",
    "lat": 35.3995024,
    "lng": 139.5883071,
    "tel": "045-556-5664",
    "url": "https://www.hama-wel.or.jp/",
    "pref": "神奈川県",
    "city": "横浜市港南区",
    "category": "night_home_help",
    "serviceType": "夜間対応型訪問介護",
    "capacity": 15,
    "openDays": [
      "平日",
      "土曜日",
      "日曜日",
      "祝日"
    ],
    "openDaysNote": ""
  },
  {
    "id": "1493100265",
    "name": "瑞穂の大地ヘルパーステーション",
    "kana": "ミズホノダイチヘルパーステーション",
    "address": "神奈川県横浜市港南区日野1－9－33ＮＴＴ港南ビル１階 ＮＴＴ港南ビル１階",
    "lat": 35.3957608,
    "lng": 139.5868977,
    "tel": "045-349-4040",
    "url": "https://shuhokai.or.jp/office/konan-ku/hh-mizuho.php",
    "pref": "神奈川県",
    "city": "横浜市港南区",
    "category": "night_home_help",
    "serviceType": "夜間対応型訪問介護",
    "capacity": 0,
    "openDays": [
      "平日",
      "土曜日",
      "日曜日",
      "祝日"
    ],
    "openDaysNote": ""
  },
  {
    "id": "1490900584",
    "name": "やさしい手新横浜定期巡回随時対応型訪問介護看護事業所",
    "kana": "ヤサシイテシンヨコハマテイキジュンカイズイジタイオウガタホウモンカイゴカンゴジギョウショ",
    "address": "神奈川県横浜市港北区新横浜1－23－5ベラルーチェ新横浜1階 ベラルーチェ新横浜1階",
    "lat": 35.5038599,
    "lng": 139.6089145,
    "tel": "050-1752-0261",
    "url": "http://www.yasashiite.com/",
    "pref": "神奈川県",
    "city": "横浜市港北区",
    "category": "night_home_help",
    "serviceType": "夜間対応型訪問介護",
    "capacity": null,
    "openDays": [
      "平日",
      "土曜日",
      "日曜日",
      "祝日"
    ],
    "openDaysNote": "24時間対応"
  },
  {
    "id": "1490900816",
    "name": "横浜市福祉サービス協会　訪問介護看護こうほく",
    "kana": "ヨコハマシフクシサービスキョウカイ　ホウモンカイゴカンゴコウホク",
    "address": "神奈川県横浜市港北区新横浜2-5-9新横浜フジカビル8階 新横浜フジカビル8階",
    "lat": 35.5096779,
    "lng": 139.615634,
    "tel": "045-273-7832",
    "url": "https://www.hama-wel.or.jp/branch/visitkaigokohoku/news/",
    "pref": "神奈川県",
    "city": "横浜市港北区",
    "category": "night_home_help",
    "serviceType": "夜間対応型訪問介護",
    "capacity": 0,
    "openDays": [
      "平日",
      "土曜日",
      "日曜日",
      "祝日"
    ],
    "openDaysNote": ""
  },
  {
    "id": "1490900253",
    "name": "夜間対応型訪問介護　ゆい",
    "kana": "ヤカンタイオウガタホウモンカイゴ　ユイ",
    "address": "神奈川県横浜市港北区日吉本町1-27-37",
    "lat": 35.5524020040979,
    "lng": 139.644739857603,
    "tel": "045-534-5511",
    "url": "http://www.welfare-yui.com/",
    "pref": "神奈川県",
    "city": "横浜市港北区",
    "category": "night_home_help",
    "serviceType": "夜間対応型訪問介護",
    "capacity": 0,
    "openDays": [
      "平日",
      "土曜日",
      "日曜日",
      "祝日"
    ],
    "openDaysNote": ""
  },
  {
    "id": "1490900337",
    "name": "楡の大樹ヘルパーステーション",
    "kana": "ニレノタイジュヘルパーステーションヤカン",
    "address": "神奈川県横浜市港北区新横浜2-4-17新横浜千歳観光第2ビル３階 新横浜千歳観光第2ビル３階",
    "lat": 35.5088401,
    "lng": 139.6167015,
    "tel": "045-642-8309",
    "url": "https://shuhokai.or.jp/office/kohoku-ku/hh-nire.php",
    "pref": "神奈川県",
    "city": "横浜市港北区",
    "category": "night_home_help",
    "serviceType": "夜間対応型訪問介護",
    "capacity": 0,
    "openDays": [
      "平日",
      "土曜日",
      "日曜日",
      "祝日"
    ],
    "openDaysNote": "24時間通報対応加算の同意を得ているご利用者の場合は、24時間いつでも連絡が可能。"
  },
  {
    "id": "1490200092",
    "name": "わかたけナイトケアステーション",
    "kana": "ワカタケナイトケアステーション",
    "address": "神奈川県横浜市神奈川区平川町2-4ヤマザキビル ヤマザキビル",
    "lat": 35.4794425,
    "lng": 139.6287558,
    "tel": "045-488-5363",
    "url": "https://wakatake.net/",
    "pref": "神奈川県",
    "city": "横浜市神奈川区",
    "category": "night_home_help",
    "serviceType": "夜間対応型訪問介護",
    "capacity": 0,
    "openDays": [
      "平日",
      "土曜日",
      "日曜日",
      "祝日"
    ],
    "openDaysNote": "年中無休　24時間対応。"
  },
  {
    "id": "1490200738",
    "name": "横浜市福祉サービス協会訪問介護看護かながわ",
    "kana": "ヨコハマシフクシサービスキョウカイホウモンカイゴカンンゴカナガワ",
    "address": "神奈川県横浜市神奈川区反町1-7-1US-1ビル7階 US-1ビル7階",
    "lat": 35.4743122680592,
    "lng": 139.628438895975,
    "tel": "045-279-0638",
    "url": "https://www.hama-wel.or.jp/",
    "pref": "神奈川県",
    "city": "横浜市神奈川区",
    "category": "night_home_help",
    "serviceType": "夜間対応型訪問介護",
    "capacity": 0,
    "openDays": [
      "平日",
      "土曜日",
      "日曜日",
      "祝日"
    ],
    "openDaysNote": ""
  },
  {
    "id": "1490200290",
    "name": "椚の大樹ヘルパーステーション",
    "kana": "クヌギノタイジュヘルパーステーション",
    "address": "神奈川県横浜市神奈川区西神奈川1-9-2グレース竹和壱番館２階 グレース竹和壱番館２階",
    "lat": 35.4790148,
    "lng": 139.6308695,
    "tel": "045-548-5732",
    "url": "http://shuhokai.or.jp/office/kanagawa-ku/hh-kunugi-php",
    "pref": "神奈川県",
    "city": "横浜市神奈川区",
    "category": "night_home_help",
    "serviceType": "夜間対応型訪問介護",
    "capacity": 0,
    "openDays": [
      "平日",
      "土曜日",
      "日曜日",
      "祝日"
    ],
    "openDaysNote": "身体状況や介護状況に応じて２４時間通報対応加算の同意を行っているご利用者の場合は、２４時間いつでも連絡が可能です。"
  },
  {
    "id": "1493400293",
    "name": "横浜市福祉サービス協会　訪問介護看護せや",
    "kana": "ヨコハマシフクシサービスキョウカイ　ホウモンカイゴカンゴセヤ",
    "address": "神奈川県横浜市瀬谷区三ツ境100-6海發ビル１階 海發ビル１階",
    "lat": 35.4669441975785,
    "lng": 139.501589476973,
    "tel": "045-369-7116",
    "url": "http://www.hama-wel.or.jp/",
    "pref": "神奈川県",
    "city": "横浜市瀬谷区",
    "category": "night_home_help",
    "serviceType": "夜間対応型訪問介護",
    "capacity": 3,
    "openDays": [
      "平日",
      "土曜日",
      "日曜日",
      "祝日"
    ],
    "openDaysNote": "緊急コールによる随時対応は同事業所内の訪問介護看護せやよりサービスを利用できる時間帯外における時間帯も対応いたします。（随時訪問は２４時間対応可能）"
  },
  {
    "id": "1490300090",
    "name": "横浜市福祉サービス協会　訪問介護看護にし",
    "kana": "ヨコハマシフクシサービスキョウカイ　ホウモンカイゴカンゴニシ",
    "address": "神奈川県横浜市西区桜木町六丁目３１番地５階 ５階",
    "lat": 35.4616279,
    "lng": 139.6191931,
    "tel": "045-227-6687",
    "url": "http://www.hama-wel.or.jp/",
    "pref": "神奈川県",
    "city": "横浜市西区",
    "category": "night_home_help",
    "serviceType": "夜間対応型訪問介護",
    "capacity": 0,
    "openDays": [
      "平日",
      "土曜日",
      "日曜日",
      "祝日"
    ],
    "openDaysNote": ""
  },
  {
    "id": "1490300124",
    "name": "銀鈴の詩ヘルパーステーション",
    "kana": "ギンレイノウタヘルパーステーション",
    "address": "神奈川県横浜市西区平沼1-1-15ルピナス平沼2Ｆ ルピナス平沼2Ｆ",
    "lat": 35.4608419,
    "lng": 139.6216623,
    "tel": "045-594-9531",
    "url": "https://shuhokai.or.jp/",
    "pref": "神奈川県",
    "city": "横浜市西区",
    "category": "night_home_help",
    "serviceType": "夜間対応型訪問介護",
    "capacity": 0,
    "openDays": [
      "平日",
      "土曜日",
      "日曜日",
      "祝日"
    ],
    "openDaysNote": "オペレーションセンターは、委託事業所（同一法人　桜樹の森ヘルパーステーション）にて２４時間対応しております。"
  },
  {
    "id": "1493700627",
    "name": "エヌアイ在宅サービスステーション",
    "kana": "エヌアイザイタクサービスステーション",
    "address": "神奈川県横浜市青葉区市ヶ尾町25-6",
    "lat": 35.5492201,
    "lng": 139.5385858,
    "tel": "045-507-7712",
    "url": "https://www.nakagawa-tokushokai.com/",
    "pref": "神奈川県",
    "city": "横浜市青葉区",
    "category": "night_home_help",
    "serviceType": "夜間対応型訪問介護",
    "capacity": 0,
    "openDays": [
      "平日",
      "土曜日",
      "日曜日",
      "祝日"
    ],
    "openDaysNote": ""
  },
  {
    "id": "1493700353",
    "name": "わかたけナイトケアステーション青葉",
    "kana": "ワカタケナイトケアステーションアオバ",
    "address": "神奈川県横浜市青葉区奈良4-6-12",
    "lat": 35.5514968,
    "lng": 139.4827908,
    "tel": "045-962-3111",
    "url": "http://www.wakatake.net",
    "pref": "神奈川県",
    "city": "横浜市青葉区",
    "category": "night_home_help",
    "serviceType": "夜間対応型訪問介護",
    "capacity": 0,
    "openDays": [
      "平日",
      "土曜日",
      "日曜日",
      "祝日"
    ],
    "openDaysNote": "24時間対応"
  },
  {
    "id": "1493700478",
    "name": "夜間対応型訪問介護　ゆい　青葉",
    "kana": "ヤカンタイオウガタホウモンカイゴ　ユイ　アオバ",
    "address": "神奈川県横浜市青葉区あざみ野2-12-4小川ビル202 小川ビル202",
    "lat": 35.5684528,
    "lng": 139.5492757,
    "tel": "045-532-4747",
    "url": "",
    "pref": "神奈川県",
    "city": "横浜市青葉区",
    "category": "night_home_help",
    "serviceType": "夜間対応型訪問介護",
    "capacity": null,
    "openDays": [
      "平日",
      "土曜日",
      "日曜日",
      "祝日"
    ],
    "openDaysNote": "24時間対応"
  },
  {
    "id": "1493600272",
    "name": "横浜市福祉サービス協会　訪問介護看護いずみ",
    "kana": "ヨコハマシフクシサービスキョウカイ　ホウモンカイゴカンゴイズミ",
    "address": "神奈川県横浜市泉区和泉中央南4-1-3武藤ビル２階 武藤ビル２階",
    "lat": 35.41671,
    "lng": 139.4883694,
    "tel": "045-286-0016",
    "url": "https://www.hama-wel.or.jp",
    "pref": "神奈川県",
    "city": "横浜市泉区",
    "category": "night_home_help",
    "serviceType": "夜間対応型訪問介護",
    "capacity": 0,
    "openDays": [
      "平日",
      "土曜日",
      "日曜日",
      "祝日"
    ],
    "openDaysNote": "２４時間３６５日サービス提供しております。"
  },
  {
    "id": "1493600215",
    "name": "花の生活館ヘルパーステーション",
    "kana": "ハナノセイカツカンヘルパーステーション",
    "address": "神奈川県横浜市泉区弥生台13-4横山ビル202 横山ビル202",
    "lat": 35.428217,
    "lng": 139.5065817,
    "tel": "045-810-5115",
    "url": "http://shuhokai.or.jp/",
    "pref": "神奈川県",
    "city": "横浜市泉区",
    "category": "night_home_help",
    "serviceType": "夜間対応型訪問介護",
    "capacity": 0,
    "openDays": [
      "平日",
      "土曜日",
      "日曜日",
      "祝日"
    ],
    "openDaysNote": ""
  },
  {
    "id": "1490400411",
    "name": "横浜市福祉サービス協会　訪問介護看護なか",
    "kana": "ヨコハマシフクシサービスキョウカイ　ホウモンカイゴカンゴナカ",
    "address": "神奈川県横浜市中区扇町2-5-15リラックスビル3階 リラックスビル3階",
    "lat": 35.4406009,
    "lng": 139.6383398,
    "tel": "045-640-6732",
    "url": "http://www.hama-wel.or.jp",
    "pref": "神奈川県",
    "city": "横浜市中区",
    "category": "night_home_help",
    "serviceType": "夜間対応型訪問介護",
    "capacity": 0,
    "openDays": [
      "平日",
      "土曜日",
      "日曜日",
      "祝日"
    ],
    "openDaysNote": ""
  },
  {
    "id": "1490400189",
    "name": "銀杏の大樹ヘルパーステーション",
    "kana": "イチョウノタイジュヘルパーステーション",
    "address": "神奈川県横浜市中区山下町252グランベル横浜ビル3階ＥＦ グランベル横浜ビル3階ＥＦ",
    "lat": 35.4423913,
    "lng": 139.6410754,
    "tel": "045-650-2040",
    "url": "https://shuhokai.or.jp/office/naka-ku/hh-icho.php",
    "pref": "神奈川県",
    "city": "横浜市中区",
    "category": "night_home_help",
    "serviceType": "夜間対応型訪問介護",
    "capacity": 0,
    "openDays": [
      "平日",
      "土曜日",
      "日曜日",
      "祝日"
    ],
    "openDaysNote": "２４時間対応年中無休"
  },
  {
    "id": "1490100227",
    "name": "横浜市福祉サービス協会　訪問介護看護つるみ",
    "kana": "ヨコハマシフクシサービスキョウカイ　ホウモンカイゴカンゴツルミ",
    "address": "神奈川県横浜市鶴見区鶴見中央1丁目28番2号ニッコービル1階 ニッコービル1階",
    "lat": 35.508612,
    "lng": 139.6787678,
    "tel": "045-276-4300",
    "url": "http://www.hama-wel.or.jp",
    "pref": "神奈川県",
    "city": "横浜市鶴見区",
    "category": "night_home_help",
    "serviceType": "夜間対応型訪問介護",
    "capacity": 0,
    "openDays": [
      "平日",
      "土曜日",
      "日曜日",
      "祝日"
    ],
    "openDaysNote": ""
  },
  {
    "id": "1490100276",
    "name": "銀河の詩ヘルパーステーション",
    "kana": "ギンガノウタヘルパーステーション",
    "address": "神奈川県横浜市鶴見区鶴見中央4-32-1ＵＮＥＸビル801 ＵＮＥＸビル801",
    "lat": 35.5080981,
    "lng": 139.6804097,
    "tel": "045-521-7110",
    "url": "https://shuhokai.or.jp/office/tsurumi-ku/hh-ginga.php",
    "pref": "神奈川県",
    "city": "横浜市鶴見区",
    "category": "night_home_help",
    "serviceType": "夜間対応型訪問介護",
    "capacity": 0,
    "openDays": [
      "平日",
      "土曜日",
      "日曜日",
      "祝日"
    ],
    "openDaysNote": "オペレーションセンター　　２４時間　サテライト事業所（南区　法人内事業所　桜樹の森ヘルパーステーション）"
  },
  {
    "id": "1490100383",
    "name": "福祉協会つるみ24",
    "kana": "フクシキョウカイツルミ24",
    "address": "神奈川県横浜市鶴見区豊岡町7-10ﾊﾟｰﾗｲﾄﾋﾞﾙ8F ﾊﾟｰﾗｲﾄﾋﾞﾙ8F",
    "lat": 35.5078873517102,
    "lng": 139.67448615808,
    "tel": "045-947-4180",
    "url": "https://home-help.jp",
    "pref": "神奈川県",
    "city": "横浜市鶴見区",
    "category": "night_home_help",
    "serviceType": "夜間対応型訪問介護",
    "capacity": 0,
    "openDays": [
      "平日",
      "土曜日",
      "日曜日",
      "祝日"
    ],
    "openDaysNote": "年中無休"
  },
  {
    "id": "1490100565",
    "name": "訪問介護　輝",
    "kana": "ホウモンカイゴ　カガヤキ",
    "address": "神奈川県横浜市平安町2-28-1ヨコハマアイランドガーデン ヨコハマアイランドガーデン",
    "lat": 35.5078124,
    "lng": 139.6940599,
    "tel": "045-510-4163",
    "url": "https://www.kyoumaru.co.jp",
    "pref": "神奈川県",
    "city": "横浜市鶴見区",
    "category": "night_home_help",
    "serviceType": "夜間対応型訪問介護",
    "capacity": null,
    "openDays": [
      "平日",
      "土曜日",
      "日曜日",
      "祝日"
    ],
    "openDaysNote": ""
  },
  {
    "id": "1493800310",
    "name": "都筑区医師会24時間在宅ケアステーション",
    "kana": "ツヅキクイシカイニジュウヨジカンザイタクケアステーション",
    "address": "神奈川県横浜市都筑区牛久保西１－20－21",
    "lat": 35.5565019,
    "lng": 139.5812234,
    "tel": "045-913-3577",
    "url": "http://www.tsuzuki-med.org/",
    "pref": "神奈川県",
    "city": "横浜市都筑区",
    "category": "night_home_help",
    "serviceType": "夜間対応型訪問介護",
    "capacity": 1,
    "openDays": [
      "平日",
      "土曜日",
      "日曜日",
      "祝日"
    ],
    "openDaysNote": "オペレーターは24時間対応"
  },
  {
    "id": "1490500327",
    "name": "おひさまネット２４",
    "kana": "オヒサマネットニジュウヨン",
    "address": "神奈川県横浜市南区大岡5-14-21",
    "lat": 35.4119722203803,
    "lng": 139.598385182209,
    "tel": "045-315-7779",
    "url": "https://www.hakuhouen.or.jp/ohisamanet24.html",
    "pref": "神奈川県",
    "city": "横浜市南区",
    "category": "night_home_help",
    "serviceType": "夜間対応型訪問介護",
    "capacity": 0,
    "openDays": [
      "平日",
      "土曜日",
      "日曜日",
      "祝日"
    ],
    "openDaysNote": "24時間対応。"
  },
  {
    "id": "1490500111",
    "name": "フルライフ横浜",
    "kana": "フルライフヨコハマ",
    "address": "神奈川県横浜市南区山王町3-24-8港横浜ビル4階 港横浜ビル4階",
    "lat": 35.4362108627387,
    "lng": 139.619266111002,
    "tel": "045-250-1855",
    "url": "https://www.fulllife.co.jp/",
    "pref": "神奈川県",
    "city": "横浜市南区",
    "category": "night_home_help",
    "serviceType": "夜間対応型訪問介護",
    "capacity": null,
    "openDays": [
      "平日",
      "土曜日",
      "日曜日",
      "祝日"
    ],
    "openDaysNote": "オペレーションサービスは24時間対応"
  },
  {
    "id": "1490500236",
    "name": "桜樹の森ヘルパーステーション",
    "kana": "オウジュノモリヘルパーステーション",
    "address": "神奈川県横浜市南区通町4-94神奈中弘明寺ビル2階 神奈中弘明寺ビル2階",
    "lat": 35.4242436,
    "lng": 139.6022098,
    "tel": "045-720-6663",
    "url": "https://shuhokai.or.jp/office/minami-ku/hh-ouju.php",
    "pref": "神奈川県",
    "city": "横浜市南区",
    "category": "night_home_help",
    "serviceType": "夜間対応型訪問介護",
    "capacity": 0,
    "openDays": [
      "平日",
      "土曜日",
      "日曜日",
      "祝日"
    ],
    "openDaysNote": "年末年始12月29日から1月3日は、休業致します。"
  },
  {
    "id": "1490500657",
    "name": "定期巡回ケアコールセンターはぴねす横浜永田",
    "kana": "テイキジュンカイケアコールセンターハピネスヨコハマナガタ",
    "address": "神奈川県横浜市南区永田北1丁目31番19号",
    "lat": 35.4418780633178,
    "lng": 139.589295835582,
    "tel": "045-334-8188",
    "url": "https://villa-life-support.co.jp/",
    "pref": "神奈川県",
    "city": "横浜市南区",
    "category": "night_home_help",
    "serviceType": "夜間対応型訪問介護",
    "capacity": 0,
    "openDays": [
      "平日",
      "土曜日",
      "日曜日",
      "祝日"
    ],
    "openDaysNote": ""
  },
  {
    "id": "1490600234",
    "name": "フルライフ保土ヶ谷",
    "kana": "フルライフホドガヤ",
    "address": "神奈川県横浜市保土ケ谷区岩井町1-7保土ヶ谷駅ビル6階 保土ヶ谷駅ビル6階",
    "lat": 35.4468762,
    "lng": 139.5994554,
    "tel": "045-340-2338",
    "url": "https://www.fulllife.co.jp/",
    "pref": "神奈川県",
    "city": "横浜市保土ケ谷区",
    "category": "night_home_help",
    "serviceType": "夜間対応型訪問介護",
    "capacity": null,
    "openDays": [
      "平日",
      "土曜日",
      "日曜日",
      "祝日"
    ],
    "openDaysNote": "オペレーションセンターサービスは24時間対応　365日対応"
  },
  {
    "id": "1490600150",
    "name": "豊穣の大地ヘルパーステーション",
    "kana": "ホウジョウノダイチヘルパーステーション",
    "address": "神奈川県横浜市保土ヶ谷区和田1-13-1朋和ビル201 朋和ビル201",
    "lat": 35.4646608,
    "lng": 139.58878,
    "tel": "045-442-6610",
    "url": "https://www.shuhokai.or.jp/office/hodogaya-ku/hh-hojo.php",
    "pref": "神奈川県",
    "city": "横浜市保土ケ谷区",
    "category": "night_home_help",
    "serviceType": "夜間対応型訪問介護",
    "capacity": 0,
    "openDays": [
      "平日",
      "土曜日",
      "日曜日",
      "祝日"
    ],
    "openDaysNote": "※身体状況や介護状況に応じて、24時間通報対応加算の同意を行っているご利用者の場合は、（改行）　24時間いつでも連絡が可能です。（改行）※地震、災害等で交通機関が停止した場合や、道路が使用できない状態等が発生した場合、（改行）　台風や荒天時等または訪問担当者の緊急やむを得ない事情で、訪問できない場合があります。"
  },
  {
    "id": "1493300402",
    "name": "ＳＯＭＰＯケア　横浜十日市場　夜間訪問介護",
    "kana": "ソンポケアヨコハマトオカイチバヤカンホウモンカイゴ",
    "address": "神奈川県横浜市緑区十日市場町824-2",
    "lat": 35.5247154366516,
    "lng": 139.518135674758,
    "tel": "045-989-2630",
    "url": "https://www.sompocare.com",
    "pref": "神奈川県",
    "city": "横浜市緑区",
    "category": "night_home_help",
    "serviceType": "夜間対応型訪問介護",
    "capacity": null,
    "openDays": [
      "平日",
      "土曜日",
      "日曜日",
      "祝日"
    ],
    "openDaysNote": "居宅サービス計画に基づくものとします。"
  },
  {
    "id": "1493300428",
    "name": "ホームケア緑",
    "kana": "ホームケアミドリ",
    "address": "神奈川県横浜市緑区十日市場町1258－92クレールレジデンス横浜十日市場 クレールレジデンス横浜十日市場",
    "lat": 35.5217093,
    "lng": 139.5149194,
    "tel": "045-511-7066",
    "url": "https://www.e-life-design.co.jp/",
    "pref": "神奈川県",
    "city": "横浜市緑区",
    "category": "night_home_help",
    "serviceType": "夜間対応型訪問介護",
    "capacity": 0,
    "openDays": [
      "平日",
      "土曜日",
      "日曜日",
      "祝日"
    ],
    "openDaysNote": ""
  },
  {
    "id": "1493300253",
    "name": "横浜市福祉サービス協会　訪問介護看護みどり",
    "kana": "ヨコハマシフクシサービスキョウカイ　ホウモンカイゴカンゴミドリ",
    "address": "神奈川県横浜市緑区中山一丁目6番5号静銀中山ビル3階 静銀中山ビル3階",
    "lat": 35.5156037297274,
    "lng": 139.5409415,
    "tel": "045-929-5708",
    "url": "https://www.hama-wel.or.jp/",
    "pref": "神奈川県",
    "city": "横浜市緑区",
    "category": "night_home_help",
    "serviceType": "夜間対応型訪問介護",
    "capacity": 30,
    "openDays": [
      "平日",
      "土曜日",
      "日曜日",
      "祝日"
    ],
    "openDaysNote": ""
  },
  {
    "id": "1493300477",
    "name": "翡翠の舞ヘルパーステーション",
    "kana": "ヒスイノマイヘルパーステーション",
    "address": "神奈川県横浜市緑区台村町337台和ビル1階 台和ビル1階",
    "lat": 35.5133305,
    "lng": 139.537619,
    "tel": "045-482-7133",
    "url": "https://shuhokai.or.jp",
    "pref": "神奈川県",
    "city": "横浜市緑区",
    "category": "night_home_help",
    "serviceType": "夜間対応型訪問介護",
    "capacity": 0,
    "openDays": [
      "平日",
      "土曜日",
      "日曜日",
      "祝日"
    ],
    "openDaysNote": "365日24時間サービスは提供可能（改行）地震、災害等による苦痛機関が停止した場合、道路が使用できない状態等が発生した場合、台風や荒天時、訪問担当者の緊急やむ得ない事情などにより、訪問できない場合があります。"
  },
  {
    "id": "1452880029",
    "name": "医療法人社団　三喜会　介護老人保健施設　ライフプラザ鶴巻",
    "kana": "イリョウホウジンシャダンサンキカイカイゴロウジンホケンシセツライフプラザツルマキ",
    "address": "神奈川県秦野市鶴巻北3-1-3",
    "lat": 35.3821699,
    "lng": 139.2761855,
    "tel": "0463-69-3741",
    "url": "http://www.sankikai.or.jp/life-tsurumaki/",
    "pref": "神奈川県",
    "city": "秦野市",
    "category": "night_home_help",
    "serviceType": "夜間対応型訪問介護",
    "capacity": 0,
    "openDays": [
      "平日",
      "土曜日",
      "日曜日",
      "祝日"
    ],
    "openDaysNote": ""
  },
  {
    "id": "1492800238",
    "name": "夜間対応型訪問介護みちびき",
    "kana": "ヤカンタイオウガタホウモンカイゴミチビキ",
    "address": "神奈川県秦野市曽屋二丁目6-30清水ハイツ101号 清水ハイツ101号",
    "lat": 35.3799245,
    "lng": 139.2273536,
    "tel": "0463-67-7376",
    "url": "",
    "pref": "神奈川県",
    "city": "秦野市",
    "category": "night_home_help",
    "serviceType": "夜間対応型訪問介護",
    "capacity": 5,
    "openDays": [
      "平日",
      "土曜日",
      "日曜日",
      "祝日"
    ],
    "openDaysNote": ""
  },
  {
    "id": "1495500421",
    "name": "ＳＯＭＰＯケア川崎鷺沼夜間訪問介護",
    "kana": "ソンポケアカワサキサギヌマヤカンホウモンカイゴ",
    "address": "神奈川県川崎市宮前区有馬1-7-5サンプラザ鷺沼１Ｆ サンプラザ鷺沼１Ｆ",
    "lat": 35.5793263,
    "lng": 139.5778921,
    "tel": "044-860-6530",
    "url": "",
    "pref": "神奈川県",
    "city": "川崎市宮前区",
    "category": "night_home_help",
    "serviceType": "夜間対応型訪問介護",
    "capacity": 0,
    "openDays": [
      "平日",
      "土曜日",
      "日曜日",
      "祝日"
    ],
    "openDaysNote": "24時間対応"
  },
  {
    "id": "1495100271",
    "name": "フルライフ川崎",
    "kana": "フルライフカワサキ",
    "address": "神奈川県川崎市幸区幸町2-593モリファーストビル3階B モリファーストビル3階B",
    "lat": 35.5375715,
    "lng": 139.6988873,
    "tel": "044－520－2091",
    "url": "https://www.fulllife.co.jp",
    "pref": "神奈川県",
    "city": "川崎市幸区",
    "category": "night_home_help",
    "serviceType": "夜間対応型訪問介護",
    "capacity": null,
    "openDays": [
      "平日",
      "土曜日",
      "日曜日",
      "祝日"
    ],
    "openDaysNote": "オペレーションセンターサービスは、24時間対応。"
  },
  {
    "id": "1495300442",
    "name": "ＳＯＭＰＯケア　川崎高津　夜間訪問介護",
    "kana": "ソンポケア　カワサキタカツ　ヤカンホウモンカイゴ",
    "address": "神奈川県川崎市高津区溝口3-11-17溝口パークホームズ2-B 溝口パークホームズ2-B",
    "lat": 35.6031144,
    "lng": 139.6131062,
    "tel": "044-850-9151",
    "url": "https://www.sompocare.com",
    "pref": "神奈川県",
    "city": "川崎市高津区",
    "category": "night_home_help",
    "serviceType": "夜間対応型訪問介護",
    "capacity": 30,
    "openDays": [
      "平日",
      "土曜日",
      "日曜日",
      "祝日"
    ],
    "openDaysNote": ""
  },
  {
    "id": "1495000638",
    "name": "SOMPOケア川崎日進　夜間訪問介護",
    "kana": "ソンポケア　カワサキニッシン　ヤカンホウモンカイゴ",
    "address": "神奈川県川崎市川崎区日進町22-3吉田貸事務所 吉田貸事務所",
    "lat": 35.5240512,
    "lng": 139.6966074,
    "tel": "044-221-0204",
    "url": "https://www.sompocare.com",
    "pref": "神奈川県",
    "city": "川崎市川崎区",
    "category": "night_home_help",
    "serviceType": "夜間対応型訪問介護",
    "capacity": 0,
    "openDays": [
      "平日",
      "土曜日",
      "日曜日",
      "祝日"
    ],
    "openDaysNote": "24時間・365日のサービス提供"
  },
  {
    "id": "1495200139",
    "name": "フルライフ中原",
    "kana": "フルライフナカハラ",
    "address": "神奈川県川崎市中原区丸子通1-627-8トーシンビル トーシンビル",
    "lat": 35.5815121070928,
    "lng": 139.665307290758,
    "tel": "044-948-6711",
    "url": "https://www.fulllife.co.jp/",
    "pref": "神奈川県",
    "city": "川崎市中原区",
    "category": "night_home_help",
    "serviceType": "夜間対応型訪問介護",
    "capacity": 0,
    "openDays": [
      "平日",
      "土曜日",
      "日曜日",
      "祝日"
    ],
    "openDaysNote": "オペレーションセンターサービスは24時間対応"
  },
  {
    "id": "1495600478",
    "name": "SOMPOケア　川崎新百合ヶ丘　夜間訪問介護",
    "kana": "ソンポケアカワサキシンユリガオカ　ヤカンホウモンカイゴ",
    "address": "神奈川県川崎市麻生区万福寺4-1-8グラードビュウ百合丘2階201号室 グラードビュウ百合丘2階201号室",
    "lat": 35.6081214522061,
    "lng": 139.512785943517,
    "tel": "044-969-9851",
    "url": "http://www.sompocare.com/",
    "pref": "神奈川県",
    "city": "川崎市麻生区",
    "category": "night_home_help",
    "serviceType": "夜間対応型訪問介護",
    "capacity": 0,
    "openDays": [
      "平日",
      "土曜日",
      "日曜日",
      "祝日"
    ],
    "openDaysNote": "オペレーションセンターサービスは、24時間365日対応。"
  },
  {
    "id": "1495600353",
    "name": "エイプレイス麻生",
    "kana": "エイプレイスアサオ",
    "address": "神奈川県川崎市麻生区万福寺1丁目8番7号パストラル新百合ヶ丘310号室 パストラル新百合ヶ丘310号室",
    "lat": 35.6034851636326,
    "lng": 139.503934904822,
    "tel": "044-959-6460",
    "url": "http://www.a-place.co.jp",
    "pref": "神奈川県",
    "city": "川崎市麻生区",
    "category": "night_home_help",
    "serviceType": "夜間対応型訪問介護",
    "capacity": 0,
    "openDays": [
      "平日",
      "土曜日",
      "日曜日",
      "祝日"
    ],
    "openDaysNote": "24時間365日対応"
  },
  {
    "id": "1493000564",
    "name": "らんたん",
    "kana": "ランタン",
    "address": "神奈川県大和市中央３丁目２－３０クリオ大和壱番館１０２号室 クリオ大和壱番館１０２号室",
    "lat": 35.4704297,
    "lng": 139.4558058,
    "tel": "046-205-4500",
    "url": "https://ordinarydays.life/",
    "pref": "神奈川県",
    "city": "大和市",
    "category": "night_home_help",
    "serviceType": "夜間対応型訪問介護",
    "capacity": 15,
    "openDays": [
      "平日",
      "土曜日",
      "日曜日",
      "祝日"
    ],
    "openDaysNote": ""
  },
  {
    "id": "1492200157",
    "name": "夜間対応型訪問介護　ラポール城南",
    "kana": "ヤカンタイオウガタホウモンカイゴ　ラポールジョウナン",
    "address": "神奈川県藤沢市城南４－９－８城東ビル１階 城東ビル１階",
    "lat": 35.347238,
    "lng": 139.4617663,
    "tel": "0466-31-0755",
    "url": "http://www.rapport.or.jp",
    "pref": "神奈川県",
    "city": "藤沢市",
    "category": "night_home_help",
    "serviceType": "夜間対応型訪問介護",
    "capacity": 70,
    "openDays": [
      "平日",
      "土曜日",
      "日曜日",
      "祝日"
    ],
    "openDaysNote": "年中無休"
  }
]