[
  {
    "id": "4292100015",
    "name": "社会医療法人　玄州会　ホームヘルパーステーションリバティ",
    "kana": "シャカイイリョウホウジン　ゲンシュウカイ　ホームヘルパーステーションリバティ",
    "address": "長崎県壱岐市郷ノ浦町永田触字八枝275番地2",
    "lat": 33.7493558,
    "lng": 129.6976346,
    "tel": "0920-47-3607",
    "url": "http://www.gensyukai.or.jp/",
    "pref": "長崎県",
    "city": "壱岐市",
    "category": "night_home_help",
    "serviceType": "夜間対応型訪問介護",
    "capacity": 0,
    "openDays": [
      "平日",
      "土曜日",
      "日曜日",
      "祝日"
    ],
    "openDaysNote": ""
  },
  {
    "id": "4290200320",
    "name": "夜間対応型訪問介護事業所サクラ",
    "kana": "ヤカンタイオウガタホウモンカイゴジギョウショサクラ",
    "address": "佐世保市花園町２０１番地",
    "lat": 33.1811263,
    "lng": 129.7224731,
    "tel": "0956-24-1991",
    "url": "",
    "pref": "長崎県",
    "city": "佐世保市",
    "category": "night_home_help",
    "serviceType": "夜間対応型訪問介護",
    "capacity": 0,
    "openDays": [
      "平日",
      "土曜日",
      "日曜日",
      "祝日"
    ],
    "openDaysNote": "夜間対応型訪問介護２０時～７時。２４時間対応加算により２４時間の対応可能です"
  },
  {
    "id": "4290101023",
    "name": "医療法人社団　春秋会　夜間対応型訪問介護ﾍﾙﾊﾟｰｽﾃｰｼｮﾝ・ﾗｲﾌｹｱ",
    "kana": "イリョウホウジンシャダン　シュンジュウカイ　ヤカンタイオウガタホウモンカイゴ",
    "address": "長崎県長崎市大浦町3-21大浦十三番館　2階 大浦十三番館　2階",
    "lat": 32.7362684001941,
    "lng": 129.871282611639,
    "tel": "095-827-1070",
    "url": "http://www.syunjyu-kai.or.jp/",
    "pref": "長崎県",
    "city": "長崎市",
    "category": "night_home_help",
    "serviceType": "夜間対応型訪問介護",
    "capacity": 0,
    "openDays": [
      "平日",
      "土曜日",
      "日曜日",
      "祝日"
    ],
    "openDaysNote": "夜間対応型訪問介護のｻｰﾋﾞｽ時間は　21：00～7：00　とする。"
  }
]