都道府県コード又は市町村コード,No,都道府県名,市区町村名,事業所名,事業所名カナ,サービスの種類,住所,方書（ビル名等）,緯度,経度,電話番号,事業所番号,利用可能曜日,利用可能曜日特記事項,定員,URL
11011,190100271,北海道,札幌市中央区,社会福祉法人札幌市社会福祉協議会ナイトケアセンター,シャカイフクシホウジンサッポロシシャカイフクシキョウギカイナイトケアセンター,夜間対応型訪問介護,北海道札幌市中央区北１条西13丁目4FWD札幌ビル　1階,FWD札幌ビル　1階,43.060721256914000,141.336340062119000,011-208-3800,190100271,"平日,土曜日,日曜日,祝日",オペレーションサービスはサービス提供時間以外でも２４時間可能。（改行）ただし、２４時間通報対応加算算定の場合のみ20:00～8:00のサービス提供に加え、日中も対応可能。,0,http://www.sapporo-shakyo.or.jp/
11029,190100081,北海道,札幌市北区,あいコールセンター,アイコールセンター,夜間対応型訪問介護,札幌市北区新川5条4丁目1-10,,43.102701100000000,141.322443400000000,011-209-2288,190100081,"平日,土曜日,日曜日,祝日",,0,http://www.jncc24.jp
11070,190400333,北海道,札幌市西区,すこやか介護サービス夜間対応型訪問介護事業所,スコヤカカイゴサービスヤカンタイオウガタホウモンカイゴジギョウショ,夜間対応型訪問介護,北海道札幌市西区西野4条7丁目7番35号サービス付き高齢者向け住宅　すこやか苑西野,サービス付き高齢者向け住宅　すこやか苑西野,43.076419260175100,141.270498858197000,011-668-6000,190400333,"平日,土曜日,日曜日,祝日",,10,http://www.kaigo-sukoyaka.co.jp
12025,191400944,北海道,函館市,ＳＯＭＰＯケア函館昭和夜間訪問介護,ソンポケアハコダテショウワヤカンホウモンカイゴ,夜間対応型訪問介護,北海道函館市昭和4丁目30-35そんぽの家Ｓ函館昭和,そんぽの家Ｓ函館昭和,41.816685800000000,140.731966400000000,0138-44-0105,191400944,"平日,土曜日,日曜日,祝日",,0,https://www.sompocare.com
12025,191401041,北海道,函館市,夜間対応型訪問介護事業所　あい,ヤカンタイオウガタホウモンカイゴジギョウショアイ,夜間対応型訪問介護,北海道函館市日吉町2丁目12-22,,41.792345900000000,140.793396300000000,0138-85-6865,191401041,"平日,土曜日,日曜日,祝日",,0,
12041,192900314,北海道,旭川市,旭川中央ケアサポート安心コールセンター,アサヒカワチュウオウケアサポートアンシンコールセンター,夜間対応型訪問介護,旭川市東光15条3丁目6-10,,43.741343770148400,142.397177173480000,0166-37-7110,192900314,"平日,土曜日,日曜日,祝日",利用者の状況に応じて柔軟に対応し、２４時間３６５日連絡の取れる体制となっております。,0,http://www.chuuo-hire.com
12068,194100137,北海道,釧路市,釧路市社会福祉協議会夜間対応型訪問介護事業所,クシロシシャカイフクシキョウギカイヤカンタイオウガタホウモンカイゴジギョウショ,夜間対応型訪問介護,釧路市旭町１２番３号釧路市総合福祉センター内,釧路市総合福祉センター内,42.985273900000000,144.391060200000000,0154-24-1595,194100137,"平日,土曜日,日曜日,祝日",なし,0,http://www.kushiro-city-shakyo.or.jp
12343,191300201,北海道,北広島市,北広島ホームヘルプサービスステーション四恩園,キタヒロシマホームヘルプサービスステーションシオンエン,夜間対応型訪問介護,北海道北広島市緑陽町1丁目2番地,,34.507104100000000,133.368746200000000,011-373-7755,191300201,"平日,土曜日,日曜日,祝日",,,http://www.shionen.or.jp
13374,191513571,北海道,七飯町,夜間対応型訪問介護ステーションな菜,ヤカンタイオウガタホウモンステーションナナ,夜間対応型訪問介護,北海道亀田郡七飯町桜町665-3,,41.905590900000000,140.698079600000000,0138-83-7728,191513571,平日,,,
41050,495500548,宮城県,仙台市泉区,SOMPOケア　仙台泉　夜間訪問介護,ソンポケア　センダイイズミ　ヤカンホウモンカイゴ,夜間対応型訪問介護,宮城県仙台市泉区松森字鹿島53-9,,38.318191100000000,140.909337300000000,022-771-7362,495500548,"平日,土曜日,日曜日,祝日",22：00～翌7：00,,https://www.sompocare.com/
62065,691200067,山形県,寒河江市,夜間対応型訪問介護つつじ,ヤカンタイオウガタホウモンカイゴツツジ,夜間対応型訪問介護,山形県寒河江市大字寒河江字塩水6-1,,38.379472066310800,140.261482056206000,0237-85-1326,691200067,"平日,土曜日,日曜日,祝日",,0,http://www.npo-ajisai.jp/
64262,693000085,山形県,三川町,夜間対応型訪問介護ホームヘルパーステーションなの花荘,ヤカンタイオウガタホウモンカイゴホームヘルパーステーションナノハナソウ,夜間対応型訪問介護,山形県東田川郡三川町大字横山字城下228番地9,,38.776767176875400,139.851165944983000,0235-33-8896,693000085,"平日,土曜日,日曜日,祝日",,0,http://www.nanohanaso.or.jp
72010,790100309,福島県,福島市,社会福祉法人ライフ・タイム・福島　ロング・ライフ夜間対応型訪問介護事業所,シャカイフクシホウジンライフ・タイム・フクシマ　ロング・ライフヤカンタイオウガタホウモンカイゴジギョウショ,夜間対応型訪問介護,福島市松川町字産子内１番地の１,,37.667299700000000,140.478043400000000,024-567-5800,790100309,"平日,土曜日,日曜日,祝日",日中帯も、24時間通報対応の体制を整えているので、連絡を頂き、ケアマネジャーやご利用頂いている訪問介護事業所へ連絡することが可能です。,0,http://www.life-time-fukushima.jp/
92011,990100950,栃木県,宇都宮市,定期巡回型訪問介護看護ひだまり,テイキジュンカイガタホウモンカイゴカンゴヒダマリ,夜間対応型訪問介護,栃木県宇都宮市900‐1,,36.599336446498200,139.903409177368000,028‐616‐3460,990100950,"平日,土曜日,日曜日,祝日",(1)窓口受付日　月～金(相談受付日(土日祝日及び12/29～1/3除く))（改行）(2)窓口受付時間　8：30～17：30(相談受付時間(土日祝日及び12/29～1/3除く)),5,http：//www.toyosato-g.or.jp
102016,1090100858,群馬県,前橋市,夜間対応型訪問介護グランポルト前橋,ヤカンタイオウガタホウモンカイゴグランポルトマエバシ,夜間対応型訪問介護,群馬県前橋市昭和町3丁目11番18号,,36.405429200000000,139.062937400000000,027-212-6555,1090100858,"平日,土曜日,日曜日,祝日",上記以外の時間帯のご利用については、予め事業所へご相談ください。,,https://hotakakai.or.jp
112038,1190201028,埼玉県,川口市,エイプレイス川口,エイプレイスカワグチ,夜間対応型訪問介護,埼玉県川口市幸町2‐15‐8第Ⅱ福富ビル,第Ⅱ福富ビル,35.806538600000000,139.720080200000000,048-240-1355,1190201028,"平日,土曜日,日曜日,祝日",定期巡回・随時対応型訪問介護看護と兼務。加算要件によって24時間体制でオペレーターによる電話相談、随時訪問が可能です。,,https://www.a-place.co.jp
112038,1190200707,埼玉県,川口市,ケアセンターかがやき,ケアセンターカガヤキ,夜間対応型訪問介護,埼玉県川口市西青木5-1-40,,35.820930278243600,139.716072571072000,048-253-5186,1190200707,"平日,土曜日,日曜日,祝日",,0,https://www.mcp-saitama.or.jp/
112321,1190900025,埼玉県,久喜市,夜間対応型訪問介護　　ケアナイト,ヤカンタイオウガタホウモンカイゴ,夜間対応型訪問介護,埼玉県久喜市青葉４－２４－１８,,36.068830900000000,139.701265600000000,0480-26-5000,1190900025,"平日,土曜日,日曜日,祝日",サービス提供（改行）随時・毎日２４時間３６５日,0,npo-ikiiki-seikatsu-.com
122033,1290800018,千葉県,市川市,一般財団法人　市川市福祉公社,イッパンザイダンホウジン　イチカワシフクシコウシャ,夜間対応型訪問介護,千葉県市川市市川南1-1-1ザタワーズイースト209,ザタワーズイースト209,35.728207803734600,139.908068926459000,047-313-4070,1290800018,"平日,土曜日,日曜日,祝日",なし,,http://www.i-fukukou.com
122173,1292200928,千葉県,柏市,夜間対応型訪問介護和気あいあい,ヤカンタイオウガタホウモンカイゴワキアイアイ,夜間対応型訪問介護,千葉県柏市松葉町3丁目24-7,,35.886531869019100,139.966169971164000,04-7189-8536,1292200928,"平日,土曜日,日曜日,祝日",,0,https://www.wakiaiai-kaigo.jp/
122173,1292200613,千葉県,柏市,SOMPOケア地域サービスセンター豊四季　夜間訪問介護,ソンポケアチイキサービスセンタートヨシキ　ヤカンホウモンカイゴ,夜間対応型訪問介護,千葉県柏市豊四季283－1,,35.861069705008900,139.948141419592000,04－7142－9211,1292200613,"平日,土曜日,日曜日,祝日",24時間通報対応加算で日中のオペレータへも繋げる。,0,https://www.sompocare.com/service/zaitaku/teikijunkai/Z000609
122254,1293000053,千葉県,君津市,夜間対応型訪問介護事業所つばさ,ヤカンタイオウガタホウモンカイゴジギョウショツバサ,夜間対応型訪問介護,千葉県君津市郡２－７－１０,,35.307231970228800,139.914455153265000,０４３９（５５）１２７１,1293000053,"平日,土曜日,日曜日,祝日",年中無休,0,https://tsubasa-shishinkai.com/
124109,1299100022,千葉県,横芝光町,第二松丘園ケア・サポート,ダイニショウキュウエンケア・サポート,夜間対応型訪問介護,千葉県山武郡横芝光町宮川12103-1,,35.657765500000000,140.503985100000000,0479-84-3969,1299100022,"平日,土曜日,日曜日,祝日",,,https://www.99-home.com/
131016,1390100145,東京都,千代田区,SOMPOケア　千代田港　夜間訪問介護,ソンポケア　チヨダミナト　ヤカンホウモンカイゴ,夜間対応型訪問介護,東京都千代田区麹町四丁目5番地4号桜井ビル5階,桜井ビル5階,35.683525800000000,139.736844700000000,03-6272-3045,1390100145,"平日,土曜日,日曜日,祝日",オペレーター24時間365日対応,,https://www.sompocare.com/service/zaitaku/kaigo/Z000870
131024,1390200036,東京都,中央区,新川訪問介護ステーション,シンカワホウモンカイゴステーション,夜間対応型訪問介護,東京都中央区新川二丁目２７番３号,,35.673041671866600,139.783972602377000,03-3552-5670,1390200036,"平日,土曜日,日曜日,祝日",利用者の希望時間等を尊重し、柔軟に対応するうよう努める。,0,https://www.san-ikukai.or.jp/chuo/shinkawa/
131024,1390200150,東京都,中央区,グッドライフケア24,グッドライフケアニジュウヨン,夜間対応型訪問介護,東京都中央区新川1-25-2新川STビル1階,新川STビル1階,35.676750782673600,139.784149431179000,03-5244-9002,1390200150,"平日,土曜日,日曜日,祝日",定期巡回及び随時訪問サービスの提供は、午前6時から午後8時までとします。（改行）オペレーションセンターサービスの提供は、24時間265日とし、電話等により、24時間常時連絡が可能な体制とします。,0,https://goodlifecare.co.jp/
131032,1390300240,東京都,港区,グッドライフケア２４,グッドライフケアニジュウヨン,夜間対応型訪問介護,東京都港区東麻布1-7-3第二渡邊ビル2階,第二渡邊ビル2階,35.657699145334300,139.743605128836000,03-6441-0895,1390300240,"平日,土曜日,日曜日,祝日",オペレーションセンターサービスの提供は、24時間365日とし、電話等により，24時間（改行）常時連絡が可能な体制とする。,0,https://goodlifecare.co.jp/
131041,1390400230,東京都,新宿区,エイプレイス新宿,エイプレイスシンジュク,夜間対応型訪問介護,東京都新宿区高田馬場4－4－11内藤ビル1階,内藤ビル1階,35.712489512146300,139.701606893904000,03-5337-5228,1390400230,"平日,土曜日,日曜日,祝日",24時間365日営業,0,https://www.a-place.co.jp/
131041,1390400446,東京都,新宿区,ＳＯＭＰＯケア　在宅老人ホーム新宿　夜間訪問介護,ソンポケア　ザイタクロウジンホームシンジュク　ヤカンホウモンカイゴ,夜間対応型訪問介護,東京都新宿区高田馬場2-5-23第1桂城ビル4階,第1桂城ビル4階,35.713796068034800,139.710904130113000,03-6302-1017,1390400446,"平日,土曜日,日曜日,祝日",24時間対応加算ご利用であれば、24時間対応可能。,100,https://www.sompocare.com/service/zaitaku/elderly/Z000625
131059,1390500245,東京都,文京区,SOMPOケア　白山　夜間訪問介護,ソンポケア　ハクサン　ヤカンホウモンカイゴ,夜間対応型訪問介護,東京都文京区白山5-17-19鳥居本ビル２F,鳥居本ビル２F,35.710300600000000,139.747367200000000,03-5395-7667,1390500245,"平日,土曜日,日曜日,祝日",営業日365日,,
131067,1390600375,東京都,台東区,SOMPOケア台東夜間訪問介護,ソンポケアタイトウヤカンホウモンカイゴ,夜間対応型訪問介護,東京都台東区寿1-5-9盛光伸光ビル8階,盛光伸光ビル8階,35.706858700000000,139.790471400000000,03-6231-6120,1390600375,"平日,土曜日,日曜日,祝日",,100,https://www.sompocare.com/service/zaitaku/kaigo/Z000044
131083,1390800264,東京都,江東区,グッドライフケア２４,グッドライフケア　ニジュウヨン,夜間対応型訪問介護,東京都江東区豊洲４－２－２豊南堂ビル4階,豊南堂ビル4階,35.655088902981100,139.797716555191000,03-6204-9633,1390800264,"平日,土曜日,日曜日,祝日",定期巡回及び随時訪問サービスの提供は、午後6時から午前8時までとします。（改行）オペレーションセンターサービスの提供は、24時間365日とし、電話等により，24時間常時連絡が可能な体制とします。,0,https://goodlifecare.co.jp/
131083,1390800405,東京都,江東区,ＳＯＭＰＯケア江東　夜間訪問介護,ソンポケアコウトウ　ヤカンホウモンカイゴ,夜間対応型訪問介護,東京都江東区東陽5-30-13東京原木会館7階,東京原木会館7階,35.673676004984800,139.815713150355000,03-6666-4925,1390800405,"平日,土曜日,日曜日,祝日",365日,0,
131091,1390900452,東京都,品川区,ＳＯＭＰＯケア　品川　夜間訪問介護,ソンポケア　シナガワ　ヤカンホウモンカイゴ,夜間対応型訪問介護,東京都品川区北品川3-11-16品川第一地域センタービル内1階,品川第一地域センタービル内1階,35.616720054903700,139.740056970676000,03-5479-7013,1390900452,"平日,土曜日,日曜日,祝日",,0,
131105,1391000443,東京都,目黒区,ＳＯＭＰＯケア　目黒　夜間訪問介護,ソンポケア　メグロ　ヤカンホウモンカイゴ,夜間対応型訪問介護,東京都目黒区自由が丘1－20－19光進自由が丘ビル　B1階一号室,光進自由が丘ビル　B1階一号室,35.613700706257600,139.668943938243000,03-6421ｰ1914,1391000443,"平日,土曜日,日曜日,祝日",,0,https://www.sompocare.com
131113,1391101126,東京都,大田区,ＳＯＭＰＯケア大田　夜間訪問介護,ソンポケアオオタヤカンホウモンカイゴ,夜間対応型訪問介護,東京都大田区西蒲田6-36-11西蒲田NSビル5階,西蒲田NSビル5階,35.560654200000000,139.724503200000000,03-6428-7609,1391101126,"平日,土曜日,日曜日,祝日",,100,https://www.sompocare.com/service/zaitaku/elderly/Z000642/message/
131113,1391101530,東京都,大田区,カラーズ24,カラーズ24,夜間対応型訪問介護,東京都大田区大森西3-19-21,,35.572678679503300,139.729840941458000,03-6450-0164,1391101530,"平日,土曜日,日曜日,祝日",,,https://www.colors-g.co.jp/
131121,1391201058,東京都,世田谷区,ＳＯＭＰＯケア世田谷,ソンポケアセタガヤ,夜間対応型訪問介護,東京都世田谷区三軒茶屋1-37-8ワコーレ三軒茶屋64　10F,ワコーレ三軒茶屋64　10F,35.642941730037800,139.670889173895000,03-5431-0373,1391201058,"平日,土曜日,日曜日,祝日",サービスは24時間365日行っています。,0,https://www.sompocare.com
131121,1391201207,東京都,世田谷区,青藍会在宅医療支援センターハートハウス成城,セイランカイザイタクイリョウシエンセンターハートハウスセイジョウ,夜間対応型訪問介護,東京都世田谷区成城2-35-3101,101,35.639589600000000,139.600133100000000,03-3416-4160,1391201207,"平日,土曜日,日曜日,祝日",,,https://www.seirankai.or.jp
131130,1391300330,東京都,渋谷区,SOMPOケア　渋谷　夜間対応型訪問介護,ソンポケア　シブヤ　ヤカンタイオウガタホウモンカイゴ,夜間対応型訪問介護,東京都渋谷区代々木3-28-6いちご西参道ビルA棟2階A室,いちご西参道ビルA棟2階A室,35.683577800000000,139.692154500000000,03-6300-5848,1391300330,"平日,土曜日,日曜日,祝日",,,https://www.sompocare.com/service/zaitaku/yakan/Z000960
131148,1391400759,東京都,中野区,SOMPOケア中野夜間訪問介護,ソンポケアナカノヤカンホウモンカイゴ,夜間対応型訪問介護,東京都中野区中野三丁目33番18号フェルテ中野302号室,フェルテ中野302号室,35.702985400000000,139.665338300000000,03-6382-8202,1391400759,"平日,土曜日,日曜日,祝日",,,https://www.sompocare.com
131148,1391400825,東京都,中野区,エイプレイス中野,エイプレイスナカノ,夜間対応型訪問介護,東京都中野区中野5-24-18クロス・スクエアNAKANO901,クロス・スクエアNAKANO901,35.709637400000000,139.669404800000000,03-5318-2550,1391400825,"平日,土曜日,日曜日,祝日",,0,https://www.a-place.co.jp/
131156,1391500186,東京都,杉並区,ホームヘルパーステーションすぎなみ正吉苑,ホームヘルパーステーションスギナミショウキチエン,夜間対応型訪問介護,東京都杉並区清水２－１５－２４,,35.714277800000000,139.617794700000000,03-5303-5822,1391500186,"平日,土曜日,日曜日,祝日",・オペレーター業務は24時間体制,0,http://www.shoukichi.org
131156,1391501077,東京都,杉並区,スギコー定期巡回,スギコーテイキジュンカイ,夜間対応型訪問介護,東京都杉並区高井戸東3-18-7杉並第2ビル,杉並第2ビル,35.685646853548800,139.621609452150000,03-5344-9222,1391501077,"平日,土曜日,日曜日,祝日",,0,https://sugiko-welfare.com/
131156,1391500863,東京都,杉並区,ＳＯＭＰＯケア在宅老人ホーム杉並　夜間対応型訪問介護,ソンポケアザイタクロウジンホームスギナミ,夜間対応型訪問介護,東京都杉並区阿佐谷南1-17-18阿佐谷下田ビル２階,阿佐谷下田ビル２階,35.700917785525200,139.637056459910000,03-5929-8685,1391500863,"平日,土曜日,日曜日,祝日",サービス提供時間は22～7時。（改行）24時間対応も可能となりました。,0,https://www.sompocare.com/
131164,1391600259,東京都,豊島区,SOMPOケア　在宅老人ホーム豊島　夜間訪問介護,ソンポケア　ザイタクロウジンホームトシマ　ヤカンホウモンカイゴ,夜間対応型訪問介護,東京都豊島区東池袋五丁目44番15号東信東池袋ビル4階,東信東池袋ビル4階,35.727824515610600,139.726571280763000,03-5962-0176,1391600259,"平日,土曜日,日曜日,祝日",,0,https://www.sompocare.com
131172,1391700455,東京都,北区,SOMPOケア　中十条　夜間訪問介護,ソンポケア　ナカジュウジョウ　ヤカンホウモンカイゴ,夜間対応型訪問介護,東京都北区中十条1-4-7ｲﾝｸﾘｰｽﾋﾞﾙ301号室,ｲﾝｸﾘｰｽﾋﾞﾙ301号室,35.757934100000000,139.730158300000000,03-5963-6809,1391700455,"平日,土曜日,日曜日,祝日",地震・洪水等の天災、電話回線容量超過、断線等による通信不可、その他事業者の責に帰すべからざる事由により夜間対応型訪問介護の実施ができなくなった場合には、事業者はご利用者に対して当該夜間対応型訪問介護を提供すべき義務を負いません。,100,
131181,1391800636,東京都,荒川区,SOMPOケア　荒川　夜間訪問介護,ソンポケア　アラカワ　ヤカンホウモンカイゴ,夜間対応型訪問介護,東京都荒川区東尾久6-5-5富士産業ビル2階　203号室,富士産業ビル2階　203号室,35.745457800000000,139.774992500000000,03-6807-9946,1391800636,"平日,土曜日,日曜日,祝日",,,https://www.sompocare.com/service/zaitaku/yakan/Z000965
131199,1391901228,東京都,板橋区,ソンポケア　ワカギ　ヤカンホウモンカイゴ,SOMPOケア　若木　夜間訪問介護,夜間対応型訪問介護,東京都板橋区若木3-3-1,,35.773843300000000,139.677080100000000,03-5922-3397,1391901228,"平日,土曜日,日曜日,祝日",,0,https://www.sompocare.com/service/home/satsuki/H000369/
131199,1391900899,東京都,板橋区,SOMPOケア　徳丸　夜間訪問介護,ソンポケア　トクマル　ヤカンホウモンカイゴ,夜間対応型訪問介護,東京都板橋区徳丸2-17-9,,35.772659700000000,139.661471400000000,03-5922-6247,1391900899,"平日,土曜日,日曜日,祝日",,0,
131199,1391901038,東京都,板橋区,アウケアホーム板橋・夜間対応,アウケアホームイタバシ・ヤカンタイオウ,夜間対応型訪問介護,東京都板橋区前野町2-4-5大商第一マンション201,大商第一マンション201,35.763752900000000,139.690208500000000,03-6279-8670,1391901038,"平日,土曜日,日曜日,祝日",,0,https://pages.3s.care/hr/2022/
131202,1392000376,東京都,練馬区,２４時間めぐみの会,２４ジカンメグミノカイ,夜間対応型訪問介護,東京都練馬区石神井町５丁目３番１２号石神井公園ハイツ　１階,石神井公園ハイツ　１階,35.738866100000000,139.606389400000000,03-6913-1593,1392000376,"平日,土曜日,日曜日,祝日",,200,http://www.medicalart.co.jp/megumi/index.html
131202,1392000871,東京都,練馬区,ＳＯＭＰＯケア練馬　夜間訪問介護,ソンポケアネリマ　ヤカンホウモンカイゴ,夜間対応型訪問介護,東京都練馬区豊玉北4－11－10東洋ライス東日本支店　1階,東洋ライス東日本支店　1階,35.735272599604500,139.658984905527000,03-6915-8968,1392000871,"平日,土曜日,日曜日,祝日",※２４時間通報加算算定により8：00～18：00までの通報可能。随時訪問は、日中連携先が必要。,300,
131211,1392100895,東京都,足立区,ＳＯＭＰＯケア　在宅老人ホーム足立　夜間訪問介護,ソンポケア　ザイタクロウジンホームアダチ　ヤカンホウモンカイゴ,夜間対応型訪問介護,東京都足立区千住中居町33-3大橋ビル4階,大橋ビル4階,35.751064800000000,139.799183500000000,03-5813-5200,1392100895,"平日,土曜日,日曜日,祝日",,0,
131229,1392200711,東京都,葛飾区,ＳＯＭＰＯケア在宅老人ホーム葛飾　夜間訪問介護,ソンポケアザイタクロウジンホームカツシカヤカンホウモンカイゴ,夜間対応型訪問介護,東京都葛飾区青戸3-33-14サンプラザビル601,サンプラザビル601,35.746870600000000,139.855839000000000,03-5629-2178,1392200711,"平日,土曜日,日曜日,祝日",,30,https://www.sompocare.com/
131237,1392300974,東京都,江戸川区,夜間訪問型訪問介護泰山,ヤカンタイオウガタホウモンカイゴタイザン,夜間対応型訪問介護,東京都江戸川区北小岩5-34-10,,35.739706500000000,139.891649700000000,03-5622-1165,1392300974,"平日,土曜日,日曜日,祝日",,0,http://www.hakusyuu.jimusho.jp
131237,1392301089,東京都,江戸川区,しろひげレンジャー24時（夜間対応型訪問介護）,シロヒゲレンジャーニジュウヨジ,夜間対応型訪問介護,東京都江戸川区船堀1-8-18ポエールビル201号,ポエールビル201号,35.683953500000000,139.863238300000000,03-6808-9071,1392301089,"平日,土曜日,日曜日,祝日",,0,https://shirohige.clinic
132012,1392900831,東京都,八王子市,ジョイステージ八王子夜間訪問介護ステーション,ジョイステージハチオウジヤカンホウモンカイゴステーション,夜間対応型訪問介護,東京都八王子市横川町924-2,,35.663320000000000,139.295004200000000,042-622-0101,1392900831,"平日,土曜日,日曜日,祝日",,5,http://www.joystage.com/
132012,1392900807,東京都,八王子市,偕楽園ホーム夜間対応型訪問介護事業所,カイラクエンホームヤカンタイオウガタホウモンカイゴジギョウショ,夜間対応型訪問介護,東京都八王子市宮下町９８３番地偕楽園ホーム,偕楽園ホーム,35.700482400000000,139.312349400000000,042-659-3366,1392900807,"平日,土曜日,日曜日,祝日",,,
132012,1392900013,東京都,八王子市,いつでも安心介護センター,イツデモアンシンカイゴセンター,夜間対応型訪問介護,東京都八王子市散田町3-18-15カネヒビル２階,カネヒビル２階,35.655549000000000,139.314103300000000,042-667-0877,1392900013,"平日,土曜日,日曜日,祝日",24時間加算にて対応しております。,0,http://zaitaku-hachioji.jp
132047,1393600315,東京都,三鷹市,カイゴいるてと,カイゴイルテト,夜間対応型訪問介護,東京都三鷹市野崎2-6-32,,35.683113700000000,139.547790100000000,0422-30-8022,1393600315,"平日,土曜日,日曜日,祝日",,0,https://iruteto.jp/
132047,1393600323,東京都,三鷹市,SOMPOケア三鷹夜間訪問介護,ソンポケアミタカヤカンホウモンカイゴ,夜間対応型訪問介護,東京都三鷹市上連雀4-3-3川口ビル1階,川口ビル1階,35.696354200000000,139.558991200000000,0422-26-5205,1393600323,"平日,土曜日,日曜日,祝日",24時間加算をつけていただくで日中の対応も可能です。,0,https://www.sompocare.com
132063,1393800337,東京都,府中市,SOMPOケア　府中　夜間訪問介護,ソンポケア　フチュウ　ヤカンホウモンカイゴ,夜間対応型訪問介護,東京都府中市宮西町2-16-2府中第一生命ビル2階,府中第一生命ビル2階,35.669800100000000,139.478105300000000,042-370-1991,1393800337,"平日,土曜日,日曜日,祝日",,0,https://www.sompocare.com
132071,1394000077,東京都,昭島市,昭和郷訪問介護センター,ショウワゴウホウモンカイゴセンター,夜間対応型訪問介護,東京都昭島市中神町1260,,35.709332700000000,139.382233400000000,042-519-2010,1394000077,"平日,土曜日,日曜日,祝日",,0,https://syouwagou.jp/
132080,1394200271,東京都,調布市,SOMPOケア　在宅老人ホーム調布　夜間訪問介護,ソンポケアザイタクロウジンホームヤカンホウモンカイゴ,夜間対応型訪問介護,東京都調布市布田1丁目50-1フジヨシビル　501号室,フジヨシビル　501号室,35.651748400000000,139.546442600000000,042-444-0926,1394200271,,,0,https://www.sompocare.com/service/zaitaku/kaigo/Z000212
132110,1394300337,東京都,小平市,夜間訪問介護テラス,ヤカンホウモンカイゴテラス,夜間対応型訪問介護,東京都小平市学園東町1-7-1黒木ビル2F,黒木ビル2F,35.723919500000000,139.480122100000000,042-348-8317,1394300337,"平日,土曜日,日曜日,祝日",,,https://hp.kaipoke.biz/cyd/
132144,1393100092,東京都,国分寺市,JNCC夜間介護,ジェイエヌシーシーヤカンカイゴ,夜間対応型訪問介護,東京都国分寺市西町2-6-5,,35.705092400000000,139.437803600000000,042-512-5921,1393100092,"平日,土曜日,日曜日,祝日",,50,
132250,1395100058,東京都,稲城市,ホームヘルパーステーションやのくち正吉苑,ホームヘルパーステーションヤノクチショウキチエン,夜間対応型訪問介護,東京都稲城市矢野口1804-3,,35.636652700000000,139.519138400000000,042-370-2202,1395100058,"平日,土曜日,日曜日,祝日",,0,http://www.shoukichi.org/
132292,1395400383,東京都,西東京市,SOMPOケア　在宅老人ホーム　西東京　夜間訪問介護,ソンポケア　ザイタクロウジンホーム　ニシトウキョウ　ヤカンホウモンカイゴ,夜間対応型訪問介護,東京都西東京市田無町4-2-11Aビル２階,Aビル２階,35.727997000000000,139.539176900000000,042-439-5640,1395400383,,,,https://www.sompocare.com/
141011,1490100383,神奈川県,横浜市鶴見区,福祉協会つるみ24,フクシキョウカイツルミ24,夜間対応型訪問介護,神奈川県横浜市鶴見区豊岡町7-10ﾊﾟｰﾗｲﾄﾋﾞﾙ8F,ﾊﾟｰﾗｲﾄﾋﾞﾙ8F,35.507887351710200,139.674486158080000,045-947-4180,1490100383,"平日,土曜日,日曜日,祝日",年中無休,0,https://home-help.jp
141011,1490100227,神奈川県,横浜市鶴見区,横浜市福祉サービス協会　訪問介護看護つるみ,ヨコハマシフクシサービスキョウカイ　ホウモンカイゴカンゴツルミ,夜間対応型訪問介護,神奈川県横浜市鶴見区鶴見中央1丁目28番2号ニッコービル1階,ニッコービル1階,35.508612000000000,139.678767800000000,045-276-4300,1490100227,"平日,土曜日,日曜日,祝日",,0,http://www.hama-wel.or.jp
141011,1490100565,神奈川県,横浜市鶴見区,訪問介護　輝,ホウモンカイゴ　カガヤキ,夜間対応型訪問介護,神奈川県横浜市平安町2-28-1ヨコハマアイランドガーデン,ヨコハマアイランドガーデン,35.507812400000000,139.694059900000000,045-510-4163,1490100565,"平日,土曜日,日曜日,祝日",,,https://www.kyoumaru.co.jp
141011,1490100276,神奈川県,横浜市鶴見区,銀河の詩ヘルパーステーション,ギンガノウタヘルパーステーション,夜間対応型訪問介護,神奈川県横浜市鶴見区鶴見中央4-32-1ＵＮＥＸビル801,ＵＮＥＸビル801,35.508098100000000,139.680409700000000,045-521-7110,1490100276,"平日,土曜日,日曜日,祝日",オペレーションセンター　　２４時間　サテライト事業所（南区　法人内事業所　桜樹の森ヘルパーステーション）,0,https://shuhokai.or.jp/office/tsurumi-ku/hh-ginga.php
141020,1490200738,神奈川県,横浜市神奈川区,横浜市福祉サービス協会訪問介護看護かながわ,ヨコハマシフクシサービスキョウカイホウモンカイゴカンンゴカナガワ,夜間対応型訪問介護,神奈川県横浜市神奈川区反町1-7-1US-1ビル7階,US-1ビル7階,35.474312268059200,139.628438895975000,045-279-0638,1490200738,"平日,土曜日,日曜日,祝日",,0,https://www.hama-wel.or.jp/
141020,1490200290,神奈川県,横浜市神奈川区,椚の大樹ヘルパーステーション,クヌギノタイジュヘルパーステーション,夜間対応型訪問介護,神奈川県横浜市神奈川区西神奈川1-9-2グレース竹和壱番館２階,グレース竹和壱番館２階,35.479014800000000,139.630869500000000,045-548-5732,1490200290,"平日,土曜日,日曜日,祝日",身体状況や介護状況に応じて２４時間通報対応加算の同意を行っているご利用者の場合は、２４時間いつでも連絡が可能です。,0,http://shuhokai.or.jp/office/kanagawa-ku/hh-kunugi-php
141020,1490200092,神奈川県,横浜市神奈川区,わかたけナイトケアステーション,ワカタケナイトケアステーション,夜間対応型訪問介護,神奈川県横浜市神奈川区平川町2-4ヤマザキビル,ヤマザキビル,35.479442500000000,139.628755800000000,045-488-5363,1490200092,"平日,土曜日,日曜日,祝日",年中無休　24時間対応。,0,https://wakatake.net/
141038,1490300124,神奈川県,横浜市西区,銀鈴の詩ヘルパーステーション,ギンレイノウタヘルパーステーション,夜間対応型訪問介護,神奈川県横浜市西区平沼1-1-15ルピナス平沼2Ｆ,ルピナス平沼2Ｆ,35.460841900000000,139.621662300000000,045-594-9531,1490300124,"平日,土曜日,日曜日,祝日",オペレーションセンターは、委託事業所（同一法人　桜樹の森ヘルパーステーション）にて２４時間対応しております。,0,https://shuhokai.or.jp/
141038,1490300090,神奈川県,横浜市西区,横浜市福祉サービス協会　訪問介護看護にし,ヨコハマシフクシサービスキョウカイ　ホウモンカイゴカンゴニシ,夜間対応型訪問介護,神奈川県横浜市西区桜木町六丁目３１番地５階,５階,35.461627900000000,139.619193100000000,045-227-6687,1490300090,"平日,土曜日,日曜日,祝日",,0,http://www.hama-wel.or.jp/
141046,1490400189,神奈川県,横浜市中区,銀杏の大樹ヘルパーステーション,イチョウノタイジュヘルパーステーション,夜間対応型訪問介護,神奈川県横浜市中区山下町252グランベル横浜ビル3階ＥＦ,グランベル横浜ビル3階ＥＦ,35.442391300000000,139.641075400000000,045-650-2040,1490400189,"平日,土曜日,日曜日,祝日",２４時間対応年中無休,0,https://shuhokai.or.jp/office/naka-ku/hh-icho.php
141046,1490400411,神奈川県,横浜市中区,横浜市福祉サービス協会　訪問介護看護なか,ヨコハマシフクシサービスキョウカイ　ホウモンカイゴカンゴナカ,夜間対応型訪問介護,神奈川県横浜市中区扇町2-5-15リラックスビル3階,リラックスビル3階,35.440600900000000,139.638339800000000,045-640-6732,1490400411,"平日,土曜日,日曜日,祝日",,0,http://www.hama-wel.or.jp
141054,1490500657,神奈川県,横浜市南区,定期巡回ケアコールセンターはぴねす横浜永田,テイキジュンカイケアコールセンターハピネスヨコハマナガタ,夜間対応型訪問介護,神奈川県横浜市南区永田北1丁目31番19号,,35.441878063317800,139.589295835582000,045-334-8188,1490500657,"平日,土曜日,日曜日,祝日",,0,https://villa-life-support.co.jp/
141054,1490500236,神奈川県,横浜市南区,桜樹の森ヘルパーステーション,オウジュノモリヘルパーステーション,夜間対応型訪問介護,神奈川県横浜市南区通町4-94神奈中弘明寺ビル2階,神奈中弘明寺ビル2階,35.424243600000000,139.602209800000000,045-720-6663,1490500236,"平日,土曜日,日曜日,祝日",年末年始12月29日から1月3日は、休業致します。,0,https://shuhokai.or.jp/office/minami-ku/hh-ouju.php
141054,1490500111,神奈川県,横浜市南区,フルライフ横浜,フルライフヨコハマ,夜間対応型訪問介護,神奈川県横浜市南区山王町3-24-8港横浜ビル4階,港横浜ビル4階,35.436210862738700,139.619266111002000,045-250-1855,1490500111,"平日,土曜日,日曜日,祝日",オペレーションサービスは24時間対応,,https://www.fulllife.co.jp/
141054,1490500327,神奈川県,横浜市南区,おひさまネット２４,オヒサマネットニジュウヨン,夜間対応型訪問介護,神奈川県横浜市南区大岡5-14-21,,35.411972220380300,139.598385182209000,045-315-7779,1490500327,"平日,土曜日,日曜日,祝日",24時間対応。,0,https://www.hakuhouen.or.jp/ohisamanet24.html
141062,1490600234,神奈川県,横浜市保土ケ谷区,フルライフ保土ヶ谷,フルライフホドガヤ,夜間対応型訪問介護,神奈川県横浜市保土ケ谷区岩井町1-7保土ヶ谷駅ビル6階,保土ヶ谷駅ビル6階,35.446876200000000,139.599455400000000,045-340-2338,1490600234,"平日,土曜日,日曜日,祝日",オペレーションセンターサービスは24時間対応　365日対応,,https://www.fulllife.co.jp/
141062,1490600150,神奈川県,横浜市保土ケ谷区,豊穣の大地ヘルパーステーション,ホウジョウノダイチヘルパーステーション,夜間対応型訪問介護,神奈川県横浜市保土ヶ谷区和田1-13-1朋和ビル201,朋和ビル201,35.464660800000000,139.588780000000000,045-442-6610,1490600150,"平日,土曜日,日曜日,祝日",※身体状況や介護状況に応じて、24時間通報対応加算の同意を行っているご利用者の場合は、（改行）　24時間いつでも連絡が可能です。（改行）※地震、災害等で交通機関が停止した場合や、道路が使用できない状態等が発生した場合、（改行）　台風や荒天時等または訪問担当者の緊急やむを得ない事情で、訪問できない場合があります。,0,https://www.shuhokai.or.jp/office/hodogaya-ku/hh-hojo.php
141071,1490700232,神奈川県,横浜市磯子区,ハートケア　磯子,ハートケア　イソゴ,夜間対応型訪問介護,広地町7-12,,35.416939400000000,139.623185100000000,045-754-2911,1490700232,"平日,土曜日,日曜日,祝日",,0,https://kaigo-heart.wixsite.com/tukusiisogo
141071,1490700166,神奈川県,横浜市磯子区,磯風の謡ヘルパーステーション,イソカゼノウタヘルパーステーション,夜間対応型訪問介護,神奈川県横浜市磯子区磯子3-8-20サムティレジデンス横濱磯子1階,サムティレジデンス横濱磯子1階,35.404788400000000,139.619421600000000,045-353-8881,1490700166,"平日,土曜日,日曜日,祝日",オペレーションシステム　24時間（改行）サテライト事業所（南区法人内事業所）,0,https://shuhokai.or.jp/office/isogo-ku/hh-isokaze.php
141071,1490700414,神奈川県,横浜市磯子区,横浜市福祉サービス協会　ヘルパーステーションいそご,ヨコハマシフクシサービスキョウカイ　ヘルパーステーションイソゴ,夜間対応型訪問介護,神奈川県横浜市磯子区東町15-32モンビル横浜根岸306号室,モンビル横浜根岸306号室,35.416804510820800,139.635467908136000,045-750-1522,1490700414,"平日,土曜日,日曜日,祝日",,0,http://www.hama-wel.jp/branch/detail/hps_isogo/
141089,1490800198,神奈川県,横浜市金沢区,横浜市福祉サービス協会　訪問介護看護かなざわ,ヨコハマシフクシサービスキョウカイ　ホウモンカイゴカンゴカナザワ,夜間対応型訪問介護,神奈川県横浜市金沢区泥亀１－１７－１５大西第３ビル２階,大西第３ビル２階,35.340238800000000,139.623605500000000,045-780-5139,1490800198,"平日,土曜日,日曜日,祝日",365日対応,0,http://www.hama-wel.or.jp/
141089,1490800263,神奈川県,横浜市金沢区,陽光の大地ヘルパーステーション,ヨウコウノダイチヘルパーステーション,夜間対応型訪問介護,神奈川県横浜市金沢区釜利谷東2－3－10いしかたビル4Ｆ,いしかたビル4Ｆ,35.342768800000000,139.618317100000000,045-349-4410,1490800263,"平日,土曜日,日曜日,祝日",２４時間対応を行っているので、２４時間加算の同意を受けている利用者は、随時対応を行っている。（08：00～18：00）地震、災害等で交通機関が停止した場合や、道路が使用できない状態等が発生した場合、台風や悪天候等または訪問担当の緊急やむを得ない事情で、訪問できない場合があります。,50,http://www.shuhokai.or.jp
141097,1490900337,神奈川県,横浜市港北区,楡の大樹ヘルパーステーション,ニレノタイジュヘルパーステーションヤカン,夜間対応型訪問介護,神奈川県横浜市港北区新横浜2-4-17新横浜千歳観光第2ビル３階,新横浜千歳観光第2ビル３階,35.508840100000000,139.616701500000000,045-642-8309,1490900337,"平日,土曜日,日曜日,祝日",24時間通報対応加算の同意を得ているご利用者の場合は、24時間いつでも連絡が可能。,0,https://shuhokai.or.jp/office/kohoku-ku/hh-nire.php
141097,1490900584,神奈川県,横浜市港北区,やさしい手新横浜定期巡回随時対応型訪問介護看護事業所,ヤサシイテシンヨコハマテイキジュンカイズイジタイオウガタホウモンカイゴカンゴジギョウショ,夜間対応型訪問介護,神奈川県横浜市港北区新横浜1－23－5ベラルーチェ新横浜1階,ベラルーチェ新横浜1階,35.503859900000000,139.608914500000000,050-1752-0261,1490900584,"平日,土曜日,日曜日,祝日",24時間対応,,http://www.yasashiite.com/
141097,1490900816,神奈川県,横浜市港北区,横浜市福祉サービス協会　訪問介護看護こうほく,ヨコハマシフクシサービスキョウカイ　ホウモンカイゴカンゴコウホク,夜間対応型訪問介護,神奈川県横浜市港北区新横浜2-5-9新横浜フジカビル8階,新横浜フジカビル8階,35.509677900000000,139.615634000000000,045-273-7832,1490900816,"平日,土曜日,日曜日,祝日",,0,https://www.hama-wel.or.jp/branch/visitkaigokohoku/news/
141097,1490900253,神奈川県,横浜市港北区,夜間対応型訪問介護　ゆい,ヤカンタイオウガタホウモンカイゴ　ユイ,夜間対応型訪問介護,神奈川県横浜市港北区日吉本町1-27-37,,35.552402004097900,139.644739857603000,045-534-5511,1490900253,"平日,土曜日,日曜日,祝日",,0,http://www.welfare-yui.com/
141101,1491000483,神奈川県,横浜市戸塚区,希望の大地ヘルパーステーション,キボウノダイチヘルパーステーション,夜間対応型訪問介護,神奈川県横浜市戸塚区品濃町545-30クライテリア東戸塚１階,クライテリア東戸塚１階,35.433238800000000,139.558752200000000,045-443-5021,1491000483,"平日,土曜日,日曜日,祝日",身体状況や介護状況に応じて、24時間通報対応加算の同意をおこなっているご利用者の場合は、24時間いつでも連絡が可能です。（改行）地震、災害等で交通機関が停止した場合や、道路が使用できない状況等が発生した場合、台風や荒天時等または訪問担当者の緊急やむを得ない事情で、訪問できない場合があります。,0,https://shuhokai.or.jp/office/totsuka-ku/hk-kibo.php
141101,1491000657,神奈川県,横浜市戸塚区,ＳＯＭＰＯケア　横浜戸塚　夜間訪問介護,ソンポケア　ヨコハマトツカ　ヤカンホウモンカイゴ,夜間対応型訪問介護,神奈川県横浜市戸塚区戸塚町１４５番地秀文堂ビル２０２号,秀文堂ビル２０２号,35.397167086634600,139.531634423943000,045-869-2161,1491000657,"平日,土曜日,日曜日,祝日",なし。,,https://www.sompocare.com/
141119,1493100711,神奈川県,横浜市港南区,横浜市福祉サービス協会　訪問介護看護こうなん,ヨコハマシフクシサービスキョウカイ　ホウモンカイゴコウナン,夜間対応型訪問介護,神奈川県横浜市港南区上大岡西1-12-5朝日生命上大岡ビル4階,朝日生命上大岡ビル4階,35.399502400000000,139.588307100000000,045-556-5664,1493100711,"平日,土曜日,日曜日,祝日",,15,https://www.hama-wel.or.jp/
141119,1493100265,神奈川県,横浜市港南区,瑞穂の大地ヘルパーステーション,ミズホノダイチヘルパーステーション,夜間対応型訪問介護,神奈川県横浜市港南区日野1－9－33ＮＴＴ港南ビル１階,ＮＴＴ港南ビル１階,35.395760800000000,139.586897700000000,045-349-4040,1493100265,"平日,土曜日,日曜日,祝日",,0,https://shuhokai.or.jp/office/konan-ku/hh-mizuho.php
141127,1493200313,神奈川県,横浜市旭区,銀の舞ヘルパーステーション,ギンノマイヘルパーステーション,夜間対応型訪問介護,神奈川県横浜市旭区二俣川2-50-14コプレ二俣川オフィス905号,コプレ二俣川オフィス905号,35.463503715381400,139.532952645369000,045-364-9955,1493200313,"平日,土曜日,日曜日,祝日",,0,http://www.shuhokai.or.jp/
141127,1493200354,神奈川県,横浜市旭区,横浜市福祉サービス協会　訪問介護看護あさひ,ヨコハマシフクシサービスキョウカイ　ホウモンカイゴカンゴアサヒ,夜間対応型訪問介護,神奈川県横浜市旭区柏町131-5,,35.459046600000000,139.533271000000000,045-360-3296,1493200354,"平日,土曜日,日曜日,祝日",,0,http://www.hama-wel.or.jp/branch/detail/visitkaigoasahi/
141135,1493300428,神奈川県,横浜市緑区,ホームケア緑,ホームケアミドリ,夜間対応型訪問介護,神奈川県横浜市緑区十日市場町1258－92クレールレジデンス横浜十日市場,クレールレジデンス横浜十日市場,35.521709300000000,139.514919400000000,045-511-7066,1493300428,"平日,土曜日,日曜日,祝日",,0,https://www.e-life-design.co.jp/
141135,1493300253,神奈川県,横浜市緑区,横浜市福祉サービス協会　訪問介護看護みどり,ヨコハマシフクシサービスキョウカイ　ホウモンカイゴカンゴミドリ,夜間対応型訪問介護,神奈川県横浜市緑区中山一丁目6番5号静銀中山ビル3階,静銀中山ビル3階,35.515603729727400,139.540941500000000,045-929-5708,1493300253,"平日,土曜日,日曜日,祝日",,30,https://www.hama-wel.or.jp/
141135,1493300402,神奈川県,横浜市緑区,ＳＯＭＰＯケア　横浜十日市場　夜間訪問介護,ソンポケアヨコハマトオカイチバヤカンホウモンカイゴ,夜間対応型訪問介護,神奈川県横浜市緑区十日市場町824-2,,35.524715436651600,139.518135674758000,045-989-2630,1493300402,"平日,土曜日,日曜日,祝日",居宅サービス計画に基づくものとします。,,https://www.sompocare.com
141135,1493300477,神奈川県,横浜市緑区,翡翠の舞ヘルパーステーション,ヒスイノマイヘルパーステーション,夜間対応型訪問介護,神奈川県横浜市緑区台村町337台和ビル1階,台和ビル1階,35.513330500000000,139.537619000000000,045-482-7133,1493300477,"平日,土曜日,日曜日,祝日",365日24時間サービスは提供可能（改行）地震、災害等による苦痛機関が停止した場合、道路が使用できない状態等が発生した場合、台風や荒天時、訪問担当者の緊急やむ得ない事情などにより、訪問できない場合があります。,0,https://shuhokai.or.jp
141143,1493400293,神奈川県,横浜市瀬谷区,横浜市福祉サービス協会　訪問介護看護せや,ヨコハマシフクシサービスキョウカイ　ホウモンカイゴカンゴセヤ,夜間対応型訪問介護,神奈川県横浜市瀬谷区三ツ境100-6海發ビル１階,海發ビル１階,35.466944197578500,139.501589476973000,045-369-7116,1493400293,"平日,土曜日,日曜日,祝日",緊急コールによる随時対応は同事業所内の訪問介護看護せやよりサービスを利用できる時間帯外における時間帯も対応いたします。（随時訪問は２４時間対応可能）,3,http://www.hama-wel.or.jp/
141151,1493500175,神奈川県,横浜市栄区,フルライフ本郷台,フルライフホンゴウダイ,夜間対応型訪問介護,神奈川県横浜市栄区公田町596-7橋本ビル201,橋本ビル201,35.363034100000000,139.555206100000000,045-890-4322,1493500175,"平日,土曜日,日曜日,祝日",オペレーションサービスは24時間対応,0,http://www.fulllife.co.jp/
141160,1493600215,神奈川県,横浜市泉区,花の生活館ヘルパーステーション,ハナノセイカツカンヘルパーステーション,夜間対応型訪問介護,神奈川県横浜市泉区弥生台13-4横山ビル202,横山ビル202,35.428217000000000,139.506581700000000,045-810-5115,1493600215,"平日,土曜日,日曜日,祝日",,0,http://shuhokai.or.jp/
141160,1493600272,神奈川県,横浜市泉区,横浜市福祉サービス協会　訪問介護看護いずみ,ヨコハマシフクシサービスキョウカイ　ホウモンカイゴカンゴイズミ,夜間対応型訪問介護,神奈川県横浜市泉区和泉中央南4-1-3武藤ビル２階,武藤ビル２階,35.416710000000000,139.488369400000000,045-286-0016,1493600272,"平日,土曜日,日曜日,祝日",２４時間３６５日サービス提供しております。,0,https://www.hama-wel.or.jp
141178,1493700478,神奈川県,横浜市青葉区,夜間対応型訪問介護　ゆい　青葉,ヤカンタイオウガタホウモンカイゴ　ユイ　アオバ,夜間対応型訪問介護,神奈川県横浜市青葉区あざみ野2-12-4小川ビル202,小川ビル202,35.568452800000000,139.549275700000000,045-532-4747,1493700478,"平日,土曜日,日曜日,祝日",24時間対応,,
141178,1493700627,神奈川県,横浜市青葉区,エヌアイ在宅サービスステーション,エヌアイザイタクサービスステーション,夜間対応型訪問介護,神奈川県横浜市青葉区市ヶ尾町25-6,,35.549220100000000,139.538585800000000,045-507-7712,1493700627,"平日,土曜日,日曜日,祝日",,0,https://www.nakagawa-tokushokai.com/
141178,1493700353,神奈川県,横浜市青葉区,わかたけナイトケアステーション青葉,ワカタケナイトケアステーションアオバ,夜間対応型訪問介護,神奈川県横浜市青葉区奈良4-6-12,,35.551496800000000,139.482790800000000,045-962-3111,1493700353,"平日,土曜日,日曜日,祝日",24時間対応,0,http://www.wakatake.net
141186,1493800310,神奈川県,横浜市都筑区,都筑区医師会24時間在宅ケアステーション,ツヅキクイシカイニジュウヨジカンザイタクケアステーション,夜間対応型訪問介護,神奈川県横浜市都筑区牛久保西１－20－21,,35.556501900000000,139.581223400000000,045-913-3577,1493800310,"平日,土曜日,日曜日,祝日",オペレーターは24時間対応,1,http://www.tsuzuki-med.org/
141313,1495000638,神奈川県,川崎市川崎区,SOMPOケア川崎日進　夜間訪問介護,ソンポケア　カワサキニッシン　ヤカンホウモンカイゴ,夜間対応型訪問介護,神奈川県川崎市川崎区日進町22-3吉田貸事務所,吉田貸事務所,35.524051200000000,139.696607400000000,044-221-0204,1495000638,"平日,土曜日,日曜日,祝日",24時間・365日のサービス提供,0,https://www.sompocare.com
141321,1495100271,神奈川県,川崎市幸区,フルライフ川崎,フルライフカワサキ,夜間対応型訪問介護,神奈川県川崎市幸区幸町2-593モリファーストビル3階B,モリファーストビル3階B,35.537571500000000,139.698887300000000,044－520－2091,1495100271,"平日,土曜日,日曜日,祝日",オペレーションセンターサービスは、24時間対応。,,https://www.fulllife.co.jp
141330,1495200139,神奈川県,川崎市中原区,フルライフ中原,フルライフナカハラ,夜間対応型訪問介護,神奈川県川崎市中原区丸子通1-627-8トーシンビル,トーシンビル,35.581512107092800,139.665307290758000,044-948-6711,1495200139,"平日,土曜日,日曜日,祝日",オペレーションセンターサービスは24時間対応,0,https://www.fulllife.co.jp/
141348,1495300442,神奈川県,川崎市高津区,ＳＯＭＰＯケア　川崎高津　夜間訪問介護,ソンポケア　カワサキタカツ　ヤカンホウモンカイゴ,夜間対応型訪問介護,神奈川県川崎市高津区溝口3-11-17溝口パークホームズ2-B,溝口パークホームズ2-B,35.603114400000000,139.613106200000000,044-850-9151,1495300442,"平日,土曜日,日曜日,祝日",,30,https://www.sompocare.com
141364,1495500421,神奈川県,川崎市宮前区,ＳＯＭＰＯケア川崎鷺沼夜間訪問介護,ソンポケアカワサキサギヌマヤカンホウモンカイゴ,夜間対応型訪問介護,神奈川県川崎市宮前区有馬1-7-5サンプラザ鷺沼１Ｆ,サンプラザ鷺沼１Ｆ,35.579326300000000,139.577892100000000,044-860-6530,1495500421,"平日,土曜日,日曜日,祝日",24時間対応,0,
141372,1495600478,神奈川県,川崎市麻生区,SOMPOケア　川崎新百合ヶ丘　夜間訪問介護,ソンポケアカワサキシンユリガオカ　ヤカンホウモンカイゴ,夜間対応型訪問介護,神奈川県川崎市麻生区万福寺4-1-8グラードビュウ百合丘2階201号室,グラードビュウ百合丘2階201号室,35.608121452206100,139.512785943517000,044-969-9851,1495600478,"平日,土曜日,日曜日,祝日",オペレーションセンターサービスは、24時間365日対応。,0,http://www.sompocare.com/
141372,1495600353,神奈川県,川崎市麻生区,エイプレイス麻生,エイプレイスアサオ,夜間対応型訪問介護,神奈川県川崎市麻生区万福寺1丁目8番7号パストラル新百合ヶ丘310号室,パストラル新百合ヶ丘310号室,35.603485163632600,139.503934904822000,044-959-6460,1495600353,"平日,土曜日,日曜日,祝日",24時間365日対応,0,http://www.a-place.co.jp
142051,1492200157,神奈川県,藤沢市,夜間対応型訪問介護　ラポール城南,ヤカンタイオウガタホウモンカイゴ　ラポールジョウナン,夜間対応型訪問介護,神奈川県藤沢市城南４－９－８城東ビル１階,城東ビル１階,35.347238000000000,139.461766300000000,0466-31-0755,1492200157,"平日,土曜日,日曜日,祝日",年中無休,70,http://www.rapport.or.jp
142115,1452880029,神奈川県,秦野市,医療法人社団　三喜会　介護老人保健施設　ライフプラザ鶴巻,イリョウホウジンシャダンサンキカイカイゴロウジンホケンシセツライフプラザツルマキ,夜間対応型訪問介護,神奈川県秦野市鶴巻北3-1-3,,35.382169900000000,139.276185500000000,0463-69-3741,1452880029,"平日,土曜日,日曜日,祝日",,0,http://www.sankikai.or.jp/life-tsurumaki/
142115,1492800238,神奈川県,秦野市,夜間対応型訪問介護みちびき,ヤカンタイオウガタホウモンカイゴミチビキ,夜間対応型訪問介護,神奈川県秦野市曽屋二丁目6-30清水ハイツ101号,清水ハイツ101号,35.379924500000000,139.227353600000000,0463-67-7376,1492800238,"平日,土曜日,日曜日,祝日",,5,
142131,1493000564,神奈川県,大和市,らんたん,ランタン,夜間対応型訪問介護,神奈川県大和市中央３丁目２－３０クリオ大和壱番館１０２号室,クリオ大和壱番館１０２号室,35.470429700000000,139.455805800000000,046-205-4500,1493000564,"平日,土曜日,日曜日,祝日",,15,https://ordinarydays.life/
142140,1494000217,神奈川県,伊勢原市,宝命,ホウメイ,夜間対応型訪問介護,神奈川県伊勢原市下糟屋3005-2,,35.406879467774200,139.320447042328000,0463-97-1012,1494000217,"平日,土曜日,日曜日,祝日",,,https://homeikango.com/
142140,1494000050,神奈川県,伊勢原市,夜間ヘルパーステーション絆,ヤカンヘルパーステーションキズナ,夜間対応型訪問介護,神奈川県伊勢原市高森3004-2,,35.409065440815100,139.332055209293000,0463-75-9850,1494000050,"平日,土曜日,日曜日,祝日",年中無休,0,http://www.well-age.com/service/night.php
152021,1590200034,新潟県,長岡市,こぶし２４時間ケアサービスステーション,コブシニジュウヨジカンケアサービスステーション,夜間対応型訪問介護,長岡市信濃２丁目６番１８号,,37.450644900000000,138.837825700000000,0258-31-7836,1590200034,"平日,土曜日,日曜日,祝日",特になし,0,http://www.kobushien.com
162019,1690100258,富山県,富山市,射水万葉会天正寺サポートセンター夜間対応型訪問介護,イミズマンヨウカイテンショウジサポートセンターヤカンタイオウガタホウモンカイゴ,夜間対応型訪問介護,富山市天正寺４８４番1,,36.687048300000000,137.249285200000000,076-411-4343,1690100258,"平日,土曜日,日曜日,祝日",コールの受付は朝７時まで行います、訪問はコールを受け必要と判断した場合に致します。,60,http://www.imizu-manyoukai.or.jp
162027,1690200728,富山県,高岡市,あさひの里ヘルパーステーション,アサヒノサトヘルパーステーション,夜間対応型訪問介護,富山県高岡市鷲北新185,,36.766417299944100,137.037845220250000,0766-21-8688,1690200728,"平日,土曜日,日曜日,祝日",,0,http://akanekai.toyama.jp/
162116,1691100182,富山県,射水市,福祉プラザ七美　夜間対応型訪問介護,フクシプラザシチミ　ヤカンタイオウガタホウモンカイゴ,夜間対応型訪問介護,富山県射水市七美879-1,,36.752209500000000,137.140753500000000,0766-86-4545,1691100182,"平日,土曜日,日曜日,祝日",訪問は22時～翌朝7時までの間　コールを受け必要と判断した場合に致します。,0,http://www.imizu-manyoukai.or.jp
202037,2090300142,長野県,上田市,24時間型ホームヘルパーステーションアザレアン,ニジュウヨジカンガタホームヘルパーステーションアザレアン,夜間対応型訪問介護,上田市真田町長7329－4サービス付き高齢者向け住宅アザレアン内,サービス付き高齢者向け住宅アザレアン内,36.443363361507300,138.307784721179000,0268-75－1203,2090300142,"平日,土曜日,日曜日,祝日",なし,0,http://www.azarean.jp
202053,2090500386,長野県,飯田市,定期巡回ステーションOneMade,テイキジュンカイステーションワンメイド,夜間対応型訪問介護,長野県飯田市八幡町2038-2,,35.497159700000000,137.839218200000000,0265-54-0010,2090500386,"平日,土曜日,日曜日,祝日",,,https://www.mirai-no-kurashi.online/
212016,2190104485,岐阜県,岐阜市,ケアサポート長良25,ケアサポートナガラニジュウゴ,夜間対応型訪問介護,岐阜県岐阜市長良3丁目93,,35.452771100000000,136.782429400000000,058-215-8585,2190104485,"平日,土曜日,日曜日,祝日",コールセンター　24時間（改行）夜間対応訪問介護　21時～翌7時,0,wakokai.or.jp
212016,2190102588,岐阜県,岐阜市,ケアサポート岐阜25,ケアサポートギフ25,夜間対応型訪問介護,岐阜県岐阜市徹明通4丁目4番地,,35.417593685965000,136.754571014049000,058-265-6662,2190102588,"平日,土曜日,日曜日,祝日",24時間連絡体制があるが、訪問は21時～翌7時の間で対応。,0,https://www.wakokai.or.jp
212164,2190700019,岐阜県,瑞穂市,ケアサポート瑞穂25,ケアサポートミズホニジュウゴ,夜間対応型訪問介護,岐阜県瑞穂市別府1494番地1　岐阜県本巣郡北方町柱本3丁目90番地,,35.395303812596400,136.684871338137000,058-216-6226,2190700019,"平日,土曜日,日曜日,祝日",訪問時間は21：00～翌7：00まで,0,http://www.caresupport-kitagata25-night.jp
221015,2294200148,静岡県,静岡市葵区,アクタガワ　ハートライフ千代田,アクタガワ　ハートライフチヨダ,夜間対応型訪問介護,静岡市葵区千代田6－14－7,,34.998143717263000,138.407328601233000,054-265-1700,2294200148,"平日,土曜日,日曜日,祝日",,0,https://www.akutagawa-heartlife.jp
222054,2290500129,静岡県,熱海市,伊豆介護センター熱海,イズカイゴセンターアタミ,夜間対応型訪問介護,静岡健熱海市緑ガ丘町9-7,,35.106933500000000,139.064530400000000,0557-86-0022,2290500129,"平日,土曜日,日曜日,祝日",,20,http://www.izukaigo.com/
222089,2290400262,静岡県,伊東市,伊豆介護センター,イズカイゴセンター,夜間対応型訪問介護,音無町5-6伊豆介護センター,伊豆介護センター,32.788025200000000,129.859448900000000,0557-36-9069,2290400262,"平日,土曜日,日曜日,祝日",,20,http://www.izukaigo.com/
222143,2295300301,静岡県,藤枝市,夜間対応型訪問介護フォレスタ藤枝,ヤカンタイオウガタホウモンカイゴフォレスタフジエダ,夜間対応型訪問介護,藤枝市小石川町2-8-13,,34.856586800000000,138.256508300000000,054-647-3833,2295300301,"平日,土曜日,日曜日,祝日",,0,http://www.forestafujieda.jp
231053,2390500011,愛知県,名古屋市中村区,丸八夜間対応型訪問介護事業所,マルハチヤカンタイオウガタホウモンカイゴジギョウショ,夜間対応型訪問介護,名古屋市中村区西米野町1-76-6,,35.166336200000000,136.871143200000000,052-481-1915,2390500011,"平日,土曜日,日曜日,祝日",,0,http://www.maru8kaigo.com/
231126,2391200116,愛知県,名古屋市南区,名古屋夜間介護センター,ナゴヤヤカンカイゴセンター,夜間対応型訪問介護,愛知県名古屋市南区駈上2-9-16桑山ビル201,桑山ビル201,35.111164900000000,136.938513700000000,052-829-0678,2391200116,"平日,土曜日,日曜日,祝日",,0,yakankaigo.com
231134,2391300023,愛知県,名古屋市守山区,あんしんネットワーク,アンシンネットワーク,夜間対応型訪問介護,愛知県名古屋市守山区金屋二丁目388,,35.204300800000000,136.955781600000000,052-795-2340,2391300023,"平日,土曜日,日曜日,祝日",２４時間通報対応加算を算定している利用者様については、２４時間対応いたしております。,0,http://www.tsubame-taxi.or.jp/
232122,2393100280,愛知県,安城市,夜間対応型訪問介護オレンジ,ヤカンタイオウガタホウモンカイゴオレンジ,夜間対応型訪問介護,安城市北山崎町大山９－１,,34.967669100000000,137.102952700000000,0566-71-3401,2393100280,"平日,土曜日,日曜日,祝日",,,http://www.oss-kk.com/
242012,2490500036,三重県,津市,地域密着型津中央ヘルパーステーションシルバーケア豊壽園,チイキミッチャクガタツチュウオウヘルパーステーションシルバーケアホウジュエン,夜間対応型訪問介護,三重県津市本町26-13,,34.712024900000000,136.508850200000000,059-221-2201,2490500036,"平日,土曜日,日曜日,祝日",ご利用者様のご希望により、24時間対応可能です,0,http://www.sensin.or.jp/
242161,2491200230,三重県,伊賀市,夜間対応型訪問介護さくらんぼ,ヤカンタイオウガタホウモンカイゴサクランボ,夜間対応型訪問介護,三重県伊賀市高畑747-1,,34.773492833587600,136.153373691402000,0595-21-1030,2491200230,"平日,土曜日,日曜日,祝日",,0,https://www.sakuranbo-iga.com/
261017,2690100033,京都府,京都市北区,新大宮ナイトヘルパーステーション,シンオオミヤナイトヘルパーステーション,夜間対応型訪問介護,京都府京都市北区紫竹西南町６５－３４たいほうセンター３階,たいほうセンター３階,35.046810798553800,135.745919879701000,075-492-3979,2690100033,"平日,土曜日,日曜日,祝日",営業時間以外でも緊急コールによる相談、随時派遣は可能です。,0,http://www.nananokai.com/
261033,2690600164,京都府,京都市左京区,夜間対応型訪問介護スマイルドア,ヤカンタイオウガタホウモンカイゴスマイルドア,夜間対応型訪問介護,京都府京都市左京区岩倉幡枝町333番地3,,35.066015542583500,135.767952379623000,075-203-6480,2690600164,"平日,土曜日,日曜日,祝日",365日稼動しています。,0,
261041,2694000080,京都府,京都市中京区,京都夜間訪問介護センター,キョウトヤカンホウモンカイゴセンター,夜間対応型訪問介護,京都府京都市中京区阪東屋町658都証券ビル3階,都証券ビル3階,35.004692305982900,135.760945379734000,075-253-0580,2694000080,"平日,土曜日,日曜日,祝日",,,
261068,2690400177,京都府,京都市下京区,シニアみまもり隊大宮,シニアミマモリタイ　オオミヤ,夜間対応型訪問介護,京都府京都市下京区高辻大宮町123モンテベルデ壬生　2階,モンテベルデ壬生　2階,34.999250100000000,135.748952000000000,075-432-7766,2690400177,"平日,土曜日,日曜日,祝日",,,http://www.rakufuku.jp
261068,2690700162,京都府,京都市下京区,ＳＯＭＰＯケア　京都　夜間訪問介護,ソンポケアキョウトヤカンホウモンカイゴ,夜間対応型訪問介護,京都府京都市下京区五条通河原町西入本覚寺前町801損保ジャパン京都ビル7F,損保ジャパン京都ビル7F,34.996359400000000,135.764945800000000,075-353-2107,2690700162,"平日,土曜日,日曜日,祝日",,0,https://www.sompocare.com/service/zaitaku/teikijunkai/Z000776/
261076,2690500257,京都府,京都市南区,吉祥院訪問介護事業所,キッショウインホウモンカイゴジギョウショ,夜間対応型訪問介護,京都市南区吉祥院砂ノ町50,,34.968534200000000,135.732670500000000,075-661-891,2690500257,"平日,土曜日,日曜日,祝日",年中無休,0,https://www.seiwaen.or.jp/
261076,2690500034,京都府,京都市南区,社会福祉法人　京都福祉サービス協会　ナイトケアセンター南,シャカイフクシホウジン　キョウトフクシサービスキョウカイ　ナイトケアセンターミナミ,夜間対応型訪問介護,西九条大国町４８番地の２,,34.976519700000000,135.743054000000000,０７５-６９４-１９１１,2690500034,"平日,土曜日,日曜日,祝日",,0,https://www.kyoto-fukushi.org/
261076,2690500141,京都府,京都市南区,鳥羽ホームホームヘルプサービスセンター,トバホームホームヘルプサービスセンター,夜間対応型訪問介護,京都府京都市南区上鳥羽堀子町88番地,,34.969023800000000,135.744387500000000,075-692-1149,2690500141,"平日,土曜日,日曜日,祝日",,10,https://www.seiwaen.or.jp
261076,2690500109,京都府,京都市南区,久世ホーム訪問介護事業所　夜間対応型訪問介護,クゼホームホウモンカイゴジギョウショ　ヤカンタイオウガタホウモンカイゴ,夜間対応型訪問介護,京都府京都市南区久世築山町70,,34.957668463927400,135.724546427626000,075-933-5777,2690500109,"平日,土曜日,日曜日,祝日",24時間通報加算有の場合は24時間,22,http://www.seiwaen.or.jp
261076,2690500174,京都府,京都市南区,吉祥ホーム　ホームヘルプサービスセンター,キッショウホーム　ホームヘルプサービスセンター,夜間対応型訪問介護,京都府京都市南区吉祥院石原橋上1-4,,34.968192700000000,135.724015700000000,075-682-8162,2690500174,"平日,土曜日,日曜日,祝日",＊上記時間以外は24時間通報対応加算を取ることにより訪問介護での対応いたします。,10,https://www.seiwaen.or.jp/
261076,2690500281,京都府,京都市南区,夜間対応型訪問介護ビハーラ十条,ヤカンタイオウガタホウモンカイゴビハーラジュウジョウ,夜間対応型訪問介護,京都府京都市南区吉祥院南落合町40番4,,34.972951600000000,135.740901900000000,075-585-6878,2690500281,"平日,土曜日,日曜日,祝日",,,http://www.vhr10.jp/
261084,2690700436,京都府,京都市右京区,ＳＯＭＰＯケア　京都西　夜間訪問介護,ソンポケアキョウトシヤカンホウモンカイゴ,夜間対応型訪問介護,京都府京都市右京区山ノ内五反田町9-1かどの御池ビル３階,かどの御池ビル３階,35.010617300000000,135.720578100000000,075-432-8265,2690700436,"平日,土曜日,日曜日,祝日",,,https://www.sompocare.com/
261084,2690700014,京都府,京都市右京区,キャビック夜間対応型訪問介護事業所,キャビックヤカンタイオウガタホウモンカイゴジギョウショ,夜間対応型訪問介護,京都市右京区梅津段町８,,35.004147100000000,135.706143400000000,075-881-7770,2690700014,"平日,土曜日,日曜日,祝日",任意により、２４時間対応加算契約者については２４時間随時訪問対応をする。,0,http://www.cabikcare.jp
261092,2690900051,京都府,京都市伏見区,あんしんサポート伏見,アンシンサポートフシミ,夜間対応型訪問介護,京都市伏見区深草大亀谷東古御香町59番地60番地,,34.943893400000000,135.787907500000000,075-645-6564,2690900051,"平日,土曜日,日曜日,祝日",面接時間は、8：30～17：00,0,http://www.kyoro.or.jp
261092,2690900580,京都府,京都市伏見区,城南ホーム夜間対応型訪問介護事業所,ジョウナンホームヤカンタイオウガタホウモンカイゴジギョウショ,夜間対応型訪問介護,京都市伏見区竹田中内畑町53特別養護老人ホーム城南ホーム,特別養護老人ホーム城南ホーム,34.953472000000100,135.753674700000000,075-622-6530,2690900580,"平日,土曜日,日曜日,祝日",,0,https://www.seiwaen.or.jp/index.html
261114,2694000338,京都府,京都市西京区,ホームケア２４くつかけ七彩の家,ホームケア２４クツカケナナイロノイエ,夜間対応型訪問介護,大枝北沓掛町一丁目３番地１七彩すまいる館,七彩すまいる館,34.988257267479500,135.655082296258000,075-333-6026,2694000338,"平日,土曜日,日曜日,祝日",,,https://www.rakufuku.jp/
262056,2692100031,京都府,宮津市,介護レスキュー宮津事業所,カイゴレスキューミヤヅジギョウショ,夜間対応型訪問介護,京都府宮津市字本町1000番地,,35.536239085175300,135.193175709573000,0772-22-6611,2692100031,"平日,土曜日,日曜日,祝日",年中無休,0,
271179,2793100336,大阪府,大阪市旭区,夜間対応型ヘルパーステーション　ライフライト,ヤカンタイオウガタヘルパーステーション　ライフライト,夜間対応型訪問介護,大阪府大阪市旭区赤川二丁目1番20号,,34.724409100000000,135.530909100000000,06-6923-5400,2793100336,"平日,土曜日,日曜日,祝日",,,https://hoshino-kai.com
271187,2794400255,大阪府,大阪市城東区,ＳＯＭＰＯケア　城東　夜間訪問介護,ソンポケアジョウトウヤカンホウモンカイゴ,夜間対応型訪問介護,大阪府大阪市城東区鴫野東3-2-1,,34.691081300000000,135.546294900000000,06-4258-4691,2794400255,"平日,土曜日,日曜日,祝日",サービスによっては24時間対応,0,https://www.sompocare.com/service/zaitaku/kaigo/Z000714
271195,2792300150,大阪府,大阪市阿倍野区,SOMPOケア阿倍野　夜間訪問介護,ソンポケアアベノ　ヤカンホウモンカイゴ,夜間対応型訪問介護,大阪府大阪市阿倍野区西田辺町二丁目8番6号TASTEビル　2階A号室,TASTEビル　2階A号室,34.618049100000000,135.514421500000000,06-4700-8870,2792300150,"平日,土曜日,日曜日,祝日",,,
271209,2792000024,大阪府,大阪市住吉区,株式会社シルバーサービスモリタナイトケア,カブシキカイシャシルバーサービスモリタナイトケア,夜間対応型訪問介護,大阪府大阪市住吉区大領四丁目7番21号,,34.615227400000000,135.504772400000000,06-6691-4141,2792000024,"平日,土曜日,日曜日,祝日",,,http://www.silver-morita.com
271217,2790800011,大阪府,大阪市東住吉区,医療法人　西中医学会　西中夜間対応型ヘルパーステーション,イリョウホウジン　ニシナカイガクカイ　ニシナカヤカンタイオウガタヘルパーステーション,夜間対応型訪問介護,大阪市東住吉区公園南矢田4-19-29,,34.598786743641800,135.524761078413000,06-6698-9339,2790800011,"平日,土曜日,日曜日,祝日",,0,http://www.nishinaka.or.jp
271225,2793300381,大阪府,大阪市西成区,かなうヘルパーステーション,カナウヘルパーステーション,夜間対応型訪問介護,大阪府大阪市西成区萩之茶屋１－８－１０レジデンス桜久２０２,レジデンス桜久２０２,34.647687828166800,135.502459195107000,06‐6655‐0191,2793300381,平日,,0,
271276,2794100111,大阪府,大阪市北区,グッドライフケア夜間対応型訪問介護大阪,グッドライフケアヤカンタイオウガタホウモンカイゴオオサカ,夜間対応型訪問介護,大阪府大阪市北区紅梅町1-6カザリーノビル6階,カザリーノビル6階,34.698570900000000,135.513952800000000,06-6948-6520,2794100111,"平日,土曜日,日曜日,祝日",随時対応サービス:24時間,0,https://goodlifecare.co.jp/
272027,2791100049,大阪府,岸和田市,夜間対応型訪問介護　ナイトヘルパー萬寿園,ヤカンタイオウガタホウモンカイゴ　ナイトヘルパー　マンジュエン,夜間対応型訪問介護,大阪府岸和田市尾生町808番地,,34.451347400000000,135.407417500000000,072-445-0749,2791100049,"平日,土曜日,日曜日,祝日",随時訪問に関しては22:00～7:00までの間、対応しております。,0,
272035,2794000857,大阪府,豊中市,ＳＯＭＰＯケア　豊中　夜間訪問介護,ソンポケア　トヨナカ　ヤカンホウモンカイゴ,夜間対応型訪問介護,大阪府豊中市岡町北3丁目5番22号,,34.781604085407900,135.462648406871000,06-6842-2170,2794000857,"平日,土曜日,日曜日,祝日",,0,
272108,2792400083,大阪府,枚方市,アーバンナイト,アーバンナイト,夜間対応型訪問介護,大阪府枚方市三矢町2-10,,34.814956700000000,135.643494900000000,072-844-3690,2792400083,"平日,土曜日,日曜日,祝日",365日対応です。,60,http://www.care-life.jp
272116,2794200580,大阪府,茨木市,ＳＯＭＰＯケア茨木　夜間訪問介護,ソンポケアイバラキヤカンホウモンカイゴ,夜間対応型訪問介護,大阪府茨木市双葉町2-27茨木シティライフビル3階,茨木シティライフビル3階,34.817265974062600,135.577139619605000,072-665-9765,2794200580,"平日,土曜日,日曜日,祝日",18：00～08：00（改行）（サービスによって24時間対応）,,https://www.sompocare.com
272124,2795500186,大阪府,八尾市,夜間対応安心コール中谷,ヤカンタイオウアンシンコールナカタニ,夜間対応型訪問介護,八尾市八尾木北３丁目１２３番地,,34.615187600000000,135.615642800000000,072-993-5585,2795500186,"平日,土曜日,日曜日,祝日",３６５日コール対応可能,200,http://www.nakataniclinic.or.jp
272124,2795500491,大阪府,八尾市,夜間対応型訪問介護　ステラ,ヤカンタイオウガタホウモンカイゴ　ステラ,夜間対応型訪問介護,八尾市太田新町8丁目181番地,,34.595399200000000,135.601856900000000,072-968-8164,2795500491,"平日,土曜日,日曜日,祝日",24時間365日コール対応可能,0,http://sutera24-365.com
281018,2890100221,兵庫県,神戸市東灘区,住吉夜間対応型訪問介護センター,スミヨシヤカンタイオウガタホウモンカイゴセンター,夜間対応型訪問介護,兵庫県神戸市東灘区住吉本町3-7-41,,34.724039300000000,135.259292500000000,078-851-2560,2890100221,"平日,土曜日,日曜日,祝日",ご利用等の相談については9：00～17：30での受付となります。,,http://www.krh-sumiyoshi.com/
281107,2895100135,兵庫県,神戸市中央区,ぷらすてっぷ夜間対応型訪問介護,プラステップヤカンタイオウガタホウモンカイゴ,夜間対応型訪問介護,熊内橋通6-1-17,,34.704383193715400,135.199165450926000,078-222-1557,2895100135,"平日,土曜日,日曜日,祝日",,,https://www.positive-plustep.com/
282049,2890900596,兵庫県,西宮市,エイプレイス兵庫西宮,エイプレイスヒョウゴニシノミヤ,夜間対応型訪問介護,兵庫県西宮市段上町1丁目10-28,,34.768063900000000,135.363472500000000,0798-57-3718,2890900596,"平日,土曜日,日曜日,祝日",,,https://isla-grande.com/
304212,3072501111,和歌山県,那智勝浦町,訪問介護Ｌｉｎｏ,ホウモンカイゴリノ,夜間対応型訪問介護,和歌山県東牟婁郡那智勝浦町天満697-1,,33.634186100000000,135.935119600000000,0735-29-2239,3072501111,"平日,土曜日,日曜日,祝日",,,https://lino-kaigo.com/
322016,3290100761,島根県,松江市,夜間対応型訪問介護事業所　はくいし,ヤカンタイオウガタホウモンカイゴジギョウショ　ハクイシ,夜間対応型訪問介護,島根県松江市宍道町白石184-3住宅型有料老人ホーム　はくいし,住宅型有料老人ホーム　はくいし,35.413747700000000,132.924148400000000,0852-61-8350,3290100761,"平日,土曜日,日曜日,祝日",,0,https://m-care.themedia.jp/
322016,3290100175,島根県,松江市,松江24時間介護センター,マツエ24ジカンカイゴセンター,夜間対応型訪問介護,松江市西持田町341番地1フェリーチェ持田,フェリーチェ持田,35.497201200000000,133.073535300000000,0852-25-8023,3290100175,"平日,土曜日,日曜日,祝日",,0,http://www.orangeroad.co.jp/
341029,3490100033,広島県,広島市東区,夜間対応型訪問介護ニックスヘルパー救急隊,ヤカンタイオウガタホウモンカイゴニックスヘルパーキュウキュウタイ,夜間対応型訪問介護,広島市東区尾長東二丁目7番28号,,34.398042301447900,132.488226370675000,082-568-7300,3490100033,"平日,土曜日,日曜日,祝日",年中無休,0,http://www.nix-net.co.jp/
341045,3490201245,広島県,広島市西区,生協くさつ夜間対応ヘルパーステーション,セイキョウクサツヤカンタイオウヘルパーステーション,夜間対応型訪問介護,広島県広島市西区草津東1丁目11-19,,34.378825600000000,132.406333800000000,082-507-1222,3490201245,"平日,土曜日,日曜日,祝日",,0,http://www.hch.coop
341045,3490201260,広島県,広島市西区,生協かんおん夜間対応ヘルパーステーション,セイキョウカンオンヤカンタイオウヘルパーステーション,夜間対応型訪問介護,広島県広島市西区観音町16-19生協けんこうプラザ,生協けんこうプラザ,34.394505400000000,132.437074900000000,082-563-8391,3490201260,"平日,土曜日,日曜日,祝日",,,http://www.hch.coop/
341061,3490101189,広島県,広島市安佐北区,いでした夜間訪問介護サービス,イデシタヤカンホウモンカイゴサービス,夜間対応型訪問介護,広島県広島市安佐北区口田三丁目30番13号,,34.467058600000000,132.500683200000000,082-516-8127,3490101189,平日,,,http://www.ideshita-clinic.jp/about
341088,3490201096,広島県,広島市佐伯区,ニックス佐伯ヘルパー救急隊,ニックスサエキヘルパーキュウキュウタイ,夜間対応型訪問介護,広島市佐伯区三筋一丁目10-27,,34.365356300000000,132.347582900000000,082-942-1112,3490201096,"平日,土曜日,日曜日,祝日",オペレーションセンターサービスは委託にて24時間対応,0,http://www.nix-net.co.jp/
342076,3491501247,広島県,福山市,永和会多機能看護介護ステーション,エイワカイタキノウカンゴカイゴステーション,夜間対応型訪問介護,福山市東村町466-2,,34.461443062636100,133.240687118290000,084-939-9550,3491501247,"平日,土曜日,日曜日,祝日",年中無休です。営業時間以外でも電話等により24時間常時連絡可能な体制を取っています。,10,http://www.eiwa-kai.or.jp/index.html
372013,3790101178,香川県,高松市,ケアヒルズ夜間介護センター,ケアヒルズヤカンカイゴセンター,夜間対応型訪問介護,香川県高松市十川西町277番地1リバティハイツA　１０１,リバティハイツA　１０１,34.276113300000000,134.105407200000000,087-813-9165,3790101178,平日,,0,
372013,3790100170,香川県,高松市,高松夜間訪問介護センター,タカマツヤカンホウモンカイゴセンター,夜間対応型訪問介護,香川県高松市田町1－2,,34.338355257222300,134.048886799832000,087-868-1285,3790100170,"平日,土曜日,日曜日,祝日",利用者様の状況により時間以外の対応を行う。,0,
401099,4090700834,福岡県,北九州市八幡西区,ほほえみ夜間サービスセンター,ホホエミヤカンサービスセンター,夜間対応型訪問介護,福岡県北九州市八幡西区永犬丸南町２丁目２番４１号,,33.834063700000000,130.729889500000000,093-614-2022,4090700834,"平日,土曜日,日曜日,祝日",,0,http://www.hohoemi-gr.com/
401099,4090701030,福岡県,北九州市八幡西区,ほほえみ夜間サービスセンター,ホホエミヤカンサービスセンター,夜間対応型訪問介護,永犬丸南町2丁目2番41号,,33.834043300000000,130.729897000000000,093-614-2022,4090701030,"平日,土曜日,日曜日,祝日",,,https://www.hohoemi-gr.com/
401323,4090900244,福岡県,福岡市博多区,巡回介護ひまわり,ジュンカイカイゴヒマワリ,夜間対応型訪問介護,福岡市博多区千代5-18-7-３階FHKビル３階,FHKビル３階,33.608232300000000,130.411529900000000,092-651-9901,4090900244,"平日,土曜日,日曜日,祝日",,0,
402184,4093200055,福岡県,春日市,ケアコールセンターペアレント,ケアコールセンターペアレント,夜間対応型訪問介護,福岡県春日市大谷1丁目１０－１,,33.530692246319100,130.454697051832000,092-588-1234,4093200055,"平日,土曜日,日曜日,祝日",,0,https://www.parent.co.jp/
422011,4290101023,長崎県,長崎市,医療法人社団　春秋会　夜間対応型訪問介護ﾍﾙﾊﾟｰｽﾃｰｼｮﾝ・ﾗｲﾌｹｱ,イリョウホウジンシャダン　シュンジュウカイ　ヤカンタイオウガタホウモンカイゴ,夜間対応型訪問介護,長崎県長崎市大浦町3-21大浦十三番館　2階,大浦十三番館　2階,32.736268400194100,129.871282611639000,095-827-1070,4290101023,"平日,土曜日,日曜日,祝日",夜間対応型訪問介護のｻｰﾋﾞｽ時間は　21：00～7：00　とする。,0,http://www.syunjyu-kai.or.jp/
422029,4290200320,長崎県,佐世保市,夜間対応型訪問介護事業所サクラ,ヤカンタイオウガタホウモンカイゴジギョウショサクラ,夜間対応型訪問介護,佐世保市花園町２０１番地,,33.181126300000000,129.722473100000000,0956-24-1991,4290200320,"平日,土曜日,日曜日,祝日",夜間対応型訪問介護２０時～７時。２４時間対応加算により２４時間の対応可能です,0,
422100,4292100015,長崎県,壱岐市,社会医療法人　玄州会　ホームヘルパーステーションリバティ,シャカイイリョウホウジン　ゲンシュウカイ　ホームヘルパーステーションリバティ,夜間対応型訪問介護,長崎県壱岐市郷ノ浦町永田触字八枝275番地2,,33.749355800000000,129.697634600000000,0920-47-3607,4292100015,"平日,土曜日,日曜日,祝日",,0,http://www.gensyukai.or.jp/
442011,4490100536,大分県,大分市,夜間対応型ヘルパーステーション清流苑,ヤカンタイオウガタヘルパーステーションセイリュウエン,夜間対応型訪問介護,大分県大分市大字種具字南谷144番地,,33.218771400000000,131.699326000000000,097-524-7102,4490100536,"平日,土曜日,日曜日,祝日",,0,https://seiryu-kyousei.org/
442038,4490300169,大分県,中津市,中津夜間訪問介護センター,ナカツヤカンホウモンカイゴセンター,夜間対応型訪問介護,大分県中津市豊田町13-6サンビュー20-B号室,サンビュー20-B号室,33.599113853316300,131.188222084028000,0979-23-8710,4490300169,"平日,土曜日,日曜日,祝日",訪問ｻｰﾋﾞｽは年中無休,,www.regaroa.net
442038,4490300292,大分県,中津市,夜間訪問サポートセンター三光園,ヤカンホウモンサポートセンターサンコウエン,夜間対応型訪問介護,大分県中津市大字上如水字野田1825番地10,,33.578667800000000,131.229384000000000,0979-53-9755,4490300292,"平日,土曜日,日曜日,祝日",,,
442038,4490300326,大分県,中津市,夜間訪問介護ステーションLａ　Vie,ヤカンホウモンカイゴステーション　ラヴィ,夜間対応型訪問介護,大分県中津市豊田町13-6サンビュー20-B号室,サンビュー20-B号室,33.599062900000000,131.188253500000000,0979-23-8710,4490300326,"平日,土曜日,日曜日,祝日",訪問サービス中は年中無休,,
442038,4490300029,大分県,中津市,いずみの園コールセンター,イズミノソノコールセンター,夜間対応型訪問介護,大分県中津市永添2765-147,,33.560014429791700,131.200123374751000,0979-85-0356,4490300029,"平日,土曜日,日曜日,祝日",,100,http//www.izuminosono.jp
442089,4490800077,大分県,竹田市,大久保病院夜間介護センター,オオクボビョウインヤカンカイゴゼンター,夜間対応型訪問介護,大分県竹田市久住町大字栢木6026-2,,33.057757600000000,131.332312900000000,0974-64-7777,4490800077,"平日,土曜日,日曜日,祝日",,,http://okubo-hp.com/
452017,4590100873,宮崎県,宮崎市,夜間対応サービス　ファンライフ浮之城,ヤカンタイオウサービス　ファンライフウキノジョウ,夜間対応型訪問介護,宮崎県宮崎市吉村町浮之城甲16-1,,31.931513715265300,131.437958859911000,0985-35-6260,4590100873,"平日,土曜日,日曜日,祝日",電話により24時間連絡体制整えております。,0,http://www.altidea.com/
452017,4590101160,宮崎県,宮崎市,りんくる,リンクル,夜間対応型訪問介護,神宮１－２４０－１オフィスティ第１ビル3-Ａ,オフィスティ第１ビル3-Ａ,31.932775700000000,131.421385400000000,0985-77-5410,4590101160,"平日,土曜日,日曜日,祝日",,0,http://www.spinner-linkle.com
454010,4572001164,宮崎県,高鍋町,ヘルパーステーション　おとんおかんの家,ヘルパーステーション　オトンオカンノイエ,夜間対応型訪問介護,宮崎県児湯郡高鍋町大字北高鍋１０８９番地,,32.130839200000000,131.509977500000000,0983-35-3531,4572001164,"平日,土曜日,日曜日,祝日",,,https://www.otonokannoie.jp/