都道府県コード又は市町村コード,No,都道府県名,市区町村名,事業所名,事業所名カナ,サービスの種類,住所,方書（ビル名等）,緯度,経度,電話番号,事業所番号,利用可能曜日,利用可能曜日特記事項,定員,URL
11011,190100370,北海道,札幌市中央区,定期巡回モルス24,テイキジュンカイモルスニジュウヨン,定期巡回・随時対応型訪問介護看護,北海道札幌市中央区北11条西14丁目1番72号ふれあいの森　市立病院前,ふれあいの森　市立病院前,43.072415360518700,141.333324792031000,011-738-9918,190100370,,,0,https://www.morus.co.jp/
11011,190100834,北海道,札幌市中央区,グリーンプラザ定期巡回訪問介護看護ステーション,グリーンプラザテイキジュンカイホウモンカイゴカンゴステーション,定期巡回・随時対応型訪問介護看護,北海道札幌市中央区南6条西8丁目5番ファミリードクターズホーム6.8　5Ｆ,ファミリードクターズホーム6.8　5Ｆ,43.052647600000000,141.346741100000000,011-513-5500,190100834,,,,
11011,190100248,北海道,札幌市中央区,マザアス札幌２４時間訪問介護看護事業所,マザアスサッポロニジュウヨジカンホウモンカイゴカンゴジギョウショ,定期巡回・随時対応型訪問介護看護,北海道札幌市中央区北３条東１丁目１番地１ブランジェイアール札幌,ブランジェイアール札幌,43.065962100000000,141.356398200000000,011-210-0330,190100248,,,0,http://www.motherth.com/sapporo/
11011,190100396,北海道,札幌市中央区,定期巡回随時対応訪問介護看護　フルハウス伏見,テイキジュンカイズイジタイオウホウモンカイゴカンゴ　フルハウスフシミ,定期巡回・随時対応型訪問介護看護,北海道札幌市中央区南20条西16丁目2－1,,43.029429600000000,141.337413100000000,011-533-2002,190100396,,,0,
11011,190100503,北海道,札幌市中央区,やまはな訪問介護看護事業所２４,ヤマハナホウモンカイゴカンゴジギョウショ２４,定期巡回・随時対応型訪問介護看護,北海道札幌市中央区南１９条西１１丁目１-１５ヴェラス・クオーレ南１９条ー２Ｆ,ヴェラス・クオーレ南１９条ー２Ｆ,43.034320397222700,141.344155182648000,011-530-6808,190100503,,,0,
11011,190100537,北海道,札幌市中央区,ノア地域巡回センター旭ヶ丘,ノアチイキジュンカイセンターアサヒガオカ,定期巡回・随時対応型訪問介護看護,北海道札幌市中央区南１２条西２２丁目１－４０ノアガーデン旭ヶ丘　アーバンクラス内,ノアガーデン旭ヶ丘　アーバンクラス内,43.042222300000000,141.325588400000000,011-520-2500,190100537,,,0,http://www.noah-konzer.com
11011,190100636,北海道,札幌市中央区,朝日ケアステーション山鼻,アサヒケアステーションヤマハナ,定期巡回・随時対応型訪問介護看護,北海道札幌市中央区南18条西12丁目4-12朝日ケアホーム山鼻,朝日ケアホーム山鼻,43.034837600000000,141.342434600000000,011-213-1505,190100636,,,0,https://www.asahi-care-home.com/
11011,190100651,北海道,札幌市中央区,定期巡回ケアステーションピリカ,テイキジュンカイケアステーションピリカ,定期巡回・随時対応型訪問介護看護,北海道札幌市中央区南19条西12丁目2-22ロータス山鼻邸,ロータス山鼻邸,43.033615500000000,141.342279100000000,011-585-5112,190100651,,,0,https://lotus-sapporo.com/
11011,190100933,北海道,札幌市中央区,ノア地域巡回センター啓明,ノアチイキジュンカイセンターケイメイ,定期巡回・随時対応型訪問介護看護,北海道札幌市中央区南13条西23丁目1-20ノアガーデンエレンクラッセ,ノアガーデンエレンクラッセ,43.039484600000000,141.325348500000000,011-562-1001,190100933,,,0,https://www.noah-konzer.com/
11011,190101170,北海道,札幌市中央区,SOMPOケア　札幌桑園駅前　定期巡回,ソンポケア　サッポロソウエンエキマエ　テイキジュンカイ,定期巡回・随時対応型訪問介護看護,北海道札幌市中央区北11条西14丁目1-17,,43.071859900000000,141.332185800000000,011-788-7739,190101170,,,,https://www.sompocare.com
11011,190101196,北海道,札幌市中央区,ＳＯＭＰＯケア旭ヶ丘　定期巡回,ソンポケアアサヒガオカテイキジュンカイ,定期巡回・随時対応型訪問介護看護,北海道札幌市中央区南14条西18丁目6-22ラヴィーレレジデンス旭ヶ丘,ラヴィーレレジデンス旭ヶ丘,43.040012600000000,141.328674400000000,011-206-9577,190101196,,,,https://www.sompocare.com
11011,190100974,北海道,札幌市中央区,ブルー・ケア株式会社,ブルー・ケアカブシキガイシャ,定期巡回・随時対応型訪問介護看護,北海道札幌市中央区北11条西24丁目1番20号ブルースター北円山,ブルースター北円山,43.070475300000000,141.318481900000000,011-215-8890,190100974,,,45,kitamaruinfo@blue-care.net
11011,190100511,北海道,札幌市中央区,やまはな24,ヤマハナニジュウヨン,定期巡回・随時対応型訪問介護看護,北海道札幌市中央区南16条西19丁目1番32シティホーム山鼻,シティホーム山鼻,43.036803000000000,141.330256900000000,011-522-8177,190100511,,,0,
11029,190200576,北海道,札幌市北区,さっぽろ訪問介護看護事業所24,サッポロホウモンカイゴカンゴジギョウショニジュウヨン,定期巡回・随時対応型訪問介護看護,北海道札幌市北区屯田8条9丁目3-7,,43.141934500000000,141.323970600000000,011-775-2778,190200576,,,0,
11029,190201137,北海道,札幌市北区,定期巡回・随時対応型訪問介護看護事業所ぽらりす屯田,テイキジュンカイズイジタイオウガタホウモンカイゴカンゴジギョウショポラリストンデン,定期巡回・随時対応型訪問介護看護,北海道札幌市北区屯田7条10丁目2番10号ぽらりす屯田,ぽらりす屯田,43.138073700000000,141.320071100000000,011-788-3216,190201137,,,0,http://takuhou.jp/
11029,190201731,北海道,札幌市北区,定期巡回・随時対応型訪問介護看護　れもん,テイキジュンカイ・ズイジタイオウガタホウモンカイゴカンゴ　レモン,定期巡回・随時対応型訪問介護看護,北海道札幌市北区篠路１条７丁目3-20,,43.140274800000000,141.363809600000000,011-773-5588,190201731,,,0,
11029,190201822,北海道,札幌市北区,勤医協訪問介護看護２４時間のぞみ,キンイキョウホウモンカイゴカンゴ２４ジカンノゾミ,定期巡回・随時対応型訪問介護看護,北海道札幌市北区北32条西8丁目1番1号,,43.098244600000000,141.335790700000000,011-299-1602,190201822,,,0,https://kin-fukushikai.jp/
11029,190202085,北海道,札幌市北区,勤医協訪問介護看護24時間ひかり,キンイキョウホウモンカイゴカンゴ24ジカン　ヒカリ,定期巡回・随時対応型訪問介護看護,北海道札幌市北区篠路6条1丁目1番1号,,43.150693300000000,141.351619600000000,117752899,190202085,,,,https://kin-fukushikai.jp/
11029,190202044,北海道,札幌市北区,メディケア花水木,メディケアハナミズキ,定期巡回・随時対応型訪問介護看護,北海道札幌市北区新川7条16丁目709-6はなみずき新川,はなみずき新川,43.119168000000000,141.300623000000000,011-790-7246,190202044,,,,https://atlsakura-kaigofukushi.com/facility/nursingcare-hanamizuki/
11029,190201707,北海道,札幌市北区,定期巡回センター花時計,テイキジュンカイセンターハナドケイ,定期巡回・随時対応型訪問介護看護,北海道札幌市北区北２３条西３丁目１－５楽明館２３,楽明館２３,43.089004860103400,141.345916713492000,011-776-7500,190201707,,,29,http://rakumeikan.co.jp/
11037,190200410,北海道,札幌市東区,ヘルパーステーションリ・ボン,ヘルパーステーションリ・ボン,定期巡回・随時対応型訪問介護看護,北海道札幌市東区東苗穂3条1丁目2-65,,43.087463600000000,141.401398600000000,011-214-0157,190200410,,,0,http://www.oira-ku..com/
11037,190200485,北海道,札幌市東区,ケアステーションなないろ,ケアステーションナナイロ,定期巡回・随時対応型訪問介護看護,北海道札幌市東区東苗穂３条１丁目２－９０東苗穂ナーシングケアセンターひだまり内,東苗穂ナーシングケアセンターひだまり内,43.088682900000000,141.399357000000000,011-780-5522,190200485,,,0,http://www.houseikai.or.jp/niji/
11037,190200790,北海道,札幌市東区,ノア地域巡回センターモエレ,ノアチイキジュンカイセンターモエレ,定期巡回・随時対応型訪問介護看護,北海道札幌市東区中沼西３条２丁目７番8号ノアガーデンモエレヒルズ,ノアガーデンモエレヒルズ,43.130742000000000,141.414739000000000,011-374-7302,190200790,,,0,http://www.noah-konzer.com
11037,190201129,北海道,札幌市東区,カレス定期巡回随時対応型訪問介護看護事業所,カレステイキジュンカイズイジタイオウガタホウモンカイゴカンゴジギョウショ,定期巡回・随時対応型訪問介護看護,北海道札幌市東区北12条東4丁目１番１号カレスプレミアムガーデン,カレスプレミアムガーデン,43.076708100000000,141.358802900000000,011-722-3336,190201129,,,30,http://www.p-garden.jp/index.html
11037,190201459,北海道,札幌市東区,グレース定期巡回随時対応型訪問介護看護,グレーステイキジュンカイズイジタイオウガタホウモンカイゴカンゴ,定期巡回・随時対応型訪問介護看護,北海道札幌市東区東苗穂14条3丁目1番57号有料老人ホーム　カルミア,有料老人ホーム　カルミア,43.108786800000000,141.424659000000000,011-790-7875,190201459,,,0,
11037,190201566,北海道,札幌市東区,ノア地域巡回センター北6条,ノアチイキジュンカイセンターキタロクジョウ,定期巡回・随時対応型訪問介護看護,北海道札幌市東区北6条東6丁目1-1ノアガーデングランテラス　1階,ノアガーデングランテラス　1階,43.070519900000000,141.364130600000000,011-733-7000,190201566,,,0,http://www.noah-konzer.com
11037,190100859,北海道,札幌市東区,グッドタイムサポート・札幌,グッドタイムサポート・サッポロ,定期巡回・随時対応型訪問介護看護,札幌市東区北20条東1丁目4番1号,,43.051870200000000,141.347309600000000,011-702-3294,190100859,,,0,
11037,190201830,北海道,札幌市東区,勤医協　訪問介護看護24時間　ひなた,キンイキョウ　ホウモンカイゴカンゴニジュウヨジカン　ヒナタ,定期巡回・随時対応型訪問介護看護,北海道札幌市東区伏古10条2丁目19番8号ひまわり伏古ビル1階,ひまわり伏古ビル1階,43.095009600000000,141.395843200000000,011-786-7900,190201830,,,0,
11037,190201897,北海道,札幌市東区,ライブラリ札幌定期巡回・随時対応型訪問介護看護事業所,ライブラリサッポロテイキジュンカイ・ズイジタイオウガタホウモンカイゴカンゴジギョウショ,定期巡回・随時対応型訪問介護看護,北海道札幌市東区北23条東17丁目1番10号ライブラリ元町,ライブラリ元町,43.093197500000000,141.374767100000000,011-214-0322,190201897,,,0,
11037,190201640,北海道,札幌市東区,福祉生協　東ラウンド24,フクシセイキョウ　ヒガシラウンド24,定期巡回・随時対応型訪問介護看護,北海道札幌市東区北10条東7丁目1-30イリス北10条,イリス北10条,43.074740600000000,141.364135300000000,011-299-5825,190201640,,,58,https://www.hukushiseikyou.or.jp/
11037,190201665,北海道,札幌市東区,24時間定期巡回訪問サービスブルースターEAST,ニジュウヨジカンテイキジュンカイホウモンサービスブルースターイースト,定期巡回・随時対応型訪問介護看護,北海道札幌市東区北34条東24丁目２番１号,,43.103133800000000,141.382736100000000,011-776-6207,190201665,,,0,https://east.blue-care.net/
11045,190501510,北海道,札幌市白石区,はばたきステーション２４,ハバタキステーション２４,定期巡回・随時対応型訪問介護看護,北海道札幌市白石区本郷通３丁目南４番１１号スピタール南郷丘　１階,スピタール南郷丘　１階,43.046295800000000,141.405564500000000,011-863-6500,190501510,,,0,http://habataki.co.jp
11045,190500967,北海道,札幌市白石区,さくら定期巡回・随時対応型訪問介護看護事業所,サクラテイキジュンカイズイジタイオウガタホウモンカイゴカンゴジギョウショ,定期巡回・随時対応型訪問介護看護,北海道札幌市白石区東札幌4条4丁目1-18,,43.051368560248200,141.391269074869000,011-827-7750,190500967,,,0,
11045,190500959,北海道,札幌市白石区,定期巡回・随時対応型訪問介護看護　徳洲苑しろいし,テイキジュンカイ・ズイジタイオウガタホウモンカイゴカンゴ　トクシュウエンシロイシ,定期巡回・随時対応型訪問介護看護,北海道札幌市白石区栄通18丁目4番10号,,43.029087400000000,141.431176900000000,011-836-1157,190500959,,,0,http://tokushuen-shiroishi.com/contents/about/
11045,190501395,北海道,札幌市白石区,勤医協訪問介護看護２４時間うらら,キンイキョウホウモンカイゴカンゴニジュウヨジカンウララ,定期巡回・随時対応型訪問介護看護,北海道札幌市白石区米里１条４丁目６番１０号,,43.071631374814700,141.419143804074000,011-874-1295,190501395,,,0,https://kin-fukushikai.jp/
11045,190502039,北海道,札幌市白石区,オストケアしろいし２４,オストケアシロイシニジュウヨン,定期巡回・随時対応型訪問介護看護,北海道札幌市白石区平和通１丁目南２番３号イオル平和通内,イオル平和通内,43.054886700000000,141.406127900000000,011-867-2943,190502039,,,0,
11045,190502088,北海道,札幌市白石区,勤医協訪問介護看護２４時間オリーブ,キンイキョウホウモンカイゴカンゴ２４ジカンオリーブ,定期巡回・随時対応型訪問介護看護,北海道札幌市白石区本通７丁目北２－１６,,43.046531200000000,141.416776500000000,011-863-8233,190502088,,,,https://kin-fukushikai.jp/
11045,190503599,北海道,札幌市白石区,ノア地域巡回センター白石,ノアチイキジュンカイセンターシロイシ,定期巡回・随時対応型訪問介護看護,北海道札幌市白石区本郷通1丁目北1-7ノアガーデンセイベリッサ1F,ノアガーデンセイベリッサ1F,43.050001800000000,141.401309600000000,011-865-7005,190503599,,,0,https://www.noah-konzer.com/
11045,190500876,北海道,札幌市白石区,福祉生協ラウンド２４,フクシセイキョウラウンド２４,定期巡回・随時対応型訪問介護看護,北海道札幌市白石区南郷通６丁目北２－１０イリス南郷通,イリス南郷通,43.042279600000000,141.409042100000000,011-865-0011,190500876,,,0,http://www.hukushiseikyou.or.jp
11045,190502898,北海道,札幌市白石区,ライブラリ札幌白石定期巡回・随時対応型訪問介護看護事業所,ライブラリサッポロシロイシテイキジュンカイズイジタイオウガタホウモンカイゴカンゴジギョウショ,定期巡回・随時対応型訪問介護看護,北海道札幌市白石区北郷３条１丁目１番１８号ライブラリ白石はな壱号館,ライブラリ白石はな壱号館,43.064504400000000,141.405380400000000,118798770,190502898,,,1,http://www.living-platform.com
11053,190501288,北海道,札幌市豊平区,オストケアとよひら24,オストケアトヨヒラニジュウヨン,定期巡回・随時対応型訪問介護看護,北海道札幌市豊平区美園7条3丁目２－１イオル美園,イオル美園,43.039362500000000,141.382555800000000,011-817-2943,190501288,,,0,http://www.ost-japan.com/
11053,190501247,北海道,札幌市豊平区,24時間訪問介護看護しらかば,２４ジカンホウモンカイゴカンゴシラカバ,定期巡回・随時対応型訪問介護看護,北海道札幌市豊平区月寒東3条18丁目20番48号サービス付き高齢者向け住宅　しらかばの杜,サービス付き高齢者向け住宅　しらかばの杜,43.018532700000000,141.423642100000000,011-826-5516,190501247,,,0,http://www.kouwakai.or.jp/shirakabadai/mori.html
11053,190501270,北海道,札幌市豊平区,勤医協訪問介護看護２４時間つなぐ,キンイキョウホウモンカイゴカンゴ２４ジカン　ツナグ,定期巡回・随時対応型訪問介護看護,北海道札幌市豊平区平岸６条１２丁目９-２５,,43.027238800000000,141.379651100000000,011-820-4037,190501270,,,0,
11053,190501437,北海道,札幌市豊平区,西岡定期巡回ステーション,ニシオカテイキジュンカイステーション,定期巡回・随時対応型訪問介護看護,北海道札幌市豊平区西岡4条10丁目3番3号カペラ西岡,カペラ西岡,43.001451200000000,141.384244400000000,011-836-3737,190501437,,,0,
11053,190502369,北海道,札幌市豊平区,リボン定期巡回センター平岸,リボンテイキジュンカイセンターヒラギシ,定期巡回・随時対応型訪問介護看護,北海道札幌市豊平区平岸1条13丁目4-11,,43.026577500000000,141.364415000000000,011-837-2727,190502369,,,47,https://goldhills-hiragishi.jp/
11053,190502583,北海道,札幌市豊平区,ノア地域巡回センター福住中央,ノアチイキジュンカイセンターフクズミチュウオウ,定期巡回・随時対応型訪問介護看護,北海道札幌市豊平区福住1条2丁目9-23ノアガーデンペイサージュ　1階,ノアガーデンペイサージュ　1階,43.018810400000000,141.399962400000000,011-850-2001,190502583,,,0,http://www.noah-konzer.com/
11053,190502641,北海道,札幌市豊平区,ノア地域巡回センター福住南,ノアチイキジュンカイセンターフクズミミナミ,定期巡回・随時対応型訪問介護看護,北海道札幌市豊平区福住1条5丁目3-1ノアガーデン　シーズンベル1F,ノアガーデン　シーズンベル1F,43.015141300000000,141.394835900000000,011-859-3001,190502641,,,0,https://www.noah-konzer.com/
11053,190502740,北海道,札幌市豊平区,ノア地域巡回センター月寒西,ノアチイキジュンカイセンターツキサムニシ,定期巡回・随時対応型訪問介護看護,北海道豊平区月寒西2条8丁目3-8ノアガーデン　アビークロエ,ノアガーデン　アビークロエ,43.027922800000000,141.392617600000000,011-852-1015,190502740,,,0,http://www.noah-konzer.com/
11053,190503565,北海道,札幌市豊平区,SOMPOケア　豊平　定期巡回,ソンポケア　トヨヒラ　テイキジュンカイ,定期巡回・随時対応型訪問介護看護,豊平3条1丁目1番38号,,43.055420000000000,141.366014500000000,011-887-0303,190503565,,,,https://www.sompocare.com/service/home/satsuki/H000469
11061,190501528,北海道,札幌市南区,あいぜん24時間ケアサポートみなみ,アイゼン２４ジカンケアサポートミナミ,定期巡回・随時対応型訪問介護看護,北海道札幌市南区川沿14条2丁目1番36号すこやか愛ちゃんビル3階,すこやか愛ちゃんビル3階,42.977215600000000,141.336251700000000,011-572-2400,190501528,,,0,http://www.aizenkai.or.jp
11061,190501197,北海道,札幌市南区,勤医協定期巡回・随時対応型訪問介護看護　もなみの里,キンイキョウ　テイキジュンカイ・ズイジタイオウガタホウモンカイゴカンゴ　モナミノサト,定期巡回・随時対応型訪問介護看護,北海道札幌市南区藤野3条4丁目15番35号,,42.981134700000000,141.342692700000000,011-590-8278,190501197,,,0,kin-minami-helper@kin-ikyo.jp
11070,190400945,北海道,札幌市西区,サポート24札幌,サポート24サッポロ,定期巡回・随時対応型訪問介護看護,北海道札幌市西区西野5条2丁目7-8ドリームス西野　401号室,ドリームス西野　401号室,43.068321100000000,141.275969800000000,011-215-5759,190400945,,,0,lifedesign-gr.jp/
11070,190401208,北海道,札幌市西区,こころね八軒,定期巡回随時対応型訪問介護看護,定期巡回・随時対応型訪問介護看護,八軒５条西１０丁目1-24ココロホーム八軒,ココロホーム八軒,43.094072700000000,141.300084700000000,011-642-5560,190401208,,,0,
11070,190400283,北海道,札幌市西区,ノア地域巡回センター,ノアチイキジュンカイセンター,定期巡回・随時対応型訪問介護看護,北海道札幌市西区八軒9条西4丁目5-20ノアガーデンA館内,ノアガーデンA館内,43.094287700000000,141.312650400000000,011-632-1115,190400283,,,0,http://www.noah-konzer.com/
11070,190400929,北海道,札幌市西区,ノア地域巡回センター発寒西,ノアチイキジュンカイセンターハッサムニシ,定期巡回・随時対応型訪問介護看護,北海道札幌市西区発寒6条13丁目3-61ノアガーデンブランジェ　1階,ノアガーデンブランジェ　1階,43.095041500000000,141.271456700000000,011-669-2200,190400929,,,0,http://www.noah-konzer.com
11070,190401398,北海道,札幌市西区,ノア地域巡回センター発寒中央,ノアチイキジュンカイセンターハッサムチュウオウ,定期巡回・随時対応型訪問介護看護,北海道札幌市西区発寒8条13丁目1-1ノアガーデンコニーズバレー,ノアガーデンコニーズバレー,43.096804900000000,141.275098900000000,011-676-1001,190401398,,,0,http://www.noah-konzer.com/
11070,190401489,北海道,札幌市西区,トラストケア定期巡回・随時対応型訪問介護看護事業所,トラストケアテイキジュンカイ・ズイジタイオウガタホウモンカイゴカンゴジギョウショ,定期巡回・随時対応型訪問介護看護,北海道札幌市西区福井1丁目9番15号有料老人ホームふくいトラストホーム,有料老人ホームふくいトラストホーム,43.059575000000000,141.276035000000000,011-215-5400,190401489,,,,http://meguminokaigo.jp/
11070,190401612,北海道,札幌市西区,定期巡回随時対応型訪問介護看護フルハウス二十四軒,テイキジュンカイズイジタイオウガタホウモンカイゴカンゴｈルウハウスニジュウヨンケン,定期巡回・随時対応型訪問介護看護,北海道札幌市西区二十四軒1条2丁目3番15号,,43.069108000000000,141.314211700000000,011-676-9920,190401612,,,,
11070,190400499,北海道,札幌市西区,ノア地域巡回センター発寒,ノアチイキジュンカイセンターハッサム,定期巡回・随時対応型訪問介護看護,北海道札幌市西区発寒10条2丁目8番5号ノアガーデン　ル･スリジエ,ノアガーデン　ル･スリジエ,43.090678900000000,141.298629600000000,011-676-2203,190400499,,,3,http://www.noah-group.jp
11070,190401166,北海道,札幌市西区,さくら苑巡回センター,サクラエンジュンカイセンター,定期巡回・随時対応型訪問介護看護,札幌市西区発寒１７条３丁目４－３０,,43.109745100000000,141.294470800000000,116692006,190401166,,,,http://sakurakai-gp.or.jp
11088,190500918,北海道,札幌市厚別区,巡回ステーション白ゆり新さっぽろ,ジュンカイステーションシラユリシンサッポロ,定期巡回・随時対応型訪問介護看護,北海道札幌市厚別区厚別東１条２丁目１番１号ライフプレステージ白ゆり新さっぽろ,ライフプレステージ白ゆり新さっぽろ,43.040032100000000,141.484257700000000,011-899-2002,190500918,,,0,http://www.shirayuri.gr.jp/
11088,190501254,北海道,札幌市厚別区,オストケアあつべつ24,オストケアアツベツニジュウヨン,定期巡回・随時対応型訪問介護看護,北海道札幌市厚別区もみじ台北6丁目1番30号イオルもみじ台,イオルもみじ台,43.034977300000000,141.491051700000000,011-809-2943,190501254,,,0,http://www.ost-japan.com/
11096,190400796,北海道,札幌市手稲区,定期巡回ステーションゆい,テイキジュンカイステーションユイ,定期巡回・随時対応型訪問介護看護,北海道札幌市手稲区稲穂2条7丁目10番17号ウィンポートワン102号,ウィンポートワン102号,43.130611100000000,141.211975700000000,011－676－4517,190400796,,,20,https://careconnectyui.wixsite.com/teikijyunnkai-yui
11096,190401141,北海道,札幌市手稲区,勤医協訪問看護24時間きらり,キンイキョウホウモンカイゴカンゴ24ジカンキラリ,定期巡回・随時対応型訪問介護看護,札幌市手稲区新発寒6条3丁目9番3号,,43.117273200000000,141.279097500000000,011-688-1294,190401141,,,0,https://kin-fukushikai.jp/
11096,190401232,北海道,札幌市手稲区,定期巡回随時対応型訪問介護看護　フルハウス手稲駅前,テイキジュンカイズイジタイオウガタホウモンカイゴカンゴフルハウステイネエキマエ,定期巡回・随時対応型訪問介護看護,北海道札幌市手稲区曙2条1丁目10-16,,43.128246400000000,141.241426300000000,011-699-5330,190401232,,,,https://human-systemjapan.com/
11096,190401257,北海道,札幌市手稲区,ツクイ・サンフォレスト札幌西野,ツクイ・サンフォレストサツポロニシノ,定期巡回・随時対応型訪問介護看護,札幌市西区西野6条8丁目１０番５号,,43.073419100000000,141.266535100000000,011-668-2656,190401257,,,0,www.tsukui.net
11096,190401349,北海道,札幌市手稲区,ノア地域巡回センター西宮の沢,ノアチイキジュンカイセンターニシミヤノサワ,定期巡回・随時対応型訪問介護看護,北海道札幌市手稲区西宮の沢4条1丁目11-20ノアガーデン　オリヴィエ　1F,ノアガーデン　オリヴィエ　1F,43.097939200000000,141.262745300000000,011-671-6002,190401349,,,0,http://www.noah-konzer.com/
11100,190502831,北海道,札幌市清田区,24ケアステーション　ノテ真栄,ニイヨンケアステーション　ノテシンエイ,定期巡回・随時対応型訪問介護看護,北海道札幌市清田区真栄434番地6,,42.972435200000000,141.432573600000000,011-885-5555,190502831,,,45,https://www.note.or.jp/facilities/zaitaku/teiki-houmon/teiki-houmon-note-shinnei/
11100,190501007,北海道,札幌市清田区,鈴木内科介護看護センター,スズキナイカカイゴカンゴセンター,定期巡回・随時対応型訪問介護看護,北海道札幌市清田区美しが丘2条4丁目17-1医療介護支援住宅美しが丘,医療介護支援住宅美しが丘,42.983758900000000,141.451226400000000,011-398-5333,190501007,,,46,http://www.suzukinaika.or.jp/
11100,190501452,北海道,札幌市清田区,ノア地域巡回センター美しが丘,ノアチイキジュンカイセンターウツクシガオカ,定期巡回・随時対応型訪問介護看護,札幌市清田区美しが丘２条１０丁目４－３ノアガーデン　レジェンド　１Ｆ,ノアガーデン　レジェンド　１Ｆ,42.975869600000000,141.466488300000000,011-888-1010,190501452,,,0,http://www.noah-konzer.com/
11100,190501536,北海道,札幌市清田区,勤医協訪問介護看護２４時間ココロ,キンイキョウホウモンカイゴカンゴ２４ジカンココロ,定期巡回・随時対応型訪問介護看護,北海道札幌市清田区清田１条２丁目５番８号,,43.004654300000000,141.438761000000000,011-885-1233,190501536,,,0,http://kin-fukushikai.jp/
11100,190503250,北海道,札幌市清田区,ノア地域巡回センター平岡,ノアチイキジュンカイセンターヒラオカ,定期巡回・随時対応型訪問介護看護,北海道清田区平岡5条1丁目7-10ノアガーデンエリザベス1F,ノアガーデンエリザベス1F,43.007819300000000,141.450392700000000,011-886-8002,190503250,,,0,https://www.noah-konzer.com/
12025,191400480,北海道,函館市,定期巡回・随時対応型訪問介護看護テーオーケアサービス,テイキジュンカイ・ズイジタイオウガタホウモンカイゴカンゴテーオーケアサービス,定期巡回・随時対応型訪問介護看護,北海道函館市北浜町5番12号,,41.797418400000000,140.727298300000000,0138-45-1011,191400480,,,0,https://to-ogasawara.co.jp
12025,191400605,北海道,函館市,ハッピーライフ彩絆,ハッピーライフイロハ,定期巡回・随時対応型訪問介護看護,北海道函館市日乃出町20番17号,,41.776262533881300,140.753501570279000,0138-84-6022,191400605,,,0,
12025,191400746,北海道,函館市,定期巡回・随時対応型訪問介護看護テーオーケアサービス,テイキジュンカイ・ズイジタイオウガタホウモンカイゴカンゴテーオーケアサービス,定期巡回・随時対応型訪問介護看護,北海道函館市北浜町5-12,,41.797543400000000,140.727878700000000,0138-45-1011,191400746,,,0,https://tohd.co.jp/distribution/heart/
12025,191400472,北海道,函館市,ホームケア定期巡回・随時対応型訪問介護看護事業所,ホームケアテイキジュンカイ・ズイジタイオウガタホウモンカイゴカンゴジギョウショ,定期巡回・随時対応型訪問介護看護,北海道函館市神山町２４６－１,,41.821568413809300,140.764488008521000,0138-30-1105,191400472,,,15,https://supportlife1995.co.jp/homecare/
12025,191401207,北海道,函館市,定期巡回・随時対応型訪問介護看護わらく,テイキジュンカイ・ズイジタイオウガタホウモンカイゴカンゴワラク,定期巡回・随時対応型訪問介護看護,北海道函館市石川町４６４－１,,41.834881100000000,140.743211400000000,0138-85-6688,191401207,,,,
12025,191400829,北海道,函館市,グッドタイムサポート・鍛冶,グッドタイムサポート・カジ,定期巡回・随時対応型訪問介護看護,北海道函館市鍛治2丁目35番22号グッドタイムホーム鍛冶,グッドタイムホーム鍛冶,41.803221600000000,140.759264900000000,0138-33-6555,191400829,,,,
12025,191401504,北海道,函館市,定期巡回・随時対応型訪問介護看護　アイリー,テイキジュンカイ・ズイジタイオウガタホウモンカイゴカンゴ　アイリー,定期巡回・随時対応型訪問介護看護,函館市石川町463番地8,,41.834045000000000,140.745270700000000,0138-86-6286,191401504,,,0,
12025,191400951,北海道,函館市,ＳＯＭＰＯケア函館昭和　定期巡回,ソンポケアハコダテショウワ　テイキジュンカイ,定期巡回・随時対応型訪問介護看護,北海道函館市昭和4丁目30-35ＳＯＭＰＯケア　そんぽの家函館昭和,ＳＯＭＰＯケア　そんぽの家函館昭和,41.816685800000000,140.731966400000000,0138-44-0105,191400951,,,0,https://www.sompocare.com
12025,191400340,北海道,函館市,よろこび定期巡回・随時対応型訪問介護看護事業所,ヨロコビテイキジュンカイ・ズイジタイオウガタホウモンカイゴカンゴジギョウショ,定期巡回・随時対応型訪問介護看護,函館市住吉町2番13号,,41.750584000000000,140.716253900000000,0138-22-3225,191400340,,,0,http://www.kojinkai-g.com/
12025,191401090,北海道,函館市,共愛会ケアステーション,キョウアイアカイケアステーション,定期巡回・随時対応型訪問介護看護,北海道函館市海岸町6-3,,41.785406300000000,140.740385200000000,0138-86-7540,191401090,,,0,
12025,191400613,北海道,函館市,定期巡回あーる,テイキジュンカイアール,定期巡回・随時対応型訪問介護看護,北海道函館市本町３５番１号,,41.788586100000000,140.735600700000000,0138-41-9911,191400613,,,0,
12025,191401165,北海道,函館市,巡回ステーション白ゆり美原,ジュンカイステーションシラユリミハラ,定期巡回・随時対応型訪問介護看護,北海道函館市美原2丁目50番2号ライフプレステージ白ゆり美原,ライフプレステージ白ゆり美原,41.822506400000000,140.759462600000000,0138-34-3239,191401165,,,,http://www.shirayuri.gr.jp/
12025,191401025,北海道,函館市,サポート24　函館,サポート24　ハコダテ,定期巡回・随時対応型訪問介護看護,北海道函館市本通2丁目39番21号,,41.800080810111200,140.769956177081000,0138-83-7677,191401025,,,0,https://lifedesign-gr.jp/
12025,191400506,北海道,函館市,社会医療法人函館博栄会　定期巡回ステーションあじさい,シャカイイリョウホウジン　ハコダテハクエイカイ　テイキジュンカイステーションアジサイ,定期巡回・随時対応型訪問介護看護,北海道函館市湯川町2丁目15番3号高齢者複合施設ケアタウン昭里（あかり）,高齢者複合施設ケアタウン昭里（あかり）,41.778206078512600,140.790700025131000,0138-59-5585,191400506,,,0,http://www.hakodatewatanabe.or.jp/akari/
12025,191401264,北海道,函館市,定期巡回ハートTOハート,テイキジュンカイハートトゥハート,定期巡回・随時対応型訪問介護看護,北海道函館市北浜町5番12,,41.797444500000000,140.727294500000000,0138-45-1011,191401264,,,,https://www.nagisa-ph.co.jp/hearttoheart/
12025,191401488,北海道,函館市,グッドタイムサポート・鍛治,グッドタイムサポート　カジ,定期巡回・随時対応型訪問介護看護,北海道函館市鍛治2丁目35番19号スワローズネスト206号,スワローズネスト206号,41.810024069657900,140.770123600960000,0138-33-6555,191401488,,,0,https://goodtimehome-north.com/
12025,191400985,北海道,函館市,メディケアサポートまつかわ,メディケアサポートマツカワ,定期巡回・随時対応型訪問介護看護,北海道函館市松川町41番17号,,41.787000200000000,140.737161800000000,0138-40-5600,191400985,,,,https://www.fukase.or.jp/facilities/medicare-matsukawa/
12025,191401009,北海道,函館市,ケアコールセンターあんじゅう,ケアコールセンターアンジュウ,定期巡回・随時対応型訪問介護看護,北海道函館市日乃出町3-9,,41.774201900000000,140.754027900000000,0138-86-5420,191401009,,,0,https://anjyuu.com/
12033,192000297,北海道,小樽市,定期巡回・随時対応型訪問介護センターアザレア,テイキジュンカイ・ズイジタイオウガタホウモンカイゴセンターアザレア,定期巡回・随時対応型訪問介護看護,北海道小樽市入船4丁目28番1号,,43.182834700000000,140.993512700000000,0134-61-1753,192000297,,,25,
12033,192000172,北海道,小樽市,ケア・オフィス　優　（介護看護課）,ケア・オフィス　ユウ　（カイゴカンゴカ）,定期巡回・随時対応型訪問介護看護,小樽市入船3丁目7番21号,,43.179296200000000,140.996018200000000,0134-22-3951,192000172,,,0,http://www.office-yu.com/
12033,192000511,北海道,小樽市,訪問介護事業所サポートユアライフ,ホウモンカイゴジギョウショサポートユアライフ,定期巡回・随時対応型訪問介護看護,北海道小樽市銭函1丁目32番-2住宅型有料老人ホームCOCO輝楽,住宅型有料老人ホームCOCO輝楽,43.144643129254100,141.144827991402000,0134-61-5050,192000511,,,0,http://www.oira-ku.com
12041,192900314,北海道,旭川市,旭川中央ケアサポート安心コールセンター,アサヒカワチュウオウケアサポートアンシンコールセンター,定期巡回・随時対応型訪問介護看護,北海道旭川市東光１５条３丁目６番１０号かりのすまい東光,かりのすまい東光,43.741391828567900,142.397290252254000,0166-37-7110,192900314,,,0,http://www.chuuo-hire.com/
12041,192902492,北海道,旭川市,定期巡回・随時対応型訪問介護看護ガーデナース南永山,テイキジュンカイ・ズイジタイオウガタホウモンカイゴカンゴガーデナースミナミナガヤマ,定期巡回・随時対応型訪問介護看護,北海道旭川市永山８条１丁目１番２３号,,43.780449900000000,142.401408800000000,0166-73-8132,192902492,,,,http://www.relife-asahikawa.co.jp/
12068,194100517,北海道,釧路市,いつでもふわり訪問ステーション,イツデモフワリホウモンステーション,定期巡回・随時対応型訪問介護看護,北海道釧路市入江町9番14号,,43.001230900000000,144.395360400000000,0154-23-3001,194100517,,,0,http://www.shishinn.com
12068,194100327,北海道,釧路市,定期巡回センターくしろ,テイキジュンカイセンタークシロ,定期巡回・随時対応型訪問介護看護,北海道釧路市駒場町3番24号,,43.000161673759400,144.367408896959000,0154-31-0070,194100327,,,0,
12068,194100558,北海道,釧路市,定期巡回・随時対応型訪問介護看護メルシー,テイキジュンカイズイジタイオウガタホウモンカイゴカンゴメルシー,定期巡回・随時対応型訪問介護看護,北海道釧路市桜ヶ岡1丁目11番27号桜ヶ岡地域交流サロン内,桜ヶ岡地域交流サロン内,42.966597326430300,144.426547766083000,0154-22-3888,194100558,,,0,https://watanabe-kaigo.com
12076,194600268,北海道,帯広市,定期巡回・随時対応型訪問介護看護　青空,テイキジュンカイズイジタイオウガタホウモンカイゴカンゴ　アオゾラ,定期巡回・随時対応型訪問介護看護,帯広市西9条南18丁目2番地,,42.911005800000000,143.191859500000000,0155-27-6610,194600268,,,0,http://www.hokuoservice.jp/index.html
12076,194600581,北海道,帯広市,サポート24　帯広,サポートニジュウヨン　オビヒロ,定期巡回・随時対応型訪問介護看護,北海道帯広市西7条南6丁目1番地4,,42.925212200000000,143.193210500000000,0155-22-3818,194600581,,,0,http://lifedesign-gr.jp/
12076,194600714,北海道,帯広市,サポート24帯広,サポートニジュウヨンオビヒロ,定期巡回・随時対応型訪問介護看護,北海道帯広市西7条南6丁目1番地4,,42.925120400000000,143.193281200000000,0155-22-3818,194600714,,,,https://lifedesign-group.net
12076,194600649,北海道,帯広市,社会医療法人北斗定期巡回・随時対応型訪問介護看護あやとり,シャカイイリョウホウジンホクトテイキジュンカイズイジタイオウガタホウモンカイゴカンゴアヤトリ,定期巡回・随時対応型訪問介護看護,北海道帯広市稲田町基線２番地１,,42.885265400000000,143.192391000000000,0155-48-3510,194600649,,,0,https://www.hokuto7.or.jp/
12084,195003033,北海道,北見市,定期随時訪問サービス夢ふうせん,テイキズイジホウモンサービスユメフウセン,定期巡回・随時対応型訪問介護看護,北海道北見市西三輪4丁目720番地１夢ふうせんこぶし内,夢ふうせんこぶし内,43.799933300000000,143.831631100000000,0157-57-5151,195003033,,,0,http://www.e-mlink.co.jp
12084,195003249,北海道,北見市,結の郷花畑定期巡回・随時対応型訪問介護看護事業所,ユイノサトハナバタケテイキジュンカイズイジタイオウガタホウモンカイゴカンゴジギョウショ,定期巡回・随時対応型訪問介護看護,北海道北見市小泉246番地2,,43.828926700000000,143.924135300000000,0157-31-8108,195003249,,,,https://yuinosato.life
12084,195003280,北海道,北見市,定期巡回サービスたんぽぽ,テイキジュンカイサービスタンポポ,定期巡回・随時対応型訪問介護看護,北見市常盤町5丁目9番地5,,43.791897500000000,143.889258400000000,0157-22-5658,195003280,,,0,http://www.o-kinikyo.or.jp/pdf/2024jyunkai.pdf
12084,195003314,北海道,北見市,定期随時訪問サービス夢ふうせん,テイキズイジホウモンサービスユメフウセン,定期巡回・随時対応型訪問介護看護,北海道北見市西三輪4丁目720－1,,43.799880900000000,143.831554600000000,0157-57-5151,195003314,,,,
12092,195900030,北海道,夕張市,定期巡回・随時対応型訪問介護看護ささえるさん夕張,テイキジュンカイ・ズイジタイオウガタホウモンカイゴカンゴササエルサンユウバリ,定期巡回・随時対応型訪問介護看護,北海道夕張市鹿の谷３丁目４２番地,,43.035169800000000,141.964359100000000,0123-57-7520,195900030,,,0,
12106,195700133,北海道,岩見沢市,定期巡回・随時対応型訪問介護看護センターまちの看護師さん,テイキジュンカイズイジタイオウガタホウモンカイゴカンゴセンターマチノカンゴシサン,定期巡回・随時対応型訪問介護看護,北海道岩見沢市7条西3丁目22-1,,43.199258456646200,141.767260651976000,0126-35-7122,195700133,,,20,https://www.aka-machikan2.com/
12122,196400188,北海道,留萌市,ファミリーケアサポート定期巡回・随時対応型訪問介護看護事業所,ファミリーケアサポートテイキジュンカイ・ズイジタイオウガタホウモンカイゴカンゴ,定期巡回・随時対応型訪問介護看護,留萌市栄町一丁目５番６号,,43.942314000000000,141.649285800000000,0164-43-5600,196400188,,,,http://www.family-cs.co.jp
12131,193600590,北海道,苫小牧市,勤医協２４時間訪問介護看護つくし,キンイキョウニジュウヨジカンホウモンカイゴカンゴツクシ,定期巡回・随時対応型訪問介護看護,北海道苫小牧市山手町２丁目１４番９号苫小牧高齢者複合施設みやまの里,苫小牧高齢者複合施設みやまの里,42.640578000000000,141.570976000000000,0144-84-3521,193600590,,,,http://kin-fukushikai.jp/
12173,191000397,北海道,江別市,定期巡回・随時対応型訪問介護看護　グットタイムサポート・大麻,テイキジュンカイ・ズイジタイオウガタホウモンカイゴカンゴ　グットタイムサポート・オオアサ,定期巡回・随時対応型訪問介護看護,北海道江別市文京台東町11番地18こりんごハイツC,こりんごハイツC,43.070694300000000,141.494924300000000,011-387-3255,191000397,,,0,http://www.goodtime.com
12173,191000538,北海道,江別市,２４時間定期巡回訪問サービスブルーライズ野幌,ニジュウヨジカンテキジュンカイホウモンサービスブルーライズノッポロ,定期巡回・随時対応型訪問介護看護,北海道江別市野幌末広町39-1住宅型有料老人ホームブルーライズ野幌,住宅型有料老人ホームブルーライズ野幌,43.088920900000000,141.511791200000000,011-807-7625,191000538,,,70,http://nopporo.blue-care.net/
12173,191000504,北海道,江別市,サポート２４　江別,サポートニジュウヨン　エベツ,定期巡回・随時対応型訪問介護看護,北海道江別市大麻ひかり町４４－１５ソルシティパレス１０２,ソルシティパレス１０２,43.069722434639900,141.482081253175000,011-807-5546,191000504,,,0,http://lifedesign-gr.jp/
12211,193200193,北海道,名寄市,サービス付き高齢者向け住宅モモ,サービスツキコウレイシャムケジュウタクモモ,定期巡回・随時対応型訪問介護看護,北海道名寄市西３条南３丁目７,,44.353435900000000,142.458736100000000,01654-3-8746,193200193,,,31,
12246,191100205,北海道,千歳市,２４時間ゆうしんかん訪問介護・看護ステーション,ニジュウヨジカンホウモンカイゴ・カンゴステーション,定期巡回・随時対応型訪問介護看護,北海道千歳市みどり台北２丁目５番１５号,,42.863001500000000,141.613718900000000,0123-21-8126,191100205,,,,https://www.yushinkan.co/
12246,191100288,北海道,千歳市,ケアコールセンター・グラン・セラ,ケアコールセンター・グラン・セラ,定期巡回・随時対応型訪問介護看護,北海道千歳市里美2丁目2番６号第3ビジュアルコーポ101号,第3ビジュアルコーポ101号,42.785339175183300,141.599876823274000,0123-25-8058,191100288,,,,http://mcl-gc.com/
12289,197400153,北海道,深川市,サポート24深川,サポートニジュウヨンフカガワ,定期巡回・随時対応型訪問介護看護,北海道深川市3条8番13号2階,2階,43.719210499836600,142.042604021729000,070-4799-2096,197400153,,,0,http://lifedesign-gr.jp/
12289,197400161,北海道,深川市,定期巡回ステーションみんソラ,テイキジュンカイステーションミンソラ,定期巡回・随時対応型訪問介護看護,北海道深川市広里町2-3-2,,43.708541000000000,142.052009900000000,0164-34-5330,197400161,,,0,
12319,191200161,北海道,恵庭市,イリーゼ恵庭定期巡回・随時対応型訪問介護看護センター,イリーゼエニワテイキジュンカイ・ズイジタイオウガタホウモンカイゴカンゴセンター,定期巡回・随時対応型訪問介護看護,北海道恵庭市相生町1丁目8番1号イリーゼ恵庭,イリーゼ恵庭,42.882669046892900,141.585533936246000,0123-39-2381,191200161,,,,
12343,191300193,北海道,北広島市,北広島ホームヘルプサービスステーション四恩園,キタヒロシマホームヘルプサービスステーションシオンエン,定期巡回・随時対応型訪問介護看護,北海道北広島市緑陽町1丁目２番,,34.508041000000000,133.369888100000000,011-373-7755,191300193,,,0,http://www.shionen.or.jp
12351,197600448,北海道,石狩市,定期巡回・随時対応型訪問介護看護あるふぁ,テイキジュンカイズイジタイオウガタ　ホウモンカイゴカンゴアルファ,定期巡回・随時対応型訪問介護看護,北海道石狩市花川東２条３丁目２８番地,,43.167143300000000,141.340048600000000,0133-77-6623,197600448,,,,http://www.koyama-hokkaido.com/
12351,197600521,北海道,石狩市,定期巡回・随時対応型訪問介護看護事業所あるふぁ,テイキジュンカイズイジタイオウガタホウモンカイゴカンゴジギョウショアルファ,定期巡回・随時対応型訪問介護看護,北海道石狩市花川東2条3丁目28番地,,43.167158700000000,141.340029100000000,0133-77-6623,197600521,,,,https://koseikai-star.com/
12351,197600554,北海道,石狩市,定期巡回・随時対応型訪問介護看護　トムテの里　『花川』,テイキジュンカイ・ズイジタイオウガタホウモンカイゴカンゴ　トムテノサト　ハナカワ,定期巡回・随時対応型訪問介護看護,北海道石狩市花川北６条２丁目３０番地トムテの里『花川』Ａ棟,トムテの里『花川』Ａ棟,43.167204600000000,141.317772300000000,0133-75-2131,197600554,,,0,
13340,191513753,北海道,木古内町,ケアステーションエール,ケアステーションエール,定期巡回・随時対応型訪問介護看護,北海道上磯郡木古内町字本町671-4みそぎハイツ２-202号,みそぎハイツ２-202号,41.671575800000000,140.430529600000000,01392-2-1022,191513753,,,0,
13374,191513548,北海道,七飯町,定期巡回・随時対応型訪問介護看護ケアコールセンター小華苑,テイキジュンカイズイジタイオウガタホウモンカイゴカンゴケアコールセンターショウカエン,定期巡回・随時対応型訪問介護看護,北海道亀田郡七飯町大川3丁目18番12号,,41.856739200000000,140.724484700000000,0138-86-7501,191513548,,,85,https://www.kso-wasya-2014.com/
13455,191513761,北海道,森町,サムハラ巡回ケアセンター,サムハラジュンカイケアセンター,定期巡回・随時対応型訪問介護看護,北海道茅部郡森町字本町45番地1,,42.108898100000000,140.571453100000000,01374-7-1590,191513761,,,0,http://hp.kaipoke.biz/hbu/
13927,192100071,北海道,寿都町,寿都訪問介護センター,スッツホウモンカイゴセンター,定期巡回・随時対応型訪問介護看護,北海道寿都郡寿都町字歌棄町歌棄48番地2,,42.772916100000000,140.301144500000000,0136-64-5550,192100071,,,0,
16012,193800133,北海道,日高町,富川グロリアホーム,トミカワグロリアホーム,定期巡回・随時対応型訪問介護看護,北海道沙流郡日高町富川南４丁目２番49号,,42.517128534529900,142.023251448718000,01456-3-4000,193800133,,,0,http://www.gloria-home.jp/
22012,290100361,青森県,青森市,じけいかい定期巡回・随時対応型訪問介護看護事業所,ジケイカイテイキジュンカイ・ズイジタイオウガタホウモンカイゴカンゴジギョウショ,定期巡回・随時対応型訪問介護看護,青森県青森市大字安田字近野136番地2,,40.801406800000000,140.703445800000000,017-718-5230,290100361,,,50,http://www.jikei-kai.org
22012,290100692,青森県,青森市,定期巡回サービス和幸,テイキジュンカイサービスワコウ,定期巡回・随時対応型訪問介護看護,青森市大字矢田字下野尻48番2,,40.846654572314000,140.846969924467000,017-752-6248,290100692,,,0,http://www.wakouen.or.jp
22012,290100767,青森県,青森市,社会福祉法人　緑鴎会　みどり定期巡回サービス,シャカイフクシホウジン　リョクオウカイ　ミドリテイキジュンカイサービス,定期巡回・随時対応型訪問介護看護,青森市大字羽白字沢田55番地5,,40.855723400000000,140.689315300000000,080-1012-5876,290100767,,,,
22021,290200260,青森県,弘前市,ホームヘルパーステーション北星,ホームヘルパーステーションホクセイ,定期巡回・随時対応型訪問介護看護,青森県弘前市新寺町62-1,,40.594659200000000,140.464400800000000,0172-33-3555,290200260,,,,http://www.hokuseikotsu.co.jp
22039,290300326,青森県,八戸市,ビリーブ定期巡回ケア八戸中央,ビリーブテイキジュンカイケアハチノヘチュウオウ,定期巡回・随時対応型訪問介護看護,類家５丁目27-1,,40.505887679274700,141.510499111253000,0178-20-7750,290300326,,,20,http://believecare.jp/
22039,290300268,青森県,八戸市,瑞光園ホームヘルパーステーション,ズイコウエンホームヘルパーステーション,定期巡回・随時対応型訪問介護看護,八戸市大字大久保字大山32番1,,40.488908100000000,141.578070800000000,0178-25-8517,290300268,,,30,http://zuikoen.or.jp/
22063,290600188,青森県,十和田市,あんしんコールセンター生きがい十和田,アンシンコールセンターイキガイトワダ,定期巡回・随時対応型訪問介護看護,青森県十和田市三本木字一本木沢93-7,,40.625086400000000,141.203634100000000,0176-23-3443,290600188,,,,http://ikigai-towada.net
32018,390100378,岩手県,盛岡市,みんなのものがたり,ミンナノモノガタリ,定期巡回・随時対応型訪問介護看護,岩手県盛岡市南青山町4－15サウザ南青山A棟,サウザ南青山A棟,39.677741500000000,141.138824800000000,019-656-8625,390100378,,,0,
32018,390100253,岩手県,盛岡市,やさしい手盛岡津志田定期巡回随時対応型訪問介護看護事業所,ヤサシイテモリオカツシダテイキジュンカイズイジタイオウガタホウモンカイゴカンゴジギョウショ,定期巡回・随時対応型訪問介護看護,岩手県盛岡市津志田26-9-10やさしえ盛岡津志田,やさしえ盛岡津志田,39.670717800000000,141.157648400000000,019-656-5678,390100253,,,0,http://www.yasashiite.com/
32018,390100741,岩手県,盛岡市,エスコート定期巡回・随時対応型訪問介護看護ステーション,エスコートテイキジュンカイズイジタイオウガタホウモンカイゴカンゴステーション,定期巡回・随時対応型訪問介護看護,岩手県盛岡市みたけ2丁目10-70ナーシングホームもりおか,ナーシングホームもりおか,39.744119409483000,141.127713698148000,019-658-9522,390100741,,,,http://life-escort.com/teikijunkai/
32069,390600179,岩手県,北上市,日高見ヘルパーステーション,ヒダカミヘルパーステーション,定期巡回・随時対応型訪問介護看護,岩手県北上市北鬼柳22-46,,39.292761000000000,141.098069800000000,0197-61-3134,390600179,,,,http://www.keiwakai.info
32158,391500345,岩手県,奥州市,ゆたかっ子指定定期巡回・随時対応型訪問介護看護事業所,ユタカッコシテイテイキジュンカイズイジタイオウガタホウモンカイゴカンゴジギョウショ,定期巡回・随時対応型訪問介護看護,岩手県奥州市胆沢若柳字下松原28番地3,,39.132140183970400,141.064628195106000,0197-47-6010,391500345,,,,http://www.yutaka-oshu.com
33014,392100145,岩手県,雫石町,定期巡回随時対応型訪問介護・看護ひまわり,テイキジュンカイズイジタイオウガタホウモンカイゴ・カンゴヒマワリ,定期巡回・随時対応型訪問介護看護,岩手県岩手郡雫石町柿木５番地４,,39.705697500000000,140.963443200000000,019-691-1555,392100145,,,0,http://www.kouwa.iwate.jp
41017,495100380,宮城県,仙台市青葉区,アルテイル２４,アルテイルニジュウヨン,定期巡回・随時対応型訪問介護看護,宮城県仙台市青葉区荒巻字三居沢1‐16特別養護老人ホーム　アルテイル青葉,特別養護老人ホーム　アルテイル青葉,38.268565400000000,140.838122100000000,022-212-3924,495100380,,,0,http://www.aofuku.or.jp/
41017,495100638,宮城県,仙台市青葉区,こころ定期巡回・随時対応型訪問介護看護,ココロテイキジュンカイ・ズイジタイオウガタホウモンカイゴカンゴ,定期巡回・随時対応型訪問介護看護,宮城県仙台市青葉区米ケ袋２丁目１－３０,,38.250255100000000,140.874751100000000,022-741-6211,495100638,,,,
41017,495100307,宮城県,仙台市青葉区,せんだんの丘定期巡回随時対応型訪問介護看護,センダンノオカテイキジュンカイズイジタイオウガタホウモンカイゴカンゴ,定期巡回・随時対応型訪問介護看護,宮城県仙台市青葉区国見ケ丘６－１２６－５１,,38.283966300000000,140.834409500000000,022-727-8834,495100307,,,0,http://www.bone-info.org/sendannooka/index.html
41017,495100315,宮城県,仙台市青葉区,こ～ぷのお家桜ヶ丘定期巡回ケアステーション,コ～プノオウチサクラガオカテイキジュンカイケアステーション,定期巡回・随時対応型訪問介護看護,宮城県仙台市青葉区桜ヶ丘2-20-1,,38.297511100000000,140.855047100000000,022-719-1275,495100315,,,30,http://www.coop-fukushikai.jp
41041,495400442,宮城県,仙台市太白区,24ケアステーションノテ富沢,ニイヨンケアステーションノテトミザワ,定期巡回・随時対応型訪問介護看護,宮城県仙台市太白区富沢西3丁目10番地の1,,38.209451000000000,140.853715000000000,022-226-7280,495400442,,,,https://www.note.or.jp/facilities/zaitaku/teiki-houmon/teiki-houmon-note-tomisawa/
41041,495400293,宮城県,仙台市太白区,公益財団法人宮城厚生協会ケアステーションながまち24,コウエキザイダンホウジン　ミヤギコウセイキョウカイ　ケアステーションナガマチ24,定期巡回・随時対応型訪問介護看護,宮城県仙台市太白区長町３丁目7-26長町病院北棟２階,長町病院北棟２階,38.229783100000000,140.883877900000000,022-247-2252,495400293,,,30,
41041,495400301,宮城県,仙台市太白区,松田会　ホームケアステーション八木山２４,マツダカイホームケアステーションヤギヤマ２４,定期巡回・随時対応型訪問介護看護,宮城県仙台市太白区向山2丁目11番36号向山アパート１階,向山アパート１階,38.245904146455600,140.865506395107000,022-393-8419,495400301,,,0,http://www.matsuda-hp.com/
41050,495500530,宮城県,仙台市泉区,SOMPOケア　仙台泉　定期巡回,ソンポケア　センダイイズミ　テイキジュンカイ,定期巡回・随時対応型訪問介護看護,宮城県仙台市泉区松森字鹿島53-9,,38.318191100000000,140.909337300000000,022-771-7362,495500530,,,,https://www.sompocare.com
41050,495500324,宮城県,仙台市泉区,グッドタイムサポート泉大沢,グッドタイムサポートイズミオオサワ,定期巡回・随時対応型訪問介護看護,宮城県仙台市泉区大沢3-5-1グッドタイムホーム泉大沢1F,グッドタイムホーム泉大沢1F,38.356943132564400,140.874547680313000,022-772-5867,495500324,,,0,http://souseikai-izumiosawa.com/
41050,495500316,宮城県,仙台市泉区,松田会　ホームケアステーション２４,マツダカイホームケアステーション２４,定期巡回・随時対応型訪問介護看護,仙台市泉区実沢字立田屋敷17番地の1,,38.335241697094700,140.839334791551000,022-387-5051,495500316,,,0,
42021,470200684,宮城県,石巻市,ぱんぷきん介護センター　ウェルキャブステーション,パンプキンカイゴセンター　ウェルキャブステーション,定期巡回・随時対応型訪問介護看護,宮城県石巻市門脇字二番谷地13番地21,,38.432479463275300,141.266922256016000,0225-21-6711,470200684,,,0,http://care-net.biz/04/pumpkin/company.php
42030,490300068,宮城県,塩竈市,ケアビレッジ塩竃ケアサービスステーション定期巡回・随時対応型訪問介護看護事業所,ケアビレッジシオガマケアサービスステーションテイキジュンカイ・ズイジタイオウガタホウモンカイゴカンゴジギョウショ,定期巡回・随時対応型訪問介護看護,宮城県塩竈市清水沢4丁目39-1ケアビレッジ塩竃ケアサービスステーション定期巡回・随時対応型訪問介護看護事業所,ケアビレッジ塩竃ケアサービスステーション定期巡回・随時対応型訪問介護看護事業所,38.334601100000000,141.007182900000000,022-354-0038,490300068,,,0,http://ritsuwa.com
42056,490500105,宮城県,気仙沼市,春圃苑24時間ヘルパーステーション,シュンポエンニジュウヨジカンヘルパーステーション,定期巡回・随時対応型訪問介護看護,宮城県気仙沼市本吉町中島358番地6,,38.776330000000000,141.517246800000000,0226-42-2109,490500105,,,,
42064,490600129,宮城県,白石市,定期巡回　リズム白石蔵王,テイキジュンカイリズムシロイシザオウ,定期巡回・随時対応型訪問介護看護,宮城県白石市鷹巣東三丁目８番１号,,37.997165000000000,140.639687000000000,0224-26-6341,490600129,,,0,http://treetumbo-i.com
42081,490800075,宮城県,角田市,定期巡回随時対応型ヘルパーステーション金上,テイキジュンカイズイジタイオウガタヘルパーステーションカナガミ,定期巡回・随時対応型訪問介護看護,宮城県角田市角田字中島上183看護小規模体機能型居宅介護金上・住宅型有料老人ホームタンポポ,看護小規模体機能型居宅介護金上・住宅型有料老人ホームタンポポ,37.972047065801900,140.787828556483000,0224-61-1688,490800075,,,0,http://www.kanagami.or.jp
42099,490900081,宮城県,多賀城市,公益財団法人宮城厚生協会ケアステーションつくし24,コウエキザイダンホウジンミヤギコウセイキョウカイケアステーションツクシ24,定期巡回・随時対応型訪問介護看護,宮城県多賀城市笠神１丁目８－２８,,38.305013700000000,141.026949600000000,022-361-1311,490900081,,,0,
42153,491500377,宮城県,大崎市,ほのか定期巡回・随時対応型訪問介護ステーション,ホノカテイキジュンカイ・ズイジタイオウガタホウモンカイゴカンゴステーション,定期巡回・随時対応型訪問介護看護,宮城県大崎市古川北稲葉三丁目13-34,,38.560267476835600,140.950564575957000,0229-25-5564,491500377,,,15,https://www.honoka-world.com/
45055,493100127,宮城県,美里町,訪問介護　福寿の家,ホウモンカイゴ　フクジュノイエ,定期巡回・随時対応型訪問介護看護,宮城県遠田郡美里町北浦字待江82-8,,38.542671600000000,141.054203600000000,0229-87-5351,493100127,,,0,
52019,590100681,秋田県,秋田市,２４時間ケアコールセンターふきのとう,24ジカンケアコールセンターフキノトウ,定期巡回・随時対応型訪問介護看護,秋田県秋田市金足小泉字潟向８６－１,,39.816637900000000,140.059434700000000,018-827-5619,590100681,,,35,http://fukinotou-akita.jp
52027,590200192,秋田県,能代市,街かどケアステーションさらさ能代,マチカドケアステーションサラサノシロ,定期巡回・随時対応型訪問介護看護,秋田県能代市元町14番126号特別養護老人ホームさらさ能代,特別養護老人ホームさらさ能代,40.207288000000000,140.033056600000000,0185-74-6755,590200192,,,,https://jawa-akita.com
52035,590300299,秋田県,横手市,街かどケアステーションさらさ,マチカドケアステーションサラサ,定期巡回・随時対応型訪問介護看護,秋田県横手市駅前町7-17ウェルフェア横手,ウェルフェア横手,39.308171200000000,140.561911100000000,182238430,590300299,,,0,
52035,590300323,秋田県,横手市,条里ケアセンター,ジョウリケアセンター,定期巡回・随時対応型訪問介護看護,秋田県横手市条里１丁目１５番７号,,39.308454200000000,140.550901400000000,0182-23-5304,590300323,,,0,
52035,590300489,秋田県,横手市,０１３ｃａｒｅ,ゼロイチサンケア,定期巡回・随時対応型訪問介護看護,秋田県横手市中央町６−２３２階,２階,39.314321500000000,140.566410800000000,0182-38-8708,590300489,,,,
52108,590500344,秋田県,由利本荘市,ほのぼの定期巡回ステーション,ホノボノテイキジュンカイステーション,定期巡回・随時対応型訪問介護看護,秋田県由利本荘市東梵天95-2,,39.382969800000000,140.062159700000000,0184-28-0008,590500344,,,0,http://www.yoro-duya.com/
52108,590500237,秋田県,由利本荘市,定期巡回・随時対応型訪問介護看護「わかば」,テイキジュンカイズイジタイオウガタホウモンカイゴカンゴワカバ,定期巡回・随時対応型訪問介護看護,秋田県由利本荘市石脇字田尻野7-3,,39.404785900000000,140.031383600000000,0184-74-5474,590500237,,,,http://www.ikeyaku.co.jp
52116,591000062,秋田県,潟上市,定期巡回・随時対応型訪問介護看護はやぶさ,テイキジュンカイズイジタイオウガタホウモンカイゴカンゴハヤブサ,定期巡回・随時対応型訪問介護看護,秋田県潟上市昭和大久保字街道下84－6,,39.870656400000000,140.059896300000000,018-877-2675,591000062,,,50,http://www.seiwakai-net.com/
52124,590800421,秋田県,大仙市,定期巡回・随時対応型訪問介護看護　ロクス,テイキジュンカイズイジタイオウガタホウモンカイゴカンゴロクス,定期巡回・随時対応型訪問介護看護,秋田県大仙市大曲日の出町1丁目30-1,,39.445761500000000,140.475723000000000,0187-73-7702,590800421,,,0,
52124,590800389,秋田県,大仙市,オオマガリライフ定期巡回・随時対応サービスセンター,オオマガリライフテイキジュンカイ・ズイジタイオウサービスセンター,定期巡回・随時対応型訪問介護看護,秋田県大仙市大曲丸の内町６番２４号,,39.462336044482500,140.477001154002000,0187-63-6666,590800389,,,,
52141,591300033,秋田県,にかほ市,定期巡回・随時対応型訪問介護看護事業所　ハルモニア・にかほ,テイキジュンカイ・ズイジタイオウガタホウモンカイゴカンゴジギョウショ　ハルモニア・ニカホ,定期巡回・随時対応型訪問介護看護,秋田県にかほ市院内字嶋田４２番地１,,39.282262204007300,139.963730749738000,０１８４－４４－８４４８,591300033,,,0,https://harmonia-nikaho.com
52141,591300082,秋田県,にかほ市,定期巡回naniku24,テイキジュンカイナニクニジュウヨン,定期巡回・随時対応型訪問介護看護,秋田県にかほ市平沢字宮田6-5宮田テナント２階,宮田テナント２階,39.286957600000000,139.966025600000000,0184-74-8150,591300082,,,0,
53465,592200125,秋田県,藤里町,藤里町社会福祉協議会指定定期巡回・随時対応型訪問介護看護事業所,フジサトマチシャカイフクシキョウギカイシテイテイキジュンカイズイジタイオウガタホウモンカイゴカンゴジギョウショ,定期巡回・随時対応型訪問介護看護,秋田県山本郡藤里町藤琴字三ツ谷脇４０番地総合福祉センター,総合福祉センター,40.281971000000000,140.261564900000000,0185-79-2848,592200125,,,0,http://www.fujisato-shakyo.jp/
54348,593900145,秋田県,美郷町,ミサトライフ定期巡回・随時対応サービスセンター,ミサトライフテイキジュンカイ・ズイジタイオウサービスセンター,定期巡回・随時対応型訪問介護看護,秋田県仙北郡美郷町六郷字熊野１５２−１,,39.413446200000000,140.553119900000000,0187-84-0100,593900145,,,,https://lifeakita.com
62014,690100417,山形県,山形市,ヘルパーステーション　樫の木,ヘルパーステーション　カシノキ,定期巡回・随時対応型訪問介護看護,山形市上町４丁目６ー２４,,38.244422700000000,140.313329600000000,023-644-3364,690100417,,,0,http://daiwa-med.co.jp/
62014,690100953,山形県,山形市,２４時間在宅ケアステーション敬寿園,ニジュウヨジカンザイタクケアステーションケイジュエン,定期巡回・随時対応型訪問介護看護,山形市大字妙見寺500-1,,38.236948600000000,140.377844400000000,023-666-6150,690100953,,,0,http://keijuen.or.jp/
62014,690100961,山形県,山形市,定期巡回・随時対応型訪問介護看護　YONEKIプレミアム365,テイキジュンカイズイジタイオウガタホウモンカイゴカンゴヨネキプレミアム365,定期巡回・随時対応型訪問介護看護,山形県山形市あかねヶ丘２丁目１番４号,,38.247553000000000,140.308457000000000,023-616-7515,690100961,,,,http://yonekiya.com/
62022,690400171,山形県,米沢市,三友堂定期巡回・随時対応型訪問介護看護ステーション,サンユウドウテイキジュンカイズイジタイオウガタホウモンカイゴカンゴステーション,定期巡回・随時対応型訪問介護看護,山形県米沢市大字塩野2755番地の3サービス付き高齢者向け住宅おたかぽっぽ1階事務所内,サービス付き高齢者向け住宅おたかぽっぽ1階事務所内,37.923933214776200,140.091796879485000,0238-27-7575,690400171,,,0,ｈｔｔｐｓ：//rehacare.sanyudo.or.jp
62022,690400288,山形県,米沢市,定期巡回ステーションさんゆう,テイキジュンカイステーションサンユウ,定期巡回・随時対応型訪問介護看護,山形県米沢市西大通2丁目2-30,,37.916267800000000,140.098643800000000,0238-24-5220,690400288,,,0,http://www.santhy-sanyou.com/
62022,690400197,山形県,米沢市,ケアセンターなごみ,ケアセンターナゴミ,定期巡回・随時対応型訪問介護看護,山形県米沢市泉町二丁目１番６号,,37.895682073443200,140.103660245046000,0238-38-7030,690400197,,,0,https://nagomi-calm.com
62031,690700331,山形県,鶴岡市,定期巡回事業所タカラ,テイキジュンカイジギョウショタカラ,定期巡回・随時対応型訪問介護看護,山形県鶴岡市切添町5番8号,,38.734215577597600,139.844518133296000,0235-33-8834,690700331,,,0,
62031,690700406,山形県,鶴岡市,定期巡回随時対応型訪問介護看護澄花,テイキジュンカイズイジタイオウガタホウモンカイゴカンゴスミカ,定期巡回・随時対応型訪問介護看護,山形県鶴岡市大山字堤下2番31号,,38.747773180372200,139.757250758367000,235351667,690700406,,,,http://third-stage.net
62031,690700265,山形県,鶴岡市,定期巡回随時対応型訪問介護看護安らぎケアちわら,テイキジュンカイズイジタイオウガタホウモンカイゴカンゴヤスラギケアチワラ,定期巡回・随時対応型訪問介護看護,山形県鶴岡市北茅原町5-10,,38.755162233447500,139.842513216533000,0235-25-5055,690700265,,,0,
62031,690700141,山形県,鶴岡市,瑞穂の郷　24時間巡回型訪問介護,ミズホノサト　２４ジカンジュンカイガタホウモンカイゴ,定期巡回・随時対応型訪問介護看護,山形県鶴岡市羽黒町細谷字北田１２８－１,,38.737351900000000,139.861452400000000,0235-29-1025,690700141,,,0,http://www.hcp-net.co.jp
62049,690800412,山形県,酒田市,訪問介護事業所眺海,ホウモンカイゴジギョウショチョウカイ,定期巡回・随時対応型訪問介護看護,山形県酒田市山寺字宅地159番地,,38.848037600000000,139.961501000000000,0234－62－3785,690800412,,,,http://www.kashink.jp
62049,690800321,山形県,酒田市,コンフォート樫の木,コンフォートカシノキ,定期巡回・随時対応型訪問介護看護,山形県酒田市こあら２丁目４番地の６,,38.914895078963000,139.862472852254000,０２３４－４３－１７７１,690800321,,,0,http://www.kashink.jp
62065,691200117,山形県,寒河江市,定期巡回・随時対応型訪問介護看護つつじ,テイキジュンカイ・ズイジタイオウガタホウモンカイゴカンゴツツジ,定期巡回・随時対応型訪問介護看護,山形県寒河江市寒河江塩水6-1,,38.379066000000000,140.260879400000000,0237-85-1326,691200117,,,10,http://www.npo-ajisai.jp/
62090,691500110,山形県,長井市,24時間巡回介護えがお,24ジカンジュンカイカイゴエガオ,定期巡回・随時対応型訪問介護看護,山形県長井市台町23番23号,,38.097772819518500,140.030152260188000,0238-84-5710,691500110,,,28,https://takeda-carehome.jp/
72010,790100614,福島県,福島市,リブレ松川24時間訪問介護看護事業所,リブレマツカワ２４ジカンホウモンカイゴカンゴジギョウショ,定期巡回・随時対応型訪問介護看護,福島県福島市松川町美郷4丁目13番8,,37.665727700000000,140.472871900000000,024-573-6522,790100614,,,,
72010,790101034,福島県,福島市,定期巡回ステーション　スマイル飯坂,テイキジュンカイステーション　スマイルイイザカ,定期巡回・随時対応型訪問介護看護,福島市飯坂町湯野字上川原1,,37.837195100000000,140.450844900000000,024-542-3997,790101034,,,0,
72010,790101158,福島県,福島市,愛ホームケアすかわ　定期巡回随時対応型訪問介護看護,アイホームケアスカワテイキジュンカイズイジタイオウガタホウモンカイゴカンゴ,定期巡回・随時対応型訪問介護看護,福島県福島市野田町１丁目１３－５８,,37.754601800000000,140.449475900000000,024-563-3611,790101158,,,0,
72010,790100846,福島県,福島市,定期巡回・随時対応型訪問介護看護事業所　森の風,テイキジュンカイ・ズイジタイオウガタホウモンカイゴカンゴジギョウショ　モリノカゼ,定期巡回・随時対応型訪問介護看護,福島県福島市南沢又字水門下160番地の3,,37.782077369155100,140.411312213492000,024-572-3668,790100846,,,25,http://youkoukai.jp/
72010,790100853,福島県,福島市,愛ホームケアにじのまち定期巡回・随時対応型訪問介護看護,アイホームケアニジノマチテイキジュンカイズイジタイオウガタホウモンカイゴカンゴ,定期巡回・随時対応型訪問介護看護,福島県福島市南沢又字上並8－6,,37.784611384383000,140.442486786249000,024-555-2626,790100853,,,50,
72010,790100341,福島県,福島市,ロング・ライフ24時間訪問介護看護事業所,ロング・ライフ24ジカンホウモンカイゴカンゴジギョウショ,定期巡回・随時対応型訪問介護看護,福島市松川町字産子内１番地の１,,37.667299700000000,140.478043400000000,024-567-5800,790100341,,,5,http://www.life-time-fukushima.jp/
72010,790100531,福島県,福島市,定期巡回・随時対応型訪問介護看護事業所ひだまり,テイキジュンカイ・ズイジタイオウガタホウモンカイゴカンゴジギョウショヒダマリ,定期巡回・随時対応型訪問介護看護,福島県福島市渡利字中江町40-1,,37.748196200000000,140.483078200000000,024-563-5762,790100531,,,0,
72010,790100663,福島県,福島市,ハッピー愛ランド　24時間訪問介護看護ステーション,ハッピーアイランド　ニジュウヨジカンホウモンカイゴカンゴステーション,定期巡回・随時対応型訪問介護看護,福島市本内字西河原5-76ハッピー愛ランド地域交流センター,ハッピー愛ランド地域交流センター,37.781770491470500,140.481647657014000,024-573-0201,790100663,,,0,http://www.happyisland.org/
72010,790101083,福島県,福島市,定期巡回ステーション明日の樹,テイキジュンカイステーションアスノキ,定期巡回・随時対応型訪問介護看護,福島県福島市南矢野目字中江10-12,,37.787004159866900,140.454265776092000,04-572-4557,790101083,,,0,
72010,790100382,福島県,福島市,グリーンライト定期巡回・随時対応型訪問介護看護事業所,グリーンライトテイキジュンカイ・ズイジタイオウガタホウモンカイゴカンゴジギョウショ,定期巡回・随時対応型訪問介護看護,福島県福島市飯坂町湯野字梁尻１－１,,37.822532500000000,140.456274500000000,024-542-7777,790100382,,,0,http://care-net.biz/07/ryokukouen/
72010,790100762,福島県,福島市,定期巡回・随時対応型訪問介護看護事業所　ひかり,テイキジュンカイズイジタイオウガタホウモンカイゴカンゴジギョウショ　ヒカリ,定期巡回・随時対応型訪問介護看護,福島県福島市小倉寺字美濃輪下1-3,,37.729209500000000,140.474348400000000,024-572-5681,790100762,,,0,http://ai-nosato.jp
72010,790101059,福島県,福島市,エルタ定期巡回・随時対応型訪問介護看護事業所,エルタテイキジュンカイ・ズイジタイオウガタホウモンカイゴカンゴジギョウショ,定期巡回・随時対応型訪問介護看護,福島県福島市東浜町10-16エルフィリア,エルフィリア,37.763191300000000,140.486754200000000,024-573-0679,790101059,,,,https://f-elta.net/
72010,790101166,福島県,福島市,エルタガーデン定期巡回・随時対応型訪問介護看護事業所,エルタガーデンテイキジュンカイ・ズイジタイオウガタホウモンカイゴカンゴジギョウショ,定期巡回・随時対応型訪問介護看護,福島県福島市八島田字樋ノ口８０,,37.768208800000000,140.434190900000000,024-563-6831,790101166,,,0,https://f-elta.net/
72010,790100820,福島県,福島市,24時間訪問介護看護ステーション　花桃館,ニジュウヨジカンホウモンカイゴカンゴステーションハナモモカン,定期巡回・随時対応型訪問介護看護,福島県福島市飯坂町湯野字湯ノ上13-1,,37.830942500000000,140.455368500000000,024-563-3900,790100820,,,60,http://iizaka-hanamomo.jp
72010,790100556,福島県,福島市,定期巡回・随時対応型訪問介護看護ステーション湯の里大生苑,テイキジュンカイズイジタイオウガタホウモンカイゴカンゴステーションユノサトタイセイエン,定期巡回・随時対応型訪問介護看護,福島県福島市飯坂町湯野字切湯ノ上2-6,,37.832648347603800,140.454778789549000,024-542-0606,790100556,,,0,http://www.yunosato-taiseien.jp/
72036,790301071,福島県,郡山市,定期巡回　希,テイキジュンカイ　ノゾミ,定期巡回・随時対応型訪問介護看護,福島県郡山市並木１丁目18-1ベル並木１F,ベル並木１F,37.411577700000000,140.363198500000000,070-8839-4351,790301071,,,0,
72036,790301014,福島県,郡山市,ワンランド定期巡回郡山南,ワンランドテイキジュンカイコオリヤマミナミ,定期巡回・随時対応型訪問介護看護,福島県郡山市賀庄153-1パルク賀庄1-C,パルク賀庄1-C,37.369931500000000,140.367883300000000,024-983-7300,790301014,,,0,http://www.oneland.co.jp
72036,790300602,福島県,郡山市,定期巡回・随時対応型訪問介護看護事業所　ふじ,テイキジュンカイ・ズイジタイオウガタホウモンカイゴカンゴジギョウショ　フジ,定期巡回・随時対応型訪問介護看護,福島県郡山市八山田西二丁目159,,37.429608075875200,140.360786859633000,024-953-4785,790300602,,,0,
72036,790300750,福島県,郡山市,定期巡回・随時対応型訪問介護看護事業所あさか,テイキジュンカイ・ズイジタイオウガタホウモンカイゴカンゴジギヨウショアサカ,定期巡回・随時対応型訪問介護看護,福島県郡山市安積荒井3-64エターナル弁天　１F号棟A号室,エターナル弁天　１F号棟A号室,37.370104419087200,140.359568584775000,024-953-6777,790300750,,,10,
72036,790300875,福島県,郡山市,定期巡回・随時対応型訪問介護看護事業所とみた,テイキジュンカイ・ズイジタイオウガタホウモンカイゴカンゴジギョウショトミタ,定期巡回・随時対応型訪問介護看護,冨田町字十文字49番地1エムズアパートメント101,エムズアパートメント101,37.411961900000000,140.344907500000000,024-953-5130,790300875,,,5,http://eco-kaigo.com
72036,790301220,福島県,郡山市,定期巡回お花畑,テイキジュンカイオハナバタケ,定期巡回・随時対応型訪問介護看護,福島県郡山市熱海町熱海2－56,,37.481650098478300,140.273146862566000,070‐3276‐6077,790301220,,,0,https://ohana-batake.net/
72036,790300933,福島県,郡山市,ワンランド定期巡回郡山,ワンランドテイキジュンカイコオリヤマ,定期巡回・随時対応型訪問介護看護,福島県郡山市小原田三丁目22-22サンライズ103,サンライズ103,37.377827200000000,140.387349500000000,249736656,790300933,,,0,http://www.oneland.co.jp
72036,790300271,福島県,郡山市,定期巡回随時対応型訪問介護看護事業所なのはな,テイキジュンカイズイジタイオウカタホウモンカイゴカンゴジギョウショナノハナ,定期巡回・随時対応型訪問介護看護,福島県郡山市鳴神一丁目６３番地医療生協サービス付高齢者住宅なのはな,医療生協サービス付高齢者住宅なのはな,37.395104000000000,140.338572000000000,024-953-4005,790300271,,,0,koriyama-h-coop.or.jp/
72036,790300651,福島県,郡山市,定期巡回・随時対応型訪問介護看護事業所　おおつき,テイキジュンカイ・ズイジタオウガタホウモンカイゴカンゴジギョウショ　オオツキ,定期巡回・随時対応型訪問介護看護,福島県郡山市大槻町字西勝ノ木5-1,,37.393532200000000,140.306319000000000,050-5305-6677,790300651,,,0,http://kuwano-fukushikai:jp
72036,790301147,福島県,郡山市,いちかわ定期巡回KAISEI,イチカワテイキジュンカイカイセイ,定期巡回・随時対応型訪問介護看護,福島県郡山市開成5丁目26－23ベルトピア開成203号,ベルトピア開成203号,37.390310400000000,140.348969700000000,024-983-5700,790301147,,,,http://care-itikawa.com
72036,790300941,福島県,郡山市,繋ケアステーション,ツナグケアステーション,定期巡回・随時対応型訪問介護看護,福島県郡山市桜木一丁目12番7号,,37.408098400000000,140.371188800000000,024-954-4443,790300941,,,40,www.enjyu-enjoy.com
72052,790500177,福島県,白河市,定期巡回・随時対応型訪問介護看護事業所みさか,テイキジュンカイ・ズイジタイオウガタホウモンカイゴカンゴジギョウショミサカ,定期巡回・随時対応型訪問介護看護,福島県白河市みさか2丁目48－35,,37.106083700000000,140.196342100000000,0248-21-5635,790500177,,,,
72052,790500292,福島県,白河市,ワンランドケア白河,ワンランドケアシラカワ,定期巡回・随時対応型訪問介護看護,福島県白河市昭和町273-1,,37.130943620710600,140.198178259525000,248230028,790500292,,,,http://www.oneland.co.jp
72079,790700074,福島県,須賀川市,定期巡回随時対応型訪問介護看護事業所「ひかり」,テキジュンカイズイジタイオウガタホウモンカイゴカンゴジギョウショヒカリ,定期巡回・随時対応型訪問介護看護,福島県須賀川市陣場町108番地,,37.298372260445800,140.363868365633000,0248-94-4382,790700074,,,0,https://www.clover-kaigo.jp/
72079,790700116,福島県,須賀川市,ワンランド定期巡回須賀川,ワンランドテイキジュンカイスカガワ,定期巡回・随時対応型訪問介護看護,福島県須賀川市森宿字安積田２１１－２シニアパンション須賀川・森宿　内,シニアパンション須賀川・森宿　内,37.316370009637800,140.363146894676000,0248-94-5590,790700116,,,0,http://www.oanlando.co.jp
72109,791000086,福島県,二本松市,JWS陽だまりの郷　定期巡回・随時対応型訪問介護看護事業所,ジェイダブリューエスヒダマリノサト　テイキジュンカイ・ズイジタイオウガタホウモンカイゴカンゴジギョウショ,定期巡回・随時対応型訪問介護看護,福島県二本松市表2丁目775番地,,37.604390500000000,140.436105200000000,0243-62-1031,791000086,,,0,http://jws-c.jp
72117,791100100,福島県,田村市,定期巡回すみれ,テイキジュンカイスミレ,定期巡回・随時対応型訪問介護看護,福島県田村市船引町船引字砂子田198,,37.444921000000000,140.572491700000000,0247-82-5369,791100100,,,,https://funehiki.clinic/
72133,791300221,福島県,伊達市,定期巡回・随時対応型訪問介護看護ステーション　やながわ大生苑,テイキジュンカイズイジタイオウガタホウモンカイゴカンゴステーションヤナガワタイセイエン,定期巡回・随時対応型訪問介護看護,福島県伊達市梁川町字南本町46-1,,37.854838700000000,140.601706400000000,024-573-0122,791300221,,,0,www.yanagawa-taiseien.jp
72133,791300254,福島県,伊達市,指定定期巡回・随時対応型訪問介護看護事業所桜,シテイテイキジュンカイ・ズイジタイオウガタホウモンカイゴカンゴジギョウショサクラ,定期巡回・随時対応型訪問介護看護,福島県伊達市梁川町上町36,,37.859743692119800,140.611281745405000,024-573-4980,791300254,,,0,https://kakeikai.or.jp/
72133,791300122,福島県,伊達市,指定定期巡回・随時対応型訪問介護看護事業所「向日葵」,シテイテイキジュンカイ・ズイジタイオウガタホウモンカイゴカンゴジギョウショ「ヒマワリ」,定期巡回・随時対応型訪問介護看護,福島県伊達市霊山町掛田字岡３０−９,,37.782162700000000,140.593701000000000,024-586-3810,791300122,,,20,https://youi-kai.org
74616,792800062,福島県,西郷村,定期巡回・随時対応型訪問介護事業所たんぽぽ,テイキジュンカイ・ズイジタイオウガタホウモンカイゴカンゴジギョウショタンポポ,定期巡回・随時対応型訪問介護看護,福島県西白河郡西郷村大字小田倉字小田倉原35－7シニアホームこもれび,シニアホームこもれび,37.122642300000000,140.165533000000000,0248－21－9500,792800062,,,0,
74667,792800112,福島県,矢吹町,定期巡回・随時対応型訪問介護看護事業所おおまち,テイキジュンカイ・ズイジタイオウガタホウモンカイゴカンゴジギョウショオオマチ,定期巡回・随時対応型訪問介護看護,福島県西白河郡矢吹町大町227-2シニアホームおおまち,シニアホームおおまち,37.203663500000000,140.318514500000000,0248-21-6163,792800112,,,,https://www.clover-kaigo.jp/
75213,793100165,福島県,三春町,定期巡回・随時対応型訪問介護看護ほほえみの里みはる,テイキジュンカイ・ズイジタイオウガタホウモンカイゴカンゴホホエミノサトミハル,定期巡回・随時対応型訪問介護看護,福島県田村郡三春町大字熊耳字神山２８７番,,37.443814100000000,140.519785300000000,0247-61-5622,793100165,,,,https://hohoemifukushikai.com/
75221,793110065,福島県,小野町,定期巡回・随時対応型訪問介護看護事業所　えがおの里,テイキジュンカイ・ズイジタイオウガタホウモンカイゴカンゴジギョウショ　エガオノサト,定期巡回・随時対応型訪問介護看護,福島県田村郡小野町大字谷津作字高山３-５,,37.271009187660500,140.628385290651000,0247-61-6203,793110065,,,0,
75434,793200056,福島県,富岡町,はま福TOMIOKA,ハマフクトミオカ,定期巡回・随時対応型訪問介護看護,福島県双葉郡富岡町夜の森南二丁目1番１,,37.365338800000000,140.996150300000000,050-8888-5536,793200056,,,,https://www.hamafuku-tomi.com/
82015,890100415,茨城県,水戸市,ゆりかご☆いんくる,ユリカゴインクル,定期巡回・随時対応型訪問介護看護,茨城県水戸市飯富町3467-1,,36.422262400000000,140.415044700000000,029-229-7562,890100415,,,0,https://www.yurikago-kaigo.com/kaigo/incl/index.html
82015,890100514,茨城県,水戸市,フロイデみと定期巡回サービス,フロイデミトテイキジュンカイサービス,定期巡回・随時対応型訪問介護看護,茨城県水戸市堀町967-1,,36.402903500000000,140.433521100000000,029-353-8155,890100514,,,0,https://www.hakujinkai.com
82015,890100357,茨城県,水戸市,ナザレ園サポート24水戸,ナザレエンサポートニジュウヨンミト,定期巡回・随時対応型訪問介護看護,茨城県水戸市石川1-3829-3,,36.391936100000000,140.430028600000000,029-306-6081,890100357,,,0,www.nazareen.or.jp
82074,890700057,茨城県,結城市,やさしい手結城定期巡回・訪問介護看護事業所,ヤサシイテユウキテイキジュンカイホウモンカイゴカンゴジギョウショ,定期巡回・随時対応型訪問介護看護,茨城県結城市結城9802-1やさしい手シニアリビングやさしえ結城,やさしい手シニアリビングやさしえ結城,36.290428800000000,139.860247300000000,0296-34-8531,890700057,,,100,sp.yasashiite.com/subdomains/section/228/
82121,891200099,茨城県,常陸太田市,ナザレ園サポート24常陸太田,ナザレエンサポート24ヒタチオオタ,定期巡回・随時対応型訪問介護看護,茨城県常陸太田市磯部町字腰巻57番地ナザレ園ホーム・ライフ・サービス常陸太田,ナザレ園ホーム・ライフ・サービス常陸太田,36.519324813775300,140.530956259277000,0294-87-6600,891200099,,,0,https://nazareen.or.jp/
82163,891600231,茨城県,笠間市,フロイデともべ定期巡回サービス,フロイデトモベテイキジュンカイサービス,定期巡回・随時対応型訪問介護看護,茨城県笠間市鯉淵6526-19,,36.349496200000000,140.320398700000000,0296-73-5333,891600231,,,0,https://www.hakuyukai-sfg.com
82210,892100413,茨城県,ひたちなか市,医療法人博仁会　定期巡回・随時対応型訪問介護看護事業所　フロイデひたちなか定期巡回サービス,イリョウホウジンハクジンカイ　テイキジュンカイ　ズイジタイオウガタホウモンカイゴカンゴジギョウショ　フロイデヒタチナカテイキジュンカイサービス,定期巡回・随時対応型訪問介護看護,茨城県ひたちなか市足崎1474番地8フロイデひたちなかメディカルプラザ　ベルリン棟,フロイデひたちなかメディカルプラザ　ベルリン棟,36.403783500000000,140.552675500000000,029-229-3838,892100413,,,0,https://www.hakujinkai.com/satellite_mp_hitachinaka.php
82228,892200023,茨城県,鹿嶋市,ふくふく鹿嶋,フクフクカシマ,定期巡回・随時対応型訪問介護看護,茨城県鹿嶋市大字宮中字宮中野3820番地1,,35.974184800000000,140.640473100000000,0299-94-8800,892200023,,,0,http://www.ns-group.co.jp
82252,892500133,茨城県,常陸大宮市,おおみやホームヘルパーステーション,オオミヤホームヘルパーステーション,定期巡回・随時対応型訪問介護看護,茨城県常陸大宮市上町３２１番地ＮＴＴ常陸大宮ビル１階,ＮＴＴ常陸大宮ビル１階,36.549258437059600,140.412744964418000,0295-53-1192,892500133,,,0,http://www.hakujinkai.com/
82261,892600081,茨城県,那珂市,ナザレ園定期巡回・随時対応型訪問介護看護事業所,ナザレエンテイキジュンカイ・ズイジタイオウガタホウモンカイゴカンゴジギョウショ,定期巡回・随時対応型訪問介護看護,茨城県那珂市中里342-3,,36.485189500000000,140.457168800000000,029-296-0034,892600081,,,30,www.nazareen.or.jp
82279,892700170,茨城県,筑西市,定期巡回・随時対応型訪問介護看護　リアン,テイキジュンカイ・ズイジタイオウガタホウモンカイゴカンゴ　リアン,定期巡回・随時対応型訪問介護看護,茨城県筑西市藤ヶ谷2264番地2,,36.260097200000000,139.950167800000000,0296-37-4507,892700170,,,,
82325,895200095,茨城県,神栖市,ふくふく神栖,フクフクカミス,定期巡回・随時対応型訪問介護看護,茨城県神栖市若松中央2-20,,35.835141100000000,140.734144200000000,0479-46-0081,895200095,,,20,http://www.ns-group.co.jp
83411,893300038,茨城県,東海村,在宅サポート　オークス東海,ザイタクサポート　オークストウカイ,定期巡回・随時対応型訪問介護看護,茨城県那珂郡東海村大字船場字八枚割５８８番地７,,36.449888629722600,140.546577170021000,029-352-3260,893300038,,,0,
92011,990100463,栃木県,宇都宮市,コミュニティーケア・イースト,コミュニティーケア・イースト,定期巡回・随時対応型訪問介護看護,栃木県宇都宮市鐺山町1983特別養護老人ホームマイホームきよはら,特別養護老人ホームマイホームきよはら,36.538703300000000,139.975927100000000,028-667-9258,990100463,,,,www.kiyohara.jp
92011,990100455,栃木県,宇都宮市,コープ安心ケアシステムみどり,コープアンシンケアシステムミドリ,定期巡回・随時対応型訪問介護看護,栃木県宇都宮市緑5丁目13番8号特別養護老人ホームみどり内,特別養護老人ホームみどり内,36.514033200000000,139.859574600000000,028-616-6551,990100455,,,0,http://fureai-coop.com/
92011,990100620,栃木県,宇都宮市,さくらがおか定期巡回型訪問介護看護,サクラガオカテイキジュンカイガタホウモンカイゴカンゴ,定期巡回・随時対応型訪問介護看護,栃木県宇都宮市桜2-3-5さくらがおか定期巡回型訪問介護看護,さくらがおか定期巡回型訪問介護看護,36.565680100000000,139.868043800000000,028-688-0116,990100620,,,0,
92011,990100950,栃木県,宇都宮市,定期巡回型訪問介護看護ひだまり,テイキジュンカイガタホウモンカイゴカンゴヒダマリ,定期巡回・随時対応型訪問介護看護,栃木県宇都宮市川俣町900‐1,,36.604750481099700,139.908014237959000,028‐616‐3460,990100950,,,30,https://www.toyosato-g.or.jp
92029,990200263,栃木県,足利市,足利ケアサービス24,アシカガケアサービスニジュウヨン,定期巡回・随時対応型訪問介護看護,栃木県足利市五十部町809-3,,36.346333300000000,139.423690400000000,0284-21-7630,990200263,,,24,
92037,990300279,栃木県,栃木市,安心ネットとちぎ,アンシンネットトチギ,定期巡回・随時対応型訪問介護看護,栃木県栃木市城内町２丁目１７番２３号,,36.370985400000000,139.752031300000000,0282-21-8488,990300279,,,,
92088,990800286,栃木県,小山市,コープ安心ケアシステム喜沢,コープアンシンケアシステムキザワ,定期巡回・随時対応型訪問介護看護,栃木県小山市大字喜沢1475-98,,36.329858900000000,139.802479300000000,0285-39-8557,990800286,,,0,https://fureai-coop.com/
92134,991300351,栃木県,那須塩原市,定期巡回・随時対応型訪問介護看護事業所なすの,テイキジュンカイ・ズイジタイオウガタホウモンカイゴカンゴジギョウショナスノ,定期巡回・随時対応型訪問介護看護,栃木県那須塩原市埼玉6-1619,,36.980393634923400,140.023241966270000,0287-74-2049,991300351,,,,
93840,992600098,栃木県,塩谷町,湯ったり・しおや,ユッタリ　シオヤ,定期巡回・随時対応型訪問介護看護,栃木県塩谷郡塩谷町大字玉生915番地サービス付き高齢者向け住宅　湯ったり・しおや　内,サービス付き高齢者向け住宅　湯ったり・しおや　内,36.775365780379300,139.860998410951000,0287-46-5563,992600098,,,,
94072,992500165,栃木県,那須町,ワンランドケア那須,ワンランドケアナス,定期巡回・随時対応型訪問介護看護,栃木県那須郡那須町大字豊原丙１３４０番地,,37.058274900000000,140.111013000000000,287735960,992500165,,,,http://www.oneland.co.jp
102016,1090100379,群馬県,前橋市,エムダブルエス日高サポートセンター,エムダブルエスヒダカサポートセンター,定期巡回・随時対応型訪問介護看護,群馬県前橋市元総社町1213-2元総社公社賃貸住宅,元総社公社賃貸住宅,36.385928081976800,139.028170569606000,027-212-9711,1090100379,,,0,http://www.hidaka-kai.com/mws/
102016,1090100775,群馬県,前橋市,定期巡回・随時対応型訪問介護看護グランポルト前橋,テイキジュンカイ・ズイジタイオウガタホウモンカイゴカンゴグランポルトマエバシ,定期巡回・随時対応型訪問介護看護,群馬県前橋市昭和町3-11-18,,36.405429200000000,139.062937400000000,027-212-6555,1090100775,,,0,https://hotakakai.or.jp
102016,1090101013,群馬県,前橋市,定期巡回・随時対応型訪問介護看護メディカルケア片貝,テイキジュンカイ・ズイジタイオウガタホウモンカイゴカンゴメディカルケアカタガイ,定期巡回・随時対応型訪問介護看護,群馬県前橋市東片貝町1079,,36.384246400000000,139.111913000000000,272122866,1090101013,,,24,https//medical-katakai.com
102024,1090200732,群馬県,高崎市,訪問介護看護じゃんけんぽん金井淵,ホウモンカイゴカンゴジャンケンポンカナイブチ,定期巡回・随時対応型訪問介護看護,群馬県高崎市金井淵町137-5,,36.349797414435300,138.956660151468000,027-343-5552,1090200732,,,5,http://www.jankenpon.jp
102024,1090200518,群馬県,高崎市,キュアステーションようざん,キュアステーションヨウザン,定期巡回・随時対応型訪問介護看護,群馬県高崎市飯塚町1030-1,,36.340016100000000,139.003237200000000,027-381-6136,1090200518,,,0,www.youzan.jp
102024,1090201243,群馬県,高崎市,関越中央病院　介護・福祉村北原の里　定期巡回･随時対応型訪問介護看護「北原の里」,カンエツチュウオウビョインカイゴフクシムラキタハラノサト　テイキジュンカイズイジタイオウガタホウモンカイゴカンゴキタハラノサト,定期巡回・随時対応型訪問介護看護,群馬県高崎市北原町179-1,,36.406563800000000,139.022384200000000,027-384-4611,1090201243,,,0,http://www.kan-etsu-hospital.com/
102024,1090200807,群馬県,高崎市,グランドケア箕輪,グランドケアミノワ,定期巡回・随時対応型訪問介護看護,群馬県高崎市箕郷町上芝８４５番３グランドホーム箕輪,グランドホーム箕輪,36.385229200000000,138.959578300000000,027-371-3717,1090200807,,,48,http://www.e-verde.co.jp/
102024,1090200567,群馬県,高崎市,定期巡回訪問みのわ,テイキジュンカイホウモンミノワ,定期巡回・随時対応型訪問介護看護,群馬県高崎市箕郷町東明屋452-7,,36.399104790394600,138.959329780318000,027-388-9516,1090200567,,,0,http://www.minowa-takasaki.com
102024,1090200864,群馬県,高崎市,アムールフィーリングケア高崎,アムールフィーリングケアタカサキ,定期巡回・随時対応型訪問介護看護,群馬県高崎市問屋町1-6-4,,36.349523800000000,139.009425400000000,027-362-1612,1090200864,,,49,http://takumikk.co.jp
102032,1090300367,群馬県,桐生市,社会福祉法人邦知会　グレイス広沢,シャカイフクシホウジンホウチカイ　グレイスヒロサワ,定期巡回・随時対応型訪問介護看護,群馬県桐生市広沢町6-307-11,,36.372257670327100,139.358778460050000,0277-53-7373,1090300367,,,0,http://www.houchikai.or.jp
102041,1090400563,群馬県,伊勢崎市,ケアサポ２４,ケアサポ２４,定期巡回・随時対応型訪問介護看護,群馬県伊勢崎市三光町20-9,,36.316113236670600,139.191992100000000,0270-61-8548,1090400563,,,0,https://www.caresapo24.net/
102067,1090600154,群馬県,沼田市,定期巡回・随時対応型訪問介護看護24サービス,テイキジュンカイ・ズイジタイオウガタホウモンカイゴカンゴニーヨンサービス,定期巡回・随時対応型訪問介護看護,群馬県沼田市久屋原345番地1,,36.665540355653900,139.104536098534000,0278-25-3888,1090600154,,,10,http://taiseikai-group.com/
102083,1090800101,群馬県,渋川市,ナーシングホーム石原の里,ナーシングホームイシハラノサト,定期巡回・随時対応型訪問介護看護,群馬県渋川市石原３４３－１ナーシングホーム石原の里,ナーシングホーム石原の里,36.486862600000000,139.003556300000000,0279-30-1165,1090800101,,,0,http://nh-ishihara.com/
102083,1090800093,群馬県,渋川市,ベルジ南渋川,ベルジミナミシブカワ,定期巡回・随時対応型訪問介護看護,群馬県渋川市半田2726-1,,36.466556900000000,139.026441100000000,0279-25-0077,1090800093,,,0,http://www.e-verde.co.jp
104493,1092700101,群馬県,みなかみ町,月夜野トータルケアステーションさくらんぼ,ツキヨノトータルケアステーションサクランボ,定期巡回・随時対応型訪問介護看護,群馬県利根郡みなかみ町真庭377-5,,36.675188000000000,139.004246000000000,0278-62-2001,1092700101,,,0,http://moon-hp.or.jp/
111015,1196501439,埼玉県,さいたま市西区,医療生協おおみやヘルパーステーション,イリョウセイキョウ　オオミヤヘルパーステーション,定期巡回・随時対応型訪問介護看護,埼玉県さいたま市西区指扇1070,,35.912172200000000,139.578652900000000,048-620-2238,1196501439,,,,http:/www.mcp-saitama.or.jp
111023,1196501389,埼玉県,さいたま市北区,コウダイケアコールセンターさいたま,コウダイケアコールセンターサイタマ,定期巡回・随時対応型訪問介護看護,櫛引町2-8702F,2F,35.921899100000000,139.606220400000000,048-729-8268,1196501389,,,0,https://koudai-care.co.jp/
111031,1196500944,埼玉県,さいたま市大宮区,ＳＯＭＰＯケア　大宮　定期巡回,ソンポケア　オオミヤ　テイキジュンカイ,定期巡回・随時対応型訪問介護看護,埼玉県さいたま市大宮区仲町3丁目13番地1住友生命大宮第2ビル1階,住友生命大宮第2ビル1階,35.905606561478600,139.628833239056000,048-788-4062,1196500944,,,0,http://www.sompocare.com
111031,1196500928,埼玉県,さいたま市大宮区,コンパス定期巡回,コンパステイキジュンカイ,定期巡回・随時対応型訪問介護看護,埼玉県さいたま市大宮区桜木町4-783-4,,35.899609000000000,139.621402000000000,048-711-7528,1196500928,,,,https://keigo-group.co.jp/
111058,1171111111,埼玉県,さいたま市中央区,〇〇,〇〇,定期巡回・随時対応型訪問介護看護,〇〇,,0.000000000000000,0.000000000000000,000-000-0000,1171111111,,,,
111066,1196500720,埼玉県,さいたま市桜区,やさしい手白鍬定期巡回・随時対応型訪問介護看護事業所,ヤサシイテシラクワテイキジュンカイ・ズイジタイオウガタホウモンカイゴカンゴジギョウショ,定期巡回・随時対応型訪問介護看護,白鍬736-8センチュリーテラス白鍬,センチュリーテラス白鍬,35.883300600000000,139.606856800000000,050-1751-5021,1196500720,,,10,https://search.yasashiite.com/detail/homonkaigo_shirakuwa/
111074,1196501256,埼玉県,さいたま市浦和区,医療生協ケアステーションうらしん,イリョウセイキョウケアステーションウラシン,定期巡回・随時対応型訪問介護看護,埼玉県さいたま市浦和区北浦和3-10-4COOP未来館　２階,COOP未来館　２階,35.874072100000000,139.645804200000000,048-816-6648,1196501256,,,0,
111082,1196501264,埼玉県,さいたま市南区,そよ風定期巡回さいたま南,ソヨカゼテイキジュンカイ　サイタマミナミ,定期巡回・随時対応型訪問介護看護,埼玉県さいたま市南区文蔵2丁目13番10号上松ビル1階,上松ビル1階,35.841969100000000,139.668987200000000,048-836-1355,1196501264,,,0,https://www.unimat-rc.co.jp/shisetsu-zaitaku/114395
111091,1196500738,埼玉県,さいたま市緑区,明サポートヘルパーステーション,メイサポートヘルパーステーション,定期巡回・随時対応型訪問介護看護,埼玉県さいたま市緑区松木3-16-62階,2階,35.884074200000000,139.687999900000000,048-767-3101,1196500738,,,18,http://meiiken.or.jp
111104,1196500688,埼玉県,さいたま市岩槻区,けあビジョン東岩槻,ケアビジョンヒガシイワツキ,定期巡回・随時対応型訪問介護看護,埼玉県さいたま市岩槻区上野2-9-4103号,103号,35.971646900000000,139.699889600000000,048-795-2555,1196500688,,,10,
112011,1190400521,埼玉県,川越市,定期巡回・随時対応型訪問介護・看護　つどい南大塚,テイキジュンカイ・ズイジタイオウガタホウモンカイゴ・カンゴ　ツドイミナミオオツカ,定期巡回・随時対応型訪問介護看護,埼玉県川越市南大塚3-17-18,,35.888699200000000,139.461242800000000,049-247-8381,1190400521,,,0,https://mcp-net.jp/service/regular-visits/regular-visits-saitama/rv-minamiohtsuka.html
112011,1190400265,埼玉県,川越市,医療法人　真正会　定期巡回・随時対応型訪問介護看護事業所コール,イリョウホウジン　シンセイカイ　テイキジュンカイ・ズイジタイオウガタホウモンカイゴカンゴジギョウショコール,定期巡回・随時対応型訪問介護看護,川越市安比奈新田259-2,,35.904846758386700,139.419041543655000,049-233-8341,1190400265,,,0,http://www.kasumi-gr.com/index2.html
112011,1190400695,埼玉県,川越市,わかば定期巡回みなみふるや,ワカバテイキジュンカイミナミフルヤ,定期巡回・随時対応型訪問介護看護,並木70-2クリスタルサウザンド105,クリスタルサウザンド105,0.000000000000000,0.000000000000000,049-293-6735,1190400695,,,,https://life.ikeyaku.co.jp/wakaba/
112011,1190400380,埼玉県,川越市,やさしい手川越定期巡回・随時対応型訪問介護看護事業所,ヤサシイテカワゴエテイキジュンカイ・ズイジタイオウガタホウモンカイゴカンゴジギョウショ,定期巡回・随時対応型訪問介護看護,埼玉県川越市菅原町23-11菅原町ビル2階,菅原町ビル2階,35.908984800000000,139.485040300000000,050-1752-0248,1190400380,,,10,http://www.yasashiite.com/
112011,1190400729,埼玉県,川越市,定期巡回・随時対応型訪問介護看護鯨井ナーシングホーム,テイキジュンカイ・ズイジタイオウガタホウモンカイゴカンゴクジライナーシングホーム,定期巡回・随時対応型訪問介護看護,埼玉県川越市大字鯨井新田9-1鯨井ナーシングホーム,鯨井ナーシングホーム,35.935138800000000,139.422820000000000,049-234-2900,1190400729,,,,http://www.kawatsuru-g.jp/kujirai/index.html
112011,1190400661,埼玉県,川越市,定期巡回たかしな,テイキジュンカイタカシナ,定期巡回・随時対応型訪問介護看護,埼玉県川越市砂新田4-1-4ブランドールビル2階,ブランドールビル2階,35.887503300000000,139.492433100000000,049-291-6001,1190400661,,,0,https://www.mcp-saitama.or.jp/
112020,1193100193,埼玉県,熊谷市,グリーンフォレストホームケアステーション,グリーンフォレストホームケアステーション,定期巡回・随時対応型訪問介護看護,埼玉県熊谷市広瀬800-2,,36.147467000000000,139.353038400000000,048-528-0791,1193100193,,,0,http://www.gfv.jp
112020,1193100292,埼玉県,熊谷市,熊谷生協ヘルパーステーション,クマガヤセイキョウヘルパーステーション,定期巡回・随時対応型訪問介護看護,埼玉県熊谷市上之3851-1介護複合施設くまここ,介護複合施設くまここ,36.151089100000000,139.413749700000000,048-524-0030,1193100292,,,,http://www.mcp-saitama.or.jp
112038,1190201358,埼玉県,川口市,SOMPOケア川口東領家定期巡回,ソンポケアカグチヒガシリョウケテイキジュンカイ,定期巡回・随時対応型訪問介護看護,埼玉県川口市東領家2-8-6そんぽの家S川口東領家,そんぽの家S川口東領家,35.795202000000000,139.748677800000000,048-227-2516,1190201358,,,10,https://www.sompocare.com/service/home/satsuki/H000361
112038,1190201309,埼玉県,川口市,定期巡回随時対応型訪問介護看護アットプレオ石神,テイキジュンカイズイジタイオウガタホウモンカイゴカンゴアットプレオイシガミ,定期巡回・随時対応型訪問介護看護,川口市　石神1573-10,,35.856063300000000,139.742342200000000,048-287-3131,1190201309,,,0,
112038,1190200681,埼玉県,川口市,２４芝ケアステーション,トゥーフォーシバケアステーション,定期巡回・随時対応型訪問介護看護,埼玉県川口市芝2-13-23ファミーユ伸和1階Ｃ,ファミーユ伸和1階Ｃ,35.831128000000000,139.698231200000000,048-263-5224,1190200681,,,30,http://24care.co.jp/
112038,1190201192,埼玉県,川口市,ケアーズ定期巡回・随時対応型訪問介護看護,ケアーズテイキジュンカイ・ズイジタイオウガタホウモンカイゴカンゴ,定期巡回・随時対応型訪問介護看護,埼玉県川口市長蔵２－１－１８コモ・スクエアA号室,コモ・スクエアA号室,35.861000000000000,139.757175300000000,048-291-6670,1190201192,,,0,https://kkcares.co.jp/
112038,1190200624,埼玉県,川口市,やさしい手川口三ツ和定期巡回・随時対応型訪問介護看護事業所,ヤサシイテカワグチミツワテイキジュンカイズイジタイオウガタホウモンカイゴカンゴジギョウショ,定期巡回・随時対応型訪問介護看護,埼玉県川口市三ツ和1-4-21グランドマストやさしえ川口三ツ和,グランドマストやさしえ川口三ツ和,35.823485200000000,139.740015200000000,050-1753-4353,1190200624,,,0,http://www.yasashiite.com/subdomains/sec_page/452/11/
112038,1190201028,埼玉県,川口市,エイプレイス川口,エイプレイスカワグチ,定期巡回・随時対応型訪問介護看護,埼玉県川口市幸町2-15-8第Ⅱ福富ビル,第Ⅱ福富ビル,35.806500300000000,139.720229800000000,048-240-1355,1190201028,,,50,http://www.a-place.co.jp/
112038,1190200699,埼玉県,川口市,ケアセンタ－かがやき,ケアセンタ-カガヤキ,定期巡回・随時対応型訪問介護看護,埼玉県川口市西青木５－１－４０,,35.820949545146600,139.716086362381000,048-253-5186,1190200699,,,,https://www.mcp-saitama-kaigo.com/
112038,1190201333,埼玉県,川口市,医療生協さいたまヘルパーステーションすこやか,イリョウセイキョウサイタマヘルパーステーションスコヤカ,定期巡回・随時対応型訪問介護看護,埼玉県川口市仲町１－３６,,35.805578700000000,139.708300400000000,048-299-8000,1190201333,,,0,https://kawaguchi-sukoyaka.com/
112038,1190200756,埼玉県,川口市,ヘルパーステーション　いぶき,ヘルパーステーションイブキ,定期巡回・随時対応型訪問介護看護,川口市木曽呂1347,,35.859491000000000,139.715828700000000,048-296-5149,1190200756,,,0,
112038,1190201093,埼玉県,川口市,定期巡回彩うさぎ,テイキジュンカイアヤウサギ,定期巡回・随時対応型訪問介護看護,埼玉県川口市大字東本郷516-2レイアップワン川口101号,レイアップワン川口101号,35.821656100000000,139.763922700000000,048-242-3378,1190201093,,,0,
112062,1193700067,埼玉県,行田市,ヘルパーステーションさきたま,ヘルパーステーションサキタマ,定期巡回・随時対応型訪問介護看護,埼玉県行田市本丸18-3,,36.137057000000000,139.454215200000000,048-556-4612,1193700067,,,,
112062,1193700059,埼玉県,行田市,緑風苑　定期巡回・随時対応型訪問介護看護,リョクフウエン　テイキジュンカイ・ズイジタイオウガタホウモンカイゴカンゴ,定期巡回・随時対応型訪問介護看護,埼玉県行田市佐間2-2-18,,36.131593453344300,139.466576423825000,048-578-7257,1193700059,,,,http://www.seikoukai.com
112071,1194900229,埼玉県,秩父市,生協ちちぶケアステーション,セイキョウチチブケアステーション,定期巡回・随時対応型訪問介護看護,埼玉県秩父市阿保町1-11,,36.013852900000000,139.087446500000000,0494-22-7290,1194900229,,,0,https://www.mcp-saitama-kaigo.com/office/chichibu-care/
112089,1192500716,埼玉県,所沢市,幸せふくろう北秋津,シアワセフクロウキタアキツ,定期巡回・随時対応型訪問介護看護,埼玉県所沢市北秋津686-23,,35.782250100000000,139.478044100000000,04-2935-7673,1192500716,,,,https://www.ml-care.co.jp/
112089,1192500278,埼玉県,所沢市,２４時間ホームケアほほえみ,ニジュウヨジカンホームケアホホエミ,定期巡回・随時対応型訪問介護看護,埼玉県所沢市小手指町４－１８－１,,35.797118600000000,139.435813100000000,０４－２９４７－３９１５,1192500278,,,0,http://www.kuwanomi.or.jp/
112089,1192500286,埼玉県,所沢市,ライフアシスト　ロイヤルの園,ライフアシスト　ロイヤルノソノ,定期巡回・随時対応型訪問介護看護,埼玉県所沢市北野三丁目1番地22,,35.796932300000000,139.419117400000000,04-2937-3300,1192500286,,,0,http://www.wam-town.jp/tokorozawa-sono/
112089,1192500401,埼玉県,所沢市,定期巡回ヘルパーステーションとこしん,テイキジュンカイヘルパーステーショントコシン,定期巡回・随時対応型訪問介護看護,埼玉県所沢市宮本町2-23-34,,35.795816900000000,139.460767300000000,04-2929-5501,1192500401,,,0,http://www.mcp-saitama-kaigo.com/office/tokoshin/
112089,1192500393,埼玉県,所沢市,よしかわ訪問介護ステーション歩,ヨシカワホウモンカイゴステーション　アユミ,定期巡回・随時対応型訪問介護看護,埼玉県所沢市若狭3-2576-1,,35.802012300000000,139.419658900000000,04-2946-8802,1192500393,,,19,
112101,1193800099,埼玉県,加須市,定期巡回・随時対応型訪問介護看護加須なでしこ,テイキジュンカイズイジタイオウカタホウモンカイゴカンゴカゾナデシコ,定期巡回・随時対応型訪問介護看護,埼玉県加須市諏訪2-2-9,,36.130229900000000,139.600636200000000,0480-48-6423,1193800099,,,30,
112119,1194300172,埼玉県,本庄市,蛍ケアセンター,ホタルケアセンター,定期巡回・随時対応型訪問介護看護,埼玉県本庄市西五十子634-4,,36.221993555884400,139.197970245322000,0495－71－5486,1194300172,,,35,http://www.wf-meiseikai.or.jp/
112127,1193300157,埼玉県,東松山市,総合福祉エリアヘルパーステーション,ソウゴウフクシエリアヘルパーステーション,定期巡回・随時対応型訪問介護看護,埼玉県東松山市大字松山2183,,36.052811300000000,139.401824700000000,0493-21-5571,1193300157,,,0,http://www.smile-shakyo.jp/
112143,1190600203,埼玉県,春日部市,あずみ苑ラ･テラス庄和,アズミエンラ・テラスショウワ,定期巡回・随時対応型訪問介護看護,埼玉県春日部市西金野井178-2あずみ苑ラ･テラス庄和,あずみ苑ラ･テラス庄和,35.985656800000000,139.811748600000000,048-718-1165,1190600203,,,51,http://www.azumien.jp/search/l_syowa/
112143,1190600344,埼玉県,春日部市,定期巡回・随時対応サービス24こんぱす,テイキジュンカイ・ズイジタイオウサービス24コンパス,定期巡回・随時対応型訪問介護看護,埼玉県春日部市薄谷78,,35.956865500000000,139.754347000000000,048-733-1155,1190600344,,,0,http://compass100.jp/
112143,1190600146,埼玉県,春日部市,春日部定期巡回・随時対応型訪問介護看護ひまわりケアセンター,カスカベテイキジュンカイ・ズイジタイオウガタホウモンカイゴカンゴヒマワリケアセンター,定期巡回・随時対応型訪問介護看護,春日部市下蛭田125-1春日部厚生クリニック内,春日部厚生クリニック内,35.960931900000000,139.720079900000000,048-760-0121,1190600146,,,0,http://www.himawari-zaitaku.jp/kyotaku_about/#anker04
112143,1190600443,埼玉県,春日部市,医療生協ケアセンターひだまり,イリョウセイキョウケアセンターヒダマリ,定期巡回・随時対応型訪問介護看護,埼玉県春日部市谷原2-4-12,,35.971480200000000,139.747180700000000,048-760-2641,1190600443,,,,https://www.mcp-saitama-kaigo.com/office/hidamari/
112151,1192700118,埼玉県,狭山市,在宅サポート２１狭山訪問看護ステーション,ザイタクサポートニジュウイチサヤマホウモンカンゴステーション,定期巡回・随時対応型訪問介護看護,埼玉県狭山市大字水野５９４,,35.832003502269800,139.446626189688000,04-2957-1212,1192700118,,,20,http://www.syojukai.or.jp
112178,1191700176,埼玉県,鴻巣市,定期巡回・随時対応型訪問介護看護なでしこ,テイキジュンカイズイジタイオウガタホウモンカイゴカンゴナデシコ,定期巡回・随時対応型訪問介護看護,埼玉県鴻巣市生出塚1丁目1番3号,,36.062700689803300,139.524782801822000,048-598-5002,1191700176,,,50,https://nadeshiko365.jp/
112186,1194600381,埼玉県,深谷市,在宅介護　深谷２４,ザイタクカイゴ　フカヤニジュウヨン,定期巡回・随時対応型訪問介護看護,埼玉県深谷市柏合９５１－１,,36.181315578517000,139.257581108598000,０４８－５７９－５８２１,1194600381,,,0,https：//lifeplanーkaigo.jp
112194,1191600152,埼玉県,上尾市,訪問介護看護パストーン２４,ホウモンカイゴカンゴパストーン２４,定期巡回・随時対応型訪問介護看護,浅間台２－１７－１,,35.979593300000000,139.574393600000000,048-777-1001,1191600152,,,15,https://www.pastone.or.jp/
112194,1191600285,埼玉県,上尾市,そよ風定期巡回　にしあげお,ソヨカゼテイキジュンカイ　ニシアゲオ,定期巡回・随時対応型訪問介護看護,埼玉県上尾市上野55-2西上尾ホスピスケア　そよ風,西上尾ホスピスケア　そよ風,35.949729800000000,139.560662600000000,048-780-1301,1191600285,,,30,https://www.nishiageohpc@sykz.co.jp
112216,1191800398,埼玉県,草加市,ヘルパーステーションかしの木,ヘルパーステーションカシノキ,定期巡回・随時対応型訪問介護看護,埼玉県草加市草加1-8-13,,35.835445400000000,139.803077100000000,048-948-7356,1191800398,,,10,http://www.mcp-saitama.or.jp
112216,1191800315,埼玉県,草加市,定期巡回随時対応型訪問介護看護みどりの館,テイキジュンカイズイジタイオウガタホウモンカイゴカンゴミドリノヤカタ,定期巡回・随時対応型訪問介護看護,埼玉県谷塚町1998オザワコーポ102,オザワコーポ102,35.821969100000000,139.792150200000000,048-951-3929,1191800315,,,0,
112224,1190800514,埼玉県,越谷市,SOMPOケア　北越谷　定期巡回,ソンポケア　キタコシガヤ　テイキジュンカイ,定期巡回・随時対応型訪問介護看護,北越谷4-23-8　ルミエール北越谷1F,,35.903011500000000,139.778886800000000,048-970-7001,1190800514,,,0,https//www.sompocare.com
112224,1190800852,埼玉県,越谷市,株式会社リハビリコンパス,カブシキガイシャリハビリコンパス,定期巡回・随時対応型訪問介護看護,埼玉県越谷市大沢4－19－43富士マンション1階,富士マンション1階,35.899787800000000,139.787078800000000,048－867－1500,1190800852,,,0,https://compass100.jp/company/
112224,1190800415,埼玉県,越谷市,定期巡回・随時対応型訪問介護看護　とまりや・ケアリンクステーション,テイキジュンカイ・ズイジタイオウガタホウモンカイゴカンゴ　トマリヤ・ケアリンクステーション,定期巡回・随時対応型訪問介護看護,埼玉県越谷市谷中町四丁目293-1,,53.412910000000000,-8.243889999999960,048-963-1137,1190800415,,,15,http://www.goseikai.jp/tomariya.html
112224,1190800779,埼玉県,越谷市,ゆとり庵北越谷　定期巡回・随時対応型訪問介護看護,ユトリアンキタコシガヤ　テイキジュンカイ・ズイジタイオウガタホウモンカイゴカンゴ,定期巡回・随時対応型訪問介護看護,埼玉県越谷市大字大道643番地地域密着複合施設　ゆとり庵北越谷,地域密着複合施設　ゆとり庵北越谷,35.922795000000000,139.758028500000000,048-967-5560,1190800779,,,0,https://hinode.or.jp/establishment/kitakoshigaya/
112232,1191400124,埼玉県,蕨市,そよ風定期巡回　わらび,ソヨカゼテイキジュンカイ　ワラビ,定期巡回・随時対応型訪問介護看護,埼玉県蕨市中央2-10-1,,35.823132794655800,139.687338727019000,048-420-7505,1191400124,,,0,http://www.unimat-rc.co.jp/shisetsu/result.html?zip=%E5%9F%BC%E7%8E%89%E7%9C%8C&type=1
112275,1192100129,埼玉県,朝霞市,ミアヘルサ定期巡回サービス朝霞,ミアヘルサテイキジュンカイサービスアサカ,定期巡回・随時対応型訪問介護看護,埼玉県朝霞市三原1-11-22ミアヘルサ　オアシス朝霞,ミアヘルサ　オアシス朝霞,35.812063342881500,139.577781693875000,048-458-0813,1192100129,,,50,https://www.merhalsa.jp
112275,1192100194,埼玉県,朝霞市,そよ風定期巡回　あさか,ソヨカゼテイキジュンカイ　アサカ,定期巡回・随時対応型訪問介護看護,埼玉県朝霞市溝沼1050-1朝霞ケアセンターそよ風,朝霞ケアセンターそよ風,35.806606300000000,139.586774200000000,048-461-4860,1192100194,,,0,https://www.sykz.co.jp/
112283,1192200176,埼玉県,志木市,志木ナーシングホーム,シキナーシングホーム,定期巡回・随時対応型訪問介護看護,埼玉県志木市柏町1-6-74,,35.836833300000000,139.575752400000000,048-487-9970,1192200176,,,,http://www.kawatsuru-g.jp
112291,1192300109,埼玉県,和光市,ミアヘルサ定期巡回サービス和光,ミアヘルサテイキジュンカイサービズワコウ,定期巡回・随時対応型訪問介護看護,埼玉県和光市新倉２－５－４９,,35.794228600000000,139.619608500000000,０４８－４２３－０７６３,1192300109,,,57,https://www.merhalsa.jp/
112291,1192300190,埼玉県,和光市,ＳＯＭＰＯケア　和光　定期巡回,ソンポケア　ワコウ　テイキジュンカイ,定期巡回・随時対応型訪問介護看護,埼玉県和光市西大和団地6デュプレ西大和第4号棟第104号室,デュプレ西大和第4号棟第104号室,35.777806995665100,139.608296276057000,048-450-8250,1192300190,,,0,
112291,1192300083,埼玉県,和光市,リーシェガーデン和光ケアセンター定期巡回・随時対応型訪問介護看護サービス,リーシェガーデンワコウケアセンター,定期巡回・随時対応型訪問介護看護,埼玉県和光市丸山台2-11-1,,35.784199500000000,139.616978300000000,048-485-9952,1192300083,,,0,http://www.ej-welfare.jp
112305,1195100126,埼玉県,新座市,ミアヘルサ定期巡回サービス新座,ミアヘルサテイキジュンカイサービスニイザ,定期巡回・随時対応型訪問介護看護,埼玉県新座市北野3-18-24,,35.818935500000000,139.564949100000000,048-458-0836,1195100126,,,31,www.merhalsa.jp
112305,1195100241,埼玉県,新座市,そよ風定期巡回にいざ,ソヨカゼテイキジュンカイニイザ,定期巡回・随時対応型訪問介護看護,埼玉県新座市野寺2-5-19,,35.766274800000000,139.559780100000000,048-482-6360,1195100241,,,0,
112313,1195200124,埼玉県,桶川市,なでしこ,ナデシコ,定期巡回・随時対応型訪問介護看護,埼玉県桶川市東2-11-3東ハイツ１　101号室,東ハイツ１　101号室,35.999229900000000,139.570954700000000,048-771-5002,1195200124,,,,
112313,1195200108,埼玉県,桶川市,定期巡回・随時対応型訪問介護看護あんど,テイキジュンカイ・ズイジタイオウガタホウモンカイゴカンゴアンド,定期巡回・随時対応型訪問介護看護,鴨川1-20-2ﾌｭｰﾁｬ鴨川105,ﾌｭｰﾁｬ鴨川105,35.113320600000000,140.099032200000000,048-729-4538,1195200108,,,10,
112321,1190900140,埼玉県,久喜市,定期巡回・随時対応型訪問介護看護　心支,テイキジュンカイ・ズイジタイオウガタホウモンカイゴカンゴ　ココロエ,定期巡回・随時対応型訪問介護看護,埼玉県久喜市本町6ｰ15ｰ12,,36.073487438362400,139.665521133914000,0480-29-3501,1190900140,,,0,https://myplace-kcm.co.jp/
112330,1195300163,埼玉県,北本市,ケアサポート笑夢,ケアサポートエム,定期巡回・随時対応型訪問介護看護,下石戸下516-44あきのハイツ101,あきのハイツ101,36.014992200000000,139.542503200000000,048-598-6392,1195300163,,,,https://emusmiledream1219.wixsite.com/emu1219
112330,1195300155,埼玉県,北本市,定期巡回・随時対応型訪問看護介護事業所　あんど,テイキジュンカイ・ズイジタイオウガタホウモンカンゴカイゴジギョウショ　アンド,定期巡回・随時対応型訪問介護看護,埼玉県北本市中央３丁目７９番地１,,36.030786900000000,139.531281000000000,048-591-0112,1195300155,,,,
112356,1192900213,埼玉県,富士見市,定期巡回随時対応型　訪問介護看護,テイキジュンカイズイジタイオウガタ　ホウモンカイゴカンゴ,定期巡回・随時対応型訪問介護看護,埼玉県富士見市羽沢3-1-27,,35.856089100000000,139.544929600000000,049-293-1333,1192900213,,,0,http://www.kawaturu-g.jp/
112372,1191200169,埼玉県,三郷市,みさとロイヤル定期巡回・随時対応型訪問介護看護ステーション,ミサトロイヤルテイキジュンカイ　ズイジタイオウガタ　ホウモンカイゴカンゴステーション,定期巡回・随時対応型訪問介護看護,埼玉県三郷市新和5-244,,35.810265800000000,139.880299700000000,048-949-6600,1191200169,,,2,http://www.ims.gr.jp/saitama_misato/
112381,1195700107,埼玉県,蓮田市,けあビジョン蓮田,ケアビジョンハスダ,定期巡回・随時対応型訪問介護看護,埼玉県蓮田市東6－2－11会田ビル2F,会田ビル2F,35.979501400000000,139.653348300000000,048-765-5611,1195700107,,,,http://www.visualvision.co.jp
112399,1196000184,埼玉県,坂戸市,定期巡回・随時対応型訪問介護看護　かおる,テイキジュンカイ・ズイジタイオウガタホウモンカイゴカンゴ　カオル,定期巡回・随時対応型訪問介護看護,埼玉県坂戸市薬師町19-4梅仲荘102,梅仲荘102,35.969545416839000,139.400742642328000,049-237-6031,1196000184,,,30,
112402,1196100109,埼玉県,幸手市,定期巡回つどい幸手中央,テイキジュンカイツドイサッテチュウオウ,定期巡回・随時対応型訪問介護看護,埼玉県幸手市東1-8-32,,36.068599821717800,139.719442716533000,0480-43-8081,1196100109,,,0,http：//www.mcp-net.jp/
112411,1196200198,埼玉県,鶴ヶ島市,定期巡回・随時対応型訪問介護看護ベルグルー,テイキジュンカイズイジタイオウガタホウモンカイゴカンゴベルグルー,定期巡回・随時対応型訪問介護看護,鶴ヶ島市脚折1377番地76サンハイム101,サンハイム101,35.944211900000000,139.403099800000000,049-299-7277,1196200198,,,,http://belgrue.moo.jp/
112411,1196200156,埼玉県,鶴ヶ島市,テパエ鶴ヶ島定期巡回サービス,テパエツルガシマテイキジュンカイサービス,定期巡回・随時対応型訪問介護看護,埼玉県鶴ヶ島市太田ヶ谷432-2,,35.927480000000000,139.403423200000000,049-272-3833,1196200156,,,5,nino-nino.biz
112429,1196300089,埼玉県,日高市,ＮＰＯ法人介護の手,エヌピーオーホウジンカイゴノテ,定期巡回・随時対応型訪問介護看護,埼玉県日高市大字鹿山２０１番地１１,,35.893635400000000,139.339797700000000,042-978-6546,1196300089,,,,https://sapotokaeru.crayonsite.net
112461,1196600041,埼玉県,白岡市,いなほの定期巡回サービス,イナホノテイキジュンカイサービス,定期巡回・随時対応型訪問介護看護,埼玉県白岡市小久喜942-8,,36.014208962784200,139.665478479860000,0480-53-5232,1196600041,,,30,https://inaho.or.jp/
113263,1192400008,埼玉県,毛呂山町,サザンケア株式会社,サザンケアカブシキガイシャ,定期巡回・随時対応型訪問介護看護,埼玉県入間郡毛呂山町前久保南３丁目１９番地１,,35.945955186072700,139.324300435582000,492987402,1192400008,,,0,https://www.southerncare-moroyama.com/
113417,1193200001,埼玉県,滑川町,定期巡回・随時対応型訪問介護看護事業所森林,テイキジュンカイ・ズイジタイオウガタホウモンカイゴカンゴジギョウショシンリン,定期巡回・随時対応型訪問介護看護,埼玉県比企郡滑川町羽尾1041番地7,,36.049960200000000,139.372097500000000,0493-81-5101,1193200001,,,0,http://ｗｗｗ.kokoro.or.jp
113859,1194200174,埼玉県,上里町,あじさいケアセンター,アジサイケアセンター,定期巡回・随時対応型訪問介護看護,埼玉県児玉郡上里町金久保777,,36.265394100000000,139.132240300000000,0495-71-9591,1194200174,,,27,www.wf-meiseikai.or.jp
114081,1194500110,埼玉県,寄居町,シルバータウンあかつき,シルバータウンアカツキ,定期巡回・随時対応型訪問介護看護,埼玉県大里郡寄居町鉢形３１７９－２,,36.098581900000000,139.197956900000000,048-581-4761,1194500110,,,20,http://www.gh-akatuki.net/
114421,1190500106,埼玉県,宮代町,定期巡回訪問介護看護シールズ,テイキジュンカイホウモンカイゴカンゴシールズ,定期巡回・随時対応型訪問介護看護,埼玉県南埼玉郡宮代町川端3丁目3番5号,,36.004816018921900,139.741583520238000,0480-77-4748,1190500106,,,,https://shields-recruit.com/
121011,1290100245,千葉県,千葉市中央区,やさしい手千葉新田町定期巡回・随時対応型訪問介護看護事業所,ヤサシイテチバシンデンチョウテイキジュンカイズイジタイオウガタホウモンカイゴカンゴジギョウショ,定期巡回・随時対応型訪問介護看護,千葉県千葉市中央区新田町４－２２サンライトビル２０２,サンライトビル２０２,35.609200500000000,140.113803900000000,043-379-6520,1290100245,,,0,http://www.yasashiite.com/subdomains/section/032/
121037,1290193011,千葉県,千葉市稲毛区,生活クラブ風の村定期巡回ステーション稲毛,セイカツクラブカゼノムラテイキジュンカイステーションイナゲ,定期巡回・随時対応型訪問介護看護,千葉県千葉市稲毛区園生町1107-7生活クラブ風の村いなげ,生活クラブ風の村いなげ,35.641189000000000,140.103566900000000,043-251-3111,1290193011,,,0,
121045,1290400140,千葉県,千葉市若葉区,やさしい手都賀定期巡回・随時対応型訪問介護看護,ヤサシイテツガテイキジュンカイホウモンカイゴカンゴ,定期巡回・随時対応型訪問介護看護,千葉県千葉市若葉区都賀５－１９－１グランドマストやさしえ都賀,グランドマストやさしえ都賀,35.637820866150400,140.154594234424000,043-379-1027,1290400140,,,0,http://www.yasashiite.com
121045,1290400165,千葉県,千葉市若葉区,若葉定期巡回訪問介護看護ステーション,ワカバテイキジュンカイホウモンカイゴカンゴステーション,定期巡回・随時対応型訪問介護看護,千葉県千葉市若葉区小倉町1763番地12,,53.412910000000000,-8.243889999999970,043-234-7881,1290400165,,,0,https://www.habitation.co.jp/wakaba
121045,1290400272,千葉県,千葉市若葉区,ケアタク,ケアタク,定期巡回・随時対応型訪問介護看護,千葉県千葉市若葉区桜木4-17-39,,35.625234700000000,140.157466500000000,043-214-1081,1290400272,,,0,https://largo-care.com
121053,1290500139,千葉県,千葉市緑区,定期巡回随時対応型訪問介護看護楽隠居,テイキジュンカイズイジタイオウガタホウモンカイゴカンゴラクインキョ,定期巡回・随時対応型訪問介護看護,千葉県千葉市緑区おゆみ野南2-10-4おゆみ野楽隠居倶楽部弐号館,おゆみ野楽隠居倶楽部弐号館,35.551734800000000,140.167475300000000,043-497-6607,1290500139,,,0,http://www.kimeikai-kaigo.jp/
121061,1290600103,千葉県,千葉市美浜区,しょうじゅ定期巡回・随時対応型訪問介護事業所,ショウジュテイキジュンカイズイジタイオウガタホウモンカイゴジギョウショ,定期巡回・随時対応型訪問介護看護,千葉県千葉市美浜区幸町2-12-1,,35.621010800000000,140.092835500000000,043-203-5067,1290600103,,,10,http://www.akaedakai.com
122025,1290700259,千葉県,銚子市,定期巡回サービスなごやか,テイキジュンカイサービスナゴヤカ,定期巡回・随時対応型訪問介護看護,千葉県銚子市茶畑町５２番地,,35.735571100000000,140.738424600000000,0479-21-5676,1290700259,,,0,https://www.nagoyaka-kaigo.jp/
122033,1290800448,千葉県,市川市,SOMPOケア　地域サービスセンター　市川八幡　定期巡回,ソンポケア　チイキサービスセンター　イチカワヤワタ　テイキジュンカイ,定期巡回・随時対応型訪問介護看護,千葉県市川市八幡2丁目3番18号ヴェルス本八幡　１階,ヴェルス本八幡　１階,35.723178000000000,139.928910100000000,047-332-8208,1290800448,,,0,https://www.sompocare.com
122033,1290800224,千葉県,市川市,一般財団法人市川市福祉公社,イッパンザイダンホウジンイチカワシフクシコウシャ,定期巡回・随時対応型訪問介護看護,千葉県市川市市川南一丁目1番1号ザタワーズイースト209号,ザタワーズイースト209号,35.728218700000000,139.908061400000000,047-313-4070,1290800224,,,,http://www.i-fukukou.com
122041,1290900461,千葉県,船橋市,やさしい手新高根定期巡回・随時対応型訪問介護看護,ヤサシイテシンタカネテイキジュンカイ・ズイジタイオウガタホウモンカイゴカンゴ,定期巡回・随時対応型訪問介護看護,千葉県船橋市新高根3-27-2センチュリーテラス船橋1階,センチュリーテラス船橋1階,35.732804800000000,140.025548400000000,050-1753-4347,1290900461,,,0,http://www.yasashiite.com/index.html
122041,1290901584,千葉県,船橋市,今から定巡２４,イマカラテイジュンニジュウヨン,定期巡回・随時対応型訪問介護看護,千葉県船橋市本町４－４０－２３SadoyaSouthernTerrace9F,SadoyaSouthernTerrace9F,35.698211600000000,139.986401200000000,047-409-8037,1290901584,,,50,http://ima-kara.co.jp/
122041,1290900792,千葉県,船橋市,ＳＯＭＰＯケア　船橋前原　定期巡回,ソンポケア　フナバシマエバラ　テイキジュンカイ,定期巡回・随時対応型訪問介護看護,千葉県船橋市前原西3-16-6,,35.696224900000000,140.021109100000000,047-403-6411,1290900792,,,0,https://www.sompocare.com/
122041,1292893029,千葉県,船橋市,丸美ライフサービス定期巡回・随時対応事務所,マルミライフサービステイキジュンカイ・ズイジタイオウジムショ,定期巡回・随時対応型訪問介護看護,千葉県船橋市本町2-26-20,,35.698687759297000,139.982939020238000,047-401-7097,1292893029,,,0,http://www.marumi-life.co.jp/
122041,1292893011,千葉県,船橋市,生活クラブ風の村定期巡回ステーション高根台,セイカツクラブカゼノムラテイキジュンカイステーションタカネダイ,定期巡回・随時対応型訪問介護看護,千葉県船橋市高根台2-2-17,,35.734398100000100,140.031767900000000,047-496-7263,1292893011,,,0,https://kazenomura.jp/
122041,1290900727,千葉県,船橋市,銀木犀＜薬園台＞定期巡回随時対応型事業所,ギンモクセイ＜ヤクエンダイ＞テイキジュンカイズイジタイオウガタジギョウショ,定期巡回・随時対応型訪問介護看護,千葉県船橋市飯山満町3-1587,,35.713451200000000,140.031374100000000,047-402-4062,1290900727,,,0,http://ginmokusei.net
122041,1290901154,千葉県,船橋市,けあらぼ24船橋行田,ケアラボ24フナバシギョウダ,定期巡回・随時対応型訪問介護看護,千葉県船橋市山手3-14-5,,35.718433309306000,139.976525726809000,047-407-2718,1290901154,,,0,http://www.asupara1.com/carelabo/
122068,1291100111,千葉県,木更津市,ファミリーケア・ナースセンター絆,ファミリーケア・ナースセンターキズナ,定期巡回・随時対応型訪問介護看護,千葉県木更津市江川523-2,,35.405960200000000,139.920917200000000,0438-53-8747,1291100111,,,0,http://www.anshinnokizuna.com/
122068,1291100228,千葉県,木更津市,やまみ定期巡回ステーション波岡,ヤマミテイキジュンカイステーションナミオカ,定期巡回・随時対応型訪問介護看護,千葉県木更津市大久保２－２０－６,,35.343031700000000,139.933149300000000,０４３８－３７－６００８,1291100228,,,10,https://yamamikaigo.jp/
122076,1291200432,千葉県,松戸市,定期巡回・随時対応型訪問介護看護みくに,テイキジュンカイ・ズイジタイオウガタホウモンカイゴカンゴミクニ,定期巡回・随時対応型訪問介護看護,千葉県松戸市栄町西５－１３２２（株）みくに　在宅介護事業所,（株）みくに　在宅介護事業所,35.808445519460300,139.891264020207000,047-710-9850,1291200432,,,40,http://chiicomi.com/shop?s=454f5965-4283-11e6-8bd0-a0369f7b8e6e
122076,1291200390,千葉県,松戸市,ルポゼ東松戸定期巡回随時対応型訪問介護看護事業所,ルポゼヒガシマツド　テイキジュンカイズイジタイオウガタ　ホウモンカイゴカンゴジギョウショ,定期巡回・随時対応型訪問介護看護,千葉県松戸市東松戸3-15-16,,35.770024000000000,139.940029900000000,047-392-0001,1291200390,,,0,http://reposer-higashimatsudo.com/
122076,1291200424,千葉県,松戸市,元気介護サービス定期巡回,ゲンキカイゴサービステイキジュンカイ,定期巡回・随時対応型訪問介護看護,千葉県松戸市中根517番地,,35.806038500000000,139.917282600000000,047-710-8825,1291200424,,,30,http://genki-matsudo.com/
122076,1291200804,千葉県,松戸市,SOMPOケア　五香南　定期巡回,ソンポケア　ゴコウミナミ　テイキジュンカイ,定期巡回・随時対応型訪問介護看護,千葉県松戸市五香南2－14－1そんぽの家S五香南,そんぽの家S五香南,35.791662200000000,139.977087500000000,047-706-6077,1291200804,,,10,https://www.sompocare.com/service/zaitaku/teikijunkai/Z000944
122076,1291200663,千葉県,松戸市,秋桜ヴィレッジ訪問介護事業所,コスモスウ゛ィレッジホウモンカイゴジギョウショ,定期巡回・随時対応型訪問介護看護,千葉県松戸市栄町西5－1344－1,,35.807679300000000,139.894773800000000,047-712-1065,1291200663,,,0,https://www.mother-like.co.jp/
122076,1291200549,千葉県,松戸市,グリーンセレスト　定期随時型,グリーンセレストテイキズイジガタ,定期巡回・随時対応型訪問介護看護,松戸市八ヶ崎7-33-1宇田川ハイツ弐番館202号室,宇田川ハイツ弐番館202号室,35.811841500000000,139.929441600000000,047-710-9471,1291200549,,,0,http://rhinokino.jp/
122076,1291200861,千葉県,松戸市,月明会定期巡回事業所,ゲツメイカイテイキジュンカイジギョウショ,定期巡回・随時対応型訪問介護看護,千葉県松戸市稔台7-17-2メゾンブローニュ102号,メゾンブローニュ102号,35.786853600000000,139.928901000000000,047-710-5445,1291200861,,,,https://getsumeikai.com/
122076,1291200408,千葉県,松戸市,やさしい手八柱定期巡回随時対応型訪問介護看護,ヤサシイテヤバシラテイキジュンカイズイジタイオウガタホウモンカイゴカンゴ,定期巡回・随時対応型訪問介護看護,千葉県松戸市日暮４－３－３,,35.788256299599000,139.938662581243000,050-1752-0665,1291200408,,,0,http://www.yasashiite.com/subdomains/section/394/
122084,1291300190,千葉県,野田市,あずみ苑グランデ柳沢,アズミエングランデヤナギサワ,定期巡回・随時対応型訪問介護看護,千葉県野田市柳沢52-1,,35.959272200000000,139.870072100000000,04-7126-5521,1291300190,,,25,http://www.azumien.jp
122114,1291600243,千葉県,成田市,生活クラブ風の村定期巡回ステーションなりた,セイカツクラブカゼノムラテイキジュンカイステーションナリタ,定期巡回・随時対応型訪問介護看護,千葉県成田市大竹字内沼370-5,,35.809269000000000,140.278006000000000,0476－37－5277,1291600243,,,20,https://kazenomura.jp/
122114,1291600326,千葉県,成田市,定期巡回アルテロイテ,テイキジュンカイアルテロイテ,定期巡回・随時対応型訪問介護看護,千葉県成田市北須賀33カレッサ成田北須賀内,カレッサ成田北須賀内,35.784977874855100,140.259918559185000,0476-26-3388,1291600326,,,,
122165,1292100276,千葉県,習志野市,かがやきの郷福楽園定期巡回・随時対応型訪問介護看護,カガヤキノサトフクラクエンテイキジュンカイ・ズイジタイオウガタホウモンカイゴカンゴ,定期巡回・随時対応型訪問介護看護,千葉県習志野市東習志野1-1-20,,35.695119400000000,140.063858200000000,047-409-5953,1292100276,,,0,https://e-houseikai.or.jp/
122173,1292200258,千葉県,柏市,生活クラブ風の村定期巡回ステーション光ヶ丘,セイカツクラブカゼノムラテイキジュンカイステーションヒカリガオカ,定期巡回・随時対応型訪問介護看護,千葉県柏市東中新宿4-5-12,,35.830964391901000,139.960978742328000,04-7171-3988,1292200258,,,0,http://kazenomura.jp/
122173,1292200993,千葉県,柏市,SOMPOケア　柏青葉台　定期巡回,ソンポケアカシワアオバダイテイキジュンカイ,定期巡回・随時対応型訪問介護看護,千葉県柏市青葉台2₋16‐15そんぽの家Ｓ柏青葉台,そんぽの家Ｓ柏青葉台,35.812878919181300,139.957404782140000,04‐7161‐1030,1292200993,,,50,https://www.sompocare.com/
122173,1292200910,千葉県,柏市,定期巡回和気あいあい24,テイキジュンカイワキアイアイ24,定期巡回・随時対応型訪問介護看護,千葉県柏市松葉町３丁目24-7,,35.886440600000000,139.966180700000000,04-7189-8536,1292200910,,,0,https://www.wakiaiai-kaigo.jp/
122173,1292200605,千葉県,柏市,SOMPOケア地域サービスセンター豊四季　定期巡回,ソンポケアチイキサービスセンタートヨシキ　テイキジュンカイ,定期巡回・随時対応型訪問介護看護,千葉県柏市豊四季283－1,,35.861098703009500,139.948092536222000,04－7142－9211,1292200605,,,0,https://www.sompocare.com/service/zaitaku/teikijunkai/Z000609
122173,1292200266,千葉県,柏市,やさしい手新柏訪問介護事業所,ヤサシイテシンカシワホウモンカイゴジギョウショ,定期巡回・随時対応型訪問介護看護,千葉県柏市豊住１丁目３-２５センチュリーテラス新柏　１階,センチュリーテラス新柏　１階,35.839833500000000,139.960855300000000,050-1752-1290,1292200266,,,0,https://www.yasashiite.com/subdomains/section/213/
122173,1292200324,千葉県,柏市,定期巡回・随時対応型訪問介護看護やすらぎ,テイキジュンカイ・ズイジタイオウガタホウモンカイゴカンゴヤスラギ,定期巡回・随時対応型訪問介護看護,千葉県柏市豊四季台1丁目3番1号ココファン柏豊四季台内,ココファン柏豊四季台内,35.866176000000000,139.957485500000000,04-7170-4171,1292200324,,,0,http://www.fukushiplazasakuragawa.com/
122173,1292200977,千葉県,柏市,アプリシェイト定期巡回・随時対応型訪問介護看護ステーション,アプリシェイトテイキジュンカイ・ズイジタイオウガタホウモンカイゴカンゴステーション,定期巡回・随時対応型訪問介護看護,千葉県柏市高柳1460-1フラットワン　A号室,フラットワン　A号室,35.811557600000000,140.000698300000000,04－7128－6718,1292200977,,,,
122190,1292400437,千葉県,市原市,巡回ステーションひと結び,ジュンカイステーションヒトムスビ,定期巡回・随時対応型訪問介護看護,千葉県市原市喜多823-1,,35.500778358190500,140.183319848152000,0436-26-5033,1292400437,,,,https://shinwakaigo.org
122190,1292400346,千葉県,市原市,在宅アシスト和気あいあい,ザイタクアシストワキアイアイ,定期巡回・随時対応型訪問介護看護,千葉県市原市姉崎2580-1,,35.477822400000000,140.058154400000000,0436-63-6602,1292400346,,,0,https://www.qolife.or.jp/
122203,1292500251,千葉県,流山市,生活クラブ風の村　定期巡回サービス流山,セイカツクラブカゼノムラ　テイキジュンカイサービスナガレヤマ,定期巡回・随時対応型訪問介護看護,千葉県流山市東深井20-29,,35.906462420785500,139.903258568123000,04-7186-6251,1292500251,,,,
122203,1292500319,千葉県,流山市,秋桜ヴィレッジ南流山訪問介護事業所,コスモスヴィレッジミナミナガレヤマホウモンカイゴジギョウショ,定期巡回・随時対応型訪問介護看護,千葉県流山市南流山8-2-1ロイヤルシャトー南流山２号室,ロイヤルシャトー南流山２号室,35.837964500000000,139.896435000000000,04-7193-8442,1292500319,,,0,https://mother-like.co.jp/nursing/regularvisit.html
122211,1292600341,千葉県,八千代市,医療法人社団澄乃会　向日葵ラウンドケア,イリョウホウジンシャダンスミノカイ　ヒマワリラウンドケア,定期巡回・随時対応型訪問介護看護,千葉県八千代市ゆりのき台5-1-2ブライトリーフ,ブライトリーフ,35.730731500000000,140.104029500000000,047-485-6000,1292600341,,,16,http://suminokai.jp/
122220,1292700265,千葉県,我孫子市,けやきの里定期巡回・随時対応型訪問介護看護事業所,ケヤキノサトテイキジュンカイ・ズイジタイオウガタホウモンカイゴカンゴジギョウショ,定期巡回・随時対応型訪問介護看護,千葉県我孫子市青山４１７番,,35.876963422447100,140.051988505288000,０４－７１８１－０００２,1292700265,,,0,https://kojk.jp/keyakinosato/index.html
122238,1292800107,千葉県,鴨川市,ケアサポートセンターＭＯＡＮＡ,ケアサポートセンターモアナ,定期巡回・随時対応型訪問介護看護,千葉県鴨川市西町1011-1介護老人保健施設たいよう内,介護老人保健施設たいよう内,35.122679900000000,140.124690600000000,090-8132-5558,1292800107,,,8,
122246,1292900105,千葉県,鎌ケ谷市,銀木犀＜鎌ヶ谷＞定期巡回・随時対応型事業所,ギンモクセイカマガヤテイキジュンカイズイジタイオウガタジギョウショ,定期巡回・随時対応型訪問介護看護,千葉県鎌ヶ谷市南鎌ヶ谷1-5-28,,35.748561200000000,140.005002600000000,047－441－6636,1292900105,,,0,http://silverwood.co.jp/ginmokusei/
122254,1293000210,千葉県,君津市,アビタシオン君津定期巡回訪問介護看護ステーション,アビタシオンキミツテイキジュンカイホウモンカイゴカンゴステーション,定期巡回・随時対応型訪問介護看護,千葉県君津市⼋重原1338-1,,35.330445100000000,139.902478700000000,0439-50-3965,1293000210,,,0,https://www.habitation.co.jp/kimitsu/
122254,1293000145,千葉県,君津市,定期巡回・随時対応型訪問介護看護事業所つばさ,テイキジュンカイ・ズイジタイオウガタ　ホウモンカイゴカンゴ　ツバサ,定期巡回・随時対応型訪問介護看護,千葉県君津市貞元218-3,,35.331496900000000,139.871524100000000,0439-27-1825,1293000145,,,0,http://allkaigo.com/
122254,1293000079,千葉県,君津市,２４時間訪問介護事業所つばさ,ニジュウヨジカンホウモンカイゴジギョウショツバサ,定期巡回・随時対応型訪問介護看護,千葉県君津市郡2－7－10,,35.312180500000000,139.911282100000000,0439－55－1271,1293000079,,,0,http://tsubasa-shishinkai.com
122262,1293100085,千葉県,富津市,定期巡回･随時対応型訪問介護看護事業所「わたしたちの生きる証」,テイキジュンカイ・ズイジタイオウガタホウモンカイゴカンゴジギョウショ「ワタシタチノイキルアカシ」,定期巡回・随時対応型訪問介護看護,千葉県富津市長崎字熊ノ下274,,35.219202100000000,139.905844900000000,0439-32-1757,1293100085,,,0,http://watashitachinoikiruakashi.jp/
122262,1293100069,千葉県,富津市,玄々堂亀田の郷定期巡回・随時対応型訪問介護看護事業所,ゲンゲンドウカメダノサトテイキジュンカイ・ズイジタイオウガタホウモンカイゴカンゴジギョウショ,定期巡回・随時対応型訪問介護看護,千葉県富津市亀田445-1,,35.261176594378800,139.877992275849000,0439-27-0850,1293100069,,,0,https://gengendo-sanukikai.jp/
122289,1294493011,千葉県,四街道市,コープみらい四街道介護センター,コープミライヨツカイドウカイゴセンター,定期巡回・随時対応型訪問介護看護,千葉県四街道市大日1793-15,,35.668868600000000,140.158998300000000,043-304-9261,1294493011,,,0,https://mirai.coopnet.or.jp/service/welfare/
122297,1293400089,千葉県,袖ケ浦市,定期巡回・随時対応型訪問介護看護事業所,テイキジュンカイ・ズイジタイオウガタホウモンカイゴカンゴジギョウショ,定期巡回・随時対応型訪問介護看護,千葉県袖ケ浦市蔵波3037番地1,,35.434621404070400,140.010947982803000,0438-38-5551,1293400089,,,,http://www.eiwa.or.jp/
122297,1293400071,千葉県,袖ケ浦市,24時間対応型ベストケア訪問介護,ニジュウヨジカンタイオウガタベストケアホウモンカイゴ,定期巡回・随時対応型訪問介護看護,千葉県袖ケ浦市神納1-19-3グローバルビレッジ10号,グローバルビレッジ10号,35.423401400000000,139.959993300000000,0438-42-1194,1293400071,,,0,https://bestcare-group.com/
122301,1293500110,千葉県,八街市,生活クラブ風の村定期巡回ステーション八街,セイカツクラブカゼノムラテイキジュンカイステーションヤチマタ,定期巡回・随時対応型訪問介護看護,千葉県八街市東吉田912-8,,35.638705600000000,140.292602700000000,043-443-8159,1293500110,,,60,https://kazenomura.jp/
122327,1294200116,千葉県,白井市,さつきの里　定期巡回・随時対応型訪問介護看護事業所,サツキノサト　テイキジュンカイ　ホウモンカイゴカンゴジギョウショ,定期巡回・随時対応型訪問介護看護,千葉県白井市笹塚3-25-1,,35.789933702873700,140.054255824422000,047-492-1135,1294200116,,,100,http://kojk.jp
122351,1298700111,千葉県,匝瑳市,九十九里ホーム定期巡回・随時対応シオン,クジュウクリホームテイキジュンカイ・ズイジタイオウシオン,定期巡回・随時対応型訪問介護看護,千葉県匝瑳市飯倉97-1,,35.687135302674200,140.521730759169000,0479-85-7707,1298700111,,,0,
123498,1295300071,千葉県,東庄町,神代の森定期巡回随時対応型訪問介護看護,ジンダイノモリテイキジュンカイズイジタイオウガタホウモンカイゴカンゴ,定期巡回・随時対応型訪問介護看護,千葉県香取郡東庄町窪野谷1661,,35.805294500000000,140.645942300000000,0478-79-0753,1295300071,,,0,https://please-1222.com/
131016,1390100137,東京都,千代田区,ＳＯＭＰＯケア　在宅老人ホーム千代田　定期巡回,ソンポケア　ザイタクロウジンホームチヨダ　テイキジュンカイ,定期巡回・随時対応型訪問介護看護,東京都千代田区麹町四丁目5番地4桜井ビル5階,桜井ビル5階,35.683525800000000,139.736844700000000,03-6268-9736,1390100137,,,,https://www.sompocare.com/service/zaitaku/kaigo/Z000870
131016,1390100087,東京都,千代田区,かんだ連雀いつでもサポートサービス,カンダレンジャクイツデモサポートサービス,定期巡回・随時対応型訪問介護看護,東京都千代田区神田淡路町２-８-１,,35.696655600000000,139.768444200000000,03-3252-8815,1390100087,,,0,http://tama-dnk.or.jp
131016,1390100079,東京都,千代田区,グッドライフケア２４,グッドライフケアニジュウヨン,定期巡回・随時対応型訪問介護看護,東京都千代田区九段北2-3-7前川九段ビル2階,前川九段ビル2階,35.695188241908400,139.745551852008000,03-6272-6475,1390100079,,,0,https://goodlifecare.co.jp/
131024,1390200101,東京都,中央区,定期巡回ステーションあいおい,テイキジュンカイステーションアイオイ,定期巡回・随時対応型訪問介護看護,東京都中央区佃3丁目１－１５,,35.665873368522600,139.787315323943000,03-5548-2491,1390200101,,,0,http://www.aioinosato.jp
131032,1390300216,東京都,港区,グッドライフケア２４,グッドライフケア　ニジュウヨン,定期巡回・随時対応型訪問介護看護,東京都港区東麻布１－７－３第二渡邊ビル２Ｆ,第二渡邊ビル２Ｆ,35.657683600000000,139.743587900000000,03-6441-0895,1390300216,,,0,https://goodlifecare.co.jp/
131041,1390400230,東京都,新宿区,エイプレイス新宿,エイプレイスシンジュク,定期巡回・随時対応型訪問介護看護,東京都新宿区高田馬場4-4-11内藤ビル1階,内藤ビル1階,35.712476445125400,139.701606893904000,03-5337-5228,1390400230,,,0,http://a-place.co.jp
131041,1390400453,東京都,新宿区,ＳＯＭＰＯケア　在宅老人ホーム新宿　定期巡回,ソンポケア　ザイタクロウジンホームシンジュク　テイキジュンカイ,定期巡回・随時対応型訪問介護看護,東京都新宿区高田馬場2-5-23第1桂城ビル4階,第1桂城ビル4階,35.714132100000000,139.710883200000000,03-6302-1017,1390400453,,,50,https://www.sompocare.com
131041,1390400586,東京都,新宿区,日本リック定期巡回市谷事業所,ニホンリックテイキジュンカイイチガヤジギョウショ,定期巡回・随時対応型訪問介護看護,東京都新宿区市谷台町4番地16号サンライズ市ヶ谷1階,サンライズ市ヶ谷1階,35.693021700000000,139.719705000000000,03-6274-8510,1390400586,,,0,https://www.rickcare.jp/
131059,1390500351,東京都,文京区,せら定期巡回・随時訪問介護看護,セラテイキジュンカイ・ズイジホウモンカイゴカンゴ,定期巡回・随時対応型訪問介護看護,東京都文京区本郷3丁目15－2本郷二村ビル201,本郷二村ビル201,35.704742119520900,139.761633433730000,03－5840－7040,1390500351,,,30,https://houkankesera.net
131059,1390500153,東京都,文京区,グッドライフケア２４,グッドライフケア　ニジュウヨン,定期巡回・随時対応型訪問介護看護,東京都文京区西片2-19-15,,35.716400288894600,139.756982561386000,03-5844-6093,1390500153,,,0,https://goodlifecare.co.jp/
131067,1390600367,東京都,台東区,SOMPOケア台東　定期巡回・随時対応型訪問介護看護,ソンポケアタイトウテイキジュンカイズイジタイオウガタホウモンカイゴカンゴ,定期巡回・随時対応型訪問介護看護,東京都台東区寿1-5-9盛光伸光ビル8階,盛光伸光ビル8階,35.706858700000000,139.790471400000000,03-6231-6120,1390600367,,,9,https://www.sompocare.com/service/zaitaku/kaigo/Z000044
131075,1390700589,東京都,墨田区,SOMPOケア東墨田　定期巡回,ソンポケアヒガシスミダ　テイキジュンカイ,定期巡回・随時対応型訪問介護看護,東京都墨田区東墨田2-3-18そんぽの家Ｓ東墨田ヒカリ,そんぽの家Ｓ東墨田ヒカリ,35.718318277606900,139.832661914095000,03-5631-2258,1390700589,,,50,https://www.sompocare.com/service/home/satsuki/H000309
131083,1390800207,東京都,江東区,グッドライフケア24,グッドライフケアニジュウヨン,定期巡回・随時対応型訪問介護看護,東京都江東区豊洲4-2-2豊南堂ビル4階,豊南堂ビル4階,35.655069542818000,139.797717660713000,03-6204-9633,1390800207,,,0,https://goodlifecare.co.jp/
131083,1390800397,東京都,江東区,ＳＯＭＰＯケア　江東　定期巡回,ソンポケア　コウトウ　テイキジュンカイ,定期巡回・随時対応型訪問介護看護,東京都江東区東陽5丁目30番13号東京原木会館７階,東京原木会館７階,35.673660685323700,139.815763417505000,03-6666-4925,1390800397,,,0,http://www.sompocare.com
131083,1390800470,東京都,江東区,そよ風定期巡回　すなまち,ソヨカゼテイキジュンカイスナマチ,定期巡回・随時対応型訪問介護看護,東京都江東区北砂4-26-6ママダビル1F,ママダビル1F,35.679821900000000,139.833405500000000,03-5653-1325,1390800470,,,26,http://www.unimat-rc.co.jp
131083,1390800611,東京都,江東区,アウケアホーム江東・定期巡回,アウケアホームコウトウ・テイキジュンカイ,定期巡回・随時対応型訪問介護看護,東京都江東区東陽町2-4-34東郷ビル(WEST)201,東郷ビル(WEST)201,35.669028800000000,139.817147300000000,03-6666-7405,1390800611,,,0,
131091,1390900460,東京都,品川区,ＳＯＭＰＯケア　品川　定期巡回,ソンポケア　シナガワ　テイキジュンカイ,定期巡回・随時対応型訪問介護看護,東京都品川区北品川3-11-16品川第一地域センタービル１階,品川第一地域センタービル１階,35.616727054915100,139.740053273507000,03-5479-7013,1390900460,,,0,
131105,1391000179,東京都,目黒区,やさしい手学芸大学定期巡回・随時対応型訪問介護看護事業所,ヤサシイテガクゲイガイガクテイキジュンカイズイジタイオウガタホウモンカイゴカンゴジギョウショ,定期巡回・随時対応型訪問介護看護,東京都目黒区碑文谷５－２０－１ドゥオールビル２階２０１号,ドゥオールビル２階２０１号,35.624531100000000,139.682256500000000,050-1752-0680,1391000179,,,0,http://www.yasashiite.com/subdomains/section/211/
131105,1391000435,東京都,目黒区,ＳＯＭＰＯケア　目黒　定期巡回,ソンポケア　メグロ　テイキジュンカイ,定期巡回・随時対応型訪問介護看護,東京都目黒区自由が丘1－20－19光進自由が丘ビルB1階一号室,光進自由が丘ビルB1階一号室,35.626269500000000,139.672437800000000,03ｰ6421-1559,1391000435,,,0,http://www.sompocare.com
131113,1391101118,東京都,大田区,SOMPOケア在宅老人ホーム大田　定期巡回,ソンポケア　ザイタクロウジンホームオオタ　テイキジュンカイ,定期巡回・随時対応型訪問介護看護,東京都大田区西蒲田6-36-11西蒲田NSビル　５階,西蒲田NSビル　５階,35.564616257013400,139.712880881158000,03-6428-7610,1391101118,,,0,https://www.sompocare.com
131113,1391100839,東京都,大田区,定期巡回池上長寿園24,テイキジュンカイイケガミチョウジュエンニジュウヨン,定期巡回・随時対応型訪問介護看護,東京都大田区仲池上2-24-8特別養護老人ホーム池上　1階,特別養護老人ホーム池上　1階,35.584750700000000,139.697843300000000,03-6410-5711,1391100839,,,15,http://www.ikegami.or.jp
131113,1391101522,東京都,大田区,カラーズ２４,カラーズ２４,定期巡回・随時対応型訪問介護看護,東京都大田区大森西3-19-21,,35.572524500000000,139.729921300000000,03-6450-0164,1391101522,,,,https://www.colors-g.co.jp/
131113,1391101415,東京都,大田区,そよ風定期巡回　かまた,ソヨカゼテイキジュンカイ　カマタ,定期巡回・随時対応型訪問介護看護,東京都大田区南蒲田2-8-10,,35.555599700000000,139.725856400000000,03-5480-7050,1391101415,,,0,https://www.unimat-rc.co.jp/shisetsu-zaitaku/134315
131121,1391201231,東京都,世田谷区,ナーシング・ケアステーション梅ヶ丘,ナーシング・ケアステーションウメガオカ,定期巡回・随時対応型訪問介護看護,東京都世田谷区松原六丁目37番1号,,35.657684800000000,139.650629400000000,03-6379-0528,1391201231,,,0,
131121,1391201041,東京都,世田谷区,ＳＯＭＰＯケア世田谷,ソンポケアセタガヤ,定期巡回・随時対応型訪問介護看護,東京都世田谷区三軒茶屋1-37-8ワコーレ三軒茶屋64　10F,ワコーレ三軒茶屋64　10F,35.642969770201300,139.670867319912000,03-5431-0371,1391201041,,,0,https://www.sompocare.com/service/zaitaku/elderly/
131121,1391200639,東京都,世田谷区,やさしい手千歳烏山定期巡回・随時対応型訪問介護看護事業所,ヤサシイテチトセカラスヤマテイキジュンカイ・ズイジタイオウガタホウモンカイゴカンゴジギョウショ,定期巡回・随時対応型訪問介護看護,東京都世田谷区南烏山6-10-9コーシャハイム千歳烏山9号棟１階,コーシャハイム千歳烏山9号棟１階,35.668928500000000,139.597684100000000,050-1752-0677,1391200639,,,0,http://www.yasashiite.com
131121,1391200654,東京都,世田谷区,24ケアステーション　ノテ東京,ニジュウヨンケアステーション　ノテトウキョウ,定期巡回・随時対応型訪問介護看護,東京都世田谷区深沢7-１7-20,,35.621109713278800,139.647769326186000,03-6432-3892,1391200654,,,0,
131121,1391200399,東京都,世田谷区,やさしい手　用賀定期巡回随時対応型訪問介護看護事業所,ヤサシイテ　ヨウガテイキジュンカイズイジタイオウガタホウモンカイゴカンゴジギョウショ,定期巡回・随時対応型訪問介護看護,東京都世田谷区用賀2-31-7イイダアネックスⅠ　2階A,イイダアネックスⅠ　2階A,35.624713800000000,139.635391400000000,050-1743-8899,1391200399,,,10,http://www.yasashiite.com
131121,1391201033,東京都,世田谷区,社会福祉法人青藍会　在宅医療支援センター　ハートハウス成城,シャカイフクシホウジンセイランカイ　ザイタクイリョウシエンセンター　ハートハウスセイジョウ,定期巡回・随時対応型訪問介護看護,東京都世田谷区成城2-35-3101,101,35.639547200000000,139.599993900000000,03-3416-4160,1391201033,,,30,http://www.seirankai.or.jp
131121,1391201678,東京都,世田谷区,ＳＯＭＰＯケア成城定期巡回,ソンポケアセイジョウテイキジュンカイ,定期巡回・随時対応型訪問介護看護,東京都世田谷区成城6-18-3小島ハウスA,小島ハウスA,35.642117000000000,139.598002600000000,03-6411-2144,1391201678,,,,https://www.sompocare.com/service/zaitaku/kaigo/Z000103
131130,1391300330,東京都,渋谷区,SOMPOケア渋谷　定期巡回,ソンポケアシブヤ　テイキジュンカイ,定期巡回・随時対応型訪問介護看護,東京都渋谷区代々木三丁目28番6号いちご西参道ビルA棟2階A室,いちご西参道ビルA棟2階A室,35.683577800000000,139.692154500000000,03-6300-5848,1391300330,,,0,https://www.sompocare.com/
131148,1391400742,東京都,中野区,SOMPOケア中野定期巡回,ソンポケアナカノテイキジュンカイ,定期巡回・随時対応型訪問介護看護,東京都中野区中野三丁目33番18号フェルテ中野302号室,フェルテ中野302号室,35.702985400000000,139.665338300000000,03-6382-8202,1391400742,,,,https://www.sompocare.com
131148,1391400825,東京都,中野区,エイプレイス中野,エイプレイスナカノ,定期巡回・随時対応型訪問介護看護,東京都中野区中野5-24-18クロス・スクエアNAKANO901号,クロス・スクエアNAKANO901号,35.709637400000000,139.669404800000000,03-5318-2550,1391400825,,,0,https://www.a-place.co.jp/
131148,1391400585,東京都,中野区,やさしい手中野南口定期巡回・随時対応型訪問介護看護事業所,ヤサシイテナカノミナミグチテイキジュンカイ・ズイジタイオウガタホウモンカイゴカンゴジギョウショ,定期巡回・随時対応型訪問介護看護,東京都中野区中央3-50-9ワタナベセカンドビル2階,ワタナベセカンドビル2階,35.702202500000000,139.673123200000000,050-1752-0657,1391400585,,,0,https://search.yasashiite.com/detail/homonkaigo_nakanominamiguchi/
131156,1391500616,東京都,杉並区,ウォームハート杉並,ウォームハートスギナミ,定期巡回・随時対応型訪問介護看護,東京都杉並区上井草３－１７－２４,,35.720801600000000,139.605287300000000,03-4361-2343,1391500616,,,0,https://www.coolhead.co.jp/
131156,1391500632,東京都,杉並区,笑生定時巡回・随時対応型訪問介護看護ステーション,ショウセイテイキジュンカイ・ズイジタイオウガタホウモンカイゴカンゴステーション,定期巡回・随時対応型訪問介護看護,東京都杉並区西荻南３－７－２,,35.702081618975100,139.601085096959000,０３－５３４４－９８３８,1391500632,,,0,https://shosei-tera.co.jp/
131156,1391500855,東京都,杉並区,ＳＯＭＰＯケア　在宅老人ホーム杉並　定期巡回,ソンポケア　ザイタクロウジンホームスギナミ　テイキジュンカイ,定期巡回・随時対応型訪問介護看護,東京都杉並区阿佐谷南1-17-18阿佐谷下田ビル２階,阿佐谷下田ビル２階,35.700780245726400,139.636992692065000,03-5929-8685,1391500855,,,0,https://www.sompocare.com/
131156,1391501077,東京都,杉並区,スギコー定期巡回,スギコーテイキジュンカイ,定期巡回・随時対応型訪問介護看護,東京都杉並区高井戸東3-18-7杉並第2ビル,杉並第2ビル,35.685591300000000,139.621594700000000,03-5344-9222,1391501077,,,0,https://sugiko-welfare.com/
131156,1391501176,東京都,杉並区,エフリオ訪問看護・定期巡回ステーション,エフリオホウモンカンゴ・テイキジュンカイステーション,定期巡回・随時対応型訪問介護看護,東京都杉並区阿佐谷北2-14-5大坂やビル1階,大坂やビル1階,35.706043000000000,139.636282200000000,03-5356-1267,1391501176,,,0,https://f-reo.jp
131156,1391501515,東京都,杉並区,アウケアホーム杉並・定期巡回,アウケアホームスギナミ・テイキジュンカイ,定期巡回・随時対応型訪問介護看護,東京都杉並区阿佐谷北5-1-5RICO102,RICO102,35.706745800000000,139.641443200000000,03-5356-8190,1391501515,,,100,https://3s.care/
131156,1391501333,東京都,杉並区,ほっとらいふ　定期巡回,ホットライフ　テイキジュンカイ,定期巡回・随時対応型訪問介護看護,東京都杉並区和田1-14-3東京精機ビル4F,東京精機ビル4F,35.689841658541600,139.663244633730000,03-5328-0787,1391501333,,,,https://www.hotlife.biz
131156,1391501366,東京都,杉並区,クリエイトケア定期巡回おぎくぼ,クリエイトケアテイキジュンカイオギクボ,定期巡回・随時対応型訪問介護看護,東京都杉並区南荻窪4-29-10田丸ビル403号,田丸ビル403号,35.702633200000000,139.616303100000000,03-5344-8340,1391501366,,,20,https://ikcare.or.jp
131156,1391501259,東京都,杉並区,アート定期巡回・随時対応型訪問介護看護センター,アートテイキジュンカイズイジタイオウガタホウモンカイゴカンゴセンター,定期巡回・随時対応型訪問介護看護,東京都杉並区梅里1-21-8高杉ハイツ１F,高杉ハイツ１F,35.697702319806100,139.652850644180000,03-5929-9497,1391501259,,,0,https://kindness-art.jp/
131156,1391501358,東京都,杉並区,ユアーズ定期巡回,ユアーズテイキジュンカイ,定期巡回・随時対応型訪問介護看護,東京都杉並区下井草3-34-5メイベルコート101,メイベルコート101,35.722422000000000,139.621516600000000,03-6454-7465,1391501358,,,0,
131164,1391600176,東京都,豊島区,セントケア巡回ステーション豊島,セントケアジュンカイステーショントシマ,定期巡回・随時対応型訪問介護看護,東京都豊島区東池袋3-20-21広宣ビル2F,広宣ビル2F,35.730250900000000,139.720607200000000,03-5928-2977,1391600176,,,44,
131164,1391600267,東京都,豊島区,SOMPOケア　在宅老人ホーム　豊島　定期巡回,ソンポケア　ザイタクロウジンホーム　トシマ　テイキジュンカイ,定期巡回・随時対応型訪問介護看護,東京都豊島区東池袋5-44-15東信東池袋ビル４階,東信東池袋ビル４階,35.727800955994400,139.726571093480000,03-5962-0187,1391600267,,,0,https://www.sompocare.com
131172,1391700463,東京都,北区,SOMPOケア　中十条　定期巡回,ソンポケア　ナカジュウジョウ　テイキジュンカイ,定期巡回・随時対応型訪問介護看護,東京都北区中十条1-4-7ｲﾝｸﾘｰｽﾋﾞﾙ301号室,ｲﾝｸﾘｰｽﾋﾞﾙ301号室,35.757934100000000,139.730158300000000,03-5963-6809,1391700463,,,14,
131172,1391700620,東京都,北区,エイプレイス赤羽,エイプレイスアカバネ,定期巡回・随時対応型訪問介護看護,東京都北区志茂4-39-5サンセゾン・Ⅰ　B1F,サンセゾン・Ⅰ　B1F,35.780328200000000,139.732690100000000,03-5939-1555,1391700620,,,50,http://www.a-place.co.jp
131181,1391800628,東京都,荒川区,SOMPOケア　荒川　定期巡回,ソンポケア　アラカワ　テイキジュンカイ,定期巡回・随時対応型訪問介護看護,東京都荒川区東尾久6-5-5富士産業ビル2階　203号室,富士産業ビル2階　203号室,35.745457800000000,139.774992500000000,03-6807-9390,1391800628,,,,https://www.sompocare.com/service/zaitaku/teikijunkai/Z000964
131181,1391800354,東京都,荒川区,やさしい手日暮里定期巡回随時対応型訪問介護看護事業所,ヤサシイテニッポリテイキジュンカイズイジタイオウガタホウモンカイゴカンゴジギョウショ,定期巡回・随時対応型訪問介護看護,東京都荒川区東日暮里5-52-2神谷ﾋﾞﾙ501,神谷ﾋﾞﾙ501,35.727830100000000,139.771917600000000,050-1752-1321,1391800354,,,0,http://www.yasashiite.com/subdomains/section/038
131199,1391901236,東京都,板橋区,アウケアホーム板橋北・定期巡回,アウケアホームイタバシキタ・テイキジュンカイ,定期巡回・随時対応型訪問介護看護,東京都板橋区高島平1-78-11エスタールビル302,エスタールビル302,35.785791000000000,139.672833600000000,03-6912-3090,1391901236,,,100,https://3s.care/
131199,1391901244,東京都,板橋区,ホームケア　ひより,ホームケア　ヒヨリ,定期巡回・随時対応型訪問介護看護,東京都板橋区幸町1-4,,35.744997400000000,139.701195900000000,368252642,1391901244,,,,https://kaigohiyori.com/
131199,1391900410,東京都,板橋区,セントケア巡回ステーション板橋,セントケアジュンカイステーションイタバシ,定期巡回・随時対応型訪問介護看護,東京都板橋区上板橋1-16-6町田ビル１階,町田ビル１階,35.761572100000000,139.677638300000000,359221091,1391900410,,,35,
131199,1391900758,東京都,板橋区,SOMPOケア　徳丸　定期巡回,ソンポケア　トクマル　テイキジュンカイ,定期巡回・随時対応型訪問介護看護,東京都板橋区徳丸2-17-9,,35.773858000000000,139.662725000000000,03-5922-6247,1391900758,,,0,https://www.sompocare.com/
131199,1391900394,東京都,板橋区,定期巡回・随時対応型訪問介護看護事業所むかいはら,テイキジュンカイ・ズイジタイオウガタホウモンカイゴカンゴジギョウショムカイハラ,定期巡回・随時対応型訪問介護看護,東京都板橋区向原3-7-7,,35.746670032599200,139.684639585181000,03-5917-0751,1391900394,,,0,http://www.kohoen.jp/
131199,1391900881,東京都,板橋区,SOMPOケア若木　定期巡回,ソンポケアワカギ　テイキジュンカイ,定期巡回・随時対応型訪問介護看護,東京都板橋区若木3-3-1,,35.773676200000000,139.677295200000000,03-5922-3397,1391900881,,,10,https://www.sompocare.com
131199,1391900493,東京都,板橋区,定期巡回・随時対応型サービスたかしまだいら,テイキジュンカイ・ズイジタイオウガタサービスタカシマダイラ,定期巡回・随時対応型訪問介護看護,東京都板橋区高島平5‐31‐8,,35.787600000000000,139.646462000000000,03-5968-5203,1391900493,,,0,
131199,1391901020,東京都,板橋区,アウケアホーム板橋・定期巡回,アウケアホームイタバシ・テイキジュンカイ,定期巡回・随時対応型訪問介護看護,東京都板橋区前野町2-4-5大商第一マンション201,大商第一マンション201,35.763752900000000,139.690208500000000,03-6279-8670,1391901020,,,100,https://pages.3s.care/hr/2022/
131199,1391901087,東京都,板橋区,定期巡回サービス土屋板橋,テイキジュンカイサービスツチヤイタバシ,定期巡回・随時対応型訪問介護看護,東京都板橋区小豆沢3-6-7小豆沢ローズハイム103,小豆沢ローズハイム103,35.776730700000000,139.694886600000000,050-3188-5532,1391901087,,,0,https://tcy.co.jp/service/teikijyunkai/
131199,1391901194,東京都,板橋区,Link板橋定期巡回,リンクイタバシテイキジュンカイ,定期巡回・随時対応型訪問介護看護,東京都板橋区中板橋４－１５藤井ビル１０５,藤井ビル１０５,35.756226300000000,139.700490900000000,03－6905－7119,1391901194,,,0,https://carelinkteizyun.com/
131202,1392001325,東京都,練馬区,定期巡回めぐみの会練馬,テイキジュンカイメグミノカイネリマ,定期巡回・随時対応型訪問介護看護,東京都練馬区中村3-5-10第2メディカルビル　201,第2メディカルビル　201,35.731848700000000,139.641194200000000,03-5848-4402,1392001325,,,25,http://www.medicalart.co.jp
131202,1392000608,東京都,練馬区,定期巡回めぐみの会,テイキジュンカイメグミノカイ,定期巡回・随時対応型訪問介護看護,東京都練馬区石神井町５丁目３番１２号⽯神井公園ハイム1階,⽯神井公園ハイム1階,35.738866100000200,139.606110450263000,03-6913-1632,1392000608,,,30,https://www.meguminokai.info/
131202,1392000863,東京都,練馬区,ＳＯＭＰＯケア練馬　定期巡回,ソンポケアネリマ　テイキジュンカイ,定期巡回・随時対応型訪問介護看護,東京都練馬区豊玉北4-11-10東洋ライス東日本支店　1階,東洋ライス東日本支店　1階,35.735310074805100,139.658990331500000,03-6915-8786,1392000863,,,14,http://www.sompocare.com
131202,1392000855,東京都,練馬区,SOMPOケア　大泉学園　定期巡回,ソンポケアオオイズミガクエンテイキジュンカイ,定期巡回・随時対応型訪問介護看護,東京都練馬区東大泉5-4-5田﨑店舗1階,田﨑店舗1階,35.747254857588600,139.590917635394000,03-5935-6023,1392000855,,,0,http://www.sompocare.com
131202,1392000897,東京都,練馬区,ＳＯＭＰＯケア　上石神井　定期巡回,ソンポケアカミシャクジイテイキジュンカイ,定期巡回・随時対応型訪問介護看護,東京都練馬区上石神井4-1-5成昇ビル1階,成昇ビル1階,35.726802815089400,139.590382702464000,03-5927-2231,1392000897,,,25,http://www.sompocare.com
131202,1392001184,東京都,練馬区,定期巡回・随時対応サービスひのき大泉学園,テイキジュンカイ・ズイジタイオウサービスヒノキオオイズミガクエン,定期巡回・随時対応型訪問介護看護,東京都練馬区大泉学園町5-29-10,,35.767068600000000,139.579433900000000,03-5933-0177,1392001184,,,0,https://c-connect-ooizumigakuen.com/
131202,1392000889,東京都,練馬区,SOMPOケア光が丘　定期巡回,ソンポケアヒカリガオカテイキジュンカイ,定期巡回・随時対応型訪問介護看護,東京都練馬区田柄5-14-11グリーンシティ恵マンション2階,グリーンシティ恵マンション2階,35.763414100000000,139.635999400000000,03-5848-2782,1392000889,,,0,https://www.sompocare.com
131202,1392001218,東京都,練馬区,そよ風定期巡回　えごたの森,ソヨカゼテイキジュンカイ　エゴタノモリ,定期巡回・随時対応型訪問介護看護,東京都練馬区豊玉中１－４ー１７デュオセーヌ江古田の森公園１階,デュオセーヌ江古田の森公園１階,35.729374800000000,139.661837600000000,０３－５９１２－６９３７,1392001218,,,0,http://www.sykz.co.jp
131211,1392100440,東京都,足立区,やなかナイトケア,ヤナカナイトケア,定期巡回・随時対応型訪問介護看護,東京都足立区谷中1-17-7,,35.771548500000000,139.832104200000000,03-5613-5507,1392100440,,,32,https://www.chojumura.or.jp/ayase/night-care.html
131211,1392100960,東京都,足立区,らうんど千寿,ラウンドセンジュ,定期巡回・随時対応型訪問介護看護,東京都足立区柳原2－33－6介護老人保健施設千寿の郷内,介護老人保健施設千寿の郷内,35.747934900000000,139.814416000000000,03－5284－2610,1392100960,,,15,http://www.kenwa.or.jp/index.html#anew
131211,1392101091,東京都,足立区,ヘルパ-ステ－ションかるがも,ヘルパ-ステ-ションカルガモ,定期巡回・随時対応型訪問介護看護,東京都足立区梅島1-13-17,,35.772814300000000,139.798496200000000,03-5845-8227,1392101091,,,0,
131211,1392101307,東京都,足立区,くらしさ足立定期巡回型訪問介護看護,クラシサアダチテイキジュンカイガタホウモンカイゴカンゴ,定期巡回・随時対応型訪問介護看護,東京都足立区入谷2-19-10,,35.809125300000000,139.763371100000000,03-5647-8050,1392101307,,,,
131211,1392100903,東京都,足立区,ＳＯＭＰＯケア　在宅老人ホーム足立　定期巡回,ソンポケア　ザイタクロウジンホームアダチ　テイキジュンカイ,定期巡回・随時対応型訪問介護看護,東京都足立区千住中居町33-3大橋ビル4階,大橋ビル4階,35.751064800000000,139.799183500000000,03-5813-5200,1392100903,,,,
131229,1392200703,東京都,葛飾区,ＳＯＭＰＯケア在宅老人ホーム葛飾　定期巡回,ソンポケアザイタクロウジンホームカツシカ　テイキジュンカイ,定期巡回・随時対応型訪問介護看護,東京都葛飾区青戸3-33-14サンプラザビル601,サンプラザビル601,35.746861892413000,139.855857775463000,03-5629-2178,1392200703,,,10,https://www.sompocare.com/
131229,1392200745,東京都,葛飾区,ミアヘルサ定期巡回サービス東新小岩,ミアヘルサテイキジュンカイサービスヒガシシンコイワ,定期巡回・随時対応型訪問介護看護,東京都葛飾区東新小岩4-11-10ミアヘルサオアシス東新小岩,ミアヘルサオアシス東新小岩,35.726057300000000,139.861912500000000,03-5654-7118,1392200745,,,50,https://www.merhalsa.jp
131229,1392200943,東京都,葛飾区,ウェルフォース定期巡回・随時対応型訪問介護看護ステーション,ウェルフォーステイキジュンカイズイジタイオウガタホウモンカイゴカンゴステーション,定期巡回・随時対応型訪問介護看護,東京都葛飾区白鳥2-10-7,,35.748520200000000,139.844049300000000,03-6662-5285,1392200943,,,,
131237,1392300396,東京都,江戸川区,定期巡回・随時対応型訪問介護看護泰山,テイキジュンカイ・ズイジタイオウガタホウモンカイゴカンゴタイザン,定期巡回・随時対応型訪問介護看護,東京都江戸川区北小岩５－３４－１０,,35.739703000000000,139.891634300000000,03-5622-1665,1392300396,,,0,http://www.hakusyuu.jimusho.jp
131237,1392301097,東京都,江戸川区,しろひげレンジャー24時（定期巡回・随時対応型訪問介護看護）,シロヒゲレンジャーニジュウヨジ,定期巡回・随時対応型訪問介護看護,東京都江戸川区船堀1-8-18ポエールビル201号,ポエールビル201号,35.683953500000000,139.863238300000000,03-6808-9071,1392301097,,,0,https://shirohige.clinic
131237,1392300982,東京都,江戸川区,そよ風定期巡回　えどがわ,ソヨカゼテイキジュンカイ　エドガワ,定期巡回・随時対応型訪問介護看護,東京都江戸川区東小松川4丁目57-12市川第5マンション102号,市川第5マンション102号,35.690584651172500,139.867153288361000,03-5661-7701,1392300982,,,0,
132012,1392900831,東京都,八王子市,ジョイステージ八王子24時間訪問介護看護ステーション,ジョイステージハチオウジニジュウヨジカンホウモンカイゴカンゴステーション,定期巡回・随時対応型訪問介護看護,東京都八王子市横川町924番地2,,35.663320000000000,139.295004200000000,042-622-0101,1392900831,,,0,http://www.joystage.com/
