[
  {
    "id": "2471400370",
    "name": "JAみえきた癒いの里デイサービスセンター",
    "kana": "ジェイエイミエキタユイノサトデイサービスセンター",
    "address": "三重県いなべ市藤原町石川953-1",
    "lat": 35.1582836,
    "lng": 136.4996062,
    "tel": "0594-46-9011",
    "url": "https://www.ja-miekita.or.jp",
    "pref": "三重県",
    "city": "いなべ市",
    "category": "community_day_service",
    "serviceType": "地域密着型通所介護",
    "capacity": 18,
    "openDays": [
      "平日",
      "土曜日",
      "祝日"
    ],
    "openDaysNote": ""
  },
  {
    "id": "2471400701",
    "name": "Ｒアールリハビリスタジオ",
    "kana": "アールリハビリスタジオ",
    "address": "三重県いなべ市大安町平塚2433番1",
    "lat": 35.1022419646736,
    "lng": 136.542757618555,
    "tel": "0594-78-3338",
    "url": "",
    "pref": "三重県",
    "city": "いなべ市",
    "category": "community_day_service",
    "serviceType": "地域密着型通所介護",
    "capacity": 0,
    "openDays": [
      "平日",
      "祝日"
    ],
    "openDaysNote": ""
  },
  {
    "id": "2472100037",
    "name": "アイリスデイサービスセンター",
    "kana": "アイリスデイサービスセンター",
    "address": "いなべ市北勢町阿下喜３７２８番地２",
    "lat": 35.1451775,
    "lng": 136.5169186,
    "tel": "0594-72-7722",
    "url": "http://hokusei-you.net/iris/index.php",
    "pref": "三重県",
    "city": "いなべ市",
    "category": "community_day_service",
    "serviceType": "地域密着型通所介護",
    "capacity": 0,
    "openDays": [
      "平日",
      "祝日"
    ],
    "openDaysNote": "祝日の営業は月～金のみ"
  },
  {
    "id": "2491400160",
    "name": "あげきデイサービスセンターみんなの家",
    "kana": "アゲキデイサービスセンターミンナノイエ",
    "address": "三重県いなべ市北勢町阿下喜１９２４－１",
    "lat": 35.1533896,
    "lng": 136.5183867,
    "tel": "0594-82-1166",
    "url": "",
    "pref": "三重県",
    "city": "いなべ市",
    "category": "community_day_service",
    "serviceType": "地域密着型通所介護",
    "capacity": 0,
    "openDays": [
      "平日",
      "土曜日",
      "祝日"
    ],
    "openDaysNote": "月曜日～土曜日まで営業。（改行）祝日も営業しております。"
  },
  {
    "id": "2491400244",
    "name": "いなべ市ふじわらデイサービスセンター",
    "kana": "イナベシフジワラデイサービスセンター",
    "address": "三重県いなべ市藤原町市場494番地2",
    "lat": 35.1734335,
    "lng": 136.4872013,
    "tel": "0594-46-8007",
    "url": "",
    "pref": "三重県",
    "city": "いなべ市",
    "category": "community_day_service",
    "serviceType": "地域密着型通所介護",
    "capacity": 18,
    "openDays": [
      "平日",
      "土曜日",
      "祝日"
    ],
    "openDaysNote": "なし"
  },
  {
    "id": "2491400103",
    "name": "ケアセンター「夢眠」だいあん",
    "kana": "ケアセンター「ムウミン」ダイアン",
    "address": "大安町南金井石佛東2608番地1",
    "lat": 53.41291,
    "lng": -8.24388999999996,
    "tel": "0594-87-0058",
    "url": "daian@mumin-clinic.com",
    "pref": "三重県",
    "city": "いなべ市",
    "category": "community_day_service",
    "serviceType": "地域密着型通所介護",
    "capacity": 10,
    "openDays": [
      "平日",
      "土曜日",
      "祝日"
    ],
    "openDaysNote": ""
  },
  {
    "id": "2471400420",
    "name": "たいようデイサービス",
    "kana": "タイヨウデイサービス",
    "address": "いなべ市大安町石榑東2841番地8",
    "lat": 35.0999845,
    "lng": 136.5245399,
    "tel": "0594-78-0788",
    "url": "",
    "pref": "三重県",
    "city": "いなべ市",
    "category": "community_day_service",
    "serviceType": "地域密着型通所介護",
    "capacity": 10,
    "openDays": [
      "平日",
      "土曜日",
      "祝日"
    ],
    "openDaysNote": ""
  },
  {
    "id": "2471400511",
    "name": "デイサービス　あおい",
    "kana": "デイサービス　アオイ",
    "address": "三重県いなべ市大安町大井田2836番地",
    "lat": 35.0986987,
    "lng": 136.5493252,
    "tel": "0594-88-0900",
    "url": "aoi5@m5.cty-net.ne.jp",
    "pref": "三重県",
    "city": "いなべ市",
    "category": "community_day_service",
    "serviceType": "地域密着型通所介護",
    "capacity": 10,
    "openDays": [
      "平日",
      "土曜日",
      "祝日"
    ],
    "openDaysNote": "１２/２９～１/３年末年始休日"
  },
  {
    "id": "2471400552",
    "name": "デイサービス　ゆかり",
    "kana": "デイサービス　ユカリ",
    "address": "三重県いなべ市北勢町別名709番地１",
    "lat": 35.1384971,
    "lng": 136.5068252,
    "tel": "０５９４－７２－３４２９",
    "url": "",
    "pref": "三重県",
    "city": "いなべ市",
    "category": "community_day_service",
    "serviceType": "地域密着型通所介護",
    "capacity": 0,
    "openDays": [
      "平日",
      "土曜日",
      "祝日"
    ],
    "openDaysNote": "特になし"
  },
  {
    "id": "2491400251",
    "name": "デイサービスMOANA",
    "kana": "デイサービスモアナ",
    "address": "三重県いなべ市員弁町笠田新田42-3",
    "lat": 35.1145123,
    "lng": 136.5611459,
    "tel": "0594-82-5266",
    "url": "https://www.instagram.com/moana.rehabilitation/",
    "pref": "三重県",
    "city": "いなべ市",
    "category": "community_day_service",
    "serviceType": "地域密着型通所介護",
    "capacity": 80,
    "openDays": [
      "平日",
      "土曜日",
      "祝日"
    ],
    "openDaysNote": ""
  },
  {
    "id": "2491400228",
    "name": "デイサービスえんむすび",
    "kana": "デイサービスエンムスビ",
    "address": "三重県いなべ市藤原町本郷836番地",
    "lat": 35.1845134,
    "lng": 136.47971,
    "tel": "0594-37-7062",
    "url": "https//www.enmusubi.or.jp",
    "pref": "三重県",
    "city": "いなべ市",
    "category": "community_day_service",
    "serviceType": "地域密着型通所介護",
    "capacity": 3,
    "openDays": [
      "平日",
      "土曜日",
      "祝日"
    ],
    "openDaysNote": ""
  },
  {
    "id": "2491400111",
    "name": "デイサービスかりん",
    "kana": "デイサービスカリン",
    "address": "三重県いなべ市員弁町下笠田1619-2",
    "lat": 35.1133846072012,
    "lng": 136.55345292139,
    "tel": "0594-84-0007",
    "url": "https://rainin0723.wixsite.com/care-home",
    "pref": "三重県",
    "city": "いなべ市",
    "category": "community_day_service",
    "serviceType": "地域密着型通所介護",
    "capacity": 10,
    "openDays": [
      "平日",
      "土曜日",
      "日曜日",
      "祝日"
    ],
    "openDaysNote": ""
  },
  {
    "id": "2471400529",
    "name": "デイサービスせせらぎ",
    "kana": "デイサービスセセラギ",
    "address": "三重県いなべ市藤原町本郷６９３番地",
    "lat": 35.184708,
    "lng": 136.4839967,
    "tel": "0594-37-2333",
    "url": "",
    "pref": "三重県",
    "city": "いなべ市",
    "category": "community_day_service",
    "serviceType": "地域密着型通所介護",
    "capacity": 0,
    "openDays": [
      "平日",
      "祝日"
    ],
    "openDaysNote": "朝7時30分から18時30分まで時間外延長サービスの対応をしています（改行）定休日でも電話連絡可能です。"
  },
  {
    "id": "2471400248",
    "name": "デイサービスセンター　ふくろう",
    "kana": "デイサービスセンター　フクロウ",
    "address": "大安町大井田２４２番地",
    "lat": 35.0963628,
    "lng": 136.5516278,
    "tel": "0594-77-2585",
    "url": "",
    "pref": "三重県",
    "city": "いなべ市",
    "category": "community_day_service",
    "serviceType": "地域密着型通所介護",
    "capacity": 14,
    "openDays": [
      "平日",
      "祝日"
    ],
    "openDaysNote": "盆休み　正月休みは　その年のカレンダー曜日により　変更あり"
  },
  {
    "id": "2491400269",
    "name": "デイサービスセンター　大安ひまわり",
    "kana": "デイサービスセンター　ダイアンヒマワリ",
    "address": "三重県いなべ市大安町平塚１７６１番地２",
    "lat": 35.0980111,
    "lng": 136.5400909,
    "tel": "0594-88-1122",
    "url": "",
    "pref": "三重県",
    "city": "いなべ市",
    "category": "community_day_service",
    "serviceType": "地域密着型通所介護",
    "capacity": 0,
    "openDays": [
      "平日"
    ],
    "openDaysNote": ""
  },
  {
    "id": "2472100482",
    "name": "デイサービスセンターひだまり",
    "kana": "デイサービスセンターヒダマリ",
    "address": "三重県いなべ市大安町石榑下１１３－６",
    "lat": 35.1085555612544,
    "lng": 136.527222676582,
    "tel": "0594-88-0727",
    "url": "",
    "pref": "三重県",
    "city": "いなべ市",
    "category": "community_day_service",
    "serviceType": "地域密着型通所介護",
    "capacity": null,
    "openDays": [
      "平日",
      "土曜日",
      "祝日"
    ],
    "openDaysNote": ""
  },
  {
    "id": "2471400438",
    "name": "デイサービス治田の里",
    "kana": "デイサービスハッタノサト",
    "address": "三重県いなべ市北勢町東村４２",
    "lat": 35.131173,
    "lng": 136.5120166,
    "tel": "0594-82-1555",
    "url": "",
    "pref": "三重県",
    "city": "いなべ市",
    "category": "community_day_service",
    "serviceType": "地域密着型通所介護",
    "capacity": 18,
    "openDays": [
      "平日",
      "土曜日",
      "祝日"
    ],
    "openDaysNote": "緊急の場合は、８：３０から１７：３０までの間で対応可能。"
  },
  {
    "id": "2471400362",
    "name": "てのひらデイサービス",
    "kana": "テノヒラデイサービス",
    "address": "いなべ市大安町石榑東2841番地５",
    "lat": 35.0999839,
    "lng": 136.5245802,
    "tel": "０５９４－７８－０７５１",
    "url": "",
    "pref": "三重県",
    "city": "いなべ市",
    "category": "community_day_service",
    "serviceType": "地域密着型通所介護",
    "capacity": 10,
    "openDays": [
      "平日",
      "土曜日",
      "祝日"
    ],
    "openDaysNote": ""
  },
  {
    "id": "2471400388",
    "name": "ナーシングホームもも・いなべ",
    "kana": "ナーシングホームモモ・イナベ",
    "address": "三重県いなべ市北勢町阿下喜3514",
    "lat": 35.1478436,
    "lng": 136.511644,
    "tel": "0594-72-3530",
    "url": "https://www.momo3.net/",
    "pref": "三重県",
    "city": "いなべ市",
    "category": "community_day_service",
    "serviceType": "地域密着型通所介護",
    "capacity": 10,
    "openDays": [
      "平日",
      "土曜日",
      "祝日"
    ],
    "openDaysNote": ""
  },
  {
    "id": "2471400263",
    "name": "なでしこ",
    "kana": "ナデシコ",
    "address": "三重県いなべ市北勢町其原2044番地",
    "lat": 35.13939,
    "lng": 136.5388112,
    "tel": "0594-82-1011",
    "url": "http://www.hokusei-hospital.jp",
    "pref": "三重県",
    "city": "いなべ市",
    "category": "community_day_service",
    "serviceType": "地域密着型通所介護",
    "capacity": 15,
    "openDays": [
      "平日",
      "土曜日",
      "祝日"
    ],
    "openDaysNote": "木曜・土曜は16：00～18：00の延長利用可能（事前確認要）。（改行）年末年始12/30～1/3休み。"
  },
  {
    "id": "2471400206",
    "name": "ふるさとの家　ひばり　ディサービスセンター",
    "kana": "フルサトノイエヒバリディサービスセンター",
    "address": "三重県いなべ市員弁町下笠田1356番地",
    "lat": 35.1109091,
    "lng": 136.5542467,
    "tel": "0594-74-3971",
    "url": "",
    "pref": "三重県",
    "city": "いなべ市",
    "category": "community_day_service",
    "serviceType": "地域密着型通所介護",
    "capacity": 0,
    "openDays": [
      "平日",
      "土曜日",
      "祝日"
    ],
    "openDaysNote": "但し、相談により受け入れは可能"
  },
  {
    "id": "2471400669",
    "name": "モモ大安",
    "kana": "モモダイアン",
    "address": "三重県いなべ市大安町南金井705番地96",
    "lat": 35.083565507681,
    "lng": 136.557169213106,
    "tel": "0594-87-0026",
    "url": "www.momo-daian.or.jp/",
    "pref": "三重県",
    "city": "いなべ市",
    "category": "community_day_service",
    "serviceType": "地域密着型通所介護",
    "capacity": null,
    "openDays": [
      "平日",
      "土曜日",
      "祝日"
    ],
    "openDaysNote": ""
  },
  {
    "id": "2491400152",
    "name": "わっ！デイサービスⅠ",
    "kana": "ワッデイサービスイチ",
    "address": "三重県いなべ市北勢町畑毛774番地",
    "lat": 35.1444344,
    "lng": 136.560762,
    "tel": "0594-82-0501",
    "url": "https://actice.biz",
    "pref": "三重県",
    "city": "いなべ市",
    "category": "community_day_service",
    "serviceType": "地域密着型通所介護",
    "capacity": null,
    "openDays": [
      "平日",
      "土曜日",
      "日曜日",
      "祝日"
    ],
    "openDaysNote": ""
  },
  {
    "id": "2491400145",
    "name": "わっ！デイサービスⅡ",
    "kana": "ワッデイサービスニ",
    "address": "三重県いなべ市北勢町畑毛774番地",
    "lat": 35.1856165,
    "lng": 136.5269808,
    "tel": "0594-82-0501",
    "url": "https://actice.biz",
    "pref": "三重県",
    "city": "いなべ市",
    "category": "community_day_service",
    "serviceType": "地域密着型通所介護",
    "capacity": null,
    "openDays": [
      "平日",
      "土曜日",
      "日曜日",
      "祝日"
    ],
    "openDaysNote": ""
  },
  {
    "id": "2491200263",
    "name": "きらめき工房いが",
    "kana": "キラメキコウボウイガ",
    "address": "三重県伊賀市愛田513番地",
    "lat": 34.8063683,
    "lng": 136.221601,
    "tel": "0595-45-9040",
    "url": "",
    "pref": "三重県",
    "city": "伊賀市",
    "category": "community_day_service",
    "serviceType": "地域密着型通所介護",
    "capacity": 0,
    "openDays": [
      "平日",
      "土曜日",
      "祝日"
    ],
    "openDaysNote": ""
  },
  {
    "id": "2471201182",
    "name": "デイサービス　こうづの笑み",
    "kana": "デイサービス　コウヅノエミ",
    "address": "三重県伊賀市勝地７３－２",
    "lat": 34.6927743,
    "lng": 136.2134395,
    "tel": "（０５９５）５３－０００７",
    "url": "http://www.kitamori.jp",
    "pref": "三重県",
    "city": "伊賀市",
    "category": "community_day_service",
    "serviceType": "地域密着型通所介護",
    "capacity": 15,
    "openDays": [
      "平日"
    ],
    "openDaysNote": ""
  },
  {
    "id": "2471201232",
    "name": "デイサービス　ともだち",
    "kana": "デイサービス　トモダチ",
    "address": "三重県伊賀市下友田2208",
    "lat": 34.836602511104,
    "lng": 136.187665889087,
    "tel": "0595-51-8292",
    "url": "",
    "pref": "三重県",
    "city": "伊賀市",
    "category": "community_day_service",
    "serviceType": "地域密着型通所介護",
    "capacity": 10,
    "openDays": [
      "平日",
      "土曜日",
      "日曜日",
      "祝日"
    ],
    "openDaysNote": "年末１２月２９日から１月３日まで休業"
  },
  {
    "id": "2471200739",
    "name": "デイサービスお花畑",
    "kana": "デイサービスオハナバタケ",
    "address": "三重県伊賀市朝屋780",
    "lat": 34.7532383,
    "lng": 136.1077294,
    "tel": "0595-23-6522",
    "url": "",
    "pref": "三重県",
    "city": "伊賀市",
    "category": "community_day_service",
    "serviceType": "地域密着型通所介護",
    "capacity": 10,
    "openDays": [
      "平日",
      "土曜日",
      "祝日"
    ],
    "openDaysNote": "年末、年始を除く。"
  },
  {
    "id": "2491200305",
    "name": "デイサービススグリ",
    "kana": "デイサービススグリ",
    "address": "三重県伊賀市楯岡90番地",
    "lat": 34.8265859,
    "lng": 136.2110794,
    "tel": "0595-51-6677",
    "url": "",
    "pref": "三重県",
    "city": "伊賀市",
    "category": "community_day_service",
    "serviceType": "地域密着型通所介護",
    "capacity": null,
    "openDays": [
      "平日",
      "土曜日",
      "祝日"
    ],
    "openDaysNote": ""
  },
  {
    "id": "2491200271",
    "name": "デイサービスセンター　いがのしろ",
    "kana": "デイサービスセンター　イガノシロ",
    "address": "三重県伊賀市山出字金坪2220-10",
    "lat": 34.718014,
    "lng": 136.11942,
    "tel": "0595-22-0001",
    "url": "https://www.sawayakaen.or.jp",
    "pref": "三重県",
    "city": "伊賀市",
    "category": "community_day_service",
    "serviceType": "地域密着型通所介護",
    "capacity": 0,
    "openDays": [
      "平日",
      "土曜日",
      "祝日"
    ],
    "openDaysNote": ""
  },
  {
    "id": "2471200481",
    "name": "デイサービスセンターさくら",
    "kana": "デイサービスセンターサクラ",
    "address": "三重県伊賀市比土３７７番地１ケア・コミュニティさくら ケア・コミュニティさくら",
    "lat": 34.6755686075518,
    "lng": 136.162009178019,
    "tel": "0595-37-1505",
    "url": "https://www.aoyama-life.co.jp/",
    "pref": "三重県",
    "city": "伊賀市",
    "category": "community_day_service",
    "serviceType": "地域密着型通所介護",
    "capacity": 0,
    "openDays": [
      "平日",
      "土曜日",
      "日曜日",
      "祝日"
    ],
    "openDaysNote": "営業日：月～金、土日、祝祭日（但し年末年始　１２／３１～１／３を除く）（改行）ご要望が有れば１２／３１は営業はします。"
  },
  {
    "id": "2471200945",
    "name": "デイサービスセンターさくら第二",
    "kana": "デイサービスセンターサクラダイニ",
    "address": "三重県伊賀市比土３８６番地ケア・コミュニティさくら ケア・コミュニティさくら",
    "lat": 34.6755222854655,
    "lng": 136.162251279814,
    "tel": "0595-37-1505",
    "url": "https://www.aoyama-life.co.jp",
    "pref": "三重県",
    "city": "伊賀市",
    "category": "community_day_service",
    "serviceType": "地域密着型通所介護",
    "capacity": 0,
    "openDays": [
      "平日",
      "土曜日",
      "日曜日",
      "祝日"
    ],
    "openDaysNote": "月～金、土日、祝祭日の営業（但し、年末年始１２／３１～１／３を除く）（改行）尚、要望が有れば１２／３１は営業します。"
  },
  {
    "id": "2471201026",
    "name": "デイサービスセンターすぷり",
    "kana": "デイサービスセンタースプリ",
    "address": "三重県伊賀市上野愛宕町２９０３番地",
    "lat": 34.7587436,
    "lng": 136.1304328,
    "tel": "0595-48-6753",
    "url": "npo.nozomi2903@gmail.com",
    "pref": "三重県",
    "city": "伊賀市",
    "category": "community_day_service",
    "serviceType": "地域密着型通所介護",
    "capacity": 15,
    "openDays": [
      "平日"
    ],
    "openDaysNote": ""
  },
  {
    "id": "2491200172",
    "name": "デイサービスセンターみつぐり",
    "kana": "デイサービスセンターミツグリ",
    "address": "猪田91-1番地",
    "lat": 34.7278942,
    "lng": 136.1279786,
    "tel": "0595-44-6565",
    "url": "",
    "pref": "三重県",
    "city": "伊賀市",
    "category": "community_day_service",
    "serviceType": "地域密着型通所介護",
    "capacity": null,
    "openDays": [
      "平日",
      "日曜日",
      "祝日"
    ],
    "openDaysNote": "基本提供時間は9：30～16：45（改行）必要に応じて対応を行う。"
  },
  {
    "id": "2471200614",
    "name": "デイサービスセンター虹のいえ",
    "kana": "デイサービスセンターニジノイエ",
    "address": "三重県伊賀市東高倉２１２５－１",
    "lat": 34.7860266,
    "lng": 136.1088256,
    "tel": "0595-26-6555",
    "url": "http://hp.kaipoke.biz/m4d/",
    "pref": "三重県",
    "city": "伊賀市",
    "category": "community_day_service",
    "serviceType": "地域密着型通所介護",
    "capacity": 18,
    "openDays": [
      "平日",
      "祝日"
    ],
    "openDaysNote": ""
  },
  {
    "id": "2471200879",
    "name": "デイサービスたまたき",
    "kana": "デイサービスタマタキ",
    "address": "伊賀市玉滝3496番地3",
    "lat": 34.871034898254,
    "lng": 136.173900102625,
    "tel": "0595-42-9005",
    "url": "https://dayservice-tamataki.wixsite.com/yuuai",
    "pref": "三重県",
    "city": "伊賀市",
    "category": "community_day_service",
    "serviceType": "地域密着型通所介護",
    "capacity": 0,
    "openDays": [
      "平日",
      "土曜日",
      "祝日"
    ],
    "openDaysNote": "台風・積雪や施設の保守管理等のため、臨時に休業することがあります"
  },
  {
    "id": "2491200164",
    "name": "ふれあいステーション都美恵",
    "kana": "フレアイステイションツミエ",
    "address": "三重県伊賀市柘植町2357番地1",
    "lat": 34.8426425366813,
    "lng": 136.246507792066,
    "tel": "０５９５－４５－３０５２",
    "url": "tsumie.com",
    "pref": "三重県",
    "city": "伊賀市",
    "category": "community_day_service",
    "serviceType": "地域密着型通所介護",
    "capacity": 18,
    "openDays": [
      "平日",
      "土曜日",
      "祝日"
    ],
    "openDaysNote": "延長利用相談応じます。"
  },
  {
    "id": "2473200224",
    "name": "地域デイサービスセンター岡鼻",
    "kana": "チイキデイサービスセンターオカハナ",
    "address": "三重県伊賀市柘植町4613番地",
    "lat": 34.8414246,
    "lng": 136.2622226,
    "tel": "0595-45-3059",
    "url": "",
    "pref": "三重県",
    "city": "伊賀市",
    "category": "community_day_service",
    "serviceType": "地域密着型通所介護",
    "capacity": 0,
    "openDays": [
      "平日",
      "土曜日",
      "祝日"
    ],
    "openDaysNote": "天災・施設内工事・点検等の場合は、事前に連絡を行い日時を変更することもあります。"
  },
  {
    "id": "2490800386",
    "name": "Nursing　Home　MARIMO",
    "kana": "ナーシング　ホーム　マリモ",
    "address": "三重県伊勢市小俣町相合1271-1",
    "lat": 34.5108282,
    "lng": 136.6632918,
    "tel": "0596-64-8081",
    "url": "http://generous.co.jp",
    "pref": "三重県",
    "city": "伊勢市",
    "category": "community_day_service",
    "serviceType": "地域密着型通所介護",
    "capacity": 0,
    "openDays": [
      "平日"
    ],
    "openDaysNote": "祝日で会社既定の営業日が数日ある"
  },
  {
    "id": "2470801768",
    "name": "おばたデイサービス",
    "kana": "オバタデイサービス",
    "address": "伊勢市小俣町湯田８５－３",
    "lat": 34.5084095,
    "lng": 136.6573461,
    "tel": "0596-25-1144",
    "url": "",
    "pref": "三重県",
    "city": "伊勢市",
    "category": "community_day_service",
    "serviceType": "地域密着型通所介護",
    "capacity": 0,
    "openDays": [
      "平日",
      "土曜日",
      "祝日"
    ],
    "openDaysNote": ""
  },
  {
    "id": "2472800677",
    "name": "かがやき伊勢デイサービスセンター",
    "kana": "カガヤキイセデイサービスセンター",
    "address": "伊勢市黒瀬町680-1",
    "lat": 34.4985587047428,
    "lng": 136.73604212764,
    "tel": "0596-22-0589",
    "url": "kagayaki@amigo2.ne.jp",
    "pref": "三重県",
    "city": "伊勢市",
    "category": "community_day_service",
    "serviceType": "地域密着型通所介護",
    "capacity": 10,
    "openDays": [
      "平日",
      "土曜日",
      "祝日"
    ],
    "openDaysNote": ""
  },
  {
    "id": "2490800378",
    "name": "デイクラブ森伸伊勢南",
    "kana": "デイクラブモリシンイセミナミ",
    "address": "伊勢市前山町355-1ディア・ライフ伊勢南 ディア・ライフ伊勢南",
    "lat": 34.4669803,
    "lng": 136.6888074,
    "tel": "0596-20-2600",
    "url": "https://www.morisin.jp",
    "pref": "三重県",
    "city": "伊勢市",
    "category": "community_day_service",
    "serviceType": "地域密着型通所介護",
    "capacity": null,
    "openDays": [
      "平日",
      "祝日"
    ],
    "openDaysNote": ""
  },
  {
    "id": "2490800311",
    "name": "デイサ－ビスきづな",
    "kana": "デイサービスキヅナ",
    "address": "三重県伊勢市小俣町湯田469番地2",
    "lat": 34.5059071,
    "lng": 136.6586849,
    "tel": "0596-21-4165",
    "url": "",
    "pref": "三重県",
    "city": "伊勢市",
    "category": "community_day_service",
    "serviceType": "地域密着型通所介護",
    "capacity": 0,
    "openDays": [
      "平日",
      "土曜日",
      "祝日"
    ],
    "openDaysNote": "夏季休暇　8月13日～8月15日　　冬季休暇12月31日～翌1月3日"
  },
  {
    "id": "2470801347",
    "name": "デイサービス　えにし",
    "kana": "デイサービス　エニシ",
    "address": "中島２丁目２１番５号",
    "lat": 34.4906495919594,
    "lng": 136.689456357672,
    "tel": "0596-20-2233",
    "url": "http://peaceful-ise.com",
    "pref": "三重県",
    "city": "伊勢市",
    "category": "community_day_service",
    "serviceType": "地域密着型通所介護",
    "capacity": 0,
    "openDays": [
      "平日",
      "土曜日",
      "祝日"
    ],
    "openDaysNote": ""
  },
  {
    "id": "2470802097",
    "name": "デイサービス　こころのいえ",
    "kana": "デイサービス　ココロノイエ",
    "address": "朝熊町1432番地1",
    "lat": 34.4754281956813,
    "lng": 136.758841747272,
    "tel": "0596-20-9800",
    "url": "",
    "pref": "三重県",
    "city": "伊勢市",
    "category": "community_day_service",
    "serviceType": "地域密着型通所介護",
    "capacity": 10,
    "openDays": [
      "平日",
      "土曜日",
      "日曜日",
      "祝日"
    ],
    "openDaysNote": "12月30日から1月3日は定休日"
  },
  {
    "id": "2490800394",
    "name": "デイサービス　フィオーレ",
    "kana": "デイサービス　フィオーレ",
    "address": "船江２丁目28-48",
    "lat": 34.4990102941612,
    "lng": 136.723284728172,
    "tel": "0596-20-2750",
    "url": "",
    "pref": "三重県",
    "city": "伊勢市",
    "category": "community_day_service",
    "serviceType": "地域密着型通所介護",
    "capacity": 0,
    "openDays": [
      "平日",
      "土曜日",
      "祝日"
    ],
    "openDaysNote": ""
  },
  {
    "id": "2470801016",
    "name": "デイサービス　ふるさと",
    "kana": "デイサービス　フルサト",
    "address": "三重県伊勢市宇治浦田3丁目59-25",
    "lat": 34.4630729145767,
    "lng": 136.714950106746,
    "tel": "0596-63-8639",
    "url": "http://care-net.biz/24/mamiihand/",
    "pref": "三重県",
    "city": "伊勢市",
    "category": "community_day_service",
    "serviceType": "地域密着型通所介護",
    "capacity": 18,
    "openDays": [
      "平日",
      "土曜日",
      "祝日"
    ],
    "openDaysNote": ""
  },
  {
    "id": "2470802006",
    "name": "デイサービス　ぽかぽか",
    "kana": "デイサービス　ポカポカ",
    "address": "三重県伊勢市船江3丁目20番28号",
    "lat": 34.5042962,
    "lng": 136.7199044,
    "tel": "0596-65-6222",
    "url": "http://dayservice3.wixsite.com/pokapoka",
    "pref": "三重県",
    "city": "伊勢市",
    "category": "community_day_service",
    "serviceType": "地域密着型通所介護",
    "capacity": null,
    "openDays": [
      "平日",
      "土曜日",
      "祝日"
    ],
    "openDaysNote": ""
  },
  {
    "id": "2490800410",
    "name": "デイサービス　まほろば",
    "kana": "デイサービス　マホロバ",
    "address": "三重県伊勢市藤里町６７１番地９",
    "lat": 34.4798367,
    "lng": 136.7073269,
    "tel": "０５９６－６３－８０００",
    "url": "",
    "pref": "三重県",
    "city": "伊勢市",
    "category": "community_day_service",
    "serviceType": "地域密着型通所介護",
    "capacity": null,
    "openDays": [
      "平日"
    ],
    "openDaysNote": ""
  },
  {
    "id": "2470802238",
    "name": "デイサービス　ゆかり",
    "kana": "デイサービス　ユカリ",
    "address": "三重県伊勢市小俣町新村字休坂１１７",
    "lat": 34.5150582881702,
    "lng": 136.642976238632,
    "tel": "0596-63-6663",
    "url": "http://peaceful-ise.com",
    "pref": "三重県",
    "city": "伊勢市",
    "category": "community_day_service",
    "serviceType": "地域密着型通所介護",
    "capacity": 0,
    "openDays": [
      "平日",
      "祝日"
    ],
    "openDaysNote": ""
  },
  {
    "id": "2470801891",
    "name": "デイサービス　西の沢",
    "kana": "デイサービス　ニシノサワ",
    "address": "西豊浜町西ノ沢6339番地2",
    "lat": 34.531455,
    "lng": 136.688882,
    "tel": "0596-38-0688",
    "url": "",
    "pref": "三重県",
    "city": "伊勢市",
    "category": "community_day_service",
    "serviceType": "地域密着型通所介護",
    "capacity": 0,
    "openDays": [
      "平日",
      "土曜日",
      "祝日"
    ],
    "openDaysNote": ""
  },
  {
    "id": "2470801701",
    "name": "デイサービスセンターいきいき",
    "kana": "デイサービスセンターイキイキ",
    "address": "伊勢市二見町西809-6",
    "lat": 34.5108235,
    "lng": 136.7602893,
    "tel": "0596‐43‐4415",
    "url": "",
    "pref": "三重県",
    "city": "伊勢市",
    "category": "community_day_service",
    "serviceType": "地域密着型通所介護",
    "capacity": 0,
    "openDays": [
      "平日",
      "土曜日",
      "祝日"
    ],
    "openDaysNote": "12月30日～1月3日年末年始休業"
  },
  {
    "id": "2470801933",
    "name": "デイサービスセンターいそかぜ",
    "kana": "デイサービスセンターイソカゼ",
    "address": "伊勢市磯町1023-3",
    "lat": 34.5211013,
    "lng": 136.7039,
    "tel": "0596-38-2300",
    "url": "https://www.isokaze.info",
    "pref": "三重県",
    "city": "伊勢市",
    "category": "community_day_service",
    "serviceType": "地域密着型通所介護",
    "capacity": 10,
    "openDays": [
      "平日",
      "土曜日",
      "日曜日",
      "祝日"
    ],
    "openDaysNote": "365日デイサービスを運営"
  },
  {
    "id": "2490800451",
    "name": "デイサービスセンターいそかぜ",
    "kana": "デイサービスセンターイソカゼ",
    "address": "磯町1023番地3",
    "lat": 34.5178072,
    "lng": 136.7015337,
    "tel": "0596-38-2300",
    "url": "htpps://isokaze.info",
    "pref": "三重県",
    "city": "伊勢市",
    "category": "community_day_service",
    "serviceType": "地域密着型通所介護",
    "capacity": null,
    "openDays": [
      "平日",
      "土曜日",
      "日曜日",
      "祝日"
    ],
    "openDaysNote": "365日デイサービスを運営"
  },
  {
    "id": "2490800428",
    "name": "デイサービスセンター宇治山田",
    "kana": "デイサービスセンターウジヤマダ",
    "address": "伊勢市岩渕１丁目１３番４１号ケントハウス ケントハウス",
    "lat": 34.488656,
    "lng": 136.7120809,
    "tel": "0596-23-1109",
    "url": "",
    "pref": "三重県",
    "city": "伊勢市",
    "category": "community_day_service",
    "serviceType": "地域密着型通所介護",
    "capacity": null,
    "openDays": [
      "平日"
    ],
    "openDaysNote": ""
  },
  {
    "id": "2490800402",
    "name": "デイサービスセンター和幸",
    "kana": "デイサービスセンターワノコウ",
    "address": "三重県伊勢市船江１丁目7番地24号",
    "lat": 34.5001745,
    "lng": 136.7156327,
    "tel": "596636608",
    "url": "",
    "pref": "三重県",
    "city": "伊勢市",
    "category": "community_day_service",
    "serviceType": "地域密着型通所介護",
    "capacity": null,
    "openDays": [
      "平日",
      "土曜日",
      "日曜日",
      "祝日"
    ],
    "openDaysNote": "但し、お盆8/13~1512/31お正月1/1.2.3はお休みさせて頂きます。"
  },
  {
    "id": "2470802469",
    "name": "デイサービスぬくもりの郷",
    "kana": "デイサービスヌクモリノサト",
    "address": "三重県伊勢市小俣町湯田339-1",
    "lat": 34.5090705,
    "lng": 136.6546686,
    "tel": "0596-24-5737",
    "url": "",
    "pref": "三重県",
    "city": "伊勢市",
    "category": "community_day_service",
    "serviceType": "地域密着型通所介護",
    "capacity": 0,
    "openDays": [
      "平日",
      "土曜日",
      "祝日"
    ],
    "openDaysNote": "台風等の気象情報により、営業が困難と判断される場合は、休業又は営業時間を変更します。"
  },
  {
    "id": "2470801289",
    "name": "デイサービス手をつなごう",
    "kana": "デイサービステヲツナゴウ",
    "address": "三重県伊勢市大世古3-6-6",
    "lat": 34.497396,
    "lng": 136.701831,
    "tel": "0596-28-8606",
    "url": "http://social-charm.com/",
    "pref": "三重県",
    "city": "伊勢市",
    "category": "community_day_service",
    "serviceType": "地域密着型通所介護",
    "capacity": 10,
    "openDays": [
      "平日",
      "土曜日",
      "祝日"
    ],
    "openDaysNote": "電話等により、営業時間外でも連絡が可能な体制をとっています。"
  },
  {
    "id": "2490800360",
    "name": "デイサロン　そえる",
    "kana": "デイサロン　ソエル",
    "address": "三重県伊勢市藤里町1-50",
    "lat": 34.4673042,
    "lng": 136.6953049,
    "tel": "0596-72-8450",
    "url": "",
    "pref": "三重県",
    "city": "伊勢市",
    "category": "community_day_service",
    "serviceType": "地域密着型通所介護",
    "capacity": 0,
    "openDays": [
      "平日",
      "土曜日",
      "祝日"
    ],
    "openDaysNote": ""
  },
  {
    "id": "2470801537",
    "name": "ボノスリハビリデイサービス",
    "kana": "ボノスリハビリデイサービス",
    "address": "三重県伊勢市河崎３－１１－９",
    "lat": 34.4955221,
    "lng": 136.7171352,
    "tel": "0596-64-8070",
    "url": "http://e-seikin.com",
    "pref": "三重県",
    "city": "伊勢市",
    "category": "community_day_service",
    "serviceType": "地域密着型通所介護",
    "capacity": 15,
    "openDays": [
      "平日"
    ],
    "openDaysNote": ""
  },
  {
    "id": "2470801982",
    "name": "リハビリデイ　レッツオアシス",
    "kana": "リハビリデイ　レッツオアシス",
    "address": "伊勢市宮後3丁目7番61号",
    "lat": 34.4981464,
    "lng": 136.7106663,
    "tel": "0596-23-8130",
    "url": "http://www.amigo2.ne.jp/~oasis/index.html",
    "pref": "三重県",
    "city": "伊勢市",
    "category": "community_day_service",
    "serviceType": "地域密着型通所介護",
    "capacity": 150,
    "openDays": [
      "平日"
    ],
    "openDaysNote": ""
  },
  {
    "id": "2490800345",
    "name": "リハビリデイサービス　みんなの家　伊勢御薗",
    "kana": "リハビリデイサービス　ミンナノイエ　イセミソノ",
    "address": "三重県伊勢市御薗町長屋2146",
    "lat": 34.5071534,
    "lng": 136.7154061,
    "tel": "0596-21-3755",
    "url": "http://care-pro.co.jp/",
    "pref": "三重県",
    "city": "伊勢市",
    "category": "community_day_service",
    "serviceType": "地域密着型通所介護",
    "capacity": null,
    "openDays": [
      "平日"
    ],
    "openDaysNote": ""
  },
  {
    "id": "2490800287",
    "name": "リハビリデイサービス　みんなの家　伊勢明野",
    "kana": "リハビリデイサービス　ミンナノイエ　イセアケノ",
    "address": "三重県伊勢市村松町1375-6",
    "lat": 34.5386202,
    "lng": 136.6695117,
    "tel": "0596-38-1552",
    "url": "",
    "pref": "三重県",
    "city": "伊勢市",
    "category": "community_day_service",
    "serviceType": "地域密着型通所介護",
    "capacity": 0,
    "openDays": [
      "平日",
      "土曜日",
      "祝日"
    ],
    "openDaysNote": ""
  },
  {
    "id": "2490800337",
    "name": "レコードブック伊勢小俣",
    "kana": "レコードブックイセオバタ",
    "address": "三重県伊勢市小俣町宮前362番地",
    "lat": 34.4973591,
    "lng": 136.6770793,
    "tel": "596728270",
    "url": "",
    "pref": "三重県",
    "city": "伊勢市",
    "category": "community_day_service",
    "serviceType": "地域密着型通所介護",
    "capacity": 0,
    "openDays": [
      "平日",
      "祝日"
    ],
    "openDaysNote": "ゴールデンウイーク・お盆も、営業しております。"
  },
  {
    "id": "2470802337",
    "name": "レッツクラブ伊勢",
    "kana": "レッツクラブ　イセ",
    "address": "小俣町元町４５５番地 ４５５番地",
    "lat": 34.5075475460436,
    "lng": 136.677446466409,
    "tel": "0596-63-8140",
    "url": "",
    "pref": "三重県",
    "city": "伊勢市",
    "category": "community_day_service",
    "serviceType": "地域密着型通所介護",
    "capacity": 150,
    "openDays": [
      "平日",
      "祝日"
    ],
    "openDaysNote": "年末年始（12/31～1/3）"
  },
  {
    "id": "2490800279",
    "name": "一般社団法人　笑福会",
    "kana": "イッパンシャダンホウジン　ショウフクカイ",
    "address": "三重県伊勢市津村町1063番地3",
    "lat": 34.4550419,
    "lng": 136.6579572,
    "tel": "0596-39-0087",
    "url": "",
    "pref": "三重県",
    "city": "伊勢市",
    "category": "community_day_service",
    "serviceType": "地域密着型通所介護",
    "capacity": 10,
    "openDays": [
      "平日",
      "土曜日",
      "祝日"
    ],
    "openDaysNote": ""
  },
  {
    "id": "2490800303",
    "name": "元気ひろばデイサービス",
    "kana": "ゲンキヒロバデイサービス",
    "address": "伊勢市大世古1丁目8番7号",
    "lat": 34.4923718,
    "lng": 136.7023838,
    "tel": "0596－64－8807",
    "url": "http://ise-gennkihiroba.com",
    "pref": "三重県",
    "city": "伊勢市",
    "category": "community_day_service",
    "serviceType": "地域密着型通所介護",
    "capacity": 0,
    "openDays": [
      "平日",
      "土曜日",
      "祝日"
    ],
    "openDaysNote": "緊急時は相談にて対応可"
  },
  {
    "id": "2490800444",
    "name": "古民家デイサービスセンター温",
    "kana": "コミンカデイサービスセンターツツム",
    "address": "三重県伊勢市小俣町明野1055-1",
    "lat": 34.5232041,
    "lng": 136.6679051,
    "tel": "0596-67-5363",
    "url": "",
    "pref": "三重県",
    "city": "伊勢市",
    "category": "community_day_service",
    "serviceType": "地域密着型通所介護",
    "capacity": null,
    "openDays": [
      "平日",
      "祝日"
    ],
    "openDaysNote": ""
  },
  {
    "id": "2490800329",
    "name": "小規模デイサービスなかはな",
    "kana": "ショウキボデイサービスナカハナ",
    "address": "三重県伊勢市通町534-2",
    "lat": 34.5012452671383,
    "lng": 136.742988439287,
    "tel": "0596-67-5001",
    "url": "http://www.za.ztv.ne.jp/nakahana.ds/",
    "pref": "三重県",
    "city": "伊勢市",
    "category": "community_day_service",
    "serviceType": "地域密着型通所介護",
    "capacity": 50,
    "openDays": [
      "平日",
      "祝日"
    ],
    "openDaysNote": "営業日の窓口電話対応時間8：30～17：30（改行）年末年始休業あり"
  },
  {
    "id": "2470802196",
    "name": "通所介護・介護予防通所介護事業所いすずガーデン",
    "kana": "ツウショカイゴ・カイゴヨボウツウショカイゴジギョウショイスズガーデン",
    "address": "楠部町乙77サービス付き高齢者向け住宅いすずガーデン サービス付き高齢者向け住宅いすずガーデン",
    "lat": 34.4761665,
    "lng": 136.7293565,
    "tel": "0596-63-8500",
    "url": "https://isuzukai.or.jp/",
    "pref": "三重県",
    "city": "伊勢市",
    "category": "community_day_service",
    "serviceType": "地域密着型通所介護",
    "capacity": 0,
    "openDays": [
      "平日",
      "祝日"
    ],
    "openDaysNote": "利用者の当日の健康状態について確認し、利用者が心身の状況に応じた適切なサービスを受けることができるよう留意する。"
  },
  {
    "id": "2470802261",
    "name": "民家型デイサービスほほえみ勢田",
    "kana": "ミンカガタデイサービスホホエミセタ",
    "address": "三重県伊勢市勢田町656番地134",
    "lat": 34.479949,
    "lng": 136.7155965,
    "tel": "0596-63-6871",
    "url": "https://npo-izumi-hohoemi.wixsite.com/shiawase",
    "pref": "三重県",
    "city": "伊勢市",
    "category": "community_day_service",
    "serviceType": "地域密着型通所介護",
    "capacity": 0,
    "openDays": [
      "平日",
      "土曜日",
      "祝日"
    ],
    "openDaysNote": ""
  },
  {
    "id": "2493100081",
    "name": "デイサービス　いぶき",
    "kana": "デイサービス　イブキ",
    "address": "三重県南牟婁郡紀宝町鵜殿2178-2",
    "lat": 33.7427346954969,
    "lng": 136.017872821657,
    "tel": "0735-30-0844",
    "url": "",
    "pref": "三重県",
    "city": "紀宝町",
    "category": "community_day_service",
    "serviceType": "地域密着型通所介護",
    "capacity": null,
    "openDays": [
      "平日",
      "土曜日",
      "祝日"
    ],
    "openDaysNote": "定休日以外の祝日は営業いたします。"
  },
  {
    "id": "2473100507",
    "name": "デイサービス紀宝の丘",
    "kana": "デイサービスキホウノオカ",
    "address": "三重県南牟婁郡紀宝町井田2389-1",
    "lat": 33.7457745,
    "lng": 136.0184914,
    "tel": "735320606",
    "url": "",
    "pref": "三重県",
    "city": "紀宝町",
    "category": "community_day_service",
    "serviceType": "地域密着型通所介護",
    "capacity": 0,
    "openDays": [
      "平日",
      "日曜日",
      "祝日"
    ],
    "openDaysNote": "年末年始も定休日となることもあり。"
  },
  {
    "id": "2473100531",
    "name": "井内てとて",
    "kana": "イナイテトテ",
    "address": "南牟婁郡紀宝町井内字大山409番地５",
    "lat": 33.7882030149596,
    "lng": 135.992249914681,
    "tel": "０７３５－３３－１００７",
    "url": "",
    "pref": "三重県",
    "city": "紀宝町",
    "category": "community_day_service",
    "serviceType": "地域密着型通所介護",
    "capacity": 0,
    "openDays": [
      "平日",
      "土曜日",
      "日曜日",
      "祝日"
    ],
    "openDaysNote": "サービス提供時間　8：30～16：30"
  },
  {
    "id": "2473100176",
    "name": "宅老所　つどい",
    "kana": "タクロウショ　ツドイ",
    "address": "三重県南牟婁郡紀宝町井内509",
    "lat": 33.786764,
    "lng": 135.9886211,
    "tel": "0735-33-1038",
    "url": "http://npo-tsudoi.com",
    "pref": "三重県",
    "city": "紀宝町",
    "category": "community_day_service",
    "serviceType": "地域密着型通所介護",
    "capacity": null,
    "openDays": [
      "平日",
      "土曜日",
      "日曜日",
      "祝日"
    ],
    "openDaysNote": ""
  },
  {
    "id": "2473000426",
    "name": "きほくリハスタジオ",
    "kana": "キホクリハスタジオ",
    "address": "三重県北牟婁郡紀北町馬瀬1025番地1",
    "lat": 34.1462032948175,
    "lng": 136.248925598009,
    "tel": "0597-31-4167",
    "url": "",
    "pref": "三重県",
    "city": "紀北町",
    "category": "community_day_service",
    "serviceType": "地域密着型通所介護",
    "capacity": 10,
    "openDays": [
      "平日",
      "祝日"
    ],
    "openDaysNote": ""
  },
  {
    "id": "2473000301",
    "name": "デイサービスセンター道",
    "kana": "デイサービスセンターミチ",
    "address": "三重県北牟婁郡紀北町相賀字仲田265-1",
    "lat": 34.1125097,
    "lng": 136.2262328,
    "tel": "0597-32-1112",
    "url": "http://www.owasechojuen.or.jp/",
    "pref": "三重県",
    "city": "紀北町",
    "category": "community_day_service",
    "serviceType": "地域密着型通所介護",
    "capacity": 10,
    "openDays": [
      "平日",
      "日曜日",
      "祝日"
    ],
    "openDaysNote": "12月31日、1月1日は定休日です。"
  },
  {
    "id": "2493000125",
    "name": "リハビリデイサービスなごみ",
    "kana": "リハビリデイサービスナゴミ",
    "address": "三重県北牟婁郡紀北町東長島638-11",
    "lat": 34.1995694,
    "lng": 136.3264926,
    "tel": "0597-31-4212",
    "url": "",
    "pref": "三重県",
    "city": "紀北町",
    "category": "community_day_service",
    "serviceType": "地域密着型通所介護",
    "capacity": 0,
    "openDays": [
      "平日",
      "土曜日"
    ],
    "openDaysNote": "年末年始、夏季休暇あり"
  },
  {
    "id": "2493000117",
    "name": "リハビリハウスみやま",
    "kana": "リハビリハウスミヤマ",
    "address": "三重県北牟婁郡紀北町小浦391",
    "lat": 34.1163298179284,
    "lng": 136.238727947164,
    "tel": "0597-31-4188",
    "url": "",
    "pref": "三重県",
    "city": "紀北町",
    "category": "community_day_service",
    "serviceType": "地域密着型通所介護",
    "capacity": 30,
    "openDays": [
      "平日",
      "土曜日",
      "祝日"
    ],
    "openDaysNote": ""
  },
  {
    "id": "2473000137",
    "name": "在宅ケアグループゆうあい",
    "kana": "ザイタクケアグループユウアイ",
    "address": "三重県北牟婁郡紀北町東長島1307－1",
    "lat": 34.219605687915,
    "lng": 136.327273221832,
    "tel": "05974-7-0458",
    "url": "http://yuai2002.com/",
    "pref": "三重県",
    "city": "紀北町",
    "category": "community_day_service",
    "serviceType": "地域密着型通所介護",
    "capacity": 0,
    "openDays": [
      "平日",
      "土曜日",
      "祝日"
    ],
    "openDaysNote": "休日でも、電話の対応あり"
  },
  {
    "id": "2493000133",
    "name": "地域密着型通所介護　ゆりかご",
    "kana": "チイキミッチャクガタツウショイカイゴ　ユリカゴ",
    "address": "船津１１６３－１",
    "lat": null,
    "lng": null,
    "tel": "０５９７－３６－１５１０",
    "url": "",
    "pref": "三重県",
    "city": "紀北町",
    "category": "community_day_service",
    "serviceType": "地域密着型通所介護",
    "capacity": null,
    "openDays": [
      "平日",
      "土曜日",
      "祝日"
    ],
    "openDaysNote": ""
  },
  {
    "id": "2490400153",
    "name": "デイサービス　はなの家",
    "kana": "デイサービス　ハナノイエ",
    "address": "三重県亀山市関町木崎１２３４番地",
    "lat": 34.8571386864648,
    "lng": 136.398606847885,
    "tel": "0595-96-2558",
    "url": "http://hp.kaipoke.biz/vwf/",
    "pref": "三重県",
    "city": "亀山市",
    "category": "community_day_service",
    "serviceType": "地域密着型通所介護",
    "capacity": 10,
    "openDays": [
      "平日",
      "土曜日"
    ],
    "openDaysNote": ""
  },
  {
    "id": "2470400769",
    "name": "デイサービスセンターアスプラン亀山",
    "kana": "デイサービスセンター　アスプランカメヤマ",
    "address": "川崎町4782住宅型有料老人ホーム　アスプラン亀山 住宅型有料老人ホーム　アスプラン亀山",
    "lat": 34.8993907730496,
    "lng": 136.474884447544,
    "tel": "0595-96-8855",
    "url": "http://asplend.com",
    "pref": "三重県",
    "city": "亀山市",
    "category": "community_day_service",
    "serviceType": "地域密着型通所介護",
    "capacity": null,
    "openDays": [
      "平日",
      "土曜日",
      "祝日"
    ],
    "openDaysNote": "12月31日から１月３日は休業"
  },
  {
    "id": "2490400104",
    "name": "楽",
    "kana": "ラク",
    "address": "御幸町２７５－５グレイスピア１０３号 グレイスピア１０３号",
    "lat": 34.8519197,
    "lng": 136.4508953,
    "tel": "０５９５－９８－５６９０",
    "url": "",
    "pref": "三重県",
    "city": "亀山市",
    "category": "community_day_service",
    "serviceType": "地域密着型通所介護",
    "capacity": 65,
    "openDays": [
      "平日",
      "祝日"
    ],
    "openDaysNote": "年末12月31日～1月4日　休み"
  },
  {
    "id": "2470400322",
    "name": "指定通所介護事業所ハート",
    "kana": "シテイツウショカイゴジギョウショハート",
    "address": "三重県亀山市みどり町6番地の9",
    "lat": 34.8695464,
    "lng": 136.4855841,
    "tel": "0595-84-2255",
    "url": "",
    "pref": "三重県",
    "city": "亀山市",
    "category": "community_day_service",
    "serviceType": "地域密着型通所介護",
    "capacity": 0,
    "openDays": [
      "平日"
    ],
    "openDaysNote": ""
  },
  {
    "id": "2491100018",
    "name": "デイサービス　かいご処さち",
    "kana": "デイサービス　カイゴドコロ　サチ",
    "address": "三重県熊野市有馬町3403-26",
    "lat": 33.8751739,
    "lng": 136.0668143,
    "tel": "0597-89-2210",
    "url": "",
    "pref": "三重県",
    "city": "熊野市",
    "category": "community_day_service",
    "serviceType": "地域密着型通所介護",
    "capacity": 0,
    "openDays": [
      "平日",
      "祝日"
    ],
    "openDaysNote": "盆は熊野大花火（改行）（改行）年末年始は12/30～1/3"
  },
  {
    "id": "2471100236",
    "name": "デイサービスみやき",
    "kana": "デイサービスミヤキ",
    "address": "三重県熊野市久生屋町５４１",
    "lat": 33.8618202940329,
    "lng": 136.069135532155,
    "tel": "0597-89-2516",
    "url": "http://www.akane-kai.jp/",
    "pref": "三重県",
    "city": "熊野市",
    "category": "community_day_service",
    "serviceType": "地域密着型通所介護",
    "capacity": 18,
    "openDays": [
      "平日",
      "祝日"
    ],
    "openDaysNote": ""
  },
  {
    "id": "2471100087",
    "name": "熊社協飛鳥・五郷通所介護事業所",
    "kana": "クマシャキョウアスカ・イサトツウショカイゴジギョウショ",
    "address": "三重県熊野市飛鳥町野口６７８",
    "lat": 33.9482407,
    "lng": 136.0756901,
    "tel": "0597-84-1000",
    "url": "http://www.k-shakyo.com/",
    "pref": "三重県",
    "city": "熊野市",
    "category": "community_day_service",
    "serviceType": "地域密着型通所介護",
    "capacity": null,
    "openDays": [
      "平日",
      "祝日"
    ],
    "openDaysNote": "転送電話により、営業日、休業日に関わらず24時間対応可。"
  },
  {
    "id": "2491100026",
    "name": "通所サービスおおきに",
    "kana": "ツウショサービスオオキニ",
    "address": "三重県熊野市新鹿町1185番地",
    "lat": 33.9440506,
    "lng": 136.1422309,
    "tel": "0597－70－4620",
    "url": "",
    "pref": "三重県",
    "city": "熊野市",
    "category": "community_day_service",
    "serviceType": "地域密着型通所介護",
    "capacity": 14,
    "openDays": [
      "平日",
      "土曜日",
      "祝日"
    ],
    "openDaysNote": ""
  },
  {
    "id": "2471100145",
    "name": "特定非営利活動法人よりあい",
    "kana": "トクテイヒエイリカツドウホウジンヨリアイ",
    "address": "三重県熊野市五郷町寺谷1065番地4",
    "lat": 33.9842138,
    "lng": 136.048259,
    "tel": "0597-83-0105",
    "url": "",
    "pref": "三重県",
    "city": "熊野市",
    "category": "community_day_service",
    "serviceType": "地域密着型通所介護",
    "capacity": null,
    "openDays": [
      "平日",
      "土曜日",
      "祝日"
    ],
    "openDaysNote": "春、秋の彼岸中日、１２月３１日～１月３日、８月１４日～８月１６日"
  },
  {
    "id": "2470101052",
    "name": "クオ",
    "kana": "クオ",
    "address": "桑名市大福２１４番地",
    "lat": 35.0548056,
    "lng": 136.6811393,
    "tel": "0594-41-3313",
    "url": "http://qr-quo.hp4u.jp/",
    "pref": "三重県",
    "city": "桑名市",
    "category": "community_day_service",
    "serviceType": "地域密着型通所介護",
    "capacity": 18,
    "openDays": [
      "平日",
      "土曜日",
      "祝日"
    ],
    "openDaysNote": "設備機器メンテナンス要時。"
  },
  {
    "id": "2470101912",
    "name": "クオプラス",
    "kana": "クオプラス",
    "address": "桑部字城下3100-1",
    "lat": 35.0496642,
    "lng": 136.6564025,
    "tel": "0594-21-9041",
    "url": "http://qr-quo.hp4u.jp/",
    "pref": "三重県",
    "city": "桑名市",
    "category": "community_day_service",
    "serviceType": "地域密着型通所介護",
    "capacity": 18,
    "openDays": [
      "平日",
      "土曜日",
      "祝日"
    ],
    "openDaysNote": "設備機器メンテナンス要時。"
  },
  {
    "id": "2470101045",
    "name": "けあスペース　れんげの里",
    "kana": "ケアスペース　レンゲノサト",
    "address": "三重県桑名市矢田449",
    "lat": 35.0576842702246,
    "lng": 136.673884836208,
    "tel": "0594-41-2881",
    "url": "http://renge-sato.jp/",
    "pref": "三重県",
    "city": "桑名市",
    "category": "community_day_service",
    "serviceType": "地域密着型通所介護",
    "capacity": 0,
    "openDays": [
      "平日",
      "土曜日",
      "祝日"
    ],
    "openDaysNote": ""
  },
  {
    "id": "2470100641",
    "name": "コミュニティーホーム　だんらん",
    "kana": "コミュニティーホーム　ダンラン",
    "address": "三重県桑名市新西方六丁目1番地",
    "lat": 35.0704665905165,
    "lng": 136.659988834918,
    "tel": "0594-27-0070",
    "url": "https://kusanone.mie.jp/",
    "pref": "三重県",
    "city": "桑名市",
    "category": "community_day_service",
    "serviceType": "地域密着型通所介護",
    "capacity": 0,
    "openDays": [
      "平日",
      "土曜日",
      "日曜日",
      "祝日"
    ],
    "openDaysNote": ""
  },
  {
    "id": "2470101391",
    "name": "しあわせデイサービスサンター",
    "kana": "シアワセデイサービスセンター",
    "address": "三重県桑名市大字下深谷部345-9",
    "lat": 35.0934986,
    "lng": 136.6686814,
    "tel": "0594-29-2714",
    "url": "",
    "pref": "三重県",
    "city": "桑名市",
    "category": "community_day_service",
    "serviceType": "地域密着型通所介護",
    "capacity": 0,
    "openDays": [
      "平日",
      "土曜日",
      "祝日"
    ],
    "openDaysNote": ""
  },
  {
    "id": "2490100316",
    "name": "シニアデイトレーニング桑名陽だまりの丘",
    "kana": "シニアデイトレーニングクワナヒダマリノオカ",
    "address": "三重県桑名市陽だまりの丘二丁目303-1",
    "lat": 35.087995675361,
    "lng": 136.645657263538,
    "tel": "0594-41-3811",
    "url": "www.prestige-care-tokai.co.jp",
    "pref": "三重県",
    "city": "桑名市",
    "category": "community_day_service",
    "serviceType": "地域密着型通所介護",
    "capacity": 0,
    "openDays": [
      "平日"
    ],
    "openDaysNote": ""
  },
  {
    "id": "2490100456",
    "name": "シニアデイトレーニング桑名陽だまりの丘",
    "kana": "シニアデイトレーニングクワナヒダマリノオカ",
    "address": "三重県桑名市陽だまりの丘２丁目303-1",
    "lat": 35.088023,
    "lng": 136.645486,
    "tel": "0594-41-3811",
    "url": "https://www.prestige-care-tokai.co.jp/institutions/kuwanahidamarinooka/",
    "pref": "三重県",
    "city": "桑名市",
    "category": "community_day_service",
    "serviceType": "地域密着型通所介護",
    "capacity": null,
    "openDays": [
      "平日",
      "祝日"
    ],
    "openDaysNote": "8/13～8/15、12/30～1/3は休業"
  },
  {
    "id": "2470100435",
    "name": "すずらん　大山田　デイサービスセンター",
    "kana": "スズラン　オオヤマダ　デイサービスセンター",
    "address": "桑名市大山田２丁目７番地１１",
    "lat": 35.082163,
    "lng": 136.6407173,
    "tel": "0594-33-3671",
    "url": "",
    "pref": "三重県",
    "city": "桑名市",
    "category": "community_day_service",
    "serviceType": "地域密着型通所介護",
    "capacity": 0,
    "openDays": [
      "平日",
      "土曜日",
      "祝日"
    ],
    "openDaysNote": ""
  },
  {
    "id": "2470100633",
    "name": "デイサービス　こんぺいとう",
    "kana": "デイサービス　コンペイトウ",
    "address": "三重県桑名市星見ヶ丘6丁目919番地",
    "lat": 35.0658199,
    "lng": 136.6327097,
    "tel": "0594-33-4131",
    "url": "",
    "pref": "三重県",
    "city": "桑名市",
    "category": "community_day_service",
    "serviceType": "地域密着型通所介護",
    "capacity": 0,
    "openDays": [
      "平日",
      "土曜日",
      "祝日"
    ],
    "openDaysNote": ""
  },
  {
    "id": "2470102340",
    "name": "デイサービス　ぬくもりラボ",
    "kana": "デイサービス　ヌクモリラボ",
    "address": "三重県桑名市野田5-8-1",
    "lat": 35.0808794,
    "lng": 136.6293182,
    "tel": "0594-88-5011",
    "url": "ktrust-group.info",
    "pref": "三重県",
    "city": "桑名市",
    "category": "community_day_service",
    "serviceType": "地域密着型通所介護",
    "capacity": 5,
    "openDays": [
      "平日",
      "祝日"
    ],
    "openDaysNote": "その他会社が指定した日、台風・大雪・地震等の運営が不可能な災害が起こった日は、お休みを頂く場合がございます。"
  },
  {
    "id": "2470101771",
    "name": "デイサービス　マスカット",
    "kana": "デイサービス　マスカット",
    "address": "三重県桑名市福江町10",
    "lat": 35.057672,
    "lng": 136.6817421,
    "tel": "0594-84-6946",
    "url": "",
    "pref": "三重県",
    "city": "桑名市",
    "category": "community_day_service",
    "serviceType": "地域密着型通所介護",
    "capacity": 8,
    "openDays": [
      "平日",
      "土曜日"
    ],
    "openDaysNote": "年末・年始の休みは12/30～1/3"
  },
  {
    "id": "2470101706",
    "name": "デイサービス「まほうの杖」",
    "kana": "デイサービス「マホウノツエ」",
    "address": "三重県桑名市西方１６７７番地",
    "lat": 35.0749837,
    "lng": 136.6630741,
    "tel": "0594-24-5205",
    "url": "http；//maho-no-tue.jp",
    "pref": "三重県",
    "city": "桑名市",
    "category": "community_day_service",
    "serviceType": "地域密着型通所介護",
    "capacity": 18,
    "openDays": [
      "平日",
      "土曜日",
      "祝日"
    ],
    "openDaysNote": ""
  },
  {
    "id": "2470101342",
    "name": "デイサービスセンター　みかんの花",
    "kana": "デイサービスセンター　ミカンノハナ",
    "address": "三重県桑名市多度町柚井１３７９番地",
    "lat": 35.1399766,
    "lng": 136.6382799,
    "tel": "0594-48-7724",
    "url": "https://mikannohana24.jimdofree.com/",
    "pref": "三重県",
    "city": "桑名市",
    "category": "community_day_service",
    "serviceType": "地域密着型通所介護",
    "capacity": 10,
    "openDays": [
      "平日",
      "土曜日",
      "祝日"
    ],
    "openDaysNote": ""
  },
  {
    "id": "2490100399",
    "name": "デイサービスはすの花",
    "kana": "デイサービスハスノハナ",
    "address": "三重県桑名市多度町香取2122-22",
    "lat": 35.1393543,
    "lng": 136.6480754,
    "tel": "0594-49-3550",
    "url": "",
    "pref": "三重県",
    "city": "桑名市",
    "category": "community_day_service",
    "serviceType": "地域密着型通所介護",
    "capacity": null,
    "openDays": [
      "平日",
      "土曜日"
    ],
    "openDaysNote": ""
  },
  {
    "id": "2470101433",
    "name": "デイサービス長寿苑",
    "kana": "デイサービスチョウジュエン",
    "address": "三重県桑名市額田１２５６－２",
    "lat": 35.0736567419555,
    "lng": 136.639284738541,
    "tel": "0594-33-0303",
    "url": "https://chojuen.org",
    "pref": "三重県",
    "city": "桑名市",
    "category": "community_day_service",
    "serviceType": "地域密着型通所介護",
    "capacity": 0,
    "openDays": [
      "平日",
      "土曜日",
      "祝日"
    ],
    "openDaysNote": "ゴールデンウィークやお盆など特別な休業日はございません。"
  },
  {
    "id": "2470101599",
    "name": "デイサービス福寿草",
    "kana": "デイサービスフクジュソウ",
    "address": "桑名市陽だまりの丘２－２３０４",
    "lat": 35.0816268,
    "lng": 136.6365454,
    "tel": "0594-88-5822",
    "url": "http://www.mie-hewcoop.jp/index.html",
    "pref": "三重県",
    "city": "桑名市",
    "category": "community_day_service",
    "serviceType": "地域密着型通所介護",
    "capacity": 18,
    "openDays": [
      "平日",
      "土曜日",
      "祝日"
    ],
    "openDaysNote": ""
  },
  {
    "id": "2470101524",
    "name": "まえさか笑デイサービス",
    "kana": "マエサカショウデイサービス",
    "address": "三重県桑名市多度町多度188番地１",
    "lat": 35.1324274,
    "lng": 136.632028,
    "tel": "0594-48-6885",
    "url": "",
    "pref": "三重県",
    "city": "桑名市",
    "category": "community_day_service",
    "serviceType": "地域密着型通所介護",
    "capacity": 10,
    "openDays": [
      "平日",
      "土曜日",
      "祝日"
    ],
    "openDaysNote": ""
  },
  {
    "id": "2470101722",
    "name": "ゆっくり日向デイサービス",
    "kana": "ユックリヒナタデイサービス",
    "address": "三重県桑名市播磨２４０９",
    "lat": 35.0787110697058,
    "lng": 136.669307273016,
    "tel": "0594-84-6574",
    "url": "",
    "pref": "三重県",
    "city": "桑名市",
    "category": "community_day_service",
    "serviceType": "地域密着型通所介護",
    "capacity": 1,
    "openDays": [
      "平日",
      "土曜日",
      "祝日"
    ],
    "openDaysNote": "１２月３１日から１月３日まで休み。"
  },
  {
    "id": "2470101953",
    "name": "リハビリデイサービス　みんなの家　桑名",
    "kana": "リハビリデイサービス　ミンナノイエ　クワナ",
    "address": "桑名市野田4丁目7-17",
    "lat": 35.0841711367292,
    "lng": 136.631259893121,
    "tel": "0594-33-3150",
    "url": "http://minnanoie-kuwana.com",
    "pref": "三重県",
    "city": "桑名市",
    "category": "community_day_service",
    "serviceType": "地域密着型通所介護",
    "capacity": 10,
    "openDays": [
      "平日",
      "土曜日",
      "祝日"
    ],
    "openDaysNote": ""
  },
  {
    "id": "2470101938",
    "name": "リハビリデイサービスじゅん",
    "kana": "リハビリデイサービスジュン",
    "address": "桑名市大字小貝須１８２０番１",
    "lat": 35.0545784,
    "lng": 136.6971822,
    "tel": "0594-73-0137",
    "url": "",
    "pref": "三重県",
    "city": "桑名市",
    "category": "community_day_service",
    "serviceType": "地域密着型通所介護",
    "capacity": 12,
    "openDays": [
      "平日"
    ],
    "openDaysNote": "１単位　１３：３０～１６：３０"
  },
  {
    "id": "2470102191",
    "name": "リハビリデイサービスよなはsecond",
    "kana": "リハビリデイサービスヨナハセカンド",
    "address": "三重県桑名市星見ヶ丘7丁目121ヨナハ在宅ケアセンター星見ヶ丘 ヨナハ在宅ケアセンター星見ヶ丘",
    "lat": 35.0667476,
    "lng": 136.6357123,
    "tel": "0594-87-6669",
    "url": "https://yonaha.or.jp/zc/second.html",
    "pref": "三重県",
    "city": "桑名市",
    "category": "community_day_service",
    "serviceType": "地域密着型通所介護",
    "capacity": 36,
    "openDays": [
      "平日",
      "土曜日",
      "祝日"
    ],
    "openDaysNote": ""
  },
  {
    "id": "2470102084",
    "name": "リハビリ専門デイサービス　エバーファイン",
    "kana": "リハビリセンモンデイサービス　エバーファイン",
    "address": "西別所422番地1",
    "lat": 35.058624,
    "lng": 136.6599635,
    "tel": "0594-88-5921",
    "url": "https://www.ever-fine.jp",
    "pref": "三重県",
    "city": "桑名市",
    "category": "community_day_service",
    "serviceType": "地域密着型通所介護",
    "capacity": 0,
    "openDays": [
      "平日"
    ],
    "openDaysNote": "年末年始の休業は１２月２９日から１月３日です。"
  },
  {
    "id": "2470102019",
    "name": "介護予防デイサービス　プラスナビ",
    "kana": "カイゴヨボウデイサービス　プラスナビ",
    "address": "三重県桑名市江場字寺前599番地1",
    "lat": 35.0489322668507,
    "lng": 136.688389821461,
    "tel": "0594-84-7927",
    "url": "https://www.plusnavi.mie.jp/",
    "pref": "三重県",
    "city": "桑名市",
    "category": "community_day_service",
    "serviceType": "地域密着型通所介護",
    "capacity": 0,
    "openDays": [
      "平日",
      "祝日"
    ],
    "openDaysNote": ""
  },
  {
    "id": "2470102332",
    "name": "桑名デイサービスセンター",
    "kana": "クワナデイサービスセンター",
    "address": "三重県桑名市江場777-1",
    "lat": 35.0500220647406,
    "lng": 136.685828497018,
    "tel": "0594-82-5830",
    "url": "",
    "pref": "三重県",
    "city": "桑名市",
    "category": "community_day_service",
    "serviceType": "地域密着型通所介護",
    "capacity": 0,
    "openDays": [
      "平日",
      "土曜日",
      "祝日"
    ],
    "openDaysNote": ""
  },
  {
    "id": "2470100369",
    "name": "宅老所　ふるさと",
    "kana": "タクロウショ　フルサト",
    "address": "三重県桑名市大字北別所字蔵金坊1608番地1",
    "lat": 35.0622161,
    "lng": 136.683803,
    "tel": "0594-84-7011",
    "url": "http://www.takurousho-furusato.com/facilities.html",
    "pref": "三重県",
    "city": "桑名市",
    "category": "community_day_service",
    "serviceType": "地域密着型通所介護",
    "capacity": 0,
    "openDays": [
      "平日",
      "祝日"
    ],
    "openDaysNote": "緊急時対応有り"
  },
  {
    "id": "2470101961",
    "name": "良心デイサービスセンター",
    "kana": "リョウシンデイサービスセンター",
    "address": "桑名市大字下深谷部３４５番地２４",
    "lat": 35.0933653,
    "lng": 136.6693314,
    "tel": "0594-29-2064",
    "url": "",
    "pref": "三重県",
    "city": "桑名市",
    "category": "community_day_service",
    "serviceType": "地域密着型通所介護",
    "capacity": null,
    "openDays": [
      "平日",
      "土曜日",
      "祝日"
    ],
    "openDaysNote": "利用時間については、ご利用者様の都合により延長サービスを無料で弾力的に運用いたします。"
  },
  {
    "id": "2472200712",
    "name": "デイサービス　たけなりの家",
    "kana": "デイサービス　タケナリノイエ",
    "address": "三重県三重郡菰野町大字竹成1930番地1",
    "lat": 35.0478503,
    "lng": 136.5146479,
    "tel": "059-396-1338",
    "url": "",
    "pref": "三重県",
    "city": "菰野町",
    "category": "community_day_service",
    "serviceType": "地域密着型通所介護",
    "capacity": null,
    "openDays": [
      "平日",
      "土曜日",
      "祝日"
    ],
    "openDaysNote": ""
  },
  {
    "id": "2472200225",
    "name": "デイサービスセンター　ひまわり",
    "kana": "デイサービスセンター　ヒマワリ",
    "address": "三重県三重郡菰野町川北203番地",
    "lat": 35.0264649,
    "lng": 136.5430517,
    "tel": "059-391-0722",
    "url": "",
    "pref": "三重県",
    "city": "菰野町",
    "category": "community_day_service",
    "serviceType": "地域密着型通所介護",
    "capacity": 10,
    "openDays": [
      "平日",
      "土曜日",
      "祝日"
    ],
    "openDaysNote": ""
  },
  {
    "id": "2472200605",
    "name": "デイサービス虹",
    "kana": "デイサービスニジ",
    "address": "千草7045-892",
    "lat": 35.0210534,
    "lng": 136.4846766,
    "tel": "059-392-3881",
    "url": "http://www.dayservice-niji.com/",
    "pref": "三重県",
    "city": "菰野町",
    "category": "community_day_service",
    "serviceType": "地域密着型通所介護",
    "capacity": 10,
    "openDays": [
      "平日",
      "祝日"
    ],
    "openDaysNote": "状況を見て土曜日の営業も検討中。"
  },
  {
    "id": "2472200357",
    "name": "株式会社ジェイエイあいけあセンター",
    "kana": "ジェイエイアイケアセンター",
    "address": "三重県三重郡菰野町大字田光字宮川原4821番地",
    "lat": 35.0639967378216,
    "lng": 136.510916302408,
    "tel": "059-399-3060",
    "url": "https://www.ja-miekita.or.jp/service/icare/",
    "pref": "三重県",
    "city": "菰野町",
    "category": "community_day_service",
    "serviceType": "地域密着型通所介護",
    "capacity": 0,
    "openDays": [
      "平日",
      "土曜日",
      "祝日"
    ],
    "openDaysNote": ""
  },
  {
    "id": "2463190013",
    "name": "ＮＰＯ法人つどい",
    "kana": "エヌピーオーホウジンツドイ",
    "address": "三重県南牟婁郡御浜町大字志原字赤崎平1819番地33",
    "lat": 33.8144776,
    "lng": 136.048724,
    "tel": "05979-3-0137",
    "url": "http://npo-tsudoi.com",
    "pref": "三重県",
    "city": "御浜町",
    "category": "community_day_service",
    "serviceType": "地域密着型通所介護",
    "capacity": null,
    "openDays": [
      "平日",
      "土曜日",
      "日曜日",
      "祝日"
    ],
    "openDaysNote": ""
  },
  {
    "id": "2473100663",
    "name": "アクアリハトレセンター",
    "kana": "アクアリハトレセンター",
    "address": "三重県南牟婁郡御浜町阿田和４９２６－５　ピネ１階",
    "lat": 33.8035786,
    "lng": 136.0430523,
    "tel": "05979-2-1575",
    "url": "",
    "pref": "三重県",
    "city": "御浜町",
    "category": "community_day_service",
    "serviceType": "地域密着型通所介護",
    "capacity": 0,
    "openDays": [
      "平日",
      "土曜日"
    ],
    "openDaysNote": ""
  },
  {
    "id": "2473100481",
    "name": "おろし複合福祉施設つどい",
    "kana": "オロシフクゴウフクシシセツツドイ",
    "address": "上野下尾崎２４０－２",
    "lat": 35.7089183,
    "lng": 139.7742183,
    "tel": "０５９７９－４－７２００",
    "url": "orositudoi@zd.ne.jp",
    "pref": "三重県",
    "city": "御浜町",
    "category": "community_day_service",
    "serviceType": "地域密着型通所介護",
    "capacity": 0,
    "openDays": [
      "平日",
      "土曜日",
      "日曜日",
      "祝日"
    ],
    "openDaysNote": ""
  },
  {
    "id": "2473100317",
    "name": "デイサービスセンター　えいじはうす",
    "kana": "デイサービスセンター　エイジハウス",
    "address": "三重県南牟婁郡御浜町下市木３８０９番地",
    "lat": 33.8396668,
    "lng": 136.0496905,
    "tel": "05979-3-1610",
    "url": "",
    "pref": "三重県",
    "city": "御浜町",
    "category": "community_day_service",
    "serviceType": "地域密着型通所介護",
    "capacity": 0,
    "openDays": [
      "平日",
      "土曜日",
      "祝日"
    ],
    "openDaysNote": ""
  },
  {
    "id": "2493100073",
    "name": "デイサービスひなた",
    "kana": "デイサービスヒナタ",
    "address": "三重県南牟婁郡御浜町大字阿田和１７５３番地",
    "lat": 33.7976921,
    "lng": 136.0333594,
    "tel": "05979-9-1921",
    "url": "",
    "pref": "三重県",
    "city": "御浜町",
    "category": "community_day_service",
    "serviceType": "地域密着型通所介護",
    "capacity": 10,
    "openDays": [
      "平日",
      "祝日"
    ],
    "openDaysNote": ""
  },
  {
    "id": "2493100040",
    "name": "花みかんリハビリデイサービスちんちろ店",
    "kana": "ハナミカンリハビリデイサービスチンチロテン",
    "address": "三重県南牟婁郡御浜町阿田和4828-1",
    "lat": 33.8032787,
    "lng": 136.0400748,
    "tel": "05979-9-1666",
    "url": "",
    "pref": "三重県",
    "city": "御浜町",
    "category": "community_day_service",
    "serviceType": "地域密着型通所介護",
    "capacity": 10,
    "openDays": [
      "平日"
    ],
    "openDaysNote": ""
  },
  {
    "id": "2470204146",
    "name": "ＡＱＵＡデイサービス",
    "kana": "アクアデイサービス",
    "address": "芝田二丁目３－１グローバルビル１Ｆ グローバルビル１Ｆ",
    "lat": 34.9710028,
    "lng": 136.6086444,
    "tel": "593515777",
    "url": "http://aqua-ds.jp/",
    "pref": "三重県",
    "city": "四日市市",
    "category": "community_day_service",
    "serviceType": "地域密着型通所介護",
    "capacity": 115,
    "openDays": [
      "平日",
      "土曜日"
    ],
    "openDaysNote": "但し、8月13日から8月15日、12月30日から1月3日は除く（改行）平日木曜日の営業時間は8時30分から12時30分まで"
  },
  {
    "id": "2470204179",
    "name": "クラナ　ひまわり",
    "kana": "クラナ　ヒマワリ",
    "address": "三重県四日市市采女町1115番地1",
    "lat": 34.9186037,
    "lng": 136.5782372,
    "tel": "059-348-6377",
    "url": "http://kurana-himawari.com",
    "pref": "三重県",
    "city": "四日市市",
    "category": "community_day_service",
    "serviceType": "地域密着型通所介護",
    "capacity": 18,
    "openDays": [
      "平日",
      "祝日"
    ],
    "openDaysNote": ""
  },
  {
    "id": "2470204757",
    "name": "げんき教室生桑",
    "kana": "ゲンキキョウシツイクワ",
    "address": "三重県四日市市生桑333-4",
    "lat": 34.9899617,
    "lng": 136.5964037,
    "tel": "059-340-3190",
    "url": "",
    "pref": "三重県",
    "city": "四日市市",
    "category": "community_day_service",
    "serviceType": "地域密着型通所介護",
    "capacity": 0,
    "openDays": [
      "平日",
      "祝日"
    ],
    "openDaysNote": "お盆休暇及び年末年始休暇有"
  },
  {
    "id": "2470203494",
    "name": "ゴールドエイジ株式会社デイサービスオリーブ",
    "kana": "ゴールドエイジカブシキガイシャデイサービスオリーブ",
    "address": "芝田２丁目３－３５ゴールドエイジオリーブ ゴールドエイジオリーブ",
    "lat": 34.9708084,
    "lng": 136.607614,
    "tel": "059‐355‐3001",
    "url": "http://goldage.co.jp/",
    "pref": "三重県",
    "city": "四日市市",
    "category": "community_day_service",
    "serviceType": "地域密着型通所介護",
    "capacity": 10,
    "openDays": [
      "平日",
      "土曜日",
      "日曜日",
      "祝日"
    ],
    "openDaysNote": ""
  },
  {
    "id": "2490200546",
    "name": "デイサービス　クラス　四日市南",
    "kana": "デイサービス　クラス　ヨッカイチミナミ",
    "address": "三重県四日市市日永東3-15-21",
    "lat": 34.9415892,
    "lng": 136.6087264,
    "tel": "059-336-6981",
    "url": "https://ahc.co.jp/",
    "pref": "三重県",
    "city": "四日市市",
    "category": "community_day_service",
    "serviceType": "地域密着型通所介護",
    "capacity": 10,
    "openDays": [
      "平日",
      "土曜日",
      "日曜日",
      "祝日"
    ],
    "openDaysNote": "介護保険内のサービス提供時間は8：30～17：00です。（改行）延長や介護保険外でのご利用なら8：30～17：00以外の利用も可能となります。"
  },
  {
    "id": "2470203346",
    "name": "デイサービス　さくらしんまち",
    "kana": "デイサービス　サクラシンマチ",
    "address": "三重県四日市市桜新町１丁目２１８ゴールドエイジ　さくらしんまち ゴールドエイジ　さくらしんまち",
    "lat": 34.9832307,
    "lng": 136.5221064,
    "tel": "059-326-7775",
    "url": "http://goldage.co.jp/gold-age/cblossom/",
    "pref": "三重県",
    "city": "四日市市",
    "category": "community_day_service",
    "serviceType": "地域密着型通所介護",
    "capacity": 5,
    "openDays": [
      "平日",
      "土曜日",
      "日曜日",
      "祝日"
    ],
    "openDaysNote": "年始1/1～1/3休み"
  },
  {
    "id": "2470205044",
    "name": "デイサービス　すこやかテラス",
    "kana": "デイサービス　スコヤカテラス",
    "address": "三重県四日市市生桑町655-1",
    "lat": 34.9828538801119,
    "lng": 136.597624105102,
    "tel": "059-330-0131",
    "url": "https://sukoyaka-residence.com/",
    "pref": "三重県",
    "city": "四日市市",
    "category": "community_day_service",
    "serviceType": "地域密着型通所介護",
    "capacity": 18,
    "openDays": [
      "平日",
      "祝日"
    ],
    "openDaysNote": ""
  },
  {
    "id": "2470204344",
    "name": "デイサービス　フィジオ",
    "kana": "デイサービス　フィジオ",
    "address": "新町4-2",
    "lat": 34.9656163589425,
    "lng": 136.631051190201,
    "tel": "593582300",
    "url": "physio2013@xj.commufa.jp",
    "pref": "三重県",
    "city": "四日市市",
    "category": "community_day_service",
    "serviceType": "地域密着型通所介護",
    "capacity": 15,
    "openDays": [
      "平日",
      "土曜日"
    ],
    "openDaysNote": ""
  },
  {
    "id": "2470203908",
    "name": "デイサービス　杉の木",
    "kana": "デイサービス　スギノキ",
    "address": "四日市市東日野町３５４番地６",
    "lat": 34.9588453,
    "lng": 136.5962822,
    "tel": "059-321-0078",
    "url": "",
    "pref": "三重県",
    "city": "四日市市",
    "category": "community_day_service",
    "serviceType": "地域密着型通所介護",
    "capacity": 0,
    "openDays": [
      "平日",
      "祝日"
    ],
    "openDaysNote": ""
  },
  {
    "id": "2470203361",
    "name": "デイサービスエクラ",
    "kana": "デイサービスエクラ",
    "address": "三重県四日市市ときわ２丁目１２－８ゴールドエイジ　エクラ ゴールドエイジ　エクラ",
    "lat": 34.9668417,
    "lng": 136.5944962,
    "tel": "059-355-2000",
    "url": "https://goldage.co.jp",
    "pref": "三重県",
    "city": "四日市市",
    "category": "community_day_service",
    "serviceType": "地域密着型通所介護",
    "capacity": 10,
    "openDays": [
      "平日",
      "土曜日",
      "日曜日",
      "祝日"
    ],
    "openDaysNote": "1月1日は休日"
  },
  {
    "id": "2470204112",
    "name": "デイサービスセンター　おり鶴",
    "kana": "デイサービスセンター　オリヅル",
    "address": "四日市市南小松町629",
    "lat": 34.9246703,
    "lng": 136.5664733,
    "tel": "０５９－３２２－０７７１",
    "url": "http://www6.cty-net.ne.jp/~orizuru/",
    "pref": "三重県",
    "city": "四日市市",
    "category": "community_day_service",
    "serviceType": "地域密着型通所介護",
    "capacity": 18,
    "openDays": [
      "平日",
      "祝日"
    ],
    "openDaysNote": ""
  },
  {
    "id": "2470201464",
    "name": "デイサービスセンター　ニコニコ",
    "kana": "デイサービスセンター　ニコニコ",
    "address": "三重県四日市市松寺３丁目６番２９号",
    "lat": 35.0243496,
    "lng": 136.6526366,
    "tel": "059-365-7576",
    "url": "",
    "pref": "三重県",
    "city": "四日市市",
    "category": "community_day_service",
    "serviceType": "地域密着型通所介護",
    "capacity": 10,
    "openDays": [
      "平日",
      "土曜日",
      "祝日"
    ],
    "openDaysNote": ""
  },
  {
    "id": "2470203981",
    "name": "デイサービスセンター四日市北にじ",
    "kana": "デイサービスセンターヨッカイチキタニジ",
    "address": "四日市市伊坂町1636番地4",
    "lat": 35.0316598,
    "lng": 136.6303794,
    "tel": "059-328-5058",
    "url": "ｈｔｔｐｓ：//ｗｗｗ.isism.jp/",
    "pref": "三重県",
    "city": "四日市市",
    "category": "community_day_service",
    "serviceType": "地域密着型通所介護",
    "capacity": 0,
    "openDays": [
      "平日",
      "祝日"
    ],
    "openDaysNote": "上記営業時間外でも相談等に応じる"
  },
  {
    "id": "2470205093",
    "name": "デイサービスセンター松本ひまわり",
    "kana": "デイサービスセンターマツモトヒマワリ",
    "address": "三重県四日市市大字松本３番地１",
    "lat": 34.9631917925002,
    "lng": 136.591252364418,
    "tel": "059-340-8888",
    "url": "",
    "pref": "三重県",
    "city": "四日市市",
    "category": "community_day_service",
    "serviceType": "地域密着型通所介護",
    "capacity": 13,
    "openDays": [
      "平日",
      "祝日"
    ],
    "openDaysNote": ""
  },
  {
    "id": "2490200355",
    "name": "デイサービスセンター石塚ひまわり",
    "kana": "デイサービスセンターイシヅカヒマワリ",
    "address": "三重県四日市市石塚町10-23",
    "lat": 34.9615024005543,
    "lng": 136.600986707897,
    "tel": "059-340-6000",
    "url": "",
    "pref": "三重県",
    "city": "四日市市",
    "category": "community_day_service",
    "serviceType": "地域密着型通所介護",
    "capacity": 16,
    "openDays": [
      "平日",
      "祝日"
    ],
    "openDaysNote": ""
  },
  {
    "id": "2470203585",
    "name": "デイサービスつばめ",
    "kana": "デイサービスツバメ",
    "address": "笹川８丁目６７番地１１号",
    "lat": 34.9419628851266,
    "lng": 136.575924640564,
    "tel": "059-358-9059",
    "url": "https://sites.google.com/view/for-kyouyuu",
    "pref": "三重県",
    "city": "四日市市",
    "category": "community_day_service",
    "serviceType": "地域密着型通所介護",
    "capacity": 20,
    "openDays": [
      "平日",
      "土曜日",
      "祝日"
    ],
    "openDaysNote": ""
  },
  {
    "id": "2470203973",
    "name": "デイサービスリハビリレストランKicori（きこり）",
    "kana": "デイサービスリハビリレストラン　キコリ",
    "address": "四日市市桜台本町51-1",
    "lat": 34.9897917,
    "lng": 136.5386027,
    "tel": "059-329-7956",
    "url": "http://www.toytree-kicori.com/",
    "pref": "三重県",
    "city": "四日市市",
    "category": "community_day_service",
    "serviceType": "地域密着型通所介護",
    "capacity": 16,
    "openDays": [
      "平日",
      "土曜日",
      "祝日"
    ],
    "openDaysNote": ""
  },
  {
    "id": "2470204484",
    "name": "デイサービス夏詩",
    "kana": "デイサービスナツノウタ",
    "address": "三重県四日市市東坂部町1693-4",
    "lat": 35.0008579,
    "lng": 136.6006862,
    "tel": "059-330-5073",
    "url": "http://natsuuta.com",
    "pref": "三重県",
    "city": "四日市市",
    "category": "community_day_service",
    "serviceType": "地域密着型通所介護",
    "capacity": 17,
    "openDays": [
      "平日",
      "土曜日",
      "祝日"
    ],
    "openDaysNote": ""
  },
  {
    "id": "2470204203",
    "name": "デイサービス四日市楠館",
    "kana": "デイサービスヨッカイチクスカン",
    "address": "楠町小倉764-1プレステージ四日市楠館 プレステージ四日市楠館",
    "lat": 34.9217666,
    "lng": 136.6261028,
    "tel": "059-342-0018",
    "url": "http:／／ｔｏｋａｉ．ｍｉｓａｗａ．ｃｏ．ｊｐ／ｓｅｎｉｏｒ_ｍａｎｓｈｏｎ／",
    "pref": "三重県",
    "city": "四日市市",
    "category": "community_day_service",
    "serviceType": "地域密着型通所介護",
    "capacity": 0,
    "openDays": [
      "平日",
      "土曜日",
      "日曜日",
      "祝日"
    ],
    "openDaysNote": ""
  },
  {
    "id": "2490200595",
    "name": "デイサービス四日市楠館",
    "kana": "デイサービスヨッカイチクスカン",
    "address": "三重県四日市市楠町小倉764-1",
    "lat": 34.9218327,
    "lng": 136.6260474,
    "tel": "059-342-0018",
    "url": "https://www.prestige-care-tokai.co.jp/institutions/kusunoyakata/",
    "pref": "三重県",
    "city": "四日市市",
    "category": "community_day_service",
    "serviceType": "地域密着型通所介護",
    "capacity": null,
    "openDays": [
      "平日",
      "土曜日",
      "祝日"
    ],
    "openDaysNote": ""
  },
  {
    "id": "2470204542",
    "name": "デイサービス渚園四日市",
    "kana": "デイサービス　ナギサエンヨッカイチ",
    "address": "三重県四日市市生桑町1863-1",
    "lat": 34.9893947671199,
    "lng": 136.592412572986,
    "tel": "059-331-2122",
    "url": "",
    "pref": "三重県",
    "city": "四日市市",
    "category": "community_day_service",
    "serviceType": "地域密着型通所介護",
    "capacity": null,
    "openDays": [
      "平日",
      "土曜日",
      "祝日"
    ],
    "openDaysNote": "12月31日から1月3日まで休日とする"
  },
  {
    "id": "2472200191",
    "name": "みのりの里デイサービスセンター",
    "kana": "ミノリノサトデイサービスセンター",
    "address": "四日市市楠町本郷1139-1番地",
    "lat": 34.9103254,
    "lng": 136.6185202,
    "tel": "059-398-2110",
    "url": "tokujukai.com",
    "pref": "三重県",
    "city": "四日市市",
    "category": "community_day_service",
    "serviceType": "地域密着型通所介護",
    "capacity": 0,
    "openDays": [
      "平日",
      "土曜日",
      "祝日"
    ],
    "openDaysNote": ""
  },
  {
    "id": "2470204518",
    "name": "リハビリデイこころゆたか",
    "kana": "リハビリデイココロユタカ",
    "address": "大矢知町1076-3",
    "lat": 35.0183647033562,
    "lng": 136.636230461971,
    "tel": "059-327-7444",
    "url": "https://www.stepby-step.co.jp/",
    "pref": "三重県",
    "city": "四日市市",
    "category": "community_day_service",
    "serviceType": "地域密着型通所介護",
    "capacity": 18,
    "openDays": [
      "平日",
      "土曜日",
      "祝日"
    ],
    "openDaysNote": "平成29年10月より土曜日の午前の営業を始めました。"
  },
  {
    "id": "2470203866",
    "name": "リハビリデイサービス　みんなの家　四日市日永",
    "kana": "リハビリデイサービス　ミンナノイエ　ヨッカイチヒナガ",
    "address": "三重県四日市市日永四丁目１番４９号日永カヨー北駐車場 日永カヨー北駐車場",
    "lat": 34.9482033433481,
    "lng": 136.603762831738,
    "tel": "059-328-5701",
    "url": "http://care-pro.co.jp/",
    "pref": "三重県",
    "city": "四日市市",
    "category": "community_day_service",
    "serviceType": "地域密着型通所介護",
    "capacity": 0,
    "openDays": [
      "平日",
      "土曜日",
      "祝日"
    ],
    "openDaysNote": "2部制　①単位　9:00-12:05（改行）　　　②単位　13:25-16:30"
  },
  {
    "id": "2490200447",
    "name": "リハビリデイサービス　みんなの家＠one　四日市日永",
    "kana": "リハビリデイサービス　ミンナノイエ　アットワン　ヨッカイチヒナガ",
    "address": "三重県四日市市日永4丁目1番49号",
    "lat": 34.9483851800535,
    "lng": 136.603798086444,
    "tel": "059-328-5701",
    "url": "http://care-pro.co.jp/",
    "pref": "三重県",
    "city": "四日市市",
    "category": "community_day_service",
    "serviceType": "地域密着型通所介護",
    "capacity": null,
    "openDays": [
      "平日"
    ],
    "openDaysNote": ""
  },
  {
    "id": "2470204799",
    "name": "リハビリテーションスタジオあすか",
    "kana": "リハビリテーションスタジオアスカ",
    "address": "三重県四日市市赤堀南町６－７",
    "lat": 34.9579582702869,
    "lng": 136.610535252115,
    "tel": "059-329-5511",
    "url": "http://aska-kaigo.jp/",
    "pref": "三重県",
    "city": "四日市市",
    "category": "community_day_service",
    "serviceType": "地域密着型通所介護",
    "capacity": 18,
    "openDays": [
      "平日",
      "祝日"
    ],
    "openDaysNote": "午前・午後と３時間のデイサービスを提供しています。"
  },
  {
    "id": "2470204229",
    "name": "楽しく鍛えるリハビリデイサービス　たのきん倶楽部",
    "kana": "タノシクキタエルリハビリデイサービス　タノキンクラブ",
    "address": "堀木1丁目3-1林ビル１Ｆ 林ビル１Ｆ",
    "lat": 34.9716251,
    "lng": 136.6142215,
    "tel": "059-353-8800",
    "url": "http://www4.hp-ez.com/hp/t-naka2013",
    "pref": "三重県",
    "city": "四日市市",
    "category": "community_day_service",
    "serviceType": "地域密着型通所介護",
    "capacity": 15,
    "openDays": [
      "平日"
    ],
    "openDaysNote": "年末年始・お盆・ゴールデンウィークは休業"
  },
  {
    "id": "2490200470",
    "name": "機能訓練型デイサービス　デイウォークまつもと",
    "kana": "キノウクンレンガタ　デイサービス　デイウォークマツモト",
    "address": "三重県四日市市松本３丁目１０番地２４",
    "lat": 34.9692901,
    "lng": 136.5892165,
    "tel": "059-355-1220",
    "url": "https://www.mie-heiankaku.co.jp/daywalk_matsumoto/",
    "pref": "三重県",
    "city": "四日市市",
    "category": "community_day_service",
    "serviceType": "地域密着型通所介護",
    "capacity": 20,
    "openDays": [
      "平日",
      "祝日"
    ],
    "openDaysNote": "午前の部　サービス提供時間　9：00～12：15（改行）午後の部　サービス提供時間　13：15～16：30（改行）年末年始（改行）夏季休暇8月の3日間"
  },
  {
    "id": "2470204302",
    "name": "社会福祉法人　永甲会　地域密着型通所介護事業所　かすみの里",
    "kana": "シヤカイフクシホウジン　エイコウカイ　チイキミッチャクガタツウショカイゴジギョウショカスミノサト",
    "address": "三重県四日市市白須賀一丁目12番８号",
    "lat": 34.9898678,
    "lng": 136.6426938,
    "tel": "059-334-1125",
    "url": "http/www.eiko-kai.jp",
    "pref": "三重県",
    "city": "四日市市",
    "category": "community_day_service",
    "serviceType": "地域密着型通所介護",
    "capacity": 18,
    "openDays": [
      "平日",
      "祝日"
    ],
    "openDaysNote": "令和４年４月より土曜日の営業を中止し、平日の営業のみとしています。"
  },
  {
    "id": "2470201969",
    "name": "認知症・一般通所介護　織りがみの郷",
    "kana": "ニンチショウ・イッパンツウショカイゴ　オリガミノサト",
    "address": "三重県四日市市茂福町１－２１",
    "lat": 34.997339,
    "lng": 136.6460628,
    "tel": "059-364-1165",
    "url": "",
    "pref": "三重県",
    "city": "四日市市",
    "category": "community_day_service",
    "serviceType": "地域密着型通所介護",
    "capacity": 10,
    "openDays": [
      "平日",
      "土曜日",
      "祝日"
    ],
    "openDaysNote": "12/31～1/3は休み"
  },
  {
    "id": "2470203890",
    "name": "北勢デイサービス",
    "kana": "ホクセイデイサービス",
    "address": "三重県四日市市塩浜1014番地",
    "lat": 34.9302611302276,
    "lng": 136.620489512412,
    "tel": "059-348-3820",
    "url": "",
    "pref": "三重県",
    "city": "四日市市",
    "category": "community_day_service",
    "serviceType": "地域密着型通所介護",
    "capacity": 18,
    "openDays": [
      "平日",
      "土曜日",
      "祝日"
    ],
    "openDaysNote": ""
  },
  {
    "id": "2470203577",
    "name": "優の里デイサービスセンター　四日市",
    "kana": "ユウノサト　デイサービスセンター　ヨッカイチ",
    "address": "三重県四日市市小古曽6丁目15-1",
    "lat": 34.9271784,
    "lng": 136.5868723,
    "tel": "059-340-4357",
    "url": "",
    "pref": "三重県",
    "city": "四日市市",
    "category": "community_day_service",
    "serviceType": "地域密着型通所介護",
    "capacity": 0,
    "openDays": [
      "平日",
      "土曜日",
      "祝日"
    ],
    "openDaysNote": ""
  },
  {
    "id": "2470204963",
    "name": "侘助デイサービス",
    "kana": "ワビスケデイサービス",
    "address": "広永町592-1",
    "lat": 35.031196,
    "lng": 136.6393789,
    "tel": "059-358-3889",
    "url": "",
    "pref": "三重県",
    "city": "四日市市",
    "category": "community_day_service",
    "serviceType": "地域密着型通所介護",
    "capacity": 10,
    "openDays": [
      "平日",
      "土曜日",
      "祝日"
    ],
    "openDaysNote": ""
  },
  {
    "id": "2492900150",
    "name": "げんき村",
    "kana": "ゲンキムラ",
    "address": "三重県志摩市阿児町鵜方5190番地2",
    "lat": 34.3254359,
    "lng": 136.8160964,
    "tel": "0599-65-7773",
    "url": "www.danran-shima.com",
    "pref": "三重県",
    "city": "志摩市",
    "category": "community_day_service",
    "serviceType": "地域密着型通所介護",
    "capacity": 0,
    "openDays": [
      "平日",
      "日曜日",
      "祝日"
    ],
    "openDaysNote": "1月1日～3日はお休み。"
  },
  {
    "id": "2472900469",
    "name": "だんらん",
    "kana": "ダンラン",
    "address": "三重県志摩市阿児町鵜方5204番地",
    "lat": 34.3251042,
    "lng": 136.8164034,
    "tel": "0599-46-1689",
    "url": "www.danran-shima.com",
    "pref": "三重県",
    "city": "志摩市",
    "category": "community_day_service",
    "serviceType": "地域密着型通所介護",
    "capacity": 0,
    "openDays": [
      "平日",
      "土曜日",
      "祝日"
    ],
    "openDaysNote": ""
  },
  {
    "id": "2472901152",
    "name": "デイサービス　あかねの家",
    "kana": "デイサービス　アカネノイエ",
    "address": "三重県志摩市阿児町鵜方3195-18",
    "lat": 34.326357,
    "lng": 136.828888,
    "tel": "0599-44-0777",
    "url": "",
    "pref": "三重県",
    "city": "志摩市",
    "category": "community_day_service",
    "serviceType": "地域密着型通所介護",
    "capacity": null,
    "openDays": [
      "平日",
      "祝日"
    ],
    "openDaysNote": ""
  },
  {
    "id": "2492900184",
    "name": "デイサービス　なぎさ",
    "kana": "デイサービス　ナギサ",
    "address": "三重県志摩市阿児町安乗830",
    "lat": 34.3632590537759,
    "lng": 136.906118606746,
    "tel": "0599-47-0077",
    "url": "http://anori-hiyori.com",
    "pref": "三重県",
    "city": "志摩市",
    "category": "community_day_service",
    "serviceType": "地域密着型通所介護",
    "capacity": 0,
    "openDays": [
      "平日"
    ],
    "openDaysNote": ""
  },
  {
    "id": "2492900101",
    "name": "デイサービス　ひなた",
    "kana": "デイサービス　ヒナタ",
    "address": "三重県志摩市阿児町国府3665-70",
    "lat": 34.3502035,
    "lng": 136.8865065,
    "tel": "0599-77-6924",
    "url": "http://anori-hiyori.com/",
    "pref": "三重県",
    "city": "志摩市",
    "category": "community_day_service",
    "serviceType": "地域密着型通所介護",
    "capacity": null,
    "openDays": [
      "平日",
      "祝日"
    ],
    "openDaysNote": ""
  },
  {
    "id": "2472901301",
    "name": "ディサービス　へいあんケア",
    "kana": "デイサービス　ヘイアンケア",
    "address": "三重県志摩市大王町波切1694-1",
    "lat": 34.2796113,
    "lng": 136.8802596,
    "tel": "0599-72-5585",
    "url": "https://heiancare,co,jp",
    "pref": "三重県",
    "city": "志摩市",
    "category": "community_day_service",
    "serviceType": "地域密着型通所介護",
    "capacity": 10,
    "openDays": [
      "平日",
      "祝日"
    ],
    "openDaysNote": ""
  },
  {
    "id": "2472901160",
    "name": "デイサービスいこいの家　和",
    "kana": "デイサービスイコイノイエカズ",
    "address": "志摩市阿児町鵜方1877-6",
    "lat": 34.3368527,
    "lng": 136.827782,
    "tel": "0599-46-0151",
    "url": "",
    "pref": "三重県",
    "city": "志摩市",
    "category": "community_day_service",
    "serviceType": "地域密着型通所介護",
    "capacity": 10,
    "openDays": [
      "平日",
      "祝日"
    ],
    "openDaysNote": "悪天候など、利用者の安全確保が困難と思われる場合は、あらかじめ連絡の上サービスの提供を中止いたします。"
  },
  {
    "id": "2472901129",
    "name": "デイサービスすずらん",
    "kana": "デイサービススズラン",
    "address": "三重県志摩市大王町波切3401番地17",
    "lat": 34.2855859,
    "lng": 136.8955722,
    "tel": "0599-73-8002",
    "url": "suzuran1@tuba.ocn.ne.jp",
    "pref": "三重県",
    "city": "志摩市",
    "category": "community_day_service",
    "serviceType": "地域密着型通所介護",
    "capacity": 0,
    "openDays": [
      "平日",
      "土曜日",
      "祝日"
    ],
    "openDaysNote": ""
  },
  {
    "id": "2472900907",
    "name": "デイサービスセンター　さくらんぼ",
    "kana": "デイサービスセンター　サクランボ",
    "address": "磯部町穴川１３２３番地",
    "lat": 34.3567835,
    "lng": 136.8196245,
    "tel": "0599-55-0152",
    "url": "",
    "pref": "三重県",
    "city": "志摩市",
    "category": "community_day_service",
    "serviceType": "地域密着型通所介護",
    "capacity": 18,
    "openDays": [
      "平日",
      "土曜日",
      "日曜日",
      "祝日"
    ],
    "openDaysNote": ""
  },
  {
    "id": "2472901285",
    "name": "デイサービスセンター　しらはまの家",
    "kana": "デイサ－ビスセンタ－　シラハマノイエ",
    "address": "志摩市阿児町国府　2993－１デイサービスセンター　しらはまの家 デイサービスセンター　しらはまの家",
    "lat": 34.3405643,
    "lng": 136.8775921,
    "tel": "0599-47-0065",
    "url": "E-mail：ds-shirahama@silver.plala.or.jp",
    "pref": "三重県",
    "city": "志摩市",
    "category": "community_day_service",
    "serviceType": "地域密着型通所介護",
    "capacity": 10,
    "openDays": [
      "平日",
      "土曜日",
      "祝日"
    ],
    "openDaysNote": ""
  },
  {
    "id": "2472900717",
    "name": "デイサービスセンター　なのはな",
    "kana": "デイサービスセンター　ナノハナ",
    "address": "三重県志摩市志摩町越賀158-1",
    "lat": 34.2610505,
    "lng": 136.797955,
    "tel": "0599-84-3777",
    "url": "",
    "pref": "三重県",
    "city": "志摩市",
    "category": "community_day_service",
    "serviceType": "地域密着型通所介護",
    "capacity": 0,
    "openDays": [
      "平日",
      "土曜日",
      "祝日"
    ],
    "openDaysNote": ""
  },
  {
    "id": "2472900824",
    "name": "デイサービスセンター　りゅうぐう",
    "kana": "デイサービスセンター　リュウグウ",
    "address": "三重県志摩市磯部町渡鹿野４８０－２",
    "lat": 34.3606651650855,
    "lng": 136.875566457672,
    "tel": "0599-57-3880",
    "url": "",
    "pref": "三重県",
    "city": "志摩市",
    "category": "community_day_service",
    "serviceType": "地域密着型通所介護",
    "capacity": 10,
    "openDays": [
      "平日",
      "土曜日",
      "祝日"
    ],
    "openDaysNote": "12月30日～1月3日、悪天候や事業所が別に定めた日等を除く。別に定める場合は、書面等でご利用者へ通知。"
  },
  {
    "id": "2472901277",
    "name": "デイサービスセンター　忠洋",
    "kana": "デイサービスセンターチュウヨウ",
    "address": "三重県志摩市阿児町安乗１１３２",
    "lat": 34.3556187,
    "lng": 136.8957464,
    "tel": "0599-47-3891",
    "url": "",
    "pref": "三重県",
    "city": "志摩市",
    "category": "community_day_service",
    "serviceType": "地域密着型通所介護",
    "capacity": 0,
    "openDays": [
      "平日",
      "土曜日",
      "祝日"
    ],
    "openDaysNote": "１２/３1～１/３は休み"
  },
  {
    "id": "2472901590",
    "name": "デイサービスセンターけあのすけ",
    "kana": "デイサービスセンターケアノスケ",
    "address": "三重県志摩市大王町畔名725番地5",
    "lat": 34.2974562,
    "lng": 136.8760761,
    "tel": "0599-73-8045",
    "url": "http://www.keanosuke.com/",
    "pref": "三重県",
    "city": "志摩市",
    "category": "community_day_service",
    "serviceType": "地域密着型通所介護",
    "capacity": 10,
    "openDays": [
      "平日",
      "土曜日",
      "祝日"
    ],
    "openDaysNote": "台風や自然災害など、安全に営業することが困難と判断した場合は、事前連絡のうえで休業とする場合があります。"
  },
  {
    "id": "2472901368",
    "name": "デイサービスゆうなぎ",
    "kana": "デイサービスユウナギ",
    "address": "三重県志摩市阿児町国府9",
    "lat": 34.3299452077333,
    "lng": 136.874768203107,
    "tel": "0599−47-3133",
    "url": "",
    "pref": "三重県",
    "city": "志摩市",
    "category": "community_day_service",
    "serviceType": "地域密着型通所介護",
    "capacity": 0,
    "openDays": [
      "平日",
      "土曜日",
      "祝日"
    ],
    "openDaysNote": ""
  },
  {
    "id": "2492900143",
    "name": "ふぁみりい",
    "kana": "ファミリイ",
    "address": "三重県志摩市阿児町鵜方5190番地1",
    "lat": 34.3256623,
    "lng": 136.8159195,
    "tel": "0599-65-7773",
    "url": "www.danran-shima.com",
    "pref": "三重県",
    "city": "志摩市",
    "category": "community_day_service",
    "serviceType": "地域密着型通所介護",
    "capacity": 0,
    "openDays": [
      "平日",
      "日曜日",
      "祝日"
    ],
    "openDaysNote": "1月1日～3日はお休み。"
  },
  {
    "id": "2492900168",
    "name": "ほほえみ",
    "kana": "ホホエミ",
    "address": "三重県志摩市阿児町鵜方5201番地",
    "lat": 34.325251,
    "lng": 136.815929,
    "tel": "0599-46-1779",
    "url": "www.danran-shima.com",
    "pref": "三重県",
    "city": "志摩市",
    "category": "community_day_service",
    "serviceType": "地域密着型通所介護",
    "capacity": 0,
    "openDays": [
      "平日",
      "土曜日",
      "祝日"
    ],
    "openDaysNote": ""
  },
  {
    "id": "2492900176",
    "name": "ほほえみ賢島苑",
    "kana": "ホホエミカシコジマエン",
    "address": "三重県志摩市阿児町神明字寺川原764-45",
    "lat": 34.3170367200573,
    "lng": 136.809220529924,
    "tel": "0599-44-3399",
    "url": "www.danran-shima.com",
    "pref": "三重県",
    "city": "志摩市",
    "category": "community_day_service",
    "serviceType": "地域密着型通所介護",
    "capacity": 0,
    "openDays": [
      "平日",
      "土曜日",
      "祝日"
    ],
    "openDaysNote": "１月１日～３日　休み（改行）日曜休み"
  },
  {
    "id": "2472901632",
    "name": "機能訓練特化型デイサービスセンター　いっ歩",
    "kana": "キノウクンレントッカガタデイサービスセンター　イッポ",
    "address": "三重県志摩市阿児町甲賀1457-92",
    "lat": 34.3137346643132,
    "lng": 136.860845467737,
    "tel": "0599-45-8100",
    "url": "",
    "pref": "三重県",
    "city": "志摩市",
    "category": "community_day_service",
    "serviceType": "地域密着型通所介護",
    "capacity": 18,
    "openDays": [
      "平日",
      "土曜日",
      "祝日"
    ],
    "openDaysNote": ""
  },
  {
    "id": "2492900119",
    "name": "地域密着型通所介護だんらん2",
    "kana": "チイキミッチャクガタツウショカイゴダンランツー",
    "address": "三重県志摩市阿児町鵜方5209番地",
    "lat": 34.3289399,
    "lng": 136.824505,
    "tel": "0599-46-1689",
    "url": "www.danran-shima.com",
    "pref": "三重県",
    "city": "志摩市",
    "category": "community_day_service",
    "serviceType": "地域密着型通所介護",
    "capacity": 0,
    "openDays": [
      "平日",
      "土曜日",
      "祝日"
    ],
    "openDaysNote": "１単位目9：00～12：00　２単位目13：00～16：00で営業しています。"
  },
  {
    "id": "2472600085",
    "name": "あいデイサービスセンター",
    "kana": "アイデイサービスセンター",
    "address": "松阪市飯南町下仁柿652番地",
    "lat": 34.479268,
    "lng": 136.3842228,
    "tel": "0598-32-2810",
    "url": "",
    "pref": "三重県",
    "city": "松阪市",
    "category": "community_day_service",
    "serviceType": "地域密着型通所介護",
    "capacity": 18,
    "openDays": [
      "平日"
    ],
    "openDaysNote": ""
  },
  {
    "id": "2470702792",
    "name": "お元気デイサービス　リハ＆スパ松阪",
    "kana": "オゲンキデイサービスリハアンドスパマツサカ",
    "address": "三重県松阪市鎌田町677-15",
    "lat": 34.5852708,
    "lng": 136.5397719,
    "tel": "0598-50-2565",
    "url": "http://www.fukujima.jp/",
    "pref": "三重県",
    "city": "松阪市",
    "category": "community_day_service",
    "serviceType": "地域密着型通所介護",
    "capacity": 0,
    "openDays": [
      "平日",
      "土曜日",
      "祝日"
    ],
    "openDaysNote": "12月31日～1月3日までを除く。"
  },
  {
    "id": "2470702776",
    "name": "お元気デイサービス　鈴",
    "kana": "オゲンキデイサービス　スズ",
    "address": "三重県松阪市川井町902番地2",
    "lat": 34.5834229,
    "lng": 136.5220458,
    "tel": "0598-25-2565",
    "url": "http://www.fukujima.jp/",
    "pref": "三重県",
    "city": "松阪市",
    "category": "community_day_service",
    "serviceType": "地域密着型通所介護",
    "capacity": 0,
    "openDays": [
      "平日",
      "土曜日",
      "祝日"
    ],
    "openDaysNote": "12月31日～1月3日までを除く。"
  },
  {
    "id": "2490700388",
    "name": "お元気デイサービスフィットリハ",
    "kana": "オゲンキデイサービスフィットリハ",
    "address": "三重県松阪市鎌田町字天神677番地1",
    "lat": 34.5833875,
    "lng": 136.534316,
    "tel": "0598-31-1565",
    "url": "https://www.fukujima.jp/",
    "pref": "三重県",
    "city": "松阪市",
    "category": "community_day_service",
    "serviceType": "地域密着型通所介護",
    "capacity": null,
    "openDays": [
      "平日",
      "土曜日",
      "祝日"
    ],
    "openDaysNote": "12月31日～1月3日までを除く。"
  },
  {
    "id": "2490700503",
    "name": "かわいけあ",
    "kana": "カワイケア",
    "address": "三重県松阪市射和町565番地１",
    "lat": 34.5083676,
    "lng": 136.54058,
    "tel": "0598-67-5948",
    "url": "https://arigatouace.jimdofree.com",
    "pref": "三重県",
    "city": "松阪市",
    "category": "community_day_service",
    "serviceType": "地域密着型通所介護",
    "capacity": 10,
    "openDays": [
      "平日"
    ],
    "openDaysNote": ""
  },
  {
    "id": "2470702313",
    "name": "グッドリハ松阪",
    "kana": "グッドリハマツサカ",
    "address": "三重県松阪市広瀬町796",
    "lat": 34.5033922,
    "lng": 136.4864218,
    "tel": "（0598）34-1160",
    "url": "https://www.goodreha.com/matuzaka",
    "pref": "三重県",
    "city": "松阪市",
    "category": "community_day_service",
    "serviceType": "地域密着型通所介護",
    "capacity": 20,
    "openDays": [
      "平日",
      "土曜日",
      "祝日"
    ],
    "openDaysNote": "火曜日、金曜日は機能訓練専門日　AM９時～１２時１５分　　PM１３時～１６時１５分（改行）台風や積雪等により送迎が困難な時は臨時休業します。"
  },
  {
    "id": "2490700453",
    "name": "ケアリングセラピーろくろぎ",
    "kana": "ケアリングセラピーロクロギ",
    "address": "三重県松阪市六呂木町801番地３",
    "lat": 34.50076,
    "lng": 136.4497614,
    "tel": "0598-34-0768",
    "url": "",
    "pref": "三重県",
    "city": "松阪市",
    "category": "community_day_service",
    "serviceType": "地域密着型通所介護",
    "capacity": null,
    "openDays": [
      "平日",
      "祝日"
    ],
    "openDaysNote": ""
  },
  {
    "id": "2470702677",
    "name": "コープみえ　デイサービス松阪",
    "kana": "コープミエ　デイサービスマツサカ",
    "address": "大黒田町847-7",
    "lat": 34.5612995606912,
    "lng": 136.519914256097,
    "tel": "0598-31-1240",
    "url": "http://www.coop-mie.jp/",
    "pref": "三重県",
    "city": "松阪市",
    "category": "community_day_service",
    "serviceType": "地域密着型通所介護",
    "capacity": 18,
    "openDays": [
      "平日",
      "土曜日",
      "祝日"
    ],
    "openDaysNote": "年末年始（12月31日～1月3日）"
  },
  {
    "id": "2470702644",
    "name": "デイサービス　あっぷるん",
    "kana": "デイサービス　アップルン",
    "address": "松阪市下村町１９６５－１０",
    "lat": 34.5467896920376,
    "lng": 136.548313160188,
    "tel": "０５９８－６７－５５１８",
    "url": "aiplus@mctv.ne.jp",
    "pref": "三重県",
    "city": "松阪市",
    "category": "community_day_service",
    "serviceType": "地域密着型通所介護",
    "capacity": 0,
    "openDays": [
      "平日",
      "土曜日",
      "祝日"
    ],
    "openDaysNote": "自然災害等　（台風、雪、路面凍結　等）により休業する場合がある。その場合は、午前８時までにご利用者さま、ご家族さまに連絡する。"
  },
  {
    "id": "2470701729",
    "name": "デイサービス　あろは",
    "kana": "デイサービス　アロハ",
    "address": "三重県松阪市田村町1183-1",
    "lat": 34.5486874,
    "lng": 136.5104285,
    "tel": "0598-23-6005",
    "url": "",
    "pref": "三重県",
    "city": "松阪市",
    "category": "community_day_service",
    "serviceType": "地域密着型通所介護",
    "capacity": null,
    "openDays": [
      "平日",
      "祝日"
    ],
    "openDaysNote": ""
  },
  {
    "id": "2470701463",
    "name": "デイサービス　アンダンテ",
    "kana": "デイサービス　アンダンテ",
    "address": "三重県松阪市市場庄町字塔田１１２９ハイタウンソレイユ103号室 ハイタウンソレイユ103号室",
    "lat": 34.6084004876009,
    "lng": 136.51643534736,
    "tel": "0598-56-5937",
    "url": "",
    "pref": "三重県",
    "city": "松阪市",
    "category": "community_day_service",
    "serviceType": "地域密着型通所介護",
    "capacity": 10,
    "openDays": [
      "平日",
      "土曜日",
      "祝日"
    ],
    "openDaysNote": ""
  },
  {
    "id": "2490700313",
    "name": "デイサービス　せせらぎ嬉野",
    "kana": "デイサービス　セセラギウレシノ",
    "address": "三重県松阪市嬉野平生町112",
    "lat": 34.6424182001251,
    "lng": 136.466856653417,
    "tel": "0598-30-6202",
    "url": "",
    "pref": "三重県",
    "city": "松阪市",
    "category": "community_day_service",
    "serviceType": "地域密着型通所介護",
    "capacity": 0,
    "openDays": [
      "平日"
    ],
    "openDaysNote": ""
  },
  {
    "id": "2470701133",
    "name": "デイサービス　ハートケアなんせい",
    "kana": "デイサービス　ハートケア　ナンセイ",
    "address": "松阪市山室町２２９２－４",
    "lat": 34.5440913,
    "lng": 136.5275104,
    "tel": "0598-60-0177",
    "url": "http://www.nansei-hospital.jp/hcnansei/",
    "pref": "三重県",
    "city": "松阪市",
    "category": "community_day_service",
    "serviceType": "地域密着型通所介護",
    "capacity": 0,
    "openDays": [
      "平日",
      "土曜日",
      "祝日"
    ],
    "openDaysNote": ""
  },
  {
    "id": "2490700404",
    "name": "デイサービスありがとう",
    "kana": "デイサービスアリガトウ",
    "address": "三重県松阪市駅部田町1840番地18",
    "lat": 34.5476128,
    "lng": 136.5228873,
    "tel": "0598‐67‐2604",
    "url": "",
    "pref": "三重県",
    "city": "松阪市",
    "category": "community_day_service",
    "serviceType": "地域密着型通所介護",
    "capacity": 0,
    "openDays": [
      "平日",
      "土曜日",
      "祝日"
    ],
    "openDaysNote": ""
  },
  {
    "id": "2470701968",
    "name": "デイサービスきずな",
    "kana": "デイサービスキズナ",
    "address": "三重県松阪市八重田町485-4",
    "lat": 34.5721124342256,
    "lng": 136.494813019305,
    "tel": "0598-63-0556",
    "url": "kokoro05@ma.mctv.ne.jp",
    "pref": "三重県",
    "city": "松阪市",
    "category": "community_day_service",
    "serviceType": "地域密着型通所介護",
    "capacity": 0,
    "openDays": [
      "平日",
      "土曜日",
      "祝日"
    ],
    "openDaysNote": ""
  },
  {
    "id": "2490700479",
    "name": "デイサービスとあたんち",
    "kana": "デイーサービストアタンタンチ",
    "address": "三重県松阪市東町59-6スーパーセンタートライアル松阪店内 スーパーセンタートライアル松阪店内",
    "lat": 34.5771253,
    "lng": 136.5501939,
    "tel": "598312581",
    "url": "www.diaman.co.jp",
    "pref": "三重県",
    "city": "松阪市",
    "category": "community_day_service",
    "serviceType": "地域密着型通所介護",
    "capacity": null,
    "openDays": [
      "平日"
    ],
    "openDaysNote": ""
  },
  {
    "id": "2470702826",
    "name": "デイサービスもりの輪",
    "kana": "デイサービスモリノワ",
    "address": "三重県松阪市小野江町64番地3",
    "lat": 34.644564,
    "lng": 136.5173193,
    "tel": "0598-56-7400",
    "url": "http://morinowads.wixsite.com/morinowa",
    "pref": "三重県",
    "city": "松阪市",
    "category": "community_day_service",
    "serviceType": "地域密着型通所介護",
    "capacity": 10,
    "openDays": [
      "平日",
      "日曜日",
      "祝日"
    ],
    "openDaysNote": "サービス提供の延長時間は午後4時30分～午後7時00分までとします。"
  },
  {
    "id": "2490700495",
    "name": "デイサービス葵",
    "kana": "デイサービスアオイ",
    "address": "久保町951-2",
    "lat": null,
    "lng": null,
    "tel": "0598-67-4727",
    "url": "",
    "pref": "三重県",
    "city": "松阪市",
    "category": "community_day_service",
    "serviceType": "地域密着型通所介護",
    "capacity": null,
    "openDays": [
      "平日",
      "祝日"
    ],
    "openDaysNote": ""
  },
  {
    "id": "2470702875",
    "name": "デイサービス満賀里苑",
    "kana": "デイサービスマガリエン",
    "address": "三重県松阪市曲町340番地の5",
    "lat": 34.5790755,
    "lng": 136.504581,
    "tel": "0598-67-7950",
    "url": "",
    "pref": "三重県",
    "city": "松阪市",
    "category": "community_day_service",
    "serviceType": "地域密着型通所介護",
    "capacity": 15,
    "openDays": [
      "平日",
      "土曜日",
      "祝日"
    ],
    "openDaysNote": "年末12/30から年始1/3は休み"
  },
  {
    "id": "2490700321",
    "name": "デイサロン　プラスワン",
    "kana": "デイサロン　プラスワン",
    "address": "三重県松阪市川井町597番地4",
    "lat": 34.5755354,
    "lng": 136.5147484,
    "tel": "0598-67-8111",
    "url": "",
    "pref": "三重県",
    "city": "松阪市",
    "category": "community_day_service",
    "serviceType": "地域密着型通所介護",
    "capacity": 30,
    "openDays": [
      "平日",
      "土曜日",
      "祝日"
    ],
    "openDaysNote": ""
  },
  {
    "id": "2490700370",
    "name": "デイサロンひばり",
    "kana": "デイサロンヒバリ",
    "address": "三重県松阪市山室町2419番地14",
    "lat": 34.5389639,
    "lng": 136.5326243,
    "tel": "0598-31-1657",
    "url": "",
    "pref": "三重県",
    "city": "松阪市",
    "category": "community_day_service",
    "serviceType": "地域密着型通所介護",
    "capacity": 0,
    "openDays": [
      "平日",
      "土曜日",
      "祝日"
    ],
    "openDaysNote": ""
  },
  {
    "id": "2490700396",
    "name": "リハビリデイサービスＳｉｎｍｅ",
    "kana": "リハビリデイサービスシンメ",
    "address": "三重県松阪市光町1067-1",
    "lat": 34.550316,
    "lng": 136.518838,
    "tel": "598678882",
    "url": "https://extend-mie.com",
    "pref": "三重県",
    "city": "松阪市",
    "category": "community_day_service",
    "serviceType": "地域密着型通所介護",
    "capacity": 0,
    "openDays": [
      "平日",
      "土曜日",
      "祝日"
    ],
    "openDaysNote": ""
  },
  {
    "id": "2490700347",
    "name": "リハプライド松阪",
    "kana": "リハプライドマツサカ",
    "address": "三重県松阪市大黒田町1620",
    "lat": 34.5667446,
    "lng": 136.5245077,
    "tel": "0598-30-5277",
    "url": "https://www.rehapride.co.jp/matsusaka/",
    "pref": "三重県",
    "city": "松阪市",
    "category": "community_day_service",
    "serviceType": "地域密着型通所介護",
    "capacity": null,
    "openDays": [
      "平日",
      "祝日"
    ],
    "openDaysNote": ""
  },
  {
    "id": "2470702693",
    "name": "レッツ倶楽部松阪",
    "kana": "レッツクラブマツサカ",
    "address": "下村町1054-5",
    "lat": 34.5552965,
    "lng": 136.5484221,
    "tel": "0598-30-5950",
    "url": "http://www.lets-club.jp/shop/matsusaka/",
    "pref": "三重県",
    "city": "松阪市",
    "category": "community_day_service",
    "serviceType": "地域密着型通所介護",
    "capacity": 15,
    "openDays": [
      "平日",
      "祝日"
    ],
    "openDaysNote": "午前9：00～12：15（改行）午後13：30～16：45"
  },
  {
    "id": "2470701497",
    "name": "三重県健康福祉生活協同組合デイサービス　ベル・はあと",
    "kana": "ミエケンケンコウフクシセイカツキョウドウクミアイデイサービス　ベル・ハアト",
    "address": "松阪市春日町二丁目88-2",
    "lat": 34.5646042388754,
    "lng": 136.531566568895,
    "tel": "0598-25-1120",
    "url": "https://fukushicoop.jimdo.com/",
    "pref": "三重県",
    "city": "松阪市",
    "category": "community_day_service",
    "serviceType": "地域密着型通所介護",
    "capacity": 17,
    "openDays": [
      "平日",
      "土曜日",
      "祝日"
    ],
    "openDaysNote": ""
  },
  {
    "id": "2470700853",
    "name": "松阪デイサービスセンター　宝塚",
    "kana": "マツサカデイサービスセンター　タカラヅカ",
    "address": "三重県松阪市宝塚町830番地111",
    "lat": 34.5526593,
    "lng": 136.5166917,
    "tel": "0598-23-1165",
    "url": "http://www.23-1165.com",
    "pref": "三重県",
    "city": "松阪市",
    "category": "community_day_service",
    "serviceType": "地域密着型通所介護",
    "capacity": 3,
    "openDays": [
      "平日",
      "祝日"
    ],
    "openDaysNote": "特にございません。"
  },
  {
    "id": "2490700214",
    "name": "第二デイサービスセンターなでしこ苑",
    "kana": "ダイニデイサービスセンターナデシコエン",
    "address": "松阪市川井町字中道53番地4",
    "lat": 34.58355,
    "lng": 136.511908,
    "tel": "0598-22-1815",
    "url": "http://www.nadesicoen.com/",
    "pref": "三重県",
    "city": "松阪市",
    "category": "community_day_service",
    "serviceType": "地域密着型通所介護",
    "capacity": 0,
    "openDays": [
      "平日",
      "土曜日",
      "祝日"
    ],
    "openDaysNote": ""
  },
  {
    "id": "2470701513",
    "name": "通所介護事業所花みずき",
    "kana": "ツウショカイゴジギョウショハナミズキ",
    "address": "三重県松阪市久保町１９２６－１",
    "lat": 34.5391308,
    "lng": 136.527455,
    "tel": "0598-60-1700",
    "url": "",
    "pref": "三重県",
    "city": "松阪市",
    "category": "community_day_service",
    "serviceType": "地域密着型通所介護",
    "capacity": 10,
    "openDays": [
      "平日",
      "土曜日"
    ],
    "openDaysNote": ""
  },
  {
    "id": "2472701057",
    "name": "つくしデイサービス",
    "kana": "ツクシデイサービス",
    "address": "三重県多気郡多気町下出江190つくしデイサービス つくしデイサービス",
    "lat": 34.4728582,
    "lng": 136.4753639,
    "tel": "598492321",
    "url": "",
    "pref": "三重県",
    "city": "多気町",
    "category": "community_day_service",
    "serviceType": "地域密着型通所介護",
    "capacity": 0,
    "openDays": [
      "平日",
      "土曜日"
    ],
    "openDaysNote": ""
  },
  {
    "id": "2472700539",
    "name": "デイサービスセンター　森のこかげ",
    "kana": "デイサービスセンター　モリノコカゲ",
    "address": "三重県多気郡多気町河田1758-2",
    "lat": 34.5184709,
    "lng": 136.5810591,
    "tel": "0598-38-4649",
    "url": "morinokokage@song.ocn.ne.jp",
    "pref": "三重県",
    "city": "多気町",
    "category": "community_day_service",
    "serviceType": "地域密着型通所介護",
    "capacity": 0,
    "openDays": [
      "平日"
    ],
    "openDaysNote": ""
  },
  {
    "id": "2472801170",
    "name": "デイサービス　いいひ",
    "kana": "デイサービス　イイヒ",
    "address": "三重県度会郡大紀町阿曽2621番地12",
    "lat": 34.3324969731814,
    "lng": 136.403062546297,
    "tel": "0598-84－8011",
    "url": "shungakuehi@yahoo.co.jp",
    "pref": "三重県",
    "city": "大紀町",
    "category": "community_day_service",
    "serviceType": "地域密着型通所介護",
    "capacity": 0,
    "openDays": [
      "平日",
      "土曜日",
      "日曜日",
      "祝日"
    ],
    "openDaysNote": "早・遅延長サービスあり"
  },
  {
    "id": "2492800152",
    "name": "デイサービスしらゆり",
    "kana": "デイサービスシラユリ",
    "address": "三重県度会郡大紀町崎1772-1",
    "lat": 34.2827008,
    "lng": 136.3996152,
    "tel": "0598-74-0374",
    "url": "",
    "pref": "三重県",
    "city": "大紀町",
    "category": "community_day_service",
    "serviceType": "地域密着型通所介護",
    "capacity": null,
    "openDays": [
      "平日",
      "祝日"
    ],
    "openDaysNote": ""
  },
  {
    "id": "2472801451",
    "name": "デイサービスセンター「めぐみ」",
    "kana": "デイサービスセンターメグミ",
    "address": "三重県度会郡大紀町滝原645-2",
    "lat": 34.3724266747683,
    "lng": 136.417686245867,
    "tel": "0598-86-7210",
    "url": "megumi@ma.mctv.ne.jp",
    "pref": "三重県",
    "city": "大紀町",
    "category": "community_day_service",
    "serviceType": "地域密着型通所介護",
    "capacity": 0,
    "openDays": [
      "平日",
      "祝日"
    ],
    "openDaysNote": ""
  },
  {
    "id": "2472801543",
    "name": "株式会社　偕生会　デイサービスセンター　アララギ",
    "kana": "カブシキカイシャ　カイセイカイ　デイサービスセンター　アララギ",
    "address": "三重県度会郡大紀町錦　１９５－２",
    "lat": 34.2170049,
    "lng": 136.4004057,
    "tel": "0598-73-3590",
    "url": "",
    "pref": "三重県",
    "city": "大紀町",
    "category": "community_day_service",
    "serviceType": "地域密着型通所介護",
    "capacity": 10,
    "openDays": [
      "平日",
      "土曜日",
      "日曜日"
    ],
    "openDaysNote": ""
  },
  {
    "id": "2490900053",
    "name": "デイサービスセンター　答志島",
    "kana": "デイサービスセンター　トウシジマ",
    "address": "三重県鳥羽市答志町大畑895",
    "lat": 34.5234877425695,
    "lng": 136.89901939139,
    "tel": "0599-21-5700",
    "url": "http://www.houwakai.or.jp/",
    "pref": "三重県",
    "city": "鳥羽市",
    "category": "community_day_service",
    "serviceType": "地域密着型通所介護",
    "capacity": 0,
    "openDays": [
      "平日",
      "祝日"
    ],
    "openDaysNote": "台風等により、大雨、洪水、暴風警報等のいずれかが発令された場合、営業は中止となります。"
  },
  {
    "id": "2470900248",
    "name": "デイサービスひまわり",
    "kana": "デイサービスヒマワリ",
    "address": "三重県鳥羽市鳥羽三丁目１５－１２",
    "lat": 34.4802518,
    "lng": 136.8434393,
    "tel": "0599-26-3374",
    "url": "http://www4.hp-ez.com/hp/toba-himawari",
    "pref": "三重県",
    "city": "鳥羽市",
    "category": "community_day_service",
    "serviceType": "地域密着型通所介護",
    "capacity": 0,
    "openDays": [
      "平日",
      "土曜日",
      "祝日"
    ],
    "openDaysNote": ""
  },
  {
    "id": "2490900079",
    "name": "暮らしのすてっぷ",
    "kana": "クラシノステップ",
    "address": "三重県鳥羽市松尾町321番地1",
    "lat": 34.4351107,
    "lng": 136.8389429,
    "tel": "0599-37-7190",
    "url": "https://iyashino.club/homepage/",
    "pref": "三重県",
    "city": "鳥羽市",
    "category": "community_day_service",
    "serviceType": "地域密着型通所介護",
    "capacity": null,
    "openDays": [
      "平日",
      "土曜日",
      "祝日"
    ],
    "openDaysNote": "年末年始12月30日から1月3日"
  },
  {
    "id": "2490500705",
    "name": "Sinceriteデイサービスセンター",
    "kana": "サンセリテダエサービスセンター",
    "address": "三重県津市雲出本郷町1523-4ラ・サンセリテ雲出 ラ・サンセリテ雲出",
    "lat": 34.6651126,
    "lng": 136.5194745,
    "tel": "059-273-6030",
    "url": "https://www.lasincerite0401.com/",
    "pref": "三重県",
    "city": "津市",
    "category": "community_day_service",
    "serviceType": "地域密着型通所介護",
    "capacity": null,
    "openDays": [
      "平日"
    ],
    "openDaysNote": ""
  },
  {
    "id": "2490500648",
    "name": "あいけあセンター",
    "kana": "アイケアセンター",
    "address": "三重県津市白山町二本木728-1",
    "lat": 34.6634068104739,
    "lng": 136.3664238,
    "tel": "059-264-0033",
    "url": "",
    "pref": "三重県",
    "city": "津市",
    "category": "community_day_service",
    "serviceType": "地域密着型通所介護",
    "capacity": null,
    "openDays": [
      "平日",
      "祝日"
    ],
    "openDaysNote": ""
  },
  {
    "id": "2490500630",
    "name": "あゆみ野デイサービスセンター",
    "kana": "アユミノデイサービスセンター",
    "address": "三重県津市一身田大古曽１４５３番地3",
    "lat": 34.7556647,
    "lng": 136.4931019,
    "tel": "059-232-6111",
    "url": "https://tight-tosu-2842.sub.jp/ayumino/wordpress/",
    "pref": "三重県",
    "city": "津市",
    "category": "community_day_service",
    "serviceType": "地域密着型通所介護",
    "capacity": 18,
    "openDays": [
      "平日",
      "土曜日",
      "祝日"
    ],
    "openDaysNote": ""
  },
  {
    "id": "2470600277",
    "name": "せせらぎシルバーサービス(有)",
    "kana": "セセラギシルバーサービスユウゲンガイシャ",
    "address": "津市榊原町10844番地1",
    "lat": 34.6922968,
    "lng": 136.3359964,
    "tel": "059-252-1664",
    "url": "http://www.ztv.ne.jp/web/tamanegi",
    "pref": "三重県",
    "city": "津市",
    "category": "community_day_service",
    "serviceType": "地域密着型通所介護",
    "capacity": 0,
    "openDays": [
      "平日",
      "祝日"
    ],
    "openDaysNote": ""
  },
  {
    "id": "2490500549",
    "name": "だんらんの家　栗真",
    "kana": "ダンランノイエ　クリマ",
    "address": "三重県津市栗真町屋町608-7",
    "lat": 34.7512779,
    "lng": 136.525495,
    "tel": "059-269-5532",
    "url": "www.danrannoie.com",
    "pref": "三重県",
    "city": "津市",
    "category": "community_day_service",
    "serviceType": "地域密着型通所介護",
    "capacity": 10,
    "openDays": [
      "平日",
      "土曜日",
      "日曜日",
      "祝日"
    ],
    "openDaysNote": "天災その他やむ得ず業務を遂行できない日は、臨時休業する場合がある"
  },
  {
    "id": "2470504883",
    "name": "デイサービス　RRBクラブ",
    "kana": "デイサービス　アールアールビイクラブ",
    "address": "三重県津市豊が丘１丁目41-12",
    "lat": 34.8053361,
    "lng": 136.4709355,
    "tel": "059-230-7555",
    "url": "",
    "pref": "三重県",
    "city": "津市",
    "category": "community_day_service",
    "serviceType": "地域密着型通所介護",
    "capacity": 10,
    "openDays": [
      "平日",
      "土曜日",
      "祝日"
    ],
    "openDaysNote": "12/29～1/3"
  },
  {
    "id": "2470503521",
    "name": "デイサービス　あこぎ苑",
    "kana": "デイサービス　アコギエン",
    "address": "柳山津興363-26",
    "lat": 34.7069094,
    "lng": 136.5190433,
    "tel": "059-227-3318",
    "url": "http://www.mie-hewcoop.jp/",
    "pref": "三重県",
    "city": "津市",
    "category": "community_day_service",
    "serviceType": "地域密着型通所介護",
    "capacity": 0,
    "openDays": [
      "平日",
      "祝日"
    ],
    "openDaysNote": ""
  },
  {
    "id": "2470501970",
    "name": "デイサービス　なごみ",
    "kana": "デイサービス　ナゴミ",
    "address": "三重県津市安濃町田端上野874番地88",
    "lat": 34.7659264,
    "lng": 136.4385798,
    "tel": "059-268-5371",
    "url": "http://www.kaigonagomi.com/",
    "pref": "三重県",
    "city": "津市",
    "category": "community_day_service",
    "serviceType": "地域密着型通所介護",
    "capacity": 0,
    "openDays": [
      "平日",
      "土曜日",
      "日曜日",
      "祝日"
    ],
    "openDaysNote": ""
  },
  {
    "id": "2490500838",
    "name": "デイサービス　のぞみ",
    "kana": "デイサービス　ノゾミ",
    "address": "三重県津市芸濃町椋本6215-1",
    "lat": 34.8144089,
    "lng": 136.4334108,
    "tel": "059-265-6700",
    "url": "",
    "pref": "三重県",
    "city": "津市",
    "category": "community_day_service",
    "serviceType": "地域密着型通所介護",
    "capacity": 0,
    "openDays": [
      "平日",
      "祝日"
    ],
    "openDaysNote": ""
  },
  {
    "id": "2470503539",
    "name": "デイサービス　はまかぜ",
    "kana": "デイサービス　ハマカゼ",
    "address": "白塚町3568-4",
    "lat": 34.7624699,
    "lng": 136.5302352,
    "tel": "059-232-0816",
    "url": "http://www.mie-hewcoop.jp/",
    "pref": "三重県",
    "city": "津市",
    "category": "community_day_service",
    "serviceType": "地域密着型通所介護",
    "capacity": 0,
    "openDays": [
      "平日",
      "土曜日",
      "祝日"
    ],
    "openDaysNote": ""
  },
  {
    "id": "2470502119",
    "name": "デイサービス　ひよこの家",
    "kana": "デイサービス　ヒヨコノイエ",
    "address": "津市美杉町太郎生６２６番地",
    "lat": 34.5256263,
    "lng": 136.1900209,
    "tel": "059-273-8800",
    "url": "",
    "pref": "三重県",
    "city": "津市",
    "category": "community_day_service",
    "serviceType": "地域密着型通所介護",
    "capacity": 0,
    "openDays": [
      "平日",
      "土曜日",
      "祝日"
    ],
    "openDaysNote": "電話にて２４時間対応"
  },
  {
    "id": "2470503547",
    "name": "デイサービス　花のん",
    "kana": "デイサービス　カノン",
    "address": "白山町岡31-1",
    "lat": 34.663432,
    "lng": 136.3521704,
    "tel": "059-262-2567",
    "url": "",
    "pref": "三重県",
    "city": "津市",
    "category": "community_day_service",
    "serviceType": "地域密着型通所介護",
    "capacity": 8,
    "openDays": [
      "平日",
      "祝日"
    ],
    "openDaysNote": ""
  },
  {
    "id": "2470504057",
    "name": "デイサービス　花のん　いちし",
    "kana": "デイサービス　カノン　イチシ",
    "address": "三重県津市一志町高野160-657",
    "lat": 34.6593776278035,
    "lng": 136.428591066587,
    "tel": "059-273-5756",
    "url": "",
    "pref": "三重県",
    "city": "津市",
    "category": "community_day_service",
    "serviceType": "地域密着型通所介護",
    "capacity": 18,
    "openDays": [
      "平日",
      "土曜日",
      "祝日"
    ],
    "openDaysNote": ""
  },
  {
    "id": "2490500820",
    "name": "デイサービス　五色の雲",
    "kana": "デイサービス　ゴシキノクモ",
    "address": "三重県津市榊原町6066-1メゾン榊原 メゾン榊原",
    "lat": 34.7024415,
    "lng": 136.3764351,
    "tel": "059-271-7809",
    "url": "",
    "pref": "三重県",
    "city": "津市",
    "category": "community_day_service",
    "serviceType": "地域密着型通所介護",
    "capacity": null,
    "openDays": [
      "平日",
      "祝日"
    ],
    "openDaysNote": ""
  },
  {
    "id": "2470503364",
    "name": "デイサービス　幸の里",
    "kana": "デイサービス　シアワセノサト",
    "address": "津市河辺町２６９２",
    "lat": 34.7404338,
    "lng": 136.4822302,
    "tel": "059-213-5877",
    "url": "",
    "pref": "三重県",
    "city": "津市",
    "category": "community_day_service",
    "serviceType": "地域密着型通所介護",
    "capacity": 2,
    "openDays": [
      "平日",
      "土曜日",
      "祝日"
    ],
    "openDaysNote": ""
  },
  {
    "id": "2490500440",
    "name": "デイサービス　太陽",
    "kana": "デイサービス　タイヨウ",
    "address": "三重県津市白塚町２２１６番地住宅型有料老人ホーム　太陽 住宅型有料老人ホーム　太陽",
    "lat": 34.7672055,
    "lng": 136.5362097,
    "tel": "０５９－２３６－５３００",
    "url": "http://kaigo-taiyou.jimdofree.com",
    "pref": "三重県",
    "city": "津市",
    "category": "community_day_service",
    "serviceType": "地域密着型通所介護",
    "capacity": 0,
    "openDays": [
      "平日",
      "土曜日",
      "祝日"
    ],
    "openDaysNote": ""
  },
  {
    "id": "2490500721",
    "name": "デイサービス・リハトレ　高茶屋",
    "kana": "デイサービス・リハトレ　タカヂャヤ",
    "address": "三重県津市小森町4077-1",
    "lat": 34.687701,
    "lng": 136.4224871,
    "tel": "592532328",
    "url": "https://ozaki-s.net",
    "pref": "三重県",
    "city": "津市",
    "category": "community_day_service",
    "serviceType": "地域密着型通所介護",
    "capacity": null,
    "openDays": [
      "平日",
      "祝日"
    ],
    "openDaysNote": ""
  },
  {
    "id": "2490500655",
    "name": "デイサービスあんじゅ",
    "kana": "デイサービスアンジュ",
    "address": "三重県津市久居中町134-46",
    "lat": 34.6793678,
    "lng": 136.465535,
    "tel": "059-273-5151",
    "url": "http://anjyu-hisai.com",
    "pref": "三重県",
    "city": "津市",
    "category": "community_day_service",
    "serviceType": "地域密着型通所介護",
    "capacity": 0,
    "openDays": [
      "平日",
      "土曜日",
      "祝日"
    ],
    "openDaysNote": "災害時における緊急の場合、営業出来ない事がります。"
  },
  {
    "id": "2470504719",
    "name": "デイサービスいちし",
    "kana": "デイサービスイチシ",
    "address": "津市一志町井関132-9エレボールⅠ1階",
    "lat": 34.6537489221337,
    "lng": 136.425861785319,
    "tel": "059-295-0055",
    "url": "http://ichishinosato.hp4u.jp/",
    "pref": "三重県",
    "city": "津市",
    "category": "community_day_service",
    "serviceType": "地域密着型通所介護",
    "capacity": 0,
    "openDays": [
      "平日",
      "土曜日",
      "祝日"
    ],
    "openDaysNote": ""
  },
  {
    "id": "2490500424",
    "name": "デイサービスいやさか",
    "kana": "デイサービスイヤサカ",
    "address": "三重県津市半田987-1",
    "lat": 34.7017123744833,
    "lng": 136.501974033605,
    "tel": "059-261-4533",
    "url": "",
    "pref": "三重県",
    "city": "津市",
    "category": "community_day_service",
    "serviceType": "地域密着型通所介護",
    "capacity": 18,
    "openDays": [
      "平日",
      "祝日"
    ],
    "openDaysNote": ""
  },
  {
    "id": "2470501608",
    "name": "デイサービスセンター　つくしんぼ",
    "kana": "デイサービスセンター　ツクシンボ",
    "address": "三重県津市一色町240番地",
    "lat": 34.7296048,
    "lng": 136.4755983,
    "tel": "059-228-0715",
    "url": "",
    "pref": "三重県",
    "city": "津市",
    "category": "community_day_service",
    "serviceType": "地域密着型通所介護",
    "capacity": 18,
    "openDays": [
      "平日",
      "祝日"
    ],
    "openDaysNote": "職員研修・インフルエンザ等の感染症対策での臨時休館有り"
  },
  {
    "id": "2470502481",
    "name": "デイサービスセンター　ぬくもり",
    "kana": "デイサービスセンター　ヌクモリ",
    "address": "三重県津市河芸町西千里1356-12",
    "lat": 34.8117712850129,
    "lng": 136.551938149668,
    "tel": "059-245-8882",
    "url": "",
    "pref": "三重県",
    "city": "津市",
    "category": "community_day_service",
    "serviceType": "地域密着型通所介護",
    "capacity": 15,
    "openDays": [
      "平日",
      "土曜日",
      "祝日"
    ],
    "openDaysNote": "職員不在時、留守番電話で対応"
  },
  {
    "id": "2470502994",
    "name": "デイサービスセンター　音色",
    "kana": "デイサービスセンター　ネイロ",
    "address": "観音寺町64－7",
    "lat": 34.7274926,
    "lng": 136.4962568,
    "tel": "059-253-6862",
    "url": "",
    "pref": "三重県",
    "city": "津市",
    "category": "community_day_service",
    "serviceType": "地域密着型通所介護",
    "capacity": 0,
    "openDays": [
      "平日",
      "土曜日",
      "祝日"
    ],
    "openDaysNote": "12月30日～1月3日は休み"
  },
  {
    "id": "2470503752",
    "name": "デイサービスセンターうららか",
    "kana": "デイサービスセンターウララカ",
    "address": "三重県津市白山町八対野1676番地",
    "lat": 34.6486775,
    "lng": 136.3291798,
    "tel": "059-264-1022",
    "url": "",
    "pref": "三重県",
    "city": "津市",
    "category": "community_day_service",
    "serviceType": "地域密着型通所介護",
    "capacity": 5,
    "openDays": [
      "平日",
      "土曜日",
      "日曜日",
      "祝日"
    ],
    "openDaysNote": ""
  },
  {
    "id": "2470500048",
    "name": "デイサービスセンターはせやま",
    "kana": "デイサービスセンター　ハセヤマ",
    "address": "三重県津市片田長谷町167-1",
    "lat": 34.7272064,
    "lng": 136.4256789,
    "tel": "059-237-2630",
    "url": "http://www.mie-keiaikai.or.jp/",
    "pref": "三重県",
    "city": "津市",
    "category": "community_day_service",
    "serviceType": "地域密着型通所介護",
    "capacity": 15,
    "openDays": [
      "平日",
      "祝日"
    ],
    "openDaysNote": ""
  },
  {
    "id": "2472400429",
    "name": "デイサービスセンター花しょうぶ",
    "kana": "デイサービスセンターハナショウブ",
    "address": "三重県津市安濃町川西1372-5",
    "lat": 34.7571277,
    "lng": 136.4448682,
    "tel": "059-267-1300",
    "url": "http://www.akeai.or.jp/",
    "pref": "三重県",
    "city": "津市",
    "category": "community_day_service",
    "serviceType": "地域密着型通所介護",
    "capacity": 10,
    "openDays": [
      "平日",
      "祝日"
    ],
    "openDaysNote": "サービス提供時間は9時30分～16時30分"
  },
  {
    "id": "2470504933",
    "name": "デイサービスセンター明神",
    "kana": "デイサービスセンター　ミョウジン",
    "address": "三重県津市久居明神町1530番地69",
    "lat": 34.6923766,
    "lng": 136.4689202,
    "tel": "059-254-3838",
    "url": "",
    "pref": "三重県",
    "city": "津市",
    "category": "community_day_service",
    "serviceType": "地域密着型通所介護",
    "capacity": 18,
    "openDays": [
      "平日",
      "土曜日",
      "祝日"
    ],
    "openDaysNote": "時間外対応可"
  },
  {
    "id": "2470503059",
    "name": "デイサービスだんだん",
    "kana": "デイサービスダンダン",
    "address": "三重県津市一志町石橋239番地1",
    "lat": 34.6590574,
    "lng": 136.4073366,
    "tel": "059-295-3080",
    "url": "",
    "pref": "三重県",
    "city": "津市",
    "category": "community_day_service",
    "serviceType": "地域密着型通所介護",
    "capacity": 0,
    "openDays": [
      "平日",
      "土曜日",
      "日曜日",
      "祝日"
    ],
    "openDaysNote": "但し、年末年始　12月30日より1月3日は休業とする。"
  },
  {
    "id": "2490500754",
    "name": "デイサービスなずな",
    "kana": "デイサービスナズナ",
    "address": "高茶屋5丁目11-4",
    "lat": 34.669354,
    "lng": 136.501222,
    "tel": "059-253-4333",
    "url": "",
    "pref": "三重県",
    "city": "津市",
    "category": "community_day_service",
    "serviceType": "地域密着型通所介護",
    "capacity": 0,
    "openDays": [
      "平日",
      "土曜日",
      "祝日"
    ],
    "openDaysNote": ""
  },
  {
    "id": "2490500408",
    "name": "デイサービスのぞみ",
    "kana": "デイサービスノゾミ",
    "address": "三重県津市芸濃町椋本6215-1",
    "lat": 34.814448,
    "lng": 136.4333791,
    "tel": "059-265-6700",
    "url": "",
    "pref": "三重県",
    "city": "津市",
    "category": "community_day_service",
    "serviceType": "地域密着型通所介護",
    "capacity": 2,
    "openDays": [
      "平日",
      "祝日"
    ],
    "openDaysNote": ""
  },
  {
    "id": "2470504701",
    "name": "デイサービス久居桜の里",
    "kana": "デイサービスヒサイサクラノサト",
    "address": "三重県津市久居桜が丘町1900-68",
    "lat": 34.6815673,
    "lng": 136.4903713,
    "tel": "059-271-6258",
    "url": "http://tsu-dayservice-sakuranosato.info",
    "pref": "三重県",
    "city": "津市",
    "category": "community_day_service",
    "serviceType": "地域密着型通所介護",
    "capacity": 10,
    "openDays": [
      "平日",
      "土曜日",
      "日曜日",
      "祝日"
    ],
    "openDaysNote": "365日営業中（改行）土・日・祝日に加え、お盆・年末年始も営業しております。"
  },
  {
    "id": "2470504560",
    "name": "デイサービス小春",
    "kana": "デイサービスコハル",
    "address": "三重県津市高茶屋6丁目10番14号ケアポート津高茶屋 ケアポート津高茶屋",
    "lat": 34.6729822,
    "lng": 136.4996759,
    "tel": "059-253-3363",
    "url": "",
    "pref": "三重県",
    "city": "津市",
    "category": "community_day_service",
    "serviceType": "地域密着型通所介護",
    "capacity": 15,
    "openDays": [
      "平日",
      "日曜日",
      "祝日"
    ],
    "openDaysNote": ""
  },
  {
    "id": "2470501640",
    "name": "デイサービス青い鳥",
    "kana": "デイサービスアオイトリ",
    "address": "三重県津市豊が丘二丁目38番6号",
    "lat": 34.807883,
    "lng": 136.4706021,
    "tel": "059-230-2381",
    "url": "http://www.zc.ztv.ne.jp/aoitori/dayservice.htm",
    "pref": "三重県",
    "city": "津市",
    "category": "community_day_service",
    "serviceType": "地域密着型通所介護",
    "capacity": 0,
    "openDays": [
      "平日",
      "土曜日",
      "日曜日",
      "祝日"
    ],
    "openDaysNote": ""
  },
  {
    "id": "2490500796",
    "name": "デイサービス太陽２",
    "kana": "デイサービスタイヨウツー",
    "address": "白塚町２４３０",
    "lat": 34.7673462,
    "lng": 136.5341288,
    "tel": "059-271-6090",
    "url": "",
    "pref": "三重県",
    "city": "津市",
    "category": "community_day_service",
    "serviceType": "地域密着型通所介護",
    "capacity": 0,
    "openDays": [
      "平日"
    ],
    "openDaysNote": ""
  },
  {
    "id": "2490500747",
    "name": "デイサービス長岡",
    "kana": "デイサービスナガオカ",
    "address": "長岡町709-5",
    "lat": 34.7367539,
    "lng": 136.4892497,
    "tel": "059-253-2001",
    "url": "https://anotsu-fukushikai.jp",
    "pref": "三重県",
    "city": "津市",
    "category": "community_day_service",
    "serviceType": "地域密着型通所介護",
    "capacity": 0,
    "openDays": [
      "平日"
    ],
    "openDaysNote": ""
  },
  {
    "id": "2490500515",
    "name": "デイサービス凪",
    "kana": "デイサービスナギ",
    "address": "三重県津市白塚町4571番地",
    "lat": 34.7600739,
    "lng": 136.5303837,
    "tel": "059-253-6073",
    "url": "",
    "pref": "三重県",
    "city": "津市",
    "category": "community_day_service",
    "serviceType": "地域密着型通所介護",
    "capacity": null,
    "openDays": [
      "平日",
      "祝日"
    ],
    "openDaysNote": ""
  },
  {
    "id": "2470504362",
    "name": "デイサービス百花",
    "kana": "デイサービスモモカ",
    "address": "津市中河原546",
    "lat": 34.6719623,
    "lng": 136.4706515,
    "tel": "059-226-0946",
    "url": "",
    "pref": "三重県",
    "city": "津市",
    "category": "community_day_service",
    "serviceType": "地域密着型通所介護",
    "capacity": 0,
    "openDays": [
      "平日"
    ],
    "openDaysNote": ""
  },
  {
    "id": "2490500770",
    "name": "デイサービス椋本",
    "kana": "デイサービスムクモト",
    "address": "三重県津市芸濃町椋本５１４２番地1",
    "lat": 34.8102238645676,
    "lng": 136.425323291537,
    "tel": "059-232-6111",
    "url": "http://anotsu-fukushikai.jp",
    "pref": "三重県",
    "city": "津市",
    "category": "community_day_service",
    "serviceType": "地域密着型通所介護",
    "capacity": 0,
    "openDays": [
      "平日"
    ],
    "openDaysNote": ""
  },
  {
    "id": "2470504271",
    "name": "デイステーションみのりヶ丘",
    "kana": "デイステーションミノリガオカ",
    "address": "三重県津市一志町みのりヶ丘115-327",
    "lat": 34.6445953615071,
    "lng": 136.444103967124,
    "tel": "059-295-3939",
    "url": "http://www.akeai.or.jp/",
    "pref": "三重県",
    "city": "津市",
    "category": "community_day_service",
    "serviceType": "地域密着型通所介護",
    "capacity": 0,
    "openDays": [
      "平日",
      "祝日"
    ],
    "openDaysNote": ""
  },
  {
    "id": "2472500301",
    "name": "デイステーション上ノ村",
    "kana": "デイステーションカミノムラ",
    "address": "三重県津市白山町上ノ村132-10",
    "lat": 34.6644951,
    "lng": 136.3307679,
    "tel": "059-264-0333",
    "url": "http://www.akeai.or.jp",
    "pref": "三重県",
    "city": "津市",
    "category": "community_day_service",
    "serviceType": "地域密着型通所介護",
    "capacity": 0,
    "openDays": [
      "平日",
      "土曜日",
      "日曜日",
      "祝日"
    ],
    "openDaysNote": ""
  },
  {
    "id": "2470503083",
    "name": "デイハウス　ひょうたん池",
    "kana": "デイハウス　ヒョウタンイケ",
    "address": "津市上浜町6丁目224-15",
    "lat": 34.7405257,
    "lng": 136.5042218,
    "tel": "059-253-8188",
    "url": "https://wellcare.or.jp",
    "pref": "三重県",
    "city": "津市",
    "category": "community_day_service",
    "serviceType": "地域密着型通所介護",
    "capacity": null,
    "openDays": [
      "平日",
      "土曜日",
      "祝日"
    ],
    "openDaysNote": ""
  },
  {
    "id": "2470502754",
    "name": "ハーモニーハウス津　通所介護事業所",
    "kana": "ハーモニーハウスツ　ツウショカイゴジギョウショ",
    "address": "津市久居明神町字風早2077番地",
    "lat": 34.6879916943822,
    "lng": 136.464798951976,
    "tel": "059-254-1122",
    "url": "http://www.m-ikkou.co.jp/",
    "pref": "三重県",
    "city": "津市",
    "category": "community_day_service",
    "serviceType": "地域密着型通所介護",
    "capacity": 0,
    "openDays": [
      "平日",
      "祝日"
    ],
    "openDaysNote": "月曜日～金曜日は祝日も営業"
  },
  {
    "id": "2490500812",
    "name": "ヒラックス久居",
    "kana": "ヒラックスヒサイ",
    "address": "三重県津市久居新町3002-4",
    "lat": 34.6756697,
    "lng": 136.4767636,
    "tel": "050-8889-3813",
    "url": "r.hisai@spskaigo.com",
    "pref": "三重県",
    "city": "津市",
    "category": "community_day_service",
    "serviceType": "地域密着型通所介護",
    "capacity": null,
    "openDays": [
      "平日"
    ],
    "openDaysNote": ""
  },
  {
    "id": "2490500572",
    "name": "フラワーロード　栄",
    "kana": "フラワーロード　サカエ",
    "address": "三重県津市栄町4丁目185番地",
    "lat": 34.7340687,
    "lng": 136.5142206,
    "tel": "090-6073-0524",
    "url": "zc.ztv.ne.jp/muizra3a/",
    "pref": "三重県",
    "city": "津市",
    "category": "community_day_service",
    "serviceType": "地域密着型通所介護",
    "capacity": null,
    "openDays": [
      "平日",
      "土曜日",
      "日曜日",
      "祝日"
    ],
    "openDaysNote": ""
  },
  {
    "id": "2470500881",
    "name": "やさしさクラブはる子の家",
    "kana": "ヤサシサクラブハルコノイエ",
    "address": "津市白塚町３３９４",
    "lat": 34.7652389,
    "lng": 136.5301073,
    "tel": "059-232-9108",
    "url": "http://www.geocities.co.jp/HeartLand-Tachibana/9988/",
    "pref": "三重県",
    "city": "津市",
    "category": "community_day_service",
    "serviceType": "地域密着型通所介護",
    "capacity": 9,
    "openDays": [
      "平日",
      "土曜日",
      "祝日"
    ],
    "openDaysNote": ""
  },
  {
    "id": "2490500531",
    "name": "リハビリデイサービス・リハトレ新町",
    "kana": "リハビリデイサービス・リハトレシンマチ",
    "address": "三重県津市新町1丁目1-16",
    "lat": 34.714814134025,
    "lng": 136.498340216786,
    "tel": "059-253-6760",
    "url": "http://ozaki-s.net/",
    "pref": "三重県",
    "city": "津市",
    "category": "community_day_service",
    "serviceType": "地域密着型通所介護",
    "capacity": 0,
    "openDays": [
      "平日",
      "祝日"
    ],
    "openDaysNote": ""
  },
  {
    "id": "2470504289",
    "name": "リハビリデイほっとすまいる",
    "kana": "リハビリデイホットスマイル",
    "address": "三重県津市垂水298番地2",
    "lat": 34.6963835845939,
    "lng": 136.506842157672,
    "tel": "（059）261-4223",
    "url": "",
    "pref": "三重県",
    "city": "津市",
    "category": "community_day_service",
    "serviceType": "地域密着型通所介護",
    "capacity": 1,
    "openDays": [
      "平日",
      "祝日"
    ],
    "openDaysNote": ""
  },
  {
    "id": "2470503513",
    "name": "ルミナスビレッジ曽根　デイサービスセンター",
    "kana": "ルミナスビレッジソネ　デイサービスセンター",
    "address": "三重県津市安濃町曽根833-6",
    "lat": 34.7534757,
    "lng": 136.4613163,
    "tel": "059-267-1555",
    "url": "http://www.akeai.or.jp",
    "pref": "三重県",
    "city": "津市",
    "category": "community_day_service",
    "serviceType": "地域密着型通所介護",
    "capacity": 10,
    "openDays": [
      "平日",
      "土曜日",
      "祝日"
    ],
    "openDaysNote": "なし"
  },
  {
    "id": "2470504826",
    "name": "レッツ倶楽部栗真",
    "kana": "レッツクラブクリマ",
    "address": "三重県津市栗真小川町620",
    "lat": 34.7717685,
    "lng": 136.5270129,
    "tel": "059-236-2133",
    "url": "http://www.lets-club.jp/shop/kurima/",
    "pref": "三重県",
    "city": "津市",
    "category": "community_day_service",
    "serviceType": "地域密着型通所介護",
    "capacity": 0,
    "openDays": [
      "平日",
      "祝日"
    ],
    "openDaysNote": "午前の部　9：00～12：15　午後の部　13：30～16：45（改行）8月夏季休業3日（お盆時期）（改行）12月29日～1月4日はお休みです"
  },
  {
    "id": "2470504255",
    "name": "レッツ倶楽部津南",
    "kana": "レッツクラブツミナミ",
    "address": "雲出長常町1103-4エイトマンション1F エイトマンション1F",
    "lat": 34.6668966655753,
    "lng": 136.525114338174,
    "tel": "059－238－2778",
    "url": "http://www.lets-club.jp/shop/tsuminami/",
    "pref": "三重県",
    "city": "津市",
    "category": "community_day_service",
    "serviceType": "地域密着型通所介護",
    "capacity": 18,
    "openDays": [
      "平日",
      "祝日"
    ],
    "openDaysNote": "8月13日～8月15日はお休みです（土日を挟んだ場合変更する）（改行）12月29日～1月4日はお休みです"
  },
  {
    "id": "2470504347",
    "name": "介護センターレインボー　デイサービス",
    "kana": "カイゴセンターレインボー　デイサービス",
    "address": "津市白塚町２４２０－１",
    "lat": 34.7686981392596,
    "lng": 136.534770084686,
    "tel": "０５９－２３６－５６５６",
    "url": "",
    "pref": "三重県",
    "city": "津市",
    "category": "community_day_service",
    "serviceType": "地域密着型通所介護",
    "capacity": null,
    "openDays": [
      "平日",
      "土曜日",
      "祝日"
    ],
    "openDaysNote": ""
  },
  {
    "id": "2470502234",
    "name": "株式会社　クラッセ",
    "kana": "カブシキガイシャ　クラッセ",
    "address": "三重県津市白山町二本木3897-1住宅型有料老人ホーム　結の里 住宅型有料老人ホーム　結の里",
    "lat": 34.6560799,
    "lng": 136.3670913,
    "tel": "059-264-0500",
    "url": "",
    "pref": "三重県",
    "city": "津市",
    "category": "community_day_service",
    "serviceType": "地域密着型通所介護",
    "capacity": 15,
    "openDays": [
      "平日",
      "土曜日",
      "日曜日",
      "祝日"
    ],
    "openDaysNote": ""
  },
  {
    "id": "2490500598",
    "name": "機能訓練型　伝書鳩デイサービス",
    "kana": "キノウクンレンガタ　デンショバトデイサービス",
    "address": "三重県津市一身田豊野1406-499",
    "lat": 34.7711533,
    "lng": 136.5170705,
    "tel": "059-202-5480",
    "url": "",
    "pref": "三重県",
    "city": "津市",
    "category": "community_day_service",
    "serviceType": "地域密着型通所介護",
    "capacity": 0,
    "openDays": [
      "平日",
      "祝日"
    ],
    "openDaysNote": ""
  },
  {
    "id": "2490500382",
    "name": "機能訓練特化型デイサービス☆リハトレ",
    "kana": "キノウクンレントッカガタデイサービスリハトレ",
    "address": "三重県津市渋見町572-3",
    "lat": 34.73579555903,
    "lng": 136.493228696368,
    "tel": "059-253-1590",
    "url": "http://ozaki-s.net/",
    "pref": "三重県",
    "city": "津市",
    "category": "community_day_service",
    "serviceType": "地域密着型通所介護",
    "capacity": 0,
    "openDays": [
      "平日",
      "祝日"
    ],
    "openDaysNote": ""
  },
  {
    "id": "2490500606",
    "name": "憩いの汀Ⅰ",
    "kana": "イコイノミギワイチ",
    "address": "三重県津市海岸町14-20",
    "lat": 34.7176559,
    "lng": 136.5227658,
    "tel": "059-227-4705",
    "url": "http://www.za.ztv.ne.jp/ikoinomigiwa/",
    "pref": "三重県",
    "city": "津市",
    "category": "community_day_service",
    "serviceType": "地域密着型通所介護",
    "capacity": 17,
    "openDays": [
      "平日"
    ],
    "openDaysNote": "お盆、年末年始についてはその年の曜日などにより変更させていただきます。"
  },
  {
    "id": "2490500614",
    "name": "憩いの汀Ⅱ",
    "kana": "イコイノミギワニ",
    "address": "三重県津市末広町5番45号",
    "lat": 34.7195693,
    "lng": 136.5230322,
    "tel": "059-225-1001",
    "url": "http://www.za.ztv.ne.jp/ikoinomigiwa/",
    "pref": "三重県",
    "city": "津市",
    "category": "community_day_service",
    "serviceType": "地域密着型通所介護",
    "capacity": 18,
    "openDays": [
      "平日",
      "土曜日",
      "日曜日",
      "祝日"
    ],
    "openDaysNote": "19時までの利用はご相談下さい。"
  },
  {
    "id": "2490500481",
    "name": "合同会社梅田",
    "kana": "ゴウドウガイシャウメダ",
    "address": "三重県津市鳥居町５１",
    "lat": 34.7247451,
    "lng": 136.5055155,
    "tel": "059-273-6889",
    "url": "",
    "pref": "三重県",
    "city": "津市",
    "category": "community_day_service",
    "serviceType": "地域密着型通所介護",
    "capacity": 0,
    "openDays": [
      "平日",
      "祝日"
    ],
    "openDaysNote": ""
  },
  {
    "id": "2470501459",
    "name": "実践第一夢窓苑",
    "kana": "ジッセンダイイチムソウエン",
    "address": "三重県津市大倉11番4号",
    "lat": 34.7033096,
    "lng": 136.5053288,
    "tel": "059-246-5101",
    "url": "www.kaigo-kango.or.jp",
    "pref": "三重県",
    "city": "津市",
    "category": "community_day_service",
    "serviceType": "地域密着型通所介護",
    "capacity": 18,
    "openDays": [
      "平日",
      "土曜日",
      "祝日"
    ],
    "openDaysNote": ""
  },
  {
    "id": "2490500523",
    "name": "社会福祉法人　寿泉会　泉園デイサービスセンター",
    "kana": "シャカイフクシホウジン　ジュセンカイ　イズミエンデイサービスセンター",
    "address": "三重県津市野田2059",
    "lat": 34.7103351,
    "lng": 136.4612745,
    "tel": "059-237-3926",
    "url": "http://www.pmc.or.jp",
    "pref": "三重県",
    "city": "津市",
    "category": "community_day_service",
    "serviceType": "地域密着型通所介護",
    "capacity": 18,
    "openDays": [
      "平日",
      "祝日"
    ],
    "openDaysNote": ""
  },
  {
    "id": "2490500432",
    "name": "倉本病院デイサービスセンター津デイ",
    "kana": "クラモトビョウインデイサービスセンターツデイ",
    "address": "三重県津市下弁財町津興3040番地",
    "lat": 34.7047946131631,
    "lng": 136.511001126428,
    "tel": "059-213-0075",
    "url": "http://www.kuramotohospital.net/",
    "pref": "三重県",
    "city": "津市",
    "category": "community_day_service",
    "serviceType": "地域密着型通所介護",
    "capacity": 3,
    "openDays": [
      "平日",
      "土曜日"
    ],
    "openDaysNote": ""
  },
  {
    "id": "2490500804",
    "name": "中央リハビリステーション　エボルブ津",
    "kana": "チュウオウリハビリステーション　エボルブツ",
    "address": "津市藤方2522-1",
    "lat": 34.6993383,
    "lng": 136.5164906,
    "tel": "059-253-1920",
    "url": "https://a-line.jpn.com/evolve/",
    "pref": "三重県",
    "city": "津市",
    "category": "community_day_service",
    "serviceType": "地域密着型通所介護",
    "capacity": 0,
    "openDays": [
      "平日",
      "祝日"
    ],
    "openDaysNote": "年末年始はお休み"
  },
  {
    "id": "2470500998",
    "name": "通所介護　津の家",
    "kana": "ツウショカイゴツノイエ",
    "address": "長岡町233番地7",
    "lat": 34.7363612,
    "lng": 136.489479,
    "tel": "059-222-8402",
    "url": "",
    "pref": "三重県",
    "city": "津市",
    "category": "community_day_service",
    "serviceType": "地域密着型通所介護",
    "capacity": null,
    "openDays": [
      "平日",
      "土曜日",
      "祝日"
    ],
    "openDaysNote": "気候・利用者体調により時間変更有。6:00から開始あり。日曜振替あり。延長あり。"
  },
  {
    "id": "2490500663",
    "name": "通所介護四天王庵",
    "kana": "ツウショカイゴシテンノウアン",
    "address": "三重県津市栄町1-892",
    "lat": 34.7281303359695,
    "lng": 136.509858327647,
    "tel": "059-253-7135",
    "url": "https://www.polaris.care/office/detail.php?no=MTE1",
    "pref": "三重県",
    "city": "津市",
    "category": "community_day_service",
    "serviceType": "地域密着型通所介護",
    "capacity": 0,
    "openDays": [
      "平日"
    ],
    "openDaysNote": ""
  },
  {
    "id": "2470501145",
    "name": "特定非営利活動法人在宅支援サービス青空",
    "kana": "トクテイヒエイリカツドウホウジン　ザイタクシエンサービスアオゾラ",
    "address": "三重県津市半田212-1",
    "lat": 34.709289994196,
    "lng": 136.488834434289,
    "tel": "059-221-2380",
    "url": "",
    "pref": "三重県",
    "city": "津市",
    "category": "community_day_service",
    "serviceType": "地域密着型通所介護",
    "capacity": 10,
    "openDays": [
      "平日",
      "土曜日",
      "祝日"
    ],
    "openDaysNote": "緊急時の対応として８：００～１８：３０の時間帯で対応"
  },
  {
    "id": "2470502663",
    "name": "特別養護老人ホームみえ愛の里デイサービス愛の里",
    "kana": "トクベツヨウゴロウジンホームミエアイノサトデイサービスアイノサト",
    "address": "三重県津市雲出本郷町字連方前２１２８番",
    "lat": 34.6671635,
    "lng": 136.522934,
    "tel": "059-234-1500",
    "url": "http://www.ainosato-mie.jp",
    "pref": "三重県",
    "city": "津市",
    "category": "community_day_service",
    "serviceType": "地域密着型通所介護",
    "capacity": 0,
    "openDays": [
      "平日",
      "土曜日",
      "日曜日",
      "祝日"
    ],
    "openDaysNote": "但し、サービス提供時間は　午前9:30～午後16:00までの間"
  },
  {
    "id": "2490500671",
    "name": "歩行訓練特化型デイサービス　結",
    "kana": "ホコウクンレントッカガタデイサービスムスビ",
    "address": "三重県津市一身田平野430－46",
    "lat": 34.7545721,
    "lng": 136.5178978,
    "tel": "059-271-8553",
    "url": "",
    "pref": "三重県",
    "city": "津市",
    "category": "community_day_service",
    "serviceType": "地域密着型通所介護",
    "capacity": null,
    "openDays": [
      "平日",
      "祝日"
    ],
    "openDaysNote": ""
  },
  {
    "id": "2490500762",
    "name": "陽だまりカフェ片田",
    "kana": "ヒダマリカフェカタダ",
    "address": "三重県津市片田井戸町268番地",
    "lat": 34.7083318,
    "lng": 136.4374061,
    "tel": "059-239-0555",
    "url": "https://hidamari.in",
    "pref": "三重県",
    "city": "津市",
    "category": "community_day_service",
    "serviceType": "地域密着型通所介護",
    "capacity": 0,
    "openDays": [
      "平日"
    ],
    "openDaysNote": "年末年始は休業致します。"
  },
  {
    "id": "2490500580",
    "name": "療養通所介護いちし",
    "kana": "リョウヨウツウショカイゴイチシ",
    "address": "三重県津市一志町日置４６番地",
    "lat": 34.6576276,
    "lng": 136.4452006,
    "tel": "059-295-0055",
    "url": "",
    "pref": "三重県",
    "city": "津市",
    "category": "community_day_service",
    "serviceType": "地域密着型通所介護",
    "capacity": 0,
    "openDays": [
      "平日"
    ],
    "openDaysNote": ""
  },
  {
    "id": "2492800111",
    "name": "リハビリデイサービス　リハわたらい",
    "kana": "リハビリデイサービス　リハワタライ",
    "address": "三重県度会郡度会町麻加江1248医療福祉複合型施設わたらい 医療福祉複合型施設わたらい",
    "lat": 34.4365740507944,
    "lng": 136.556109131213,
    "tel": "0596-64-1010",
    "url": "",
    "pref": "三重県",
    "city": "度会町",
    "category": "community_day_service",
    "serviceType": "地域密着型通所介護",
    "capacity": 10,
    "openDays": [
      "平日"
    ],
    "openDaysNote": "夏季8/13～15、冬季12/31～1/3を定休日とする"
  },
  {
    "id": "2472801048",
    "name": "度会町通所介護事業所　れんげ草",
    "kana": "ワタライチョウツウショカイゴジギョウショ　レンゲソウ",
    "address": "三重県度会郡度会町南中村８１番地",
    "lat": 34.3444894,
    "lng": 136.5923956,
    "tel": "0596-65-0266",
    "url": "",
    "pref": "三重県",
    "city": "度会町",
    "category": "community_day_service",
    "serviceType": "地域密着型通所介護",
    "capacity": 0,
    "openDays": [
      "平日"
    ],
    "openDaysNote": ""
  },
  {
    "id": "2472100292",
    "name": "デイサービスセンターみんなの家",
    "kana": "ミンナノイエ",
    "address": "三重県員弁郡東員町山田2963-1",
    "lat": 35.0891308784119,
    "lng": 136.594286639783,
    "tel": "0594-75-0118",
    "url": "",
    "pref": "三重県",
    "city": "東員町",
    "category": "community_day_service",
    "serviceType": "地域密着型通所介護",
    "capacity": 18,
    "openDays": [
      "平日",
      "土曜日",
      "祝日"
    ],
    "openDaysNote": ""
  },
  {
    "id": "2472100565",
    "name": "デイサービス椛",
    "kana": "デイサービスモミジ",
    "address": "三重県員弁郡東員町鳥取740番2号",
    "lat": 35.0851366,
    "lng": 136.5865867,
    "tel": "0594-86-1680",
    "url": "",
    "pref": "三重県",
    "city": "東員町",
    "category": "community_day_service",
    "serviceType": "地域密着型通所介護",
    "capacity": 10,
    "openDays": [
      "平日",
      "土曜日",
      "日曜日",
      "祝日"
    ],
    "openDaysNote": "必要に応じて6時30分～18時30分に変更あり。"
  },
  {
    "id": "2472100516",
    "name": "なでしこの家",
    "kana": "ナデシコノイエ",
    "address": "東員町穴太2578-4",
    "lat": 35.0932364,
    "lng": 136.6181219,
    "tel": "0594-33-2222",
    "url": "https://rainin0723.wixsite.com/care-home",
    "pref": "三重県",
    "city": "東員町",
    "category": "community_day_service",
    "serviceType": "地域密着型通所介護",
    "capacity": null,
    "openDays": [
      "平日",
      "祝日"
    ],
    "openDaysNote": ""
  },
  {
    "id": "2472100433",
    "name": "笹尾デイサービスセンターみんなの家",
    "kana": "ササオデイサービスセンターミンナノイエ",
    "address": "三重県員弁郡東員町笹尾東3丁目3-3",
    "lat": 35.0994164,
    "lng": 136.5989381,
    "tel": "0594-86-0215",
    "url": "",
    "pref": "三重県",
    "city": "東員町",
    "category": "community_day_service",
    "serviceType": "地域密着型通所介護",
    "capacity": 6,
    "openDays": [
      "平日",
      "土曜日",
      "祝日"
    ],
    "openDaysNote": ""
  },
  {
    "id": "2492100074",
    "name": "紫苑のみち",
    "kana": "シオンノミチ",
    "address": "三重県員弁郡東員町大字六把野新田字藪之内104-7",
    "lat": 35.080371483038,
    "lng": 136.593636463158,
    "tel": "0594-86-1700",
    "url": "https://sion-toin.com/",
    "pref": "三重県",
    "city": "東員町",
    "category": "community_day_service",
    "serviceType": "地域密着型通所介護",
    "capacity": null,
    "openDays": [
      "平日",
      "土曜日",
      "祝日"
    ],
    "openDaysNote": ""
  },
  {
    "id": "2472100383",
    "name": "宅老所　紫苑",
    "kana": "タクロウショ　シオン",
    "address": "三重県員弁郡東員町山田1055番地",
    "lat": 35.0710780904543,
    "lng": 136.59102422209,
    "tel": "0594-76-4220",
    "url": "http://www.sion-toin.com/",
    "pref": "三重県",
    "city": "東員町",
    "category": "community_day_service",
    "serviceType": "地域密着型通所介護",
    "capacity": null,
    "openDays": [
      "平日",
      "土曜日",
      "祝日"
    ],
    "openDaysNote": ""
  },
  {
    "id": "2492800178",
    "name": "いちに",
    "kana": "イチニ",
    "address": "三重県度会郡南伊勢町五ケ所浦1007-26",
    "lat": 34.3468861148359,
    "lng": 136.700188735582,
    "tel": "090-5035-5222",
    "url": "",
    "pref": "三重県",
    "city": "南伊勢町",
    "category": "community_day_service",
    "serviceType": "地域密着型通所介護",
    "capacity": 0,
    "openDays": [
      "平日"
    ],
    "openDaysNote": ""
  },
  {
    "id": "2472801428",
    "name": "デイサービスセンター　のぞみ",
    "kana": "デイサービスセンター　ノゾミ",
    "address": "度会郡南伊勢町小方竈181",
    "lat": 34.2591355,
    "lng": 136.4930964,
    "tel": "0596-76-1888",
    "url": "",
    "pref": "三重県",
    "city": "南伊勢町",
    "category": "community_day_service",
    "serviceType": "地域密着型通所介護",
    "capacity": 0,
    "openDays": [
      "平日"
    ],
    "openDaysNote": ""
  },
  {
    "id": "2472801238",
    "name": "デイサービスセンターゆい",
    "kana": "デイサービスセンターユイ",
    "address": "三重県度会郡南伊勢町大江1111番地",
    "lat": 34.2957386,
    "lng": 136.5966938,
    "tel": "0596-72-2227",
    "url": "",
    "pref": "三重県",
    "city": "南伊勢町",
    "category": "community_day_service",
    "serviceType": "地域密着型通所介護",
    "capacity": 10,
    "openDays": [
      "平日",
      "土曜日",
      "祝日"
    ],
    "openDaysNote": ""
  },
  {
    "id": "2492800186",
    "name": "デイサービスみそら",
    "kana": "デイサービスミソラ",
    "address": "三重県度会郡南伊勢町道方1522-4",
    "lat": 34.292612,
    "lng": 136.5745589,
    "tel": "0596-72-1147",
    "url": "",
    "pref": "三重県",
    "city": "南伊勢町",
    "category": "community_day_service",
    "serviceType": "地域密着型通所介護",
    "capacity": null,
    "openDays": [
      "平日",
      "祝日"
    ],
    "openDaysNote": ""
  },
  {
    "id": "2492800194",
    "name": "三重外湾漁協　デイサービスセンター「まごころ」",
    "kana": "ミエガイワンギョキョウ　デイサービスセンター「マゴコロ」",
    "address": "三重県度会郡南伊勢町東宮3310番地",
    "lat": 34.2885121,
    "lng": 136.5409449,
    "tel": "0596-72-3500",
    "url": "http://miegaiwan.or.jp",
    "pref": "三重県",
    "city": "南伊勢町",
    "category": "community_day_service",
    "serviceType": "地域密着型通所介護",
    "capacity": null,
    "openDays": [
      "平日",
      "祝日"
    ],
    "openDaysNote": "台風等により、送迎の安全な実施が困難であると判断する場合は、臨時休業とします。（改行）感染症対策等により、臨時休業とする場合があります。"
  },
  {
    "id": "2492800137",
    "name": "南伊勢町社会福祉協議会ふれあいなんとう",
    "kana": "ミナミイセチョウシャカイフクシキョウギカイフレアイナントウ",
    "address": "三重県度会郡南伊勢町村山１１３２番地の１",
    "lat": 34.279911,
    "lng": 136.4990865,
    "tel": "0596-76-1500",
    "url": "http://www.amigo2.ne.jp/~nantosha/",
    "pref": "三重県",
    "city": "南伊勢町",
    "category": "community_day_service",
    "serviceType": "地域密着型通所介護",
    "capacity": null,
    "openDays": [
      "平日"
    ],
    "openDaysNote": ""
  },
  {
    "id": "2471000238",
    "name": "NPO法人まごの手通所介護事業所",
    "kana": "エヌピーオホウジンマゴノテツウショカイゴジギョウショ",
    "address": "三重県尾鷲市野地町１１－２１",
    "lat": 34.077015,
    "lng": 136.190909,
    "tel": "0597-23-3020",
    "url": "magonote8note@yahoo.co.jp",
    "pref": "三重県",
    "city": "尾鷲市",
    "category": "community_day_service",
    "serviceType": "地域密着型通所介護",
    "capacity": 0,
    "openDays": [
      "平日",
      "土曜日",
      "祝日"
    ],
    "openDaysNote": ""
  },
  {
    "id": "2471000386",
    "name": "あいあい日向デイサービス",
    "kana": "アイアイヒナタデイサービス",
    "address": "三重県尾鷲市大字向井133番地の9",
    "lat": 34.0595454,
    "lng": 136.2156237,
    "tel": "0597-23-3075",
    "url": "",
    "pref": "三重県",
    "city": "尾鷲市",
    "category": "community_day_service",
    "serviceType": "地域密着型通所介護",
    "capacity": 0,
    "openDays": [
      "平日",
      "土曜日",
      "日曜日",
      "祝日"
    ],
    "openDaysNote": ""
  },
  {
    "id": "2491000127",
    "name": "デイサービスセンターともに",
    "kana": "デイサービスセンタートモニ",
    "address": "三重県尾鷲市光ヶ丘11-44",
    "lat": 34.0647043,
    "lng": 136.1806112,
    "tel": "0597-25-0555",
    "url": "",
    "pref": "三重県",
    "city": "尾鷲市",
    "category": "community_day_service",
    "serviceType": "地域密着型通所介護",
    "capacity": 0,
    "openDays": [
      "平日",
      "土曜日",
      "祝日"
    ],
    "openDaysNote": "12/30～1/3　要相談"
  },
  {
    "id": "2491000101",
    "name": "デイサービスセンターみち",
    "kana": "デイサービスセンターミチ",
    "address": "三重県尾鷲市光ヶ丘11番44号",
    "lat": 34.0647973999262,
    "lng": 136.181004626399,
    "tel": "0597-25-0555",
    "url": "",
    "pref": "三重県",
    "city": "尾鷲市",
    "category": "community_day_service",
    "serviceType": "地域密着型通所介護",
    "capacity": null,
    "openDays": [
      "平日",
      "土曜日",
      "祝日"
    ],
    "openDaysNote": "12/30～1/3　要相談"
  },
  {
    "id": "2471000337",
    "name": "デイサービス海岸通り",
    "kana": "デイサービスカイガンドオリ",
    "address": "三重県尾鷲市三木里町293－10",
    "lat": 34.0009238,
    "lng": 136.2097978,
    "tel": "0597-28-8800",
    "url": "",
    "pref": "三重県",
    "city": "尾鷲市",
    "category": "community_day_service",
    "serviceType": "地域密着型通所介護",
    "capacity": 0,
    "openDays": [
      "平日",
      "土曜日",
      "祝日"
    ],
    "openDaysNote": ""
  },
  {
    "id": "2471000105",
    "name": "デイサービス望月　友遊",
    "kana": "デイサービスモチヅキ　ユウユウ",
    "address": "三重県尾鷲市坂場町3-13",
    "lat": 34.0796508,
    "lng": 136.1890563,
    "tel": "0597-23-1211",
    "url": "",
    "pref": "三重県",
    "city": "尾鷲市",
    "category": "community_day_service",
    "serviceType": "地域密着型通所介護",
    "capacity": 15,
    "openDays": [
      "平日",
      "日曜日",
      "祝日"
    ],
    "openDaysNote": "ただし、事業所が特別に認めた場合は、この限りではない。"
  },
  {
    "id": "2471000469",
    "name": "みえ医療福祉生協　デイサービスふれあい",
    "kana": "ミエイリョウフクシセイキョウ　デイサービスフレアイ",
    "address": "三重県尾鷲市小川東町３０番１５号",
    "lat": 34.0681547,
    "lng": 136.1898954,
    "tel": "0597-22-0400",
    "url": "http://www.mie-hewcoop.jp/",
    "pref": "三重県",
    "city": "尾鷲市",
    "category": "community_day_service",
    "serviceType": "地域密着型通所介護",
    "capacity": 0,
    "openDays": [
      "平日",
      "祝日"
    ],
    "openDaysNote": ""
  },
  {
    "id": "2471000543",
    "name": "在宅ケアグループ　あいあい",
    "kana": "ザイタクケアグループ　アイアイ",
    "address": "三重県尾鷲市矢浜一丁目15番45号",
    "lat": 34.0629501,
    "lng": 136.2015777,
    "tel": "0597-23-3007",
    "url": "",
    "pref": "三重県",
    "city": "尾鷲市",
    "category": "community_day_service",
    "serviceType": "地域密着型通所介護",
    "capacity": 0,
    "openDays": [
      "平日",
      "祝日"
    ],
    "openDaysNote": "延長サービス　6：00～9：00　18：00～21：00"
  },
  {
    "id": "2491000135",
    "name": "地域密着型通所介護　はまゆう",
    "kana": "チイキミッチャクガタツウショカイゴ　ハマユウ",
    "address": "三重県尾鷲市三木里町２９９番地３",
    "lat": 34.0003477069502,
    "lng": 136.209659406781,
    "tel": "957282230",
    "url": "",
    "pref": "三重県",
    "city": "尾鷲市",
    "category": "community_day_service",
    "serviceType": "地域密着型通所介護",
    "capacity": null,
    "openDays": [
      "平日",
      "土曜日",
      "日曜日",
      "祝日"
    ],
    "openDaysNote": ""
  },
  {
    "id": "2471000360",
    "name": "尾鷲社協介護事業所　デイサービスいきいき",
    "kana": "オワセシャキョウカイゴジギョウショ　デイサービスイキイキ",
    "address": "三重県尾鷲市中村町１番５号",
    "lat": 34.0736099,
    "lng": 136.1960781,
    "tel": "0597-22-3225",
    "url": "http://owasewel.com/",
    "pref": "三重県",
    "city": "尾鷲市",
    "category": "community_day_service",
    "serviceType": "地域密着型通所介護",
    "capacity": 0,
    "openDays": [
      "平日",
      "祝日"
    ],
    "openDaysNote": "土曜日は一般介護予防事業の実施"
  },
  {
    "id": "2491000119",
    "name": "有限会社尾鷲介護サービスライト　ディサービスライト　矢浜",
    "kana": "ユウゲンカイシャ　オワセカイゴサービスライト　ディサービスライト　ヤノハマ",
    "address": "三重県尾鷲市矢浜一丁目31番2号",
    "lat": 34.060807,
    "lng": 136.200616,
    "tel": "0597-25-1515",
    "url": "",
    "pref": "三重県",
    "city": "尾鷲市",
    "category": "community_day_service",
    "serviceType": "地域密着型通所介護",
    "capacity": 0,
    "openDays": [
      "平日",
      "祝日"
    ],
    "openDaysNote": "但し、利用者が緊急を要する時は時間外でも対応する。"
  },
  {
    "id": "2491000085",
    "name": "輪内高齢者サービスセンター",
    "kana": "ワウチコウレイシャサービスセンター",
    "address": "三重県尾鷲市曽根町606番地1",
    "lat": 33.9666847493768,
    "lng": 136.1956833735,
    "tel": "0597-27-3800",
    "url": "http://owasewel.com/",
    "pref": "三重県",
    "city": "尾鷲市",
    "category": "community_day_service",
    "serviceType": "地域密着型通所介護",
    "capacity": 18,
    "openDays": [
      "平日",
      "土曜日",
      "祝日"
    ],
    "openDaysNote": ""
  },
  {
    "id": "2471300976",
    "name": "デイサービス　ひろこの家",
    "kana": "デイサービス　ヒロコノイエ",
    "address": "滝之原　1862",
    "lat": 34.6293516,
    "lng": 136.1679295,
    "tel": "0595－68－2876",
    "url": "http://hirokonoie.webcrow.jp/",
    "pref": "三重県",
    "city": "名張市",
    "category": "community_day_service",
    "serviceType": "地域密着型通所介護",
    "capacity": null,
    "openDays": [
      "平日",
      "土曜日",
      "日曜日",
      "祝日"
    ],
    "openDaysNote": "法人が定める休日・年末年始１２月３１日ー１月２日"
  },
  {
    "id": "2491300279",
    "name": "デイサービスいとぐるま",
    "kana": "デイサービスイトグルマ",
    "address": "三重県名張市上八町１６４４番地1",
    "lat": 34.6260117,
    "lng": 136.0921648,
    "tel": "0595-62-5511",
    "url": "",
    "pref": "三重県",
    "city": "名張市",
    "category": "community_day_service",
    "serviceType": "地域密着型通所介護",
    "capacity": 78,
    "openDays": [
      "平日",
      "土曜日",
      "祝日"
    ],
    "openDaysNote": ""
  },
  {
    "id": "2491300352",
    "name": "デイサービスけんだま",
    "kana": "デイサービスケンダマ",
    "address": "松崎町1330-1アイエムビル名張105 アイエムビル名張105",
    "lat": 34.625055,
    "lng": 136.0890802,
    "tel": "0595-48-7856",
    "url": "",
    "pref": "三重県",
    "city": "名張市",
    "category": "community_day_service",
    "serviceType": "地域密着型通所介護",
    "capacity": 0,
    "openDays": [
      "平日",
      "土曜日",
      "祝日"
    ],
    "openDaysNote": ""
  },
  {
    "id": "2471301057",
    "name": "デイサービス整骨リハビリなばり",
    "kana": "デイサービスセイコツリハビリナバリ",
    "address": "三重県名張市平尾2556-11",
    "lat": 34.6225705,
    "lng": 136.0981279,
    "tel": "0595-48-6673",
    "url": "https://seikoturihabiri.wixsite.com/rihabirinabari",
    "pref": "三重県",
    "city": "名張市",
    "category": "community_day_service",
    "serviceType": "地域密着型通所介護",
    "capacity": 0,
    "openDays": [
      "平日",
      "祝日"
    ],
    "openDaysNote": "8月13~15日、12月30~1月3日は休業します。"
  },
  {
    "id": "2491300451",
    "name": "ナツキリハ希央台",
    "kana": "ナツキリハキオウダイ",
    "address": "三重県名張市希央台５番町109番地",
    "lat": 34.6255899,
    "lng": 136.0987327,
    "tel": "0595-41-1580",
    "url": "https://natsuki-reha.com/",
    "pref": "三重県",
    "city": "名張市",
    "category": "community_day_service",
    "serviceType": "地域密着型通所介護",
    "capacity": null,
    "openDays": [
      "平日",
      "土曜日",
      "祝日"
    ],
    "openDaysNote": "祝日も営業"
  },
  {
    "id": "2471301008",
    "name": "株式会社　秋桜　デイサービス　桔梗亭2",
    "kana": "カブシキガイシャ　コスモス　デイサービス　キキョウテイツウ",
    "address": "三重県名張市桔梗が丘４番町7街区40番地",
    "lat": 34.6477936,
    "lng": 136.1216683,
    "tel": "0595-44-6031",
    "url": "",
    "pref": "三重県",
    "city": "名張市",
    "category": "community_day_service",
    "serviceType": "地域密着型通所介護",
    "capacity": 0,
    "openDays": [
      "平日",
      "土曜日",
      "日曜日",
      "祝日"
    ],
    "openDaysNote": "365日　年中無休"
  },
  {
    "id": "2471300943",
    "name": "株式会社　秋桜　茶話本舗デイサービス　桔梗亭",
    "kana": "カブシキガイシャコスモス　サワホンポデイサービス　キキョウテイ",
    "address": "三重県名張市桔梗が丘5番町4街区8番地",
    "lat": 34.6387503,
    "lng": 136.123785,
    "tel": "0595-44-6550",
    "url": "",
    "pref": "三重県",
    "city": "名張市",
    "category": "community_day_service",
    "serviceType": "地域密着型通所介護",
    "capacity": 10,
    "openDays": [
      "平日",
      "土曜日",
      "日曜日",
      "祝日"
    ],
    "openDaysNote": "３６５日　年中無休"
  },
  {
    "id": "2491300378",
    "name": "関西プロパン瓦斯株式会社",
    "kana": "カンサイプロパンガスカブシキガイシャ",
    "address": "三重県津市末広町１０番１６号",
    "lat": 34.7197712,
    "lng": 136.5254147,
    "tel": "059-227-6217",
    "url": "http://www.kanpro.co.jp",
    "pref": "三重県",
    "city": "名張市",
    "category": "community_day_service",
    "serviceType": "地域密着型通所介護",
    "capacity": 18,
    "openDays": [
      "平日",
      "祝日"
    ],
    "openDaysNote": ""
  },
  {
    "id": "2471300802",
    "name": "通所介護オルゴール",
    "kana": "ツウショカイゴ　オルゴール",
    "address": "安部田2309番地",
    "lat": 34.5990468,
    "lng": 136.062801,
    "tel": "0595-48-6502",
    "url": "奏　名張　　検索",
    "pref": "三重県",
    "city": "名張市",
    "category": "community_day_service",
    "serviceType": "地域密着型通所介護",
    "capacity": 10,
    "openDays": [
      "平日",
      "土曜日",
      "日曜日",
      "祝日"
    ],
    "openDaysNote": "台風、積雪、凍結等の自然災害により送迎に支障をきたすときは臨時に休業する場合があります。"
  },
  {
    "id": "2471301073",
    "name": "百合が丘　げんき村",
    "kana": "ユリガオカ　ゲンキムラ",
    "address": "三重県名張市百合が丘西2番町60番地",
    "lat": 34.6079468,
    "lng": 136.0979421,
    "tel": "0595-64-0145",
    "url": "",
    "pref": "三重県",
    "city": "名張市",
    "category": "community_day_service",
    "serviceType": "地域密着型通所介護",
    "capacity": 5,
    "openDays": [
      "平日",
      "祝日"
    ],
    "openDaysNote": "祭日は営業"
  },
  {
    "id": "2491300345",
    "name": "和の風名張伊賀まる",
    "kana": "ワノカゼナバリイガマル",
    "address": "三重県名張市梅が丘南1番町213番地の１",
    "lat": 34.6344942,
    "lng": 136.0908955,
    "tel": "0595-51-5141",
    "url": "wanokazenabariigamaru.com",
    "pref": "三重県",
    "city": "名張市",
    "category": "community_day_service",
    "serviceType": "地域密着型通所介護",
    "capacity": 16,
    "openDays": [
      "平日",
      "祝日"
    ],
    "openDaysNote": "１８時まで延長あり。"
  },
  {
    "id": "2491300444",
    "name": "和の風名張伊賀まる第２デイサービス",
    "kana": "ワノカゼナバリイガマルダイ２デイサービス",
    "address": "三重県名張市梅が丘南１番町２１３－１",
    "lat": 34.6364083,
    "lng": 136.0907935,
    "tel": "0595-51-5141",
    "url": "wanokazenabariigamaru.com",
    "pref": "三重県",
    "city": "名張市",
    "category": "community_day_service",
    "serviceType": "地域密着型通所介護",
    "capacity": 10,
    "openDays": [
      "平日",
      "祝日"
    ],
    "openDaysNote": "１８時まで延長あり"
  },
  {
    "id": "2472701016",
    "name": "ＪA多気郡シルバーセンター　すまいる",
    "kana": "ジェイエイタキグンシルバーセンター　スマイル",
    "address": "三重県多気郡明和町坂本１１６７番地１- -",
    "lat": 34.5486596,
    "lng": 136.6202766,
    "tel": "0596-64-8660",
    "url": "http://www.ja-takigun.or.jp/office/silvercenter_honten.html",
    "pref": "三重県",
    "city": "明和町",
    "category": "community_day_service",
    "serviceType": "地域密着型通所介護",
    "capacity": 0,
    "openDays": [
      "平日",
      "祝日"
    ],
    "openDaysNote": "-"
  },
  {
    "id": "2472700984",
    "name": "リハビリデイサービス　みんなの家　明和",
    "kana": "リハビリデイサービス　ミンナノイエ　メイワ",
    "address": "三重県多気郡明和町金剛坂字宇田822番地9",
    "lat": 34.5307976,
    "lng": 136.6083284,
    "tel": "0596-53-2512",
    "url": "http://care-pro.co.jp/",
    "pref": "三重県",
    "city": "明和町",
    "category": "community_day_service",
    "serviceType": "地域密着型通所介護",
    "capacity": 10,
    "openDays": [
      "平日",
      "土曜日",
      "祝日"
    ],
    "openDaysNote": ""
  },
  {
    "id": "2492700188",
    "name": "リハビリデイサービス笑楽",
    "kana": "リハビリデイサービスワラク",
    "address": "三重県多気郡明和町明星971番地1",
    "lat": 34.5258923892897,
    "lng": 136.634121999689,
    "tel": "0596-52-5720",
    "url": "https://www.waraku-rehabili.com",
    "pref": "三重県",
    "city": "明和町",
    "category": "community_day_service",
    "serviceType": "地域密着型通所介護",
    "capacity": 0,
    "openDays": [
      "平日"
    ],
    "openDaysNote": ""
  },
  {
    "id": "2472700604",
    "name": "千の手デイサービスセンター",
    "kana": "センノテデイサービスセンター",
    "address": "三重県多気郡明和町有爾中６２８－５",
    "lat": 34.5181411,
    "lng": 136.614864,
    "tel": "0596-53-0202",
    "url": "sennote@ma.mctv.ne.jp",
    "pref": "三重県",
    "city": "明和町",
    "category": "community_day_service",
    "serviceType": "地域密着型通所介護",
    "capacity": 10,
    "openDays": [
      "平日",
      "日曜日",
      "祝日"
    ],
    "openDaysNote": "年始休暇１／1～３"
  },
  {
    "id": "2472700679",
    "name": "千の手デイサービスセンターWEST",
    "kana": "センノテデイサービスセンターウエスト",
    "address": "三重県多気郡明和町有爾中字権現６２８－１２",
    "lat": 34.5227405,
    "lng": 136.619569,
    "tel": "0596-53-2112",
    "url": "",
    "pref": "三重県",
    "city": "明和町",
    "category": "community_day_service",
    "serviceType": "地域密着型通所介護",
    "capacity": 10,
    "openDays": [
      "平日",
      "祝日"
    ],
    "openDaysNote": "年始休暇１／1～３"
  },
  {
    "id": "2472000252",
    "name": "リハビリデイサービスいっぽ",
    "kana": "リハビリデイサービスイッポ",
    "address": "三重県桑名郡木曽岬町大字小林６７番地１",
    "lat": 35.0772884,
    "lng": 136.7326309,
    "tel": "0567-68-5286",
    "url": "",
    "pref": "三重県",
    "city": "木曽岬町",
    "category": "community_day_service",
    "serviceType": "地域密着型通所介護",
    "capacity": 0,
    "openDays": [
      "平日",
      "土曜日"
    ],
    "openDaysNote": ""
  },
  {
    "id": "2470301405",
    "name": "おおえのき接骨院デイサービスりーふ",
    "kana": "オオエノキセッコツインデイサービスリーフ",
    "address": "三重県鈴鹿市住吉三丁目３２番１４号",
    "lat": 34.8586954,
    "lng": 136.5364571,
    "tel": "059-389-5151",
    "url": "http://www.ohenoki.com",
    "pref": "三重県",
    "city": "鈴鹿市",
    "category": "community_day_service",
    "serviceType": "地域密着型通所介護",
    "capacity": 20,
    "openDays": [
      "平日",
      "土曜日"
    ],
    "openDaysNote": "水曜・土曜は８時～１２時３０分の1単位のみ実施。"
  },
  {
    "id": "2470302676",
    "name": "おおえのき接骨院デイサービス白子",
    "kana": "オオエノキセッコツインデイサービスシロコ",
    "address": "白子町2932番地の１",
    "lat": 34.8376512,
    "lng": 136.5868119,
    "tel": "059-380-3301",
    "url": "https://www.ohenoki.com",
    "pref": "三重県",
    "city": "鈴鹿市",
    "category": "community_day_service",
    "serviceType": "地域密着型通所介護",
    "capacity": 15,
    "openDays": [
      "平日",
      "土曜日"
    ],
    "openDaysNote": ""
  },
  {
    "id": "2470302601",
    "name": "げんき教室　白子",
    "kana": "ゲンキキョウシツ　シロコ",
    "address": "鈴鹿市南江島町6-32",
    "lat": 34.8385844,
    "lng": 136.5934809,
    "tel": "059-395-6330",
    "url": "www.invess.jp",
    "pref": "三重県",
    "city": "鈴鹿市",
    "category": "community_day_service",
    "serviceType": "地域密着型通所介護",
    "capacity": 0,
    "openDays": [
      "平日",
      "祝日"
    ],
    "openDaysNote": "祝日は営業"
  },
  {
    "id": "2470301348",
    "name": "さくらさくら通所介護事業所",
    "kana": "サクラサクラツウショカイゴジギョウショ",
    "address": "三重県鈴鹿市石薬師町171-7",
    "lat": 34.8993114,
    "lng": 136.5496412,
    "tel": "059-374-1899",
    "url": "http://sakura2.jp/",
    "pref": "三重県",
    "city": "鈴鹿市",
    "category": "community_day_service",
    "serviceType": "地域密着型通所介護",
    "capacity": 0,
    "openDays": [
      "平日",
      "土曜日",
      "祝日"
    ],
    "openDaysNote": ""
  },
  {
    "id": "2470301892",
    "name": "デイサービス　つぼみ",
    "kana": "デイサービス　ツボミ",
    "address": "三重県鈴鹿市東玉垣町２６０９－４",
    "lat": 34.8578099,
    "lng": 136.59705,
    "tel": "059-373-6855",
    "url": "",
    "pref": "三重県",
    "city": "鈴鹿市",
    "category": "community_day_service",
    "serviceType": "地域密着型通所介護",
    "capacity": 10,
    "openDays": [
      "平日",
      "土曜日",
      "日曜日",
      "祝日"
    ],
    "openDaysNote": ""
  },
  {
    "id": "2470301991",
    "name": "デイサービス　はらから",
    "kana": "デイサービス　ハラカラ",
    "address": "三重県鈴鹿市若松東一丁目２０－１７",
    "lat": 34.8553516,
    "lng": 136.6131654,
    "tel": "059-367-7870",
    "url": "",
    "pref": "三重県",
    "city": "鈴鹿市",
    "category": "community_day_service",
    "serviceType": "地域密着型通所介護",
    "capacity": 0,
    "openDays": [
      "平日",
      "土曜日",
      "祝日"
    ],
    "openDaysNote": ""
  },
  {
    "id": "2470302452",
    "name": "デイサービス　愛結の華",
    "kana": "デイサービス　アイノハナ",
    "address": "三重県鈴鹿市末広南1-6-22",
    "lat": 34.8591369,
    "lng": 136.5642551,
    "tel": "059-389-7677",
    "url": "",
    "pref": "三重県",
    "city": "鈴鹿市",
    "category": "community_day_service",
    "serviceType": "地域密着型通所介護",
    "capacity": 10,
    "openDays": [
      "平日",
      "土曜日",
      "日曜日",
      "祝日"
    ],
    "openDaysNote": ""
  },
  {
    "id": "2470301454",
    "name": "デイサービス　楽家生",
    "kana": "デイサービス　ラッカセイ",
    "address": "三重県鈴鹿市南玉垣町5470番地",
    "lat": 34.8606179,
    "lng": 136.5849148,
    "tel": "059-384-3430",
    "url": "https://www.rakkasei-m.jp",
    "pref": "三重県",
    "city": "鈴鹿市",
    "category": "community_day_service",
    "serviceType": "地域密着型通所介護",
    "capacity": null,
    "openDays": [
      "平日",
      "土曜日",
      "祝日"
    ],
    "openDaysNote": ""
  },
  {
    "id": "2470300738",
    "name": "デイサービス　箕田の北さんち",
    "kana": "デイサービス　ミダノキタサンチ",
    "address": "三重県鈴鹿市下箕田2丁目5番5号",
    "lat": 34.8753195,
    "lng": 136.6263113,
    "tel": "059-395-1177",
    "url": "http://www.mecha.ne.jp/~kita/",
    "pref": "三重県",
    "city": "鈴鹿市",
    "category": "community_day_service",
    "serviceType": "地域密着型通所介護",
    "capacity": 6,
    "openDays": [
      "平日",
      "土曜日",
      "祝日"
    ],
    "openDaysNote": "12/29のみ１４時にてサービス提供終了"
  },
  {
    "id": "2490300353",
    "name": "デイサービス　悠々",
    "kana": "デイサービス　ユウユウ",
    "address": "三重県鈴鹿市伊船町2229-9",
    "lat": 34.9140503,
    "lng": 136.4941943,
    "tel": "059-371-6500",
    "url": "https://suzuka-greenhome.jp",
    "pref": "三重県",
    "city": "鈴鹿市",
    "category": "community_day_service",
    "serviceType": "地域密着型通所介護",
    "capacity": 0,
    "openDays": [
      "平日",
      "土曜日",
      "祝日"
    ],
    "openDaysNote": "天災その他やむを得ず業務を遂行できない日"
  },
  {
    "id": "2490300338",
    "name": "デイサービスResora鈴鹿",
    "kana": "デイサービスリソラスズカ",
    "address": "三重県鈴鹿市岡田１丁目３番１号Resoraケアステーション鈴鹿 Resoraケアステーション鈴鹿",
    "lat": 34.8796157,
    "lng": 136.5439851,
    "tel": "059-373-5112",
    "url": "http://www.resora-net.com",
    "pref": "三重県",
    "city": "鈴鹿市",
    "category": "community_day_service",
    "serviceType": "地域密着型通所介護",
    "capacity": 0,
    "openDays": [
      "平日",
      "土曜日",
      "祝日"
    ],
    "openDaysNote": ""
  },
  {
    "id": "2470301413",
    "name": "デイサービスきらきらの里",
    "kana": "デイサービスキラキラノサト",
    "address": "鈴鹿市高岡町187",
    "lat": 34.9001209,
    "lng": 136.5911349,
    "tel": "059-384-0817",
    "url": "http://kirakiranosato.web.fc2.com/",
    "pref": "三重県",
    "city": "鈴鹿市",
    "category": "community_day_service",
    "serviceType": "地域密着型通所介護",
    "capacity": 10,
    "openDays": [
      "平日",
      "土曜日",
      "祝日"
    ],
    "openDaysNote": ""
  },
  {
    "id": "2470303047",
    "name": "デイサービスセンター　アスプラン鈴鹿",
    "kana": "デイサービスセンター　アスプランスズカ",
    "address": "三重県鈴鹿市国府町943-1サービス付き高齢者向け住宅　アスプラン鈴鹿 サービス付き高齢者向け住宅　アスプラン鈴鹿",
    "lat": 34.8574925,
    "lng": 136.498108,
    "tel": "059-373-7555",
    "url": "http://asplend.com",
    "pref": "三重県",
    "city": "鈴鹿市",
    "category": "community_day_service",
    "serviceType": "地域密着型通所介護",
    "capacity": null,
    "openDays": [
      "平日",
      "土曜日",
      "祝日"
    ],
    "openDaysNote": "12月31日から1月3日は休業"
  },
  {
    "id": "2490300379",
    "name": "デイサービスセンター　アヌエ",
    "kana": "デイサービスセンター　アヌエ",
    "address": "三重県鈴鹿市国府町943-1",
    "lat": 34.8575928,
    "lng": 136.4981684,
    "tel": "059-392-5313",
    "url": "",
    "pref": "三重県",
    "city": "鈴鹿市",
    "category": "community_day_service",
    "serviceType": "地域密着型通所介護",
    "capacity": 0,
    "openDays": [
      "平日",
      "土曜日",
      "祝日"
    ],
    "openDaysNote": ""
  },
  {
    "id": "2450380031",
    "name": "デイサービスセンター　ベラコリーナ",
    "kana": "デイサービスセンター　ベラコリーナ",
    "address": "庄野町2550番地",
    "lat": 34.8874028489722,
    "lng": 136.509011904369,
    "tel": "059-375-2309",
    "url": "http://bellacollina.web.fc2.com/",
    "pref": "三重県",
    "city": "鈴鹿市",
    "category": "community_day_service",
    "serviceType": "地域密着型通所介護",
    "capacity": null,
    "openDays": [
      "平日",
      "祝日"
    ],
    "openDaysNote": ""
  },
  {
    "id": "2490300270",
    "name": "デイサービスセンタールーエハイム椿",
    "kana": "デイサービスセンタールーエハイムツバキ",
    "address": "三重県鈴鹿市山本町字中辻748番10",
    "lat": 34.9604951,
    "lng": 136.4609373,
    "tel": "059-371-3211",
    "url": "http://hakuaikai.ruheheim.com/",
    "pref": "三重県",
    "city": "鈴鹿市",
    "category": "community_day_service",
    "serviceType": "地域密着型通所介護",
    "capacity": 18,
    "openDays": [
      "平日",
      "土曜日",
      "祝日"
    ],
    "openDaysNote": ""
  },
  {
    "id": "2470302932",
    "name": "デイサービスふくろう",
    "kana": "デイサービスフクロウ",
    "address": "三重県鈴鹿市江島本町１３－３９",
    "lat": 34.8343043,
    "lng": 136.5942421,
    "tel": "０５９－３８０－４６１１",
    "url": "http://hp.kaipoke.biz/nkt/",
    "pref": "三重県",
    "city": "鈴鹿市",
    "category": "community_day_service",
    "serviceType": "地域密着型通所介護",
    "capacity": 1,
    "openDays": [
      "平日",
      "土曜日",
      "祝日"
    ],
    "openDaysNote": ""
  },
  {
    "id": "2470302999",
    "name": "デイサービスらぽーる",
    "kana": "デイサービスラポール",
    "address": "三重県鈴鹿市鈴鹿ハイツ5-27",
    "lat": 34.8550358,
    "lng": 136.5557825,
    "tel": "059-389-6368",
    "url": "https://deisabisuraporu.jimdo.com/",
    "pref": "三重県",
    "city": "鈴鹿市",
    "category": "community_day_service",
    "serviceType": "地域密着型通所介護",
    "capacity": 5,
    "openDays": [
      "平日",
      "土曜日",
      "日曜日",
      "祝日"
    ],
    "openDaysNote": "送迎時間帯は電話がつながりにくいことがあります。"
  },
  {
    "id": "2470302700",
    "name": "ディサービス笑",
    "kana": "デイサービスエミ",
    "address": "鈴鹿市高岡町２６６５－２",
    "lat": 34.8942592,
    "lng": 136.5925698,
    "tel": "０５９－３８１－２５５２",
    "url": "",
    "pref": "三重県",
    "city": "鈴鹿市",
    "category": "community_day_service",
    "serviceType": "地域密着型通所介護",
    "capacity": 9,
    "openDays": [
      "平日"
    ],
    "openDaysNote": "年末年始12月29日～1月3日お休み"
  },
  {
    "id": "2470300829",
    "name": "ハッピーベルデイサービスセンター",
    "kana": "ハッピーベルデイサービスセンター",
    "address": "鈴鹿市山辺町１０６８番地１",
    "lat": 34.9017418,
    "lng": 136.5581711,
    "tel": "059-373-1700",
    "url": "",
    "pref": "三重県",
    "city": "鈴鹿市",
    "category": "community_day_service",
    "serviceType": "地域密着型通所介護",
    "capacity": null,
    "openDays": [
      "平日",
      "土曜日",
      "祝日"
    ],
    "openDaysNote": "適時対応いたします。"
  },
  {
    "id": "2490300239",
    "name": "リハビリデイサービスヘルシーメルシー",
    "kana": "リハビリデイサービス　ヘルシーメルシー",
    "address": "三重県鈴鹿市西条3丁目3番13号",
    "lat": 34.8794294,
    "lng": 136.5666074,
    "tel": "059－381－2018",
    "url": "http://healthymerci.daikazoku.com",
    "pref": "三重県",
    "city": "鈴鹿市",
    "category": "community_day_service",
    "serviceType": "地域密着型通所介護",
    "capacity": 0,
    "openDays": [
      "平日",
      "祝日"
    ],
    "openDaysNote": "利用時間（改行）午前の部：8時55分～12時00分（改行）午後の部：13時25分～16時30分"
  },
  {
    "id": "2470302627",
    "name": "リフィットプラス千代崎シーサイドストーリーズ",
    "kana": "リフィットプラスチヨザキシーサイドストーリーズ",
    "address": "三重県鈴鹿市南若松町545-12",
    "lat": 34.8480457,
    "lng": 136.609009,
    "tel": "059-367-7704",
    "url": "",
    "pref": "三重県",
    "city": "鈴鹿市",
    "category": "community_day_service",
    "serviceType": "地域密着型通所介護",
    "capacity": null,
    "openDays": [
      "平日"
    ],
    "openDaysNote": ""
  },
  {
    "id": "2470302841",
    "name": "レッツ倶楽部鈴鹿道伯",
    "kana": "レッツクラブスズカドウハク",
    "address": "三重県鈴鹿市道伯2丁目7-30",
    "lat": 34.8639891,
    "lng": 136.544048,
    "tel": "059-375-2133",
    "url": "http://www.lets-club.jp/shop/suzukadohaku/",
    "pref": "三重県",
    "city": "鈴鹿市",
    "category": "community_day_service",
    "serviceType": "地域密着型通所介護",
    "capacity": 18,
    "openDays": [
      "平日",
      "祝日"
    ],
    "openDaysNote": "祝日は営業、年末年始休み　お盆休み"
  },
  {
    "id": "2490300361",
    "name": "わいわいヒルズれんげの里",
    "kana": "ワイワイヒルズレンゲノサト",
    "address": "三重県鈴鹿市長太新町一丁目11番13号れんげの里おいな苑すずか内 れんげの里おいな苑すずか内",
    "lat": 34.9032967,
    "lng": 136.6301168,
    "tel": "059-392-8500",
    "url": "https://renge-sato.com",
    "pref": "三重県",
    "city": "鈴鹿市",
    "category": "community_day_service",
    "serviceType": "地域密着型通所介護",
    "capacity": 0,
    "openDays": [
      "平日",
      "土曜日",
      "日曜日",
      "祝日"
    ],
    "openDaysNote": ""
  },
  {
    "id": "2470301595",
    "name": "長太の寄合所「くじら」",
    "kana": "ナゴノヨリアイショ「クジラ」",
    "address": "三重県鈴鹿市長太旭町6丁目3番9号",
    "lat": 34.8940575,
    "lng": 136.6340883,
    "tel": "059-395-1212",
    "url": "http://www.mecha.ne.jp/~kita/",
    "pref": "三重県",
    "city": "鈴鹿市",
    "category": "community_day_service",
    "serviceType": "地域密着型通所介護",
    "capacity": 10,
    "openDays": [
      "平日",
      "土曜日"
    ],
    "openDaysNote": ""
  },
  {
    "id": "2470302031",
    "name": "通所介護（デイサービス）えみの里",
    "kana": "ツウショカイゴ（デイサービス）エミノサト",
    "address": "鈴鹿市住吉5丁目7番1号",
    "lat": 34.8609953,
    "lng": 136.5279826,
    "tel": "059-378-4752",
    "url": "",
    "pref": "三重県",
    "city": "鈴鹿市",
    "category": "community_day_service",
    "serviceType": "地域密着型通所介護",
    "capacity": 6,
    "openDays": [
      "平日",
      "土曜日",
      "祝日"
    ],
    "openDaysNote": "希望要望に応じて受け入れ有"
  },
  {
    "id": "2470302916",
    "name": "優の森デイサービスセンター",
    "kana": "ユウノモリデイサービスセンター",
    "address": "三重県鈴鹿市寺家1丁目11-22優の森デイサービスセンター 優の森デイサービスセンター",
    "lat": 34.8167364,
    "lng": 136.5784661,
    "tel": "059-380-3990",
    "url": "care-net.biz/24/Yunomaru/index.php",
    "pref": "三重県",
    "city": "鈴鹿市",
    "category": "community_day_service",
    "serviceType": "地域密着型通所介護",
    "capacity": 10,
    "openDays": [
      "平日",
      "土曜日",
      "祝日"
    ],
    "openDaysNote": "12月31日～1月3日の期間は休日を頂きます。"
  }
]