[
  {
    "id": "2691800227",
    "name": "うえすぎ松寿苑デイサービスセンター",
    "kana": "ウエスギショウジュエンデイサービスセンター",
    "address": "京都府綾部市上杉町花ノ木2番地３",
    "lat": 35.3553048,
    "lng": 135.3150424,
    "tel": "0773-44-8100",
    "url": "https://ayabe-shojuen.com/",
    "pref": "京都府",
    "city": "綾部市",
    "category": "community_day_service",
    "serviceType": "地域密着型通所介護",
    "capacity": null,
    "openDays": [
      "平日",
      "祝日"
    ],
    "openDaysNote": "併設施設として「生活支援ハウスうえすぎ」を運営しており、電話連絡等の対応は年中無休で対応している。"
  },
  {
    "id": "2671800247",
    "name": "デイサービスプラトーあやべ",
    "kana": "デイサービスプラトーアヤベ",
    "address": "高津町１番地の５",
    "lat": 34.4977608,
    "lng": 135.4004762,
    "tel": "0773-45-3297",
    "url": "",
    "pref": "京都府",
    "city": "綾部市",
    "category": "community_day_service",
    "serviceType": "地域密着型通所介護",
    "capacity": 0,
    "openDays": [
      "平日",
      "祝日"
    ],
    "openDaysNote": ""
  },
  {
    "id": "2691800235",
    "name": "ミストラル活き活きクラブ",
    "kana": "ミストラルイキイキクラブ",
    "address": "京都府綾部市広小路二丁目12-1",
    "lat": 35.2996908,
    "lng": 135.2541347,
    "tel": "0773-40-2310",
    "url": "https://mistralservice.co.jp/",
    "pref": "京都府",
    "city": "綾部市",
    "category": "community_day_service",
    "serviceType": "地域密着型通所介護",
    "capacity": 0,
    "openDays": [
      "平日",
      "祝日"
    ],
    "openDaysNote": "年末年始は休み"
  },
  {
    "id": "2691800219",
    "name": "リハプライド綾部",
    "kana": "リハプライドアヤベ",
    "address": "京都府綾部市並松町上溝口２８番地７",
    "lat": 35.2964115,
    "lng": 135.2632307,
    "tel": "0773-45-8977",
    "url": "www.rehapride.co.jp/ayabe/",
    "pref": "京都府",
    "city": "綾部市",
    "category": "community_day_service",
    "serviceType": "地域密着型通所介護",
    "capacity": 18,
    "openDays": [
      "平日",
      "祝日"
    ],
    "openDaysNote": "その他天災（台風・大雪）などでお休みする場合があります。"
  },
  {
    "id": "2691800177",
    "name": "地域密着型通所介護事業所けんさぽ",
    "kana": "チイキミッチャクガタツウショカイゴジギョウショケンサポ",
    "address": "京都府綾部市神宮寺町西谷２２",
    "lat": 35.2990407,
    "lng": 135.2516215,
    "tel": "0773-21-1872",
    "url": "http://kenkousapo-to.com",
    "pref": "京都府",
    "city": "綾部市",
    "category": "community_day_service",
    "serviceType": "地域密着型通所介護",
    "capacity": 65,
    "openDays": [
      "平日"
    ],
    "openDaysNote": ""
  },
  {
    "id": "2692000108",
    "name": "デイサービス　楓",
    "kana": "デイサービス　カエデ",
    "address": "京都府与謝郡伊根町字大原494番地",
    "lat": 35.6868699,
    "lng": 135.2919254,
    "tel": "0772-45-1492",
    "url": "",
    "pref": "京都府",
    "city": "伊根町",
    "category": "community_day_service",
    "serviceType": "地域密着型通所介護",
    "capacity": null,
    "openDays": [
      "平日",
      "土曜日"
    ],
    "openDaysNote": ""
  },
  {
    "id": "2671300255",
    "name": "デイサービスみのり",
    "kana": "デイサービスミノリ",
    "address": "京都府綴喜郡井手町井手宮ノ本86番地",
    "lat": 34.7971853,
    "lng": 135.809364,
    "tel": "0774-82-2832",
    "url": "http://hp.kaipoke.biz/whm/",
    "pref": "京都府",
    "city": "井手町",
    "category": "community_day_service",
    "serviceType": "地域密着型通所介護",
    "capacity": 0,
    "openDays": [
      "平日",
      "土曜日",
      "祝日"
    ],
    "openDaysNote": "8/13～8/15,12/30～1/3"
  },
  {
    "id": "2671200612",
    "name": "あすみるデイサービス小倉",
    "kana": "アスミルデイサービスオグラ",
    "address": "宇治市小倉町蓮池175-23小倉接骨院ビル２F 小倉接骨院ビル２F",
    "lat": 34.8961091,
    "lng": 135.7784752,
    "tel": "0774-21-2414",
    "url": "http://www.jusei.gr.jp/akia/asumiru/",
    "pref": "京都府",
    "city": "宇治市",
    "category": "community_day_service",
    "serviceType": "地域密着型通所介護",
    "capacity": 10,
    "openDays": [
      "平日"
    ],
    "openDaysNote": "年末年始12月３０日から１月３日（改行）及びお盆休日８月１５日、１６日あり"
  },
  {
    "id": "2671200620",
    "name": "デイサービスセンターわっはっは神明",
    "kana": "デイサービスセンターワッハッハシンメイ",
    "address": "神明石塚25-21株式会社オールウェーズ 株式会社オールウェーズ",
    "lat": 34.8829396690178,
    "lng": 135.790296301852,
    "tel": "0774-24-1088",
    "url": "http://care-net.biz/26/wahhahha1088/",
    "pref": "京都府",
    "city": "宇治市",
    "category": "community_day_service",
    "serviceType": "地域密着型通所介護",
    "capacity": 15,
    "openDays": [
      "平日",
      "土曜日",
      "祝日"
    ],
    "openDaysNote": "上記以外の月～土曜日で祝祭日は通常営業"
  },
  {
    "id": "2671200323",
    "name": "ひかり倶楽部",
    "kana": "ヒカリクラブ",
    "address": "宇治市広野町桐生谷46-1",
    "lat": 34.8776196,
    "lng": 135.7836786,
    "tel": "0774-41-4567",
    "url": "http://www.snservice.jp",
    "pref": "京都府",
    "city": "宇治市",
    "category": "community_day_service",
    "serviceType": "地域密着型通所介護",
    "capacity": 14,
    "openDays": [
      "平日",
      "土曜日",
      "祝日"
    ],
    "openDaysNote": "事業所実地地域に暴風警報の発令及び積雪がある場合"
  },
  {
    "id": "2671200786",
    "name": "みどり機能訓練デイサービスセンター",
    "kana": "ミドリキノウクンレンデイサービスセンター",
    "address": "槇島町南落合56番地1",
    "lat": 34.9057655723415,
    "lng": 135.777512430619,
    "tel": "0774-26-2447",
    "url": "",
    "pref": "京都府",
    "city": "宇治市",
    "category": "community_day_service",
    "serviceType": "地域密着型通所介護",
    "capacity": 0,
    "openDays": [
      "平日"
    ],
    "openDaysNote": ""
  },
  {
    "id": "2671200745",
    "name": "みむろどデイサービス",
    "kana": "ミムロドデイサービス",
    "address": "京都府宇治市菟道藪里41コスモウィング宇治101号",
    "lat": 34.9015238497903,
    "lng": 135.808281900725,
    "tel": "0774-21-1112",
    "url": "",
    "pref": "京都府",
    "city": "宇治市",
    "category": "community_day_service",
    "serviceType": "地域密着型通所介護",
    "capacity": 0,
    "openDays": [
      "平日",
      "土曜日",
      "日曜日",
      "祝日"
    ],
    "openDaysNote": ""
  },
  {
    "id": "2691200170",
    "name": "機能訓練型デイサービス　喜楽縁",
    "kana": "キノウクンレンガタデイサービス　キラクエン",
    "address": "京都府宇治市神明宮北22番地の18北川ビル1階 北川ビル1階",
    "lat": 34.8796222,
    "lng": 135.7895002,
    "tel": "0774-51-0149",
    "url": "",
    "pref": "京都府",
    "city": "宇治市",
    "category": "community_day_service",
    "serviceType": "地域密着型通所介護",
    "capacity": 0,
    "openDays": [
      "平日"
    ],
    "openDaysNote": "夏期休暇：8月14～8月16日（改行）年末年始休業：12月30日～1月4日"
  },
  {
    "id": "2671300248",
    "name": "デイサービス・マドンナ",
    "kana": "デイサービス・マドンナ",
    "address": "京都府綴喜郡宇治田原町銘城台７－１２",
    "lat": 34.8459625,
    "lng": 135.8446206,
    "tel": "０７７４－８８－３８６５",
    "url": "http://www.doronko.or.ｊｐ/",
    "pref": "京都府",
    "city": "宇治田原町",
    "category": "community_day_service",
    "serviceType": "地域密着型通所介護",
    "capacity": 0,
    "openDays": [
      "平日",
      "土曜日"
    ],
    "openDaysNote": ""
  },
  {
    "id": "2671300222",
    "name": "萩の里",
    "kana": "ハギノサト",
    "address": "綴喜郡宇治田原町大字南小字中屋8",
    "lat": 34.8428018,
    "lng": 135.8539226,
    "tel": "0774-88-3968",
    "url": "https://www.snservice.jp/",
    "pref": "京都府",
    "city": "宇治田原町",
    "category": "community_day_service",
    "serviceType": "地域密着型通所介護",
    "capacity": 0,
    "openDays": [
      "平日",
      "土曜日",
      "祝日"
    ],
    "openDaysNote": ""
  },
  {
    "id": "2691600122",
    "name": "あおぞらリハビリデイサービスセンター",
    "kana": "アオゾラリハビリデイサービスセンター",
    "address": "京都府亀岡市西つつじヶ丘五月台１丁目24-1",
    "lat": 34.8290981,
    "lng": 135.3696867,
    "tel": "0771-45-8789",
    "url": "",
    "pref": "京都府",
    "city": "亀岡市",
    "category": "community_day_service",
    "serviceType": "地域密着型通所介護",
    "capacity": null,
    "openDays": [
      "平日",
      "祝日"
    ],
    "openDaysNote": ""
  },
  {
    "id": "2671600472",
    "name": "あおばデイサービスセンター",
    "kana": "アオバデイサービスセンター",
    "address": "京都府亀岡市三宅町２丁目１０－５",
    "lat": 35.0058237301968,
    "lng": 135.590090420238,
    "tel": "0771-29-2100",
    "url": "https://care-net.biz/26/aoba1205/b16.php",
    "pref": "京都府",
    "city": "亀岡市",
    "category": "community_day_service",
    "serviceType": "地域密着型通所介護",
    "capacity": 0,
    "openDays": [
      "平日",
      "土曜日",
      "祝日"
    ],
    "openDaysNote": ""
  },
  {
    "id": "2671600563",
    "name": "リハビリデイサービスいろは",
    "kana": "リハビリデイアービスイロハ",
    "address": "京都府亀岡市馬路町流川1０",
    "lat": 35.0549078,
    "lng": 135.5620545,
    "tel": "0771-20-9018",
    "url": "",
    "pref": "京都府",
    "city": "亀岡市",
    "category": "community_day_service",
    "serviceType": "地域密着型通所介護",
    "capacity": 0,
    "openDays": [
      "平日"
    ],
    "openDaysNote": ""
  },
  {
    "id": "2671600043",
    "name": "亀岡園デイサービスセンター",
    "kana": "カメオカエンデイサービスセンター",
    "address": "亀岡市河原林町河原尻上砂股100",
    "lat": 35.0490095441376,
    "lng": 135.5741259295,
    "tel": "0771-24-5408",
    "url": "http://www.rishoukai.com",
    "pref": "京都府",
    "city": "亀岡市",
    "category": "community_day_service",
    "serviceType": "地域密着型通所介護",
    "capacity": 15,
    "openDays": [
      "平日",
      "土曜日",
      "日曜日",
      "祝日"
    ],
    "openDaysNote": ""
  },
  {
    "id": "2671100127",
    "name": "かがやきデイサービスセンター",
    "kana": "カガヤキデイサービスセンター",
    "address": "京都府久世郡久御山町佐山北代4番地9",
    "lat": 34.8765809,
    "lng": 135.7532397,
    "tel": "0774-66-4847",
    "url": "",
    "pref": "京都府",
    "city": "久御山町",
    "category": "community_day_service",
    "serviceType": "地域密着型通所介護",
    "capacity": 100,
    "openDays": [
      "平日"
    ],
    "openDaysNote": "12：30～13：30の間は昼休憩時間です"
  },
  {
    "id": "2691100040",
    "name": "リハビリ特化型デイサービス-Link-",
    "kana": "リハビリトッカガタデイサービスリンク",
    "address": "京都府久世郡久御山町市田北浦54-2中マンション1階6号 中マンション1階6号",
    "lat": 34.8885721,
    "lng": 135.7538384,
    "tel": "0774-46-9922",
    "url": "http://sa-l-kyoto.com",
    "pref": "京都府",
    "city": "久御山町",
    "category": "community_day_service",
    "serviceType": "地域密着型通所介護",
    "capacity": 10,
    "openDays": [
      "平日",
      "祝日"
    ],
    "openDaysNote": ""
  },
  {
    "id": "2671100119",
    "name": "医療法人啓信会　デイサービスセンターリエゾン久御山ひしの里",
    "kana": "イリョウホウジンケイシンカイデイサービスセンターリエゾンクミヤマヒシノサト",
    "address": "久世郡久御山町佐古内屋敷91-4",
    "lat": 34.8790056,
    "lng": 135.7538562,
    "tel": "0774-43-2688",
    "url": "http://www.kyoto-keishinkai.or.jp/",
    "pref": "京都府",
    "city": "久御山町",
    "category": "community_day_service",
    "serviceType": "地域密着型通所介護",
    "capacity": 10,
    "openDays": [
      "平日",
      "祝日"
    ],
    "openDaysNote": "サービス提供時間は２単位（改行）　午前　９:２０～午後１２:３０（改行）　午後１３:２０～午後１６:３０"
  },
  {
    "id": "2692100056",
    "name": "Re-style通所介護事業所",
    "kana": "リ・スタイルツウショカイゴジギョウショ",
    "address": "京都府宮津市字鶴賀2061番地の16",
    "lat": 35.5362049,
    "lng": 135.1991223,
    "tel": "0772-45-1161",
    "url": "http://www.hokuseikai.or.jp",
    "pref": "京都府",
    "city": "宮津市",
    "category": "community_day_service",
    "serviceType": "地域密着型通所介護",
    "capacity": 30,
    "openDays": [
      "平日",
      "祝日"
    ],
    "openDaysNote": "ｻｰﾋﾞｽ提供は2単位制で午前・午後入替制となっております。（改行）午前：9：15～12：15（改行）午後：13：45～16：45"
  },
  {
    "id": "2672100183",
    "name": "デイサービスリハとも",
    "kana": "デイサービスリハトモ",
    "address": "京都府宮津市字宮村1200-1",
    "lat": 35.5297006841324,
    "lng": 135.197052809895,
    "tel": "0772-22-0202",
    "url": "http://rihatomo.com/",
    "pref": "京都府",
    "city": "宮津市",
    "category": "community_day_service",
    "serviceType": "地域密着型通所介護",
    "capacity": 6,
    "openDays": [
      "平日",
      "祝日"
    ],
    "openDaysNote": "年末年始（12月31日～1月3日）、お盆期間（8月14日～8月16日）は休み"
  },
  {
    "id": "2672100159",
    "name": "吉笑庵デイサービス宮津",
    "kana": "キッショウアンデイサービス　ミヤヅ",
    "address": "京都府宮津市字須津５２５番地１",
    "lat": 35.5517059542135,
    "lng": 135.150551793362,
    "tel": "0772-46-3800",
    "url": "",
    "pref": "京都府",
    "city": "宮津市",
    "category": "community_day_service",
    "serviceType": "地域密着型通所介護",
    "capacity": 10,
    "openDays": [
      "平日",
      "土曜日",
      "日曜日",
      "祝日"
    ],
    "openDaysNote": "年中無休です。"
  },
  {
    "id": "2673300220",
    "name": "デイサロンのんののんな",
    "kana": "デイサロンノンノノンナ",
    "address": "大宮町河辺1050tangoミモザ館 tangoミモザ館",
    "lat": 35.5943177677168,
    "lng": 135.091637860997,
    "tel": "0772-68-1050",
    "url": "https://tango-nonno-nonna.com/",
    "pref": "京都府",
    "city": "京丹後市",
    "category": "community_day_service",
    "serviceType": "地域密着型通所介護",
    "capacity": 18,
    "openDays": [
      "平日",
      "祝日"
    ],
    "openDaysNote": ""
  },
  {
    "id": "2693300184",
    "name": "でんでん倶楽部峰山",
    "kana": "デンデンクラブミネヤマ",
    "address": "京都府京丹後市峰山町新町2462-2",
    "lat": 35.6092129,
    "lng": 135.0818825,
    "tel": "0772-62-7710",
    "url": "https://www.godai.net/denden-club/index.html",
    "pref": "京都府",
    "city": "京丹後市",
    "category": "community_day_service",
    "serviceType": "地域密着型通所介護",
    "capacity": 0,
    "openDays": [
      "平日",
      "祝日"
    ],
    "openDaysNote": ""
  },
  {
    "id": "2673300261",
    "name": "吉笑庵デイサービス峰山",
    "kana": "キッショウアンデイサービス　ミネヤマ",
    "address": "京丹後市峰山町御旅２９番地",
    "lat": 35.6216297,
    "lng": 135.0585088,
    "tel": "0772-69-5070",
    "url": "https://t-kichihou.com/",
    "pref": "京都府",
    "city": "京丹後市",
    "category": "community_day_service",
    "serviceType": "地域密着型通所介護",
    "capacity": 10,
    "openDays": [
      "平日",
      "土曜日",
      "日曜日",
      "祝日"
    ],
    "openDaysNote": "年中無休です。"
  },
  {
    "id": "2693300176",
    "name": "総合老人福祉施設はごろも苑",
    "kana": "ソウゴウロウジンフクシシセツハゴロモエン",
    "address": "京都府京丹後市峰山町長岡2093",
    "lat": 35.5969212,
    "lng": 135.066041033066,
    "tel": "0772-62-7001",
    "url": "http://www.mineyama-fukusikai.jp/",
    "pref": "京都府",
    "city": "京丹後市",
    "category": "community_day_service",
    "serviceType": "地域密着型通所介護",
    "capacity": null,
    "openDays": [
      "平日",
      "土曜日",
      "祝日"
    ],
    "openDaysNote": "なし"
  },
  {
    "id": "2673300162",
    "name": "総合老人福祉施設弥栄はごろも苑",
    "kana": "ソウゴウロウジンフクシシセツヤサカハゴロモエン",
    "address": "京丹後市弥栄町溝谷３５２４",
    "lat": 35.6613339,
    "lng": 135.0890363,
    "tel": "0772-65-0131",
    "url": "http://www.mineyama-fukusikai.jp",
    "pref": "京都府",
    "city": "京丹後市",
    "category": "community_day_service",
    "serviceType": "地域密着型通所介護",
    "capacity": 0,
    "openDays": [
      "平日",
      "土曜日",
      "祝日"
    ],
    "openDaysNote": ""
  },
  {
    "id": "2671500193",
    "name": "クローバー・デイサービスセンター",
    "kana": "クロバー　デイサービスセンター",
    "address": "京都府船井郡京丹波町橋爪41番地1",
    "lat": 35.1793858570353,
    "lng": 135.375324657008,
    "tel": "0771-88-0138",
    "url": "http://www.cloverservice.or.jp/",
    "pref": "京都府",
    "city": "京丹波町",
    "category": "community_day_service",
    "serviceType": "地域密着型通所介護",
    "capacity": 15,
    "openDays": [
      "平日",
      "日曜日",
      "祝日"
    ],
    "openDaysNote": ""
  },
  {
    "id": "2671500359",
    "name": "京丹波デイサービスセンター",
    "kana": "キョウタンバデイサービスセンター",
    "address": "京都府船井郡京丹波町三ノ宮縄手39番地",
    "lat": 35.2207317,
    "lng": 135.3391912,
    "tel": "0771-88-0294",
    "url": "https://yamabikokai-kyoto.com",
    "pref": "京都府",
    "city": "京丹波町",
    "category": "community_day_service",
    "serviceType": "地域密着型通所介護",
    "capacity": 0,
    "openDays": [
      "平日",
      "土曜日"
    ],
    "openDaysNote": ""
  },
  {
    "id": "2691500041",
    "name": "京丹波町社会福祉協議会デイサービスセンターほほえみ",
    "kana": "キョウタンバチョウシャカイフクシキョウギカイデイサービスセンターホホエミ",
    "address": "京都府船井郡京丹波町和田田中6番地1",
    "lat": 35.1814033,
    "lng": 135.3726774,
    "tel": "0771-86-1818",
    "url": "http://www.kyoshakyo.or.jp/kyotanba/",
    "pref": "京都府",
    "city": "京丹波町",
    "category": "community_day_service",
    "serviceType": "地域密着型通所介護",
    "capacity": 0,
    "openDays": [
      "平日",
      "土曜日",
      "祝日"
    ],
    "openDaysNote": ""
  },
  {
    "id": "2673200321",
    "name": "デイサービス　いちご",
    "kana": "デイサービス　イチゴ",
    "address": "京都府京田辺市薪山垣外1-33",
    "lat": 34.8181141,
    "lng": 135.7564816,
    "tel": "0774-26-3440",
    "url": "http://www.day-ichigo.jp",
    "pref": "京都府",
    "city": "京田辺市",
    "category": "community_day_service",
    "serviceType": "地域密着型通所介護",
    "capacity": 0,
    "openDays": [
      "平日",
      "祝日"
    ],
    "openDaysNote": ""
  },
  {
    "id": "2693200079",
    "name": "デイサービス　おりーぶ",
    "kana": "デイサービス　オリーブ",
    "address": "京都府京田辺市宮津宮ノ下７番地１０",
    "lat": 35.2414492,
    "lng": 139.0589836,
    "tel": "0774-34-4167",
    "url": "http://hp.kaipoke.biz/wu2/",
    "pref": "京都府",
    "city": "京田辺市",
    "category": "community_day_service",
    "serviceType": "地域密着型通所介護",
    "capacity": null,
    "openDays": [
      "平日",
      "土曜日"
    ],
    "openDaysNote": ""
  },
  {
    "id": "2673200297",
    "name": "デイサービスセンター　リエゾン健康村",
    "kana": "デイサービスセンター　リエゾンケンコウムラ",
    "address": "京都府京田辺市大住大坪55－14",
    "lat": 34.8305658,
    "lng": 135.7571815,
    "tel": "0774-68-1765",
    "url": "http://www.kyoto-keishinkai.or.jp",
    "pref": "京都府",
    "city": "京田辺市",
    "category": "community_day_service",
    "serviceType": "地域密着型通所介護",
    "capacity": 20,
    "openDays": [
      "平日",
      "土曜日",
      "祝日"
    ],
    "openDaysNote": "祝日も営業"
  },
  {
    "id": "2673200115",
    "name": "常磐苑デイサービスセンター",
    "kana": "トキワエンデイサービスセンター",
    "address": "京都府京田辺市草内五ノ坪6番地",
    "lat": 34.8066818,
    "lng": 135.7829105,
    "tel": "0774-63-5566",
    "url": "http://www.kyotanabesyakyou.com",
    "pref": "京都府",
    "city": "京田辺市",
    "category": "community_day_service",
    "serviceType": "地域密着型通所介護",
    "capacity": null,
    "openDays": [
      "平日"
    ],
    "openDaysNote": "国民の休日等により定休日が続く土曜日については営業を行なう場合があります。（ただし、土曜日が祝・祭日の場合は除く）"
  },
  {
    "id": "2670701446",
    "name": "グランユニライフデイサービスセンター京都嵐山",
    "kana": "グランユニライフデイサービスセンターキョウトアラシヤマ",
    "address": "京都市右京区嵯峨天龍寺油掛町10-25グランメゾン迎賓館京都嵐山 グランメゾン迎賓館京都嵐山",
    "lat": 35.0190013,
    "lng": 135.6864863,
    "tel": "075-283-2167",
    "url": "",
    "pref": "京都府",
    "city": "京都市右京区",
    "category": "community_day_service",
    "serviceType": "地域密着型通所介護",
    "capacity": 0,
    "openDays": [
      "平日",
      "祝日"
    ],
    "openDaysNote": ""
  },
  {
    "id": "2670701255",
    "name": "デイサービス　ソラスト天神川",
    "kana": "デイサービス　ソラストテンジンガワ",
    "address": "京都府京都市右京区梅津南広町32-3シャンパーニュ四条　１F シャンパーニュ四条　１F",
    "lat": 35.003525,
    "lng": 135.7142538,
    "tel": "075-863-5816",
    "url": "https://solasto-kaigo.com/care/area/solastotenjingawa.html",
    "pref": "京都府",
    "city": "京都市右京区",
    "category": "community_day_service",
    "serviceType": "地域密着型通所介護",
    "capacity": 0,
    "openDays": [
      "平日",
      "土曜日",
      "祝日"
    ],
    "openDaysNote": "祝日やゴールデンウィーク、お盆も営業しています。"
  },
  {
    "id": "2670701313",
    "name": "デイサービスセンター　リハライフ",
    "kana": "デイサービスセンター　リハライフ",
    "address": "京都府京都市右京区太秦多藪町４３－１５ドミトホ１Ｆ ドミトホ１Ｆ",
    "lat": 35.0138657,
    "lng": 135.70391,
    "tel": "０７５－２０２－５１００",
    "url": "",
    "pref": "京都府",
    "city": "京都市右京区",
    "category": "community_day_service",
    "serviceType": "地域密着型通所介護",
    "capacity": 0,
    "openDays": [
      "平日",
      "祝日"
    ],
    "openDaysNote": ""
  },
  {
    "id": "2670701412",
    "name": "デイサービスセンター感激",
    "kana": "デイサービスセンターカンゲキ",
    "address": "太秦御所ノ内町7KCSビル1F KCSビル1F",
    "lat": 35.0135049782135,
    "lng": 135.697712754492,
    "tel": "075-881-7666",
    "url": "",
    "pref": "京都府",
    "city": "京都市右京区",
    "category": "community_day_service",
    "serviceType": "地域密着型通所介護",
    "capacity": 100,
    "openDays": [
      "平日"
    ],
    "openDaysNote": ""
  },
  {
    "id": "2690700402",
    "name": "デイサービス心粋",
    "kana": "デイサービスコイキ",
    "address": "京都市右京区西京極下沢町19－43",
    "lat": 34.9861952103121,
    "lng": 135.726379641,
    "tel": "075－950－2359",
    "url": "https://www.koiki-randb.com",
    "pref": "京都府",
    "city": "京都市右京区",
    "category": "community_day_service",
    "serviceType": "地域密着型通所介護",
    "capacity": null,
    "openDays": [
      "平日",
      "土曜日",
      "祝日"
    ],
    "openDaysNote": ""
  },
  {
    "id": "2670701503",
    "name": "デイサービス早稲田イーライフ花園",
    "kana": "デイサービスワセダイーライフハナゾノ",
    "address": "京都府京都市右京区花園藪ノ下町3桐ビル１階 桐ビル１階",
    "lat": 35.0194654526047,
    "lng": 135.724725917197,
    "tel": "075-406-5503",
    "url": "http://www.e-life-kyoto.com",
    "pref": "京都府",
    "city": "京都市右京区",
    "category": "community_day_service",
    "serviceType": "地域密着型通所介護",
    "capacity": 5,
    "openDays": [
      "平日",
      "土曜日",
      "祝日"
    ],
    "openDaysNote": ""
  },
  {
    "id": "2670701198",
    "name": "デイサービス早稲田イーライフ梅津",
    "kana": "デイサービスワセダイーライフウメヅ",
    "address": "京都市右京区梅津東構口町17グランデ-ル桂川101 グランデ-ル桂川101",
    "lat": 35.0022556,
    "lng": 135.7053741,
    "tel": "075-863-0505",
    "url": "http://www.e-life-kyoto.com",
    "pref": "京都府",
    "city": "京都市右京区",
    "category": "community_day_service",
    "serviceType": "地域密着型通所介護",
    "capacity": 15,
    "openDays": [
      "平日",
      "土曜日",
      "祝日"
    ],
    "openDaysNote": ""
  },
  {
    "id": "2670700901",
    "name": "ほがらかデイサービスセンター",
    "kana": "ホガラカデイサービスセンター",
    "address": "京都府京都市右京区京北下弓削町中川原１番地１０",
    "lat": 35.1913176,
    "lng": 135.6351143,
    "tel": "075-854-7075",
    "url": "",
    "pref": "京都府",
    "city": "京都市右京区",
    "category": "community_day_service",
    "serviceType": "地域密着型通所介護",
    "capacity": 10,
    "openDays": [
      "平日",
      "祝日"
    ],
    "openDaysNote": ""
  },
  {
    "id": "2670701271",
    "name": "まどかデイサービスセンター",
    "kana": "マドカデイサービスセンター",
    "address": "京都市右京区太秦中筋町12-5",
    "lat": 35.0208734,
    "lng": 135.6967993,
    "tel": "075-872-1995",
    "url": "",
    "pref": "京都府",
    "city": "京都市右京区",
    "category": "community_day_service",
    "serviceType": "地域密着型通所介護",
    "capacity": 0,
    "openDays": [
      "平日",
      "土曜日",
      "日曜日",
      "祝日"
    ],
    "openDaysNote": ""
  },
  {
    "id": "2670701453",
    "name": "レッツ倶楽部・葛野",
    "kana": "レッツクラブカドノ",
    "address": "京都市右京区西京極東衣手町48番地1トレジャハウス48　１階 トレジャハウス48　１階",
    "lat": 34.9980643,
    "lng": 135.7118901,
    "tel": "075-313-1117",
    "url": "www.lets-club.co.jp/kadono/",
    "pref": "京都府",
    "city": "京都市右京区",
    "category": "community_day_service",
    "serviceType": "地域密着型通所介護",
    "capacity": 0,
    "openDays": [
      "平日"
    ],
    "openDaysNote": ""
  },
  {
    "id": "2690700451",
    "name": "医療法人誠心会　通所介護めぐみ　御室",
    "kana": "イリョウホウジンセイシンカイ　ツウショカイゴメグミ　オムロ",
    "address": "京都府京都市右京区谷口梅津間町23コーポ未麗妙心寺 コーポ未麗妙心寺",
    "lat": 35.0259939084307,
    "lng": 135.7212469,
    "tel": "075-748-0076",
    "url": "https://i-seishin.or.jp/",
    "pref": "京都府",
    "city": "京都市右京区",
    "category": "community_day_service",
    "serviceType": "地域密着型通所介護",
    "capacity": 0,
    "openDays": [
      "平日",
      "祝日"
    ],
    "openDaysNote": ""
  },
  {
    "id": "2690700469",
    "name": "医療法人誠心会　通所介護めぐみ常盤野",
    "kana": "イリョウホウジンセイシンカイ　ツウショカイゴメグミトキワノ",
    "address": "京都府京都市右京区常盤古御所町9-1ノイシュロス御室南 ノイシュロス御室南",
    "lat": 35.0208257,
    "lng": 135.7122459,
    "tel": "075-748-0591",
    "url": "https://i-seishin.or.jp/",
    "pref": "京都府",
    "city": "京都市右京区",
    "category": "community_day_service",
    "serviceType": "地域密着型通所介護",
    "capacity": 0,
    "openDays": [
      "平日",
      "祝日"
    ],
    "openDaysNote": ""
  },
  {
    "id": "2670701537",
    "name": "右京デイセンターりゅうあん",
    "kana": "ウキョウデイセンターリュウアン",
    "address": "京都市右京区谷口垣ノ内町９－６",
    "lat": 35.0279617,
    "lng": 135.7210025,
    "tel": "０７５－４６４－９２８９",
    "url": "",
    "pref": "京都府",
    "city": "京都市右京区",
    "category": "community_day_service",
    "serviceType": "地域密着型通所介護",
    "capacity": 33,
    "openDays": [
      "平日",
      "土曜日",
      "祝日"
    ],
    "openDaysNote": "午前９：１0～１２：25　午後１３：３０～１６：４５の提供時間です。"
  },
  {
    "id": "2690700303",
    "name": "健光園デイサービスセンター",
    "kana": "ケンコウエンデイサービスセンター",
    "address": "京都市右京区嵯峨大覚寺門前六道町12",
    "lat": 35.0271055,
    "lng": 135.6776287,
    "tel": "075-881-5010",
    "url": "http://www/kenkouen./",
    "pref": "京都府",
    "city": "京都市右京区",
    "category": "community_day_service",
    "serviceType": "地域密着型通所介護",
    "capacity": 0,
    "openDays": [
      "平日",
      "祝日"
    ],
    "openDaysNote": "（月）（火）（木）（金）：9：00～12：15,13：15～16：30（改行）（水）：9：00～16：15"
  },
  {
    "id": "2670701073",
    "name": "西小路デイサービスはじまり",
    "kana": "ニシコウジデンサービスハジマリ",
    "address": "京都府京都市右京区西院小米町23番地3",
    "lat": 35.0047783,
    "lng": 135.7253755,
    "tel": "075-322-8210",
    "url": "",
    "pref": "京都府",
    "city": "京都市右京区",
    "category": "community_day_service",
    "serviceType": "地域密着型通所介護",
    "capacity": 0,
    "openDays": [
      "平日",
      "土曜日",
      "祝日"
    ],
    "openDaysNote": ""
  },
  {
    "id": "2670701693",
    "name": "通所介護ゆとり",
    "kana": "ツウショカイゴユトリ",
    "address": "京都市右京区西京極野田町１８－１",
    "lat": 34.9951952,
    "lng": 135.7169786,
    "tel": "075-323-7012",
    "url": "",
    "pref": "京都府",
    "city": "京都市右京区",
    "category": "community_day_service",
    "serviceType": "地域密着型通所介護",
    "capacity": 14,
    "openDays": [
      "平日",
      "土曜日",
      "祝日"
    ],
    "openDaysNote": "12月29日～1月3日年末年始休み"
  },
  {
    "id": "2670701784",
    "name": "悠遊庵　太秦店",
    "kana": "ユウユウアン　ウズマサテン",
    "address": "京都府京都市右京区太秦西蜂岡町9-27",
    "lat": 35.0154117,
    "lng": 135.7033512,
    "tel": "075-205-0555",
    "url": "",
    "pref": "京都府",
    "city": "京都市右京区",
    "category": "community_day_service",
    "serviceType": "地域密着型通所介護",
    "capacity": 150,
    "openDays": [
      "平日"
    ],
    "openDaysNote": "祝日は営業"
  },
  {
    "id": "2670701388",
    "name": "悠遊庵デイサービスセンター",
    "kana": "ユウユウアンデイサービスセンター",
    "address": "京都府京都市右京区嵯峨朝日町2-4",
    "lat": 35.0146004,
    "lng": 135.6911503,
    "tel": "075-406-0210",
    "url": "http://www.yuyuan.care/",
    "pref": "京都府",
    "city": "京都市右京区",
    "category": "community_day_service",
    "serviceType": "地域密着型通所介護",
    "capacity": 120,
    "openDays": [
      "平日",
      "土曜日",
      "祝日"
    ],
    "openDaysNote": "日曜日以外のお休みについては１か月以上前にお知らせいたします。"
  },
  {
    "id": "2690700444",
    "name": "悠遊庵陽だまりデイサービス",
    "kana": "ユウユウアンヒダマリデイサービス",
    "address": "京都市右京区西京極東池田町12メゾン・ド・ハラ１階 メゾン・ド・ハラ１階",
    "lat": 34.9918297,
    "lng": 135.7208458,
    "tel": "075-748-9702",
    "url": "",
    "pref": "京都府",
    "city": "京都市右京区",
    "category": "community_day_service",
    "serviceType": "地域密着型通所介護",
    "capacity": 50,
    "openDays": [
      "平日",
      "土曜日",
      "祝日"
    ],
    "openDaysNote": ""
  },
  {
    "id": "2670701602",
    "name": "絆ディサービス",
    "kana": "キズナディサービス",
    "address": "梅ヶ畑中縄手町２０",
    "lat": 35.0406701971747,
    "lng": 135.685608672353,
    "tel": "０７５－４０６－５５７７",
    "url": "http://care-net.biz/26/kizuna/",
    "pref": "京都府",
    "city": "京都市右京区",
    "category": "community_day_service",
    "serviceType": "地域密着型通所介護",
    "capacity": null,
    "openDays": [
      "平日",
      "土曜日",
      "祝日"
    ],
    "openDaysNote": ""
  },
  {
    "id": "2690700295",
    "name": "絆デイサービス嵯峨",
    "kana": "キズナデイサービスサガ",
    "address": "京都京都市右京区嵯峨中通町26",
    "lat": 35.0142545,
    "lng": 135.6867531,
    "tel": "075-864-5600",
    "url": "http://carenet.biz/26/kizuna/",
    "pref": "京都府",
    "city": "京都市右京区",
    "category": "community_day_service",
    "serviceType": "地域密着型通所介護",
    "capacity": 0,
    "openDays": [
      "平日",
      "土曜日",
      "祝日"
    ],
    "openDaysNote": ""
  },
  {
    "id": "2690400169",
    "name": "あんしんデイサービスセンター　えがお",
    "kana": "アンシンデイサービスセンター　エガオ",
    "address": "京都市下京区若宮町559番地クリプトメリア京都１階 クリプトメリア京都１階",
    "lat": 34.9932116081787,
    "lng": 135.756021949991,
    "tel": "075-353-7703",
    "url": "http://hp.kaipoke.biz/2wv/",
    "pref": "京都府",
    "city": "京都市下京区",
    "category": "community_day_service",
    "serviceType": "地域密着型通所介護",
    "capacity": 18,
    "openDays": [
      "平日",
      "土曜日",
      "祝日"
    ],
    "openDaysNote": "特にありません。"
  },
  {
    "id": "2670400833",
    "name": "デイサービスセンターこもれび",
    "kana": "デイサービスセンターコモレビ",
    "address": "京都府京都市下京区朱雀裏畑町73番地",
    "lat": 34.987963,
    "lng": 135.740757,
    "tel": "075-315-3327",
    "url": "http://www.nisinana.net",
    "pref": "京都府",
    "city": "京都市下京区",
    "category": "community_day_service",
    "serviceType": "地域密着型通所介護",
    "capacity": 13,
    "openDays": [
      "平日"
    ],
    "openDaysNote": "ご利用予定の曜日が祝日になる場合は可能な限り曜日変更にて調整し対応します"
  },
  {
    "id": "2670400494",
    "name": "デイサービスセンタージョイ四条河原町",
    "kana": "デイサービスセンタージョイシジョウカワラマチ",
    "address": "京都市下京区仏光寺通寺町東入中之町583-5辰々ビル2階",
    "lat": 35.0016079351484,
    "lng": 135.767447772444,
    "tel": "075-361-0281",
    "url": "http://www.",
    "pref": "京都府",
    "city": "京都市下京区",
    "category": "community_day_service",
    "serviceType": "地域密着型通所介護",
    "capacity": 108,
    "openDays": [
      "平日",
      "土曜日",
      "祝日"
    ],
    "openDaysNote": ""
  },
  {
    "id": "2670400817",
    "name": "デイサービスフファースト",
    "kana": "デイサービスフファースト",
    "address": "京都市下京区四条通大宮東入立中町502四条ファーストビル7階 四条ファーストビル7階",
    "lat": 35.0034328,
    "lng": 135.7502524,
    "tel": "075－748－0419",
    "url": "",
    "pref": "京都府",
    "city": "京都市下京区",
    "category": "community_day_service",
    "serviceType": "地域密着型通所介護",
    "capacity": 30,
    "openDays": [
      "平日"
    ],
    "openDaysNote": "月・木ー12時00分～18時30分（改行）火・水・金ー8時30分～15時30分"
  },
  {
    "id": "2670400858",
    "name": "デイサービスモアナ",
    "kana": "デイサービスモアナ",
    "address": "京都府京都市下京区西七条西八反田町130ロイヤルコート西七条1F北側",
    "lat": 34.9917355287114,
    "lng": 135.737422066865,
    "tel": "075-925-5581",
    "url": "",
    "pref": "京都府",
    "city": "京都市下京区",
    "category": "community_day_service",
    "serviceType": "地域密着型通所介護",
    "capacity": 0,
    "openDays": [
      "平日",
      "祝日"
    ],
    "openDaysNote": ""
  },
  {
    "id": "2690400185",
    "name": "ポシブル梅小路",
    "kana": "ポシブルウメコウジ",
    "address": "朱雀正会町1-28",
    "lat": 34.9897626,
    "lng": 135.7435479,
    "tel": "075-353-5038",
    "url": "http://www.possible-kyoto.com/",
    "pref": "京都府",
    "city": "京都市下京区",
    "category": "community_day_service",
    "serviceType": "地域密着型通所介護",
    "capacity": 0,
    "openDays": [
      "平日",
      "土曜日",
      "祝日"
    ],
    "openDaysNote": ""
  },
  {
    "id": "2690400151",
    "name": "レコードブック烏丸五条",
    "kana": "レコードブックカラスマゴジョウ",
    "address": "升屋町65シボラ六条高倉1階 シボラ六条高倉1階",
    "lat": 34.9937391,
    "lng": 135.7626668,
    "tel": "075-606-5434",
    "url": "",
    "pref": "京都府",
    "city": "京都市下京区",
    "category": "community_day_service",
    "serviceType": "地域密着型通所介護",
    "capacity": 120,
    "openDays": [
      "平日",
      "土曜日",
      "祝日"
    ],
    "openDaysNote": ""
  },
  {
    "id": "2670300694",
    "name": "一麦庵",
    "kana": "イチバクアン",
    "address": "京都府京都市下京区高倉通五条下る三丁目升屋町65番地シボラ六条高倉　1階東 シボラ六条高倉　1階東",
    "lat": 34.9937601618281,
    "lng": 135.762792368075,
    "tel": "075-748-1607",
    "url": "",
    "pref": "京都府",
    "city": "京都市下京区",
    "category": "community_day_service",
    "serviceType": "地域密着型通所介護",
    "capacity": 35,
    "openDays": [
      "平日",
      "祝日"
    ],
    "openDaysNote": ""
  },
  {
    "id": "2690400144",
    "name": "療養通所介護にじ",
    "kana": "リヨウヨウツウシヨカイゴニジ",
    "address": "京都府京都市下京区油小路通四条下る石井筒町529ティファール101 ティファール101",
    "lat": 35.003337544524,
    "lng": 135.753535622055,
    "tel": "075-354-7277",
    "url": "",
    "pref": "京都府",
    "city": "京都市下京区",
    "category": "community_day_service",
    "serviceType": "地域密着型通所介護",
    "capacity": 2,
    "openDays": [
      "平日"
    ],
    "openDaysNote": ""
  },
  {
    "id": "2670600366",
    "name": "（株）長三郎　　華デイサービスセンター",
    "kana": "カブシキガイシャチョウザブロウハナヤカデイサービスセンター",
    "address": "京都市左京区岩倉忠在地町363-4",
    "lat": 35.0726909,
    "lng": 135.7878629,
    "tel": "075-722-4605",
    "url": "http://www.",
    "pref": "京都府",
    "city": "京都市左京区",
    "category": "community_day_service",
    "serviceType": "地域密着型通所介護",
    "capacity": 0,
    "openDays": [
      "平日",
      "土曜日",
      "祝日"
    ],
    "openDaysNote": "年末、年始　休業する場合あり、その際は前もって掲示・連絡する"
  },
  {
    "id": "2670600937",
    "name": "あいおわデイサービス",
    "kana": "アイオワデイサービス",
    "address": "岩倉花園町264アレックスビル1F アレックスビル1F",
    "lat": 35.0727742,
    "lng": 135.7910542,
    "tel": "075-702-7010",
    "url": "aiowa-day.com",
    "pref": "京都府",
    "city": "京都市左京区",
    "category": "community_day_service",
    "serviceType": "地域密着型通所介護",
    "capacity": 100,
    "openDays": [
      "平日"
    ],
    "openDaysNote": "年末年始他法人の定めた日"
  },
  {
    "id": "2690600230",
    "name": "おおきに百万遍デイサービス",
    "kana": "オオキニヒャクマンベンデイサービス",
    "address": "京都府京都市左京区田中大堰町212おおきに百万遍サニーアパートメント1階西側 おおきに百万遍サニーアパートメント1階西側",
    "lat": 35.031356,
    "lng": 135.7787568,
    "tel": "075-707-1170",
    "url": "https://a-a-e.jp/",
    "pref": "京都府",
    "city": "京都市左京区",
    "category": "community_day_service",
    "serviceType": "地域密着型通所介護",
    "capacity": 18,
    "openDays": [
      "平日",
      "土曜日",
      "祝日"
    ],
    "openDaysNote": "営業日　月曜日から金曜日までとする。ただし、８月中旬４日間（日程は事前通達）　１２月３０日から１月３日までを除く。"
  },
  {
    "id": "2670600556",
    "name": "すずらんデイサービスセンター",
    "kana": "スズランデイサービスセンター",
    "address": "京都市左京区岩倉忠在地町283番地",
    "lat": 35.071916,
    "lng": 135.7871268,
    "tel": "075-722-0707",
    "url": "http://www.",
    "pref": "京都府",
    "city": "京都市左京区",
    "category": "community_day_service",
    "serviceType": "地域密着型通所介護",
    "capacity": 0,
    "openDays": [
      "平日",
      "土曜日",
      "日曜日",
      "祝日"
    ],
    "openDaysNote": "（臨時休業する場合は前もって掲示・連絡する）"
  },
  {
    "id": "2670601133",
    "name": "デイサービスいろは",
    "kana": "デイサービスイロハ",
    "address": "京都府京都市左京区岩倉長谷町１７８５−１",
    "lat": 35.0795783609172,
    "lng": 135.793336561399,
    "tel": "０７５－２０５ー３８３０",
    "url": "http://www.eonet.ne.jp/~rihabiri-iroha/",
    "pref": "京都府",
    "city": "京都市左京区",
    "category": "community_day_service",
    "serviceType": "地域密着型通所介護",
    "capacity": null,
    "openDays": [
      "平日",
      "祝日"
    ],
    "openDaysNote": ""
  },
  {
    "id": "2690600305",
    "name": "デイサービスいろは長谷",
    "kana": "デイサービスイロハナガタニ",
    "address": "京都府京都市左京区岩倉長谷町1785-2",
    "lat": 35.080136,
    "lng": 135.793448,
    "tel": "075-205-3830",
    "url": "http://www.eonet.ne.jp/~rihabiri-iroha/",
    "pref": "京都府",
    "city": "京都市左京区",
    "category": "community_day_service",
    "serviceType": "地域密着型通所介護",
    "capacity": 0,
    "openDays": [
      "平日",
      "祝日"
    ],
    "openDaysNote": ""
  },
  {
    "id": "2670600739",
    "name": "とうほうデイサービス",
    "kana": "トウホウデイサービス",
    "address": "京都市左京区田中上玄京町７",
    "lat": 35.0340927,
    "lng": 135.7788283,
    "tel": "075-703-2200",
    "url": "",
    "pref": "京都府",
    "city": "京都市左京区",
    "category": "community_day_service",
    "serviceType": "地域密着型通所介護",
    "capacity": 110,
    "openDays": [
      "平日",
      "土曜日"
    ],
    "openDaysNote": ""
  },
  {
    "id": "2670600721",
    "name": "ひまわり　デイサービスセンター",
    "kana": "ヒマワリ　デイサービスセンター",
    "address": "京都市左京区一乗寺東水干町33番地",
    "lat": 35.0380561,
    "lng": 135.7882721,
    "tel": "075-702-8600",
    "url": "https://sites.google.com/site/himawaridream2019/",
    "pref": "京都府",
    "city": "京都市左京区",
    "category": "community_day_service",
    "serviceType": "地域密着型通所介護",
    "capacity": 0,
    "openDays": [
      "平日",
      "祝日"
    ],
    "openDaysNote": "ただし年末年始、土、日曜日を含む休業日が多い場合は30日は営業日とする場合がある。"
  },
  {
    "id": "2690600222",
    "name": "ポシブル京都大学前",
    "kana": "ポシブルキョウトダイガクマエ",
    "address": "京都市左京区北白川東蔦町28-1PINE館Ⅱ PINE館Ⅱ",
    "lat": 35.0329671,
    "lng": 135.7881583,
    "tel": "075-708-1161",
    "url": "http://www.possible-plus.co.jp",
    "pref": "京都府",
    "city": "京都市左京区",
    "category": "community_day_service",
    "serviceType": "地域密着型通所介護",
    "capacity": 0,
    "openDays": [
      "平日",
      "土曜日",
      "祝日"
    ],
    "openDaysNote": "8月13日~8月15日（夏季休暇）（改行）12月30日~1月3日（年末年始休暇）"
  },
  {
    "id": "2690600180",
    "name": "モンシャンデイサービス",
    "kana": "モンシャンデイサービス",
    "address": "一乗寺野田町12-10",
    "lat": 36.204824,
    "lng": 138.252924,
    "tel": "075-721-5975",
    "url": "https://monchamp-kyoto.com/sample-page/",
    "pref": "京都府",
    "city": "京都市左京区",
    "category": "community_day_service",
    "serviceType": "地域密着型通所介護",
    "capacity": 10,
    "openDays": [
      "平日",
      "土曜日",
      "日曜日",
      "祝日"
    ],
    "openDaysNote": ""
  },
  {
    "id": "2670601083",
    "name": "リハビリデイサービスnagomi　京都北白川店",
    "kana": "リハビリデイサービスナゴミ　キョウトキタシラカワテン",
    "address": "一乗寺向畑町15",
    "lat": 35.0470241938788,
    "lng": 135.792217398372,
    "tel": "075-746-3839",
    "url": "http://www.my-nagomi.com",
    "pref": "京都府",
    "city": "京都市左京区",
    "category": "community_day_service",
    "serviceType": "地域密着型通所介護",
    "capacity": 15,
    "openDays": [
      "平日",
      "祝日"
    ],
    "openDaysNote": ""
  },
  {
    "id": "2690600206",
    "name": "レコードブック京都一乗寺",
    "kana": "レコードブックキョウトイチジョウジ",
    "address": "一乗寺払殿町29IZUKIマンション1階 IZUKIマンション1階",
    "lat": 35.0438628186491,
    "lng": 135.784580268648,
    "tel": "075-744-6138",
    "url": "https://www.recordbook.jp",
    "pref": "京都府",
    "city": "京都市左京区",
    "category": "community_day_service",
    "serviceType": "地域密着型通所介護",
    "capacity": 0,
    "openDays": [
      "平日",
      "祝日"
    ],
    "openDaysNote": ""
  },
  {
    "id": "2690600297",
    "name": "レコードブック京都下鴨",
    "kana": "レコードブックキョウトシモガモ",
    "address": "京都府京都市左京区下鴨東本町8M’S　MIGNON下鴨1階 M’S　MIGNON下鴨1階",
    "lat": 35.0438078,
    "lng": 135.7730742,
    "tel": "075-334-5685",
    "url": "",
    "pref": "京都府",
    "city": "京都市左京区",
    "category": "community_day_service",
    "serviceType": "地域密着型通所介護",
    "capacity": 100,
    "openDays": [
      "平日",
      "祝日"
    ],
    "openDaysNote": ""
  },
  {
    "id": "2690600198",
    "name": "レコードブック京都宝が池店",
    "kana": "レコードブックキョウトタカラガイケ",
    "address": "上高野上荒蒔町5-6正和フラット宝ヶ池1Ｆ 正和フラット宝ヶ池1Ｆ",
    "lat": 35.0583731,
    "lng": 135.7920961,
    "tel": "075-585-2424",
    "url": "https://n-and-r.co.jp/",
    "pref": "京都府",
    "city": "京都市左京区",
    "category": "community_day_service",
    "serviceType": "地域密着型通所介護",
    "capacity": 0,
    "openDays": [
      "平日",
      "祝日"
    ],
    "openDaysNote": ""
  },
  {
    "id": "2690600024",
    "name": "花友はなせ地域密着型デイサービス",
    "kana": "カユウハナセチイキミッチャクガタデイサービス",
    "address": "京都府京都市左京区花脊別所町878番地",
    "lat": 35.1760463,
    "lng": 135.7840705,
    "tel": "075-705-5001",
    "url": "http://www.itihara.or.jp/",
    "pref": "京都府",
    "city": "京都市左京区",
    "category": "community_day_service",
    "serviceType": "地域密着型通所介護",
    "capacity": 10,
    "openDays": [
      "平日",
      "祝日"
    ],
    "openDaysNote": ""
  },
  {
    "id": "2690600271",
    "name": "機能訓練型デイサービスいづみ",
    "kana": "キノウクンレンガタデイサービスイヅミ",
    "address": "一乗寺西水干町32-1センチュリーハイツコスモ1 センチュリーハイツコスモ1",
    "lat": 35.0383597,
    "lng": 135.785883,
    "tel": "075-723-1250",
    "url": "https://www.izumi-day.com/",
    "pref": "京都府",
    "city": "京都市左京区",
    "category": "community_day_service",
    "serviceType": "地域密着型通所介護",
    "capacity": 100,
    "openDays": [
      "平日",
      "土曜日",
      "祝日"
    ],
    "openDaysNote": ""
  },
  {
    "id": "2670600283",
    "name": "老人デイサービスセンター　　洛翠園",
    "kana": "ロウジンデイサービスセンター　　ラクスイエン",
    "address": "京都市左京区岩倉村松町203番地",
    "lat": 35.088414,
    "lng": 135.7816551,
    "tel": "075-707-7880",
    "url": "http://www.rakusuien7878.web.fc2.com",
    "pref": "京都府",
    "city": "京都市左京区",
    "category": "community_day_service",
    "serviceType": "地域密着型通所介護",
    "capacity": 15,
    "openDays": [
      "平日",
      "祝日"
    ],
    "openDaysNote": "月・火・水・金曜日提供。（祝日であっても提供）但し、年末年始は前後5～6日程度休業。"
  },
  {
    "id": "2674100843",
    "name": "Re，Careデイサービス山科",
    "kana": "リ，ケアデイサービスヤマシナ",
    "address": "大宅甲ノ辻町１グランディオス京都東1階 グランディオス京都東1階",
    "lat": 34.9685199,
    "lng": 135.8183102,
    "tel": "075－583－5667",
    "url": "https://a-a-e.jp",
    "pref": "京都府",
    "city": "京都市山科区",
    "category": "community_day_service",
    "serviceType": "地域密着型通所介護",
    "capacity": 17,
    "openDays": [
      "平日",
      "祝日"
    ],
    "openDaysNote": "営業日　月曜日から金曜日までとする。ただし、８月中旬４日間（日程は事前通達）　１２月３０日から１月３日までを除く。"
  },
  {
    "id": "2674100959",
    "name": "あおぞらデイサービスセンター",
    "kana": "アオゾラデイサービスセンター",
    "address": "京都府京都市山科区御陵原西町3",
    "lat": 34.9948219,
    "lng": 135.8044952,
    "tel": "075-502-0001",
    "url": "http:/aozora.xii.jp/",
    "pref": "京都府",
    "city": "京都市山科区",
    "category": "community_day_service",
    "serviceType": "地域密着型通所介護",
    "capacity": 100,
    "openDays": [
      "平日"
    ],
    "openDaysNote": "夏季休暇、冬季休暇共に4～5営業日を休日とさせて頂きます。"
  },
  {
    "id": "2674100777",
    "name": "きのしたデイサービス",
    "kana": "キノシタデイサービス",
    "address": "京都府京都市山科区椥辻中在家町28-83",
    "lat": 34.9748081,
    "lng": 135.8211682,
    "tel": "075-595-0566",
    "url": "",
    "pref": "京都府",
    "city": "京都市山科区",
    "category": "community_day_service",
    "serviceType": "地域密着型通所介護",
    "capacity": null,
    "openDays": [
      "平日",
      "祝日"
    ],
    "openDaysNote": "お盆　年末年始の定休日数は年によって変更する場合あり"
  },
  {
    "id": "2674100835",
    "name": "ぐり～ん２デイサービス",
    "kana": "グリーンツーデイサービス",
    "address": "京都府京都市山科区椥辻東浦町7-5清涼ビル6F 清涼ビル6F",
    "lat": 34.9766744,
    "lng": 135.8160244,
    "tel": "075-583-5538",
    "url": "",
    "pref": "京都府",
    "city": "京都市山科区",
    "category": "community_day_service",
    "serviceType": "地域密着型通所介護",
    "capacity": 0,
    "openDays": [
      "平日"
    ],
    "openDaysNote": ""
  },
  {
    "id": "2674100710",
    "name": "ぐり～んデイサービス",
    "kana": "グリーンデイサービス",
    "address": "京都京都市山科区椥辻東浦町7-5清涼ビル3F 清涼ビル3F",
    "lat": 34.9766744,
    "lng": 135.8160244,
    "tel": "075-591-8368",
    "url": "",
    "pref": "京都府",
    "city": "京都市山科区",
    "category": "community_day_service",
    "serviceType": "地域密着型通所介護",
    "capacity": 0,
    "openDays": [
      "平日"
    ],
    "openDaysNote": ""
  },
  {
    "id": "2674100892",
    "name": "たんぽぽデイサービス東野",
    "kana": "タンポポデイサービスヒガシノ",
    "address": "東野中井ノ上町20-2",
    "lat": 34.9794021,
    "lng": 135.8218737,
    "tel": "075-756-8655",
    "url": "",
    "pref": "京都府",
    "city": "京都市山科区",
    "category": "community_day_service",
    "serviceType": "地域密着型通所介護",
    "capacity": 10,
    "openDays": [
      "平日",
      "土曜日",
      "祝日"
    ],
    "openDaysNote": ""
  },
  {
    "id": "2674101122",
    "name": "デイサービスえがお",
    "kana": "デイサービスエガオ",
    "address": "西野大手先町11-4",
    "lat": 34.9837541,
    "lng": 135.8138719,
    "tel": "075-591-2555",
    "url": "https://egao0701.com",
    "pref": "京都府",
    "city": "京都市山科区",
    "category": "community_day_service",
    "serviceType": "地域密着型通所介護",
    "capacity": 10,
    "openDays": [
      "平日",
      "祝日"
    ],
    "openDaysNote": ""
  },
  {
    "id": "2674101080",
    "name": "デイサービスすばる勧修寺",
    "kana": "デイサービススバルカンシュウジ",
    "address": "勧修寺瀬戸河原町１５９番地",
    "lat": 34.9634951,
    "lng": 135.8088391,
    "tel": "075-584-4800",
    "url": "",
    "pref": "京都府",
    "city": "京都市山科区",
    "category": "community_day_service",
    "serviceType": "地域密着型通所介護",
    "capacity": null,
    "openDays": [
      "平日",
      "土曜日",
      "祝日"
    ],
    "openDaysNote": ""
  },
  {
    "id": "2674100769",
    "name": "デイサービスセンターみのり",
    "kana": "デイサービスセンターミノリ",
    "address": "京都府京都市山科区大宅鳥井脇町３番地アーバンハウス１階 アーバンハウス１階",
    "lat": 34.9686172,
    "lng": 135.8205627,
    "tel": "075-201-9622",
    "url": "http://www.eonet.ne.jp/~tsutsumi/",
    "pref": "京都府",
    "city": "京都市山科区",
    "category": "community_day_service",
    "serviceType": "地域密着型通所介護",
    "capacity": 10,
    "openDays": [
      "平日",
      "祝日"
    ],
    "openDaysNote": "※自然災害や気象警報等により、安全な送迎が出来ないと判断した場合はご利用を中止します。"
  },
  {
    "id": "2674101254",
    "name": "デイサービスセンター桔梗湯",
    "kana": "デイサービスセンターキキョウユ",
    "address": "京都府京都市山科区大塚野溝町86-67寺田ビル1階 寺田ビル1階",
    "lat": 34.9827618,
    "lng": 135.8266201,
    "tel": "075-501-4126",
    "url": "http://kikyouyu.xii.jp/",
    "pref": "京都府",
    "city": "京都市山科区",
    "category": "community_day_service",
    "serviceType": "地域密着型通所介護",
    "capacity": 10,
    "openDays": [
      "平日",
      "土曜日",
      "祝日"
    ],
    "openDaysNote": ""
  },
  {
    "id": "2674101221",
    "name": "デイサービス歩笑夢",
    "kana": "デイサービスポエム",
    "address": "京都府京都市山科区東野中井ノ上町7番73カワナカマンション1階 カワナカマンション1階",
    "lat": 34.9781132,
    "lng": 135.8190685,
    "tel": "075-644-9160",
    "url": "",
    "pref": "京都府",
    "city": "京都市山科区",
    "category": "community_day_service",
    "serviceType": "地域密着型通所介護",
    "capacity": 10,
    "openDays": [
      "平日",
      "土曜日",
      "日曜日",
      "祝日"
    ],
    "openDaysNote": "お盆休み　８月13日から15日（改行）年末年始　12月31日から1月3日はお休みさせていただきます"
  },
  {
    "id": "2674100785",
    "name": "はーとふるセゾン京都山科",
    "kana": "ハートフルセゾンキョウトヤマシナ",
    "address": "竹鼻堂ノ前町40番地1ハウスセゾン京都山科 ハウスセゾン京都山科",
    "lat": 34.9866372,
    "lng": 135.817652,
    "tel": "075-591-0511",
    "url": "",
    "pref": "京都府",
    "city": "京都市山科区",
    "category": "community_day_service",
    "serviceType": "地域密着型通所介護",
    "capacity": 18,
    "openDays": [
      "平日",
      "土曜日",
      "祝日"
    ],
    "openDaysNote": ""
  },
  {
    "id": "2694100229",
    "name": "ふくなかまデイサービスセンター",
    "kana": "フクナカマデイサービスセンター",
    "address": "京都市山科区四ノ宮山田町3番地6",
    "lat": 34.993725,
    "lng": 135.8270188,
    "tel": "075-584-5252",
    "url": "http://www.fukunakama.co.jp",
    "pref": "京都府",
    "city": "京都市山科区",
    "category": "community_day_service",
    "serviceType": "地域密着型通所介護",
    "capacity": 15,
    "openDays": [
      "平日",
      "土曜日",
      "祝日"
    ],
    "openDaysNote": "年末年始休日(12/30～1/3）"
  },
  {
    "id": "2674100918",
    "name": "みんなの家",
    "kana": "ミンナノイエ",
    "address": "椥辻番所ヶ口町１番地３",
    "lat": 34.9709611,
    "lng": 135.8108861,
    "tel": "０７５－５０１－２７７６",
    "url": "",
    "pref": "京都府",
    "city": "京都市山科区",
    "category": "community_day_service",
    "serviceType": "地域密着型通所介護",
    "capacity": 8,
    "openDays": [
      "平日",
      "土曜日",
      "祝日"
    ],
    "openDaysNote": ""
  },
  {
    "id": "2694100252",
    "name": "リハビリデイサービス雅",
    "kana": "リハビリデイサービスミヤビ",
    "address": "京都府京都市山科区西野山中鳥井町８１－１０",
    "lat": 34.9713565581284,
    "lng": 135.801033664418,
    "tel": "075-644-9177",
    "url": "",
    "pref": "京都府",
    "city": "京都市山科区",
    "category": "community_day_service",
    "serviceType": "地域密着型通所介護",
    "capacity": 10,
    "openDays": [
      "平日",
      "土曜日",
      "祝日"
    ],
    "openDaysNote": "営業日　月曜日から土曜日までとする。（改行）ただし、８月１３、１４、１５の３日間（日程は変更する事がありますが事前通達をさせて頂きます。）　（改行）及び１２月３０日から１月３日までを除く"
  },
  {
    "id": "2694100245",
    "name": "リハビリデイサービス満月",
    "kana": "リハビリデイサービスマンゲツ",
    "address": "京都府京都市山科区御陵別所町133-2エルミナラクト　１F エルミナラクト　１F",
    "lat": 34.9918436621072,
    "lng": 135.80812543378,
    "tel": "075-600-8660",
    "url": "http://www.mangetsu-rehabili.com/",
    "pref": "京都府",
    "city": "京都市山科区",
    "category": "community_day_service",
    "serviceType": "地域密着型通所介護",
    "capacity": 0,
    "openDays": [
      "平日",
      "土曜日",
      "祝日"
    ],
    "openDaysNote": ""
  },
  {
    "id": "2670800388",
    "name": "楽踏庵デイサービスセンター",
    "kana": "ラクトウアンデイサービスセンター",
    "address": "京都市山科区西野八幡田町10番地1",
    "lat": 34.9878130330148,
    "lng": 135.805477191017,
    "tel": "075-583-5558",
    "url": "http://take4.net",
    "pref": "京都府",
    "city": "京都市山科区",
    "category": "community_day_service",
    "serviceType": "地域密着型通所介護",
    "capacity": 10,
    "openDays": [
      "平日",
      "土曜日",
      "日曜日",
      "祝日"
    ],
    "openDaysNote": ""
  },
  {
    "id": "2674100827",
    "name": "機能訓練デイサービスあいサポート",
    "kana": "キノウクンレンデイサービスアイサポート",
    "address": "西野山桜ノ馬場町52-2",
    "lat": 34.9677916,
    "lng": 135.7978321,
    "tel": "075-594-8886",
    "url": "",
    "pref": "京都府",
    "city": "京都市山科区",
    "category": "community_day_service",
    "serviceType": "地域密着型通所介護",
    "capacity": 10,
    "openDays": [
      "平日",
      "土曜日",
      "祝日"
    ],
    "openDaysNote": ""
  },
  {
    "id": "2674100942",
    "name": "山科デイサービス幸々",
    "kana": "ヤマシナデイサービスコウコウ",
    "address": "大塚中溝41-2",
    "lat": 34.9809103,
    "lng": 135.8264233,
    "tel": "075-595-5215",
    "url": "",
    "pref": "京都府",
    "city": "京都市山科区",
    "category": "community_day_service",
    "serviceType": "地域密着型通所介護",
    "capacity": 9,
    "openDays": [
      "平日",
      "土曜日",
      "祝日"
    ],
    "openDaysNote": "祝日は営業しています。"
  },
  {
    "id": "2670200936",
    "name": "カエラデイサービスセンターきたの",
    "kana": "カエラデイサービスセンターキタノ",
    "address": "京都市上京区一条通御前通東入西町25番地8",
    "lat": 35.0262428,
    "lng": 135.7377593,
    "tel": "075-466-0246",
    "url": "https://www.kaera365.com/",
    "pref": "京都府",
    "city": "京都市上京区",
    "category": "community_day_service",
    "serviceType": "地域密着型通所介護",
    "capacity": 10,
    "openDays": [
      "平日",
      "祝日"
    ],
    "openDaysNote": "定休日以外の祝日は営業しています。"
  },
  {
    "id": "2670200829",
    "name": "カルナ西陣デイサービス",
    "kana": "カルナニシジンデイサービス",
    "address": "千本通一条上る泰童片原町651",
    "lat": 35.0274593,
    "lng": 135.742315,
    "tel": "075-464-8890",
    "url": "http://www.karunalife.info",
    "pref": "京都府",
    "city": "京都市上京区",
    "category": "community_day_service",
    "serviceType": "地域密着型通所介護",
    "capacity": 10,
    "openDays": [
      "平日",
      "土曜日",
      "祝日"
    ],
    "openDaysNote": ""
  },
  {
    "id": "2670200886",
    "name": "きらく庵デイサービスセンター西陣",
    "kana": "キラクアンデイサービスセンターニシジン",
    "address": "京都府京都市上京区閻魔前町26FIDUSA1階 FIDUSA1階",
    "lat": 35.035106,
    "lng": 135.7411865,
    "tel": "075-415-7111",
    "url": "",
    "pref": "京都府",
    "city": "京都市上京区",
    "category": "community_day_service",
    "serviceType": "地域密着型通所介護",
    "capacity": 10,
    "openDays": [
      "平日",
      "土曜日",
      "祝日"
    ],
    "openDaysNote": ""
  },
  {
    "id": "2670200845",
    "name": "セルフサポート㈱デイサービスまごのて西陣",
    "kana": "セルフサポートカブシキガイシャ　デイサービスマゴノテニシジン",
    "address": "京都市上京区大宮通下立売下る菱屋町８０４番地コートハウス1階 コートハウス1階",
    "lat": 35.0194757004165,
    "lng": 135.749163240406,
    "tel": "075-283‐0388",
    "url": "https://www.magonote-group.com/",
    "pref": "京都府",
    "city": "京都市上京区",
    "category": "community_day_service",
    "serviceType": "地域密着型通所介護",
    "capacity": 10,
    "openDays": [
      "平日",
      "土曜日",
      "日曜日",
      "祝日"
    ],
    "openDaysNote": "12/31～1/3休み"
  },
  {
    "id": "2670200753",
    "name": "デイサービス　ソラスト上京",
    "kana": "デイサービス　ソラストカミギョウ",
    "address": "京都市上京区小川通出水上る茶屋町106番地",
    "lat": 35.0223197407885,
    "lng": 135.754003108598,
    "tel": "075-417-1114",
    "url": "https://solasto-kaigo.com/care/area/solastokamigyo.html",
    "pref": "京都府",
    "city": "京都市上京区",
    "category": "community_day_service",
    "serviceType": "地域密着型通所介護",
    "capacity": 0,
    "openDays": [
      "平日",
      "土曜日",
      "祝日"
    ],
    "openDaysNote": ""
  },
  {
    "id": "2670200100",
    "name": "ヒューマンライフサービス有限会社花・デイサービス",
    "kana": "ヒューマンライフサービスユウゲンカイシャ　ハナ・デイサービス",
    "address": "京都市上京区笹屋町通大宮西入桝屋町583番地",
    "lat": 35.0323732,
    "lng": 135.749697,
    "tel": "075－451－0280",
    "url": "http://www.human-lifu-service.net/",
    "pref": "京都府",
    "city": "京都市上京区",
    "category": "community_day_service",
    "serviceType": "地域密着型通所介護",
    "capacity": 10,
    "openDays": [
      "平日",
      "土曜日",
      "祝日"
    ],
    "openDaysNote": ""
  },
  {
    "id": "2690200197",
    "name": "ら・し・くフィットネス",
    "kana": "ラ・シ・クフィットネス",
    "address": "京都府京都市上京区御前通下立売上る3丁目西上之町248",
    "lat": 35.0234597855988,
    "lng": 135.73591487368,
    "tel": "075-406-7447",
    "url": "https://rashikufitness05.wixsite.com/-site",
    "pref": "京都府",
    "city": "京都市上京区",
    "category": "community_day_service",
    "serviceType": "地域密着型通所介護",
    "capacity": null,
    "openDays": [
      "平日",
      "祝日"
    ],
    "openDaysNote": ""
  },
  {
    "id": "2610200855",
    "name": "永原診療会通所介護自在館嬉楽家",
    "kana": "ナガハラシンリョウカイツウショカイゴジザイカンキラクヤ",
    "address": "京都市上京区浄福寺通上立売上ル大黒町686",
    "lat": 35.0326224205814,
    "lng": 135.745500527613,
    "tel": "075－441-9510",
    "url": "http://www.nagahara.or.jp/",
    "pref": "京都府",
    "city": "京都市上京区",
    "category": "community_day_service",
    "serviceType": "地域密着型通所介護",
    "capacity": 0,
    "openDays": [
      "平日",
      "土曜日",
      "祝日"
    ],
    "openDaysNote": ""
  },
  {
    "id": "2670200480",
    "name": "十四軒町デイサービスセンター",
    "kana": "ジュウヨンケンチョウデイサービスセンター",
    "address": "京都市上京区千本通出水下る十四軒町398",
    "lat": 35.0208990938533,
    "lng": 135.74182739875,
    "tel": "075-801-1561",
    "url": "http://www.kenkouen.jp/",
    "pref": "京都府",
    "city": "京都市上京区",
    "category": "community_day_service",
    "serviceType": "地域密着型通所介護",
    "capacity": 15,
    "openDays": [
      "平日",
      "土曜日",
      "日曜日",
      "祝日"
    ],
    "openDaysNote": ""
  },
  {
    "id": "2670200852",
    "name": "出町茶論",
    "kana": "デマチサロン",
    "address": "京都府京都市上京区寺町通今出川上る表町２１市川ビル１階 市川ビル１階",
    "lat": 35.0306609720607,
    "lng": 135.768003613155,
    "tel": "075-204-4716",
    "url": "https://demachi-salon.site/dayori.html",
    "pref": "京都府",
    "city": "京都市上京区",
    "category": "community_day_service",
    "serviceType": "地域密着型通所介護",
    "capacity": 100,
    "openDays": [
      "平日",
      "祝日"
    ],
    "openDaysNote": "台風などで警報が出た場合は休止"
  },
  {
    "id": "2690200163",
    "name": "祥成合同会社",
    "kana": "ショウセイゴウドウガイシャ",
    "address": "京都府京都市上京区上立売新町西入西大路町79番地4",
    "lat": 35.0321589,
    "lng": 135.7551022,
    "tel": "075-406-1777",
    "url": "http://hp.kaipoke.biz/b04/127795/base_0004.html",
    "pref": "京都府",
    "city": "京都市上京区",
    "category": "community_day_service",
    "serviceType": "地域密着型通所介護",
    "capacity": 0,
    "openDays": [
      "平日",
      "土曜日",
      "祝日"
    ],
    "openDaysNote": ""
  },
  {
    "id": "2670200662",
    "name": "絆ひだまりの会　大心院の家",
    "kana": "キズナヒダマリノカイ　ダイシンインノイエ",
    "address": "京都市上京区新町通寺之内上る三丁目大心院町16",
    "lat": 35.0356499652584,
    "lng": 135.755925089333,
    "tel": "075-415-7288",
    "url": "http://nsf.co.jp/",
    "pref": "京都府",
    "city": "京都市上京区",
    "category": "community_day_service",
    "serviceType": "地域密着型通所介護",
    "capacity": 0,
    "openDays": [
      "平日",
      "土曜日",
      "祝日"
    ],
    "openDaysNote": ""
  },
  {
    "id": "2674000829",
    "name": "エバー桂　フィットネスデイサービス",
    "kana": "エバーカツラ　フィットネスデイサービス",
    "address": "川島寺田町１８－３タナカビル１階 タナカビル１階",
    "lat": 34.9766024,
    "lng": 135.7018327,
    "tel": "075-203-6363",
    "url": "",
    "pref": "京都府",
    "city": "京都市西京区",
    "category": "community_day_service",
    "serviceType": "地域密着型通所介護",
    "capacity": 0,
    "openDays": [
      "平日"
    ],
    "openDaysNote": ""
  },
  {
    "id": "2674001041",
    "name": "エバー洛西センター　フィットネスデイサービス",
    "kana": "エバーラクサイセンター　フィットネスデイサービス",
    "address": "京都市西京区大原野東境谷町２－５－９洛西センタービル５０６号 洛西センタービル５０６号",
    "lat": 34.963509,
    "lng": 135.6752762,
    "tel": "075-874-5858",
    "url": "",
    "pref": "京都府",
    "city": "京都市西京区",
    "category": "community_day_service",
    "serviceType": "地域密着型通所介護",
    "capacity": 0,
    "openDays": [
      "平日"
    ],
    "openDaysNote": ""
  },
  {
    "id": "2694000221",
    "name": "おうち・デイサービス・大枝",
    "kana": "オウチ・デイサービス・オオエ",
    "address": "京都府京都市西京区大枝塚原町1番地61",
    "lat": 34.9757441,
    "lng": 135.6694738,
    "tel": "075-204-1789",
    "url": "https://www.seijitsukikaku.com/",
    "pref": "京都府",
    "city": "京都市西京区",
    "category": "community_day_service",
    "serviceType": "地域密着型通所介護",
    "capacity": 10,
    "openDays": [
      "平日",
      "土曜日",
      "祝日"
    ],
    "openDaysNote": "祝日も営業しておりますが、土、日曜日と5/5、12/31～1/3、8/14～8/16はお休みさせていただきます。"
  },
  {
    "id": "2674000878",
    "name": "カピラ機能訓練デイサービス",
    "kana": "カピラキノウクンレンデイサービス",
    "address": "桂徳大寺北町11番",
    "lat": 34.9918852191955,
    "lng": 135.70512110318,
    "tel": "075-382-2533",
    "url": "http://kapira.jp/",
    "pref": "京都府",
    "city": "京都市西京区",
    "category": "community_day_service",
    "serviceType": "地域密着型通所介護",
    "capacity": 140,
    "openDays": [
      "平日",
      "土曜日",
      "日曜日",
      "祝日"
    ],
    "openDaysNote": "研修等により臨時休業あり"
  },
  {
    "id": "2694000452",
    "name": "カピラ機能訓練デイサービス",
    "kana": "カピラキノウクンレンデイサービス",
    "address": "京都市西京区桂徳大寺北町11番地",
    "lat": 34.991864,
    "lng": 135.7051263,
    "tel": "075-382-2533",
    "url": "",
    "pref": "京都府",
    "city": "京都市西京区",
    "category": "community_day_service",
    "serviceType": "地域密着型通所介護",
    "capacity": 0,
    "openDays": [
      "平日",
      "土曜日",
      "日曜日",
      "祝日"
    ],
    "openDaysNote": "12月29日～1月3日年末年始休み"
  },
  {
    "id": "2694000312",
    "name": "デイサービスこのみ樫原",
    "kana": "デイサービスコノミカタギハラ",
    "address": "京都市西京区樫原平田町15-8",
    "lat": 34.973074778757,
    "lng": 135.693699761377,
    "tel": "075-925-7770",
    "url": "http://hp.kaipoke.biz/tv2/",
    "pref": "京都府",
    "city": "京都市西京区",
    "category": "community_day_service",
    "serviceType": "地域密着型通所介護",
    "capacity": 0,
    "openDays": [
      "平日",
      "祝日"
    ],
    "openDaysNote": ""
  },
  {
    "id": "2674000928",
    "name": "デイサービスセンターわかがえり",
    "kana": "デイサービスセンターワカガエリ",
    "address": "京都市西京区上桂北村町２５９",
    "lat": 34.9912874262939,
    "lng": 135.701730640476,
    "tel": "０７５－３８２－０５５７",
    "url": "",
    "pref": "京都府",
    "city": "京都市西京区",
    "category": "community_day_service",
    "serviceType": "地域密着型通所介護",
    "capacity": 100,
    "openDays": [
      "平日",
      "土曜日"
    ],
    "openDaysNote": "８月１４日～８月１６日、１２月３０日～１月４日は休み"
  },
  {
    "id": "2674000902",
    "name": "デイサービスセンター境谷元気館",
    "kana": "デイサービスセンターサカイダニゲンキカン",
    "address": "京都府京都市西京区大原野西境谷町2-14-8",
    "lat": 34.9622924,
    "lng": 135.6691294,
    "tel": "753313130",
    "url": "http://genkikan1.stars.ne.jp/",
    "pref": "京都府",
    "city": "京都市西京区",
    "category": "community_day_service",
    "serviceType": "地域密着型通所介護",
    "capacity": 10,
    "openDays": [
      "平日",
      "土曜日",
      "祝日"
    ],
    "openDaysNote": "年末年始、ゴールデンウィーク、夏季に事業所の定める休日がそれぞれ3日程度ある"
  },
  {
    "id": "2694000429",
    "name": "デイサービスセンター千代原口元気館",
    "kana": "デイサービスセンターチヨハラグチゲンキカン",
    "address": "御陵溝浦町21-1ムーンヒルズ蘭1階",
    "lat": 34.9800953,
    "lng": 135.6936998,
    "tel": "753938015",
    "url": "http://genkikan1.stars.ne.jp/",
    "pref": "京都府",
    "city": "京都市西京区",
    "category": "community_day_service",
    "serviceType": "地域密着型通所介護",
    "capacity": 216,
    "openDays": [
      "平日",
      "土曜日",
      "祝日"
    ],
    "openDaysNote": "お盆、正月は事業所の制定した日時を休業。"
  },
  {
    "id": "2694000247",
    "name": "デイサービスセンター福西元気館",
    "kana": "デイサービスセンターフクニシゲンキカン",
    "address": "京都市西京区大枝東長町2-3クロスオーバービル1階 クロスオーバービル1階",
    "lat": 34.9653895,
    "lng": 135.6773345,
    "tel": "753327535",
    "url": "http://genkikan1.stars.ne.jp/",
    "pref": "京都府",
    "city": "京都市西京区",
    "category": "community_day_service",
    "serviceType": "地域密着型通所介護",
    "capacity": 18,
    "openDays": [
      "平日",
      "土曜日",
      "祝日"
    ],
    "openDaysNote": "年末年始　夏季　ゴールデンウィーク　に休みがあります。"
  },
  {
    "id": "2674001074",
    "name": "デイサービスだるま",
    "kana": "デイサービスダルマ",
    "address": "京都府京都市西京区大原野上里南ノ町544-3大原野坂元ビル1階 大原野坂元ビル1階",
    "lat": 34.9503465,
    "lng": 135.6916664,
    "tel": "075-925-8633",
    "url": "",
    "pref": "京都府",
    "city": "京都市西京区",
    "category": "community_day_service",
    "serviceType": "地域密着型通所介護",
    "capacity": 0,
    "openDays": [
      "平日",
      "祝日"
    ],
    "openDaysNote": ""
  },
  {
    "id": "2694000437",
    "name": "デイサービスはっぴぃ",
    "kana": "デイサービスハッピィ",
    "address": "京都府京都市西京区大枝沓掛町２番１２クレスト桂坂１階店舗１号 クレスト桂坂１階店舗１号",
    "lat": 34.9765023,
    "lng": 135.666865,
    "tel": "075-874-5085",
    "url": "http://hp.kaipoke.biz/fa3/free1.html",
    "pref": "京都府",
    "city": "京都市西京区",
    "category": "community_day_service",
    "serviceType": "地域密着型通所介護",
    "capacity": 0,
    "openDays": [
      "平日"
    ],
    "openDaysNote": "GW休み、お盆休み、年末年始休み"
  },
  {
    "id": "2674000589",
    "name": "デイサービス早稲田イーライフ京都",
    "kana": "デイサービスワセダイーライフキョウト",
    "address": "京都市西京区桂上野中町247白樺荘101 白樺荘101",
    "lat": 34.9954646,
    "lng": 135.7015883,
    "tel": "075-394-5115",
    "url": "http://www.e-life-kyoto.com",
    "pref": "京都府",
    "city": "京都市西京区",
    "category": "community_day_service",
    "serviceType": "地域密着型通所介護",
    "capacity": 5,
    "openDays": [
      "平日",
      "土曜日",
      "祝日"
    ],
    "openDaysNote": ""
  },
  {
    "id": "2694000189",
    "name": "デイサービス早稲田イーライフ桂",
    "kana": "デイサービスワセダイーライフカツラ",
    "address": "京都市西京区桂朝日町151",
    "lat": 34.9798387690517,
    "lng": 135.710720598449,
    "tel": "075-392-8577",
    "url": "http://www.e-life-kyoto.com",
    "pref": "京都府",
    "city": "京都市西京区",
    "category": "community_day_service",
    "serviceType": "地域密着型通所介護",
    "capacity": 5,
    "openDays": [
      "平日",
      "祝日"
    ],
    "openDaysNote": "定休日以外の休み：5/3～5/5、8/14～8/16、12/29～1/3"
  },
  {
    "id": "2694000239",
    "name": "ゆうらくデイサービス",
    "kana": "ユウラクデイサービス",
    "address": "京都府京都市西京区上桂東ノ口町１５９番地ラ・セーヌ桂１階 ラ・セーヌ桂１階",
    "lat": 34.9878072,
    "lng": 135.7047565,
    "tel": "075-205-2653",
    "url": "http://hp.kaipoke.biz/krb/index.html",
    "pref": "京都府",
    "city": "京都市西京区",
    "category": "community_day_service",
    "serviceType": "地域密着型通所介護",
    "capacity": 15,
    "openDays": [
      "平日",
      "土曜日"
    ],
    "openDaysNote": ""
  },
  {
    "id": "2694000395",
    "name": "ゆびはりデイサービス",
    "kana": "ユビハリデイサービス",
    "address": "京都府京都市西京区大原野上里南ノ町165",
    "lat": 34.9511518,
    "lng": 135.6828969,
    "tel": "075-925-6191",
    "url": "https://yubihari.com",
    "pref": "京都府",
    "city": "京都市西京区",
    "category": "community_day_service",
    "serviceType": "地域密着型通所介護",
    "capacity": 10,
    "openDays": [
      "平日"
    ],
    "openDaysNote": ""
  },
  {
    "id": "2674000605",
    "name": "株式会社　デイサービスセンター元気館",
    "kana": "カブシキガイシャ　デイサービスセンターゲンキカン",
    "address": "京都市西京区桂坤町５０－２２",
    "lat": 34.9800993,
    "lng": 135.6943778,
    "tel": "075-394-3180",
    "url": "http://genkikan1.stars.ne.jp/",
    "pref": "京都府",
    "city": "京都市西京区",
    "category": "community_day_service",
    "serviceType": "地域密着型通所介護",
    "capacity": 10,
    "openDays": [
      "平日",
      "土曜日",
      "祝日"
    ],
    "openDaysNote": "お盆、正月は事業所の設定した日時を休業"
  },
  {
    "id": "2694000445",
    "name": "春花デイサービス",
    "kana": "ハルハナデイサービス",
    "address": "京都府京都市西京区桂上野西町284",
    "lat": 34.9957841,
    "lng": 135.6997189,
    "tel": "075-280-3722",
    "url": "",
    "pref": "京都府",
    "city": "京都市西京区",
    "category": "community_day_service",
    "serviceType": "地域密着型通所介護",
    "capacity": null,
    "openDays": [
      "平日",
      "土曜日",
      "祝日"
    ],
    "openDaysNote": ""
  },
  {
    "id": "2674000993",
    "name": "葉音デイサービス",
    "kana": "ハオトデイサービス",
    "address": "京都府京都市西京区山田箱塚町28番地135",
    "lat": 34.9852738,
    "lng": 135.6860201,
    "tel": "759636036",
    "url": "http://hp.kaipoke.biz/py3/",
    "pref": "京都府",
    "city": "京都市西京区",
    "category": "community_day_service",
    "serviceType": "地域密着型通所介護",
    "capacity": 0,
    "openDays": [
      "平日",
      "土曜日",
      "日曜日",
      "祝日"
    ],
    "openDaysNote": ""
  },
  {
    "id": "2690300112",
    "name": "デイサービス　ふくろう",
    "kana": "デイサービス　フクロウ",
    "address": "京都市中京区西ノ京内畑町29-58",
    "lat": 35.013744,
    "lng": 135.7400373,
    "tel": "075-842-5577",
    "url": "http://dayfukurou.com",
    "pref": "京都府",
    "city": "京都市中京区",
    "category": "community_day_service",
    "serviceType": "地域密着型通所介護",
    "capacity": 0,
    "openDays": [
      "平日",
      "土曜日"
    ],
    "openDaysNote": "お盆休み（改行）年末年始"
  },
  {
    "id": "2690300195",
    "name": "デイサービス道夢",
    "kana": "デイサービスドウム",
    "address": "京都府京都市中京区壬生淵田町１２レジデンスオークラA棟1階 レジデンスオークラA棟1階",
    "lat": 35.0057326,
    "lng": 135.7341598,
    "tel": "075-354-6602",
    "url": "",
    "pref": "京都府",
    "city": "京都市中京区",
    "category": "community_day_service",
    "serviceType": "地域密着型通所介護",
    "capacity": 18,
    "openDays": [
      "平日",
      "土曜日"
    ],
    "openDaysNote": ""
  },
  {
    "id": "2670300835",
    "name": "パナソニックエイジフリー京都御池デイサービス",
    "kana": "パナソニックエイジフリーキョウトオイケデイサービス",
    "address": "京都市中京区柳馬場通二条下ル等持寺町21-1",
    "lat": 35.0128085,
    "lng": 135.7640574,
    "tel": "075-256-2217",
    "url": "",
    "pref": "京都府",
    "city": "京都市中京区",
    "category": "community_day_service",
    "serviceType": "地域密着型通所介護",
    "capacity": 15,
    "openDays": [
      "平日",
      "土曜日",
      "祝日"
    ],
    "openDaysNote": ""
  },
  {
    "id": "2670300561",
    "name": "ふち内科デイセンター",
    "kana": "フチナイカデイセンター",
    "address": "京都市中京区西ノ京北小路町15",
    "lat": 35.008861,
    "lng": 135.7340852,
    "tel": "075-803-2682",
    "url": "http://www.",
    "pref": "京都府",
    "city": "京都市中京区",
    "category": "community_day_service",
    "serviceType": "地域密着型通所介護",
    "capacity": 0,
    "openDays": [
      "平日",
      "祝日"
    ],
    "openDaysNote": ""
  },
  {
    "id": "2690300146",
    "name": "ポシブル烏丸御池",
    "kana": "ポシブルカラスマオイケ",
    "address": "京都府京都市中京区小川通り御池上る下古城町399With京Seasons1階 With京Seasons1階",
    "lat": 35.0119918,
    "lng": 135.7540694,
    "tel": "075-255-7511",
    "url": "http://www.possible-kyoto.com/",
    "pref": "京都府",
    "city": "京都市中京区",
    "category": "community_day_service",
    "serviceType": "地域密着型通所介護",
    "capacity": 0,
    "openDays": [
      "平日",
      "土曜日",
      "祝日"
    ],
    "openDaysNote": ""
  },
  {
    "id": "2670300868",
    "name": "リハビリデイサービスｎａｇｏｍｉ京都二条店",
    "kana": "リハビリデイサービスナゴミキョウトニジョウテン",
    "address": "京都市中京区壬生天池町２６－３",
    "lat": 35.0068668461908,
    "lng": 135.739449893237,
    "tel": "075-813-0888",
    "url": "http://www.my-nagomi.com/",
    "pref": "京都府",
    "city": "京都市中京区",
    "category": "community_day_service",
    "serviceType": "地域密着型通所介護",
    "capacity": 15,
    "openDays": [
      "平日",
      "祝日"
    ],
    "openDaysNote": ""
  },
  {
    "id": "2670300983",
    "name": "通所介護事業所　ほほえみの里京都",
    "kana": "ツウショカイゴジギョウショ　ホホエミノサトキョウト",
    "address": "京都府京都市中京区油小路通押小路下る押油小路町250番地",
    "lat": 35.0116835,
    "lng": 135.7536833,
    "tel": "075-223-1881",
    "url": "",
    "pref": "京都府",
    "city": "京都市中京区",
    "category": "community_day_service",
    "serviceType": "地域密着型通所介護",
    "capacity": null,
    "openDays": [
      "平日"
    ],
    "openDaysNote": ""
  },
  {
    "id": "2690300161",
    "name": "療養通所介護事業所HARU",
    "kana": "リョウヨウツウショカイゴジギョウショハル",
    "address": "京都府京都市中京区壬生相合町18-9ウィズ高辻通1階 ウィズ高辻通1階",
    "lat": 35.0003215,
    "lng": 135.7457832,
    "tel": "075-366-2522",
    "url": "hg.cc.haru@gmail.com",
    "pref": "京都府",
    "city": "京都市中京区",
    "category": "community_day_service",
    "serviceType": "地域密着型通所介護",
    "capacity": 3,
    "openDays": [
      "平日"
    ],
    "openDaysNote": ""
  },
  {
    "id": "2690800079",
    "name": "医療法人社団育生会機能訓練型デイサービスロコモーション",
    "kana": "イリョウホウジンシャダンイクセイカイキノウクンレンガタデイサービスロコモーション",
    "address": "本町20丁目440-2",
    "lat": 34.9730608,
    "lng": 135.7710004,
    "tel": "075-746-5870",
    "url": "locomo@kuno-hospital.or.jp",
    "pref": "京都府",
    "city": "京都市東山区",
    "category": "community_day_service",
    "serviceType": "地域密着型通所介護",
    "capacity": 0,
    "openDays": [
      "平日",
      "祝日"
    ],
    "openDaysNote": ""
  },
  {
    "id": "2670500764",
    "name": "ＧＥＮＫＩＮＥＸＴ京都吉祥院",
    "kana": "ゲンキネクストキョウトキッショウイン",
    "address": "吉祥院西ノ庄西浦町68StarWest１階 StarWest１階",
    "lat": 34.9843102,
    "lng": 135.7273332,
    "tel": "075-754-7481",
    "url": "",
    "pref": "京都府",
    "city": "京都市南区",
    "category": "community_day_service",
    "serviceType": "地域密着型通所介護",
    "capacity": 210,
    "openDays": [
      "平日",
      "土曜日",
      "日曜日",
      "祝日"
    ],
    "openDaysNote": "12/31～1/3は休業"
  },
  {
    "id": "2670500855",
    "name": "ステップぱーとなー京都東寺",
    "kana": "ステップパートナーキョウトトウジ",
    "address": "京都府京都市南区四ツ塚町65",
    "lat": 34.9789992195624,
    "lng": 135.745672093393,
    "tel": "075-632-9216",
    "url": "http://step-partner.jp",
    "pref": "京都府",
    "city": "京都市南区",
    "category": "community_day_service",
    "serviceType": "地域密着型通所介護",
    "capacity": 10,
    "openDays": [
      "平日"
    ],
    "openDaysNote": ""
  },
  {
    "id": "2690500224",
    "name": "レコードブック西大路",
    "kana": "レコードブックニシオオジ",
    "address": "吉祥院御池町1-3クリスタルグランツ京都西大路 クリスタルグランツ京都西大路",
    "lat": 34.9743457435976,
    "lng": 135.735539356483,
    "tel": "075-585-3316",
    "url": "",
    "pref": "京都府",
    "city": "京都市南区",
    "category": "community_day_service",
    "serviceType": "地域密着型通所介護",
    "capacity": 0,
    "openDays": [
      "平日",
      "土曜日",
      "祝日"
    ],
    "openDaysNote": ""
  },
  {
    "id": "2670500863",
    "name": "わのみちデイサービス鳥羽街道",
    "kana": "ワノミチデイサービストバカイドウ",
    "address": "京都府京都市南区上鳥羽西浦町273",
    "lat": 34.9560661,
    "lng": 135.742337,
    "tel": "075-662-3151",
    "url": "http://www.wadoubunka.net",
    "pref": "京都府",
    "city": "京都市南区",
    "category": "community_day_service",
    "serviceType": "地域密着型通所介護",
    "capacity": 10,
    "openDays": [
      "平日",
      "土曜日",
      "日曜日",
      "祝日"
    ],
    "openDaysNote": ""
  },
  {
    "id": "2690500158",
    "name": "ワンデイハウスゆりかご",
    "kana": "ワンデイハウスユリカゴ",
    "address": "京都府京都市南区吉祥院石原開町５６番地",
    "lat": 34.963797,
    "lng": 135.7261154,
    "tel": "075-644-6067",
    "url": "",
    "pref": "京都府",
    "city": "京都市南区",
    "category": "community_day_service",
    "serviceType": "地域密着型通所介護",
    "capacity": null,
    "openDays": [
      "平日",
      "土曜日",
      "祝日"
    ],
    "openDaysNote": ""
  },
  {
    "id": "2670500897",
    "name": "機能訓練型デイサービス　ほこほこ",
    "kana": "キノウクンレンガタデイサービス　ホコホコ",
    "address": "西九条島町27京都ロジュマン島町104 京都ロジュマン島町104",
    "lat": 34.9779948,
    "lng": 135.7534299,
    "tel": "075-606-1595",
    "url": "",
    "pref": "京都府",
    "city": "京都市南区",
    "category": "community_day_service",
    "serviceType": "地域密着型通所介護",
    "capacity": 10,
    "openDays": [
      "平日",
      "祝日"
    ],
    "openDaysNote": ""
  },
  {
    "id": "2670500640",
    "name": "石原デイサービスセンター",
    "kana": "イシハラデイサービスセンター",
    "address": "京都市南区西九条東島町１６番地１",
    "lat": 34.9765534,
    "lng": 135.7542558,
    "tel": "075-681-2294",
    "url": "",
    "pref": "京都府",
    "city": "京都市南区",
    "category": "community_day_service",
    "serviceType": "地域密着型通所介護",
    "capacity": 18,
    "openDays": [
      "平日",
      "土曜日",
      "祝日"
    ],
    "openDaysNote": ""
  },
  {
    "id": "2690500232",
    "name": "東寺つどいデイサービス",
    "kana": "トウジツドイデイサービス",
    "address": "西九条東柳ノ内町46番地ライズビルサウスポイント1階101号室 ライズビルサウスポイント1階101号室",
    "lat": 34.9757327365832,
    "lng": 135.753331641438,
    "tel": "075-644-9660",
    "url": "",
    "pref": "京都府",
    "city": "京都市南区",
    "category": "community_day_service",
    "serviceType": "地域密着型通所介護",
    "capacity": 0,
    "openDays": [
      "平日",
      "土曜日",
      "祝日"
    ],
    "openDaysNote": "祝日は営業しています。"
  },
  {
    "id": "2690500240",
    "name": "八湯",
    "kana": "ハットウ",
    "address": "京都市南区吉祥院西ノ庄向田町6ルミエール葛野103号 ルミエール葛野103号",
    "lat": 34.9849849,
    "lng": 135.7206799,
    "tel": "075-874-4571",
    "url": "https://h88kaigo.jp/",
    "pref": "京都府",
    "city": "京都市南区",
    "category": "community_day_service",
    "serviceType": "地域密着型通所介護",
    "capacity": null,
    "openDays": [
      "平日",
      "土曜日",
      "祝日"
    ],
    "openDaysNote": ""
  },
  {
    "id": "2670500715",
    "name": "明日香デイサービスセンター",
    "kana": "アスカデイサービスセンター",
    "address": "京都市南区吉祥院砂ノ町45吉祥院いきいき市民活動センター別館1階 吉祥院いきいき市民活動センター別館1階",
    "lat": 34.9689988320297,
    "lng": 135.731875429773,
    "tel": "075-661-7676",
    "url": "http://hp.kaipoke.biz/48x/",
    "pref": "京都府",
    "city": "京都市南区",
    "category": "community_day_service",
    "serviceType": "地域密着型通所介護",
    "capacity": 12,
    "openDays": [
      "平日",
      "土曜日",
      "祝日"
    ],
    "openDaysNote": "台風・積雪で送迎が不可能な場合はサービスを取り止める場合が御座います。"
  },
  {
    "id": "2690900457",
    "name": "さくらハウス七瀬川",
    "kana": "サクラハウスナナセガワ",
    "address": "深草小久保町260・261",
    "lat": 34.9517364,
    "lng": 135.7631129,
    "tel": "075-643-6520",
    "url": "http://kyoro.or.jp/",
    "pref": "京都府",
    "city": "京都市伏見区",
    "category": "community_day_service",
    "serviceType": "地域密着型通所介護",
    "capacity": 0,
    "openDays": [
      "平日",
      "土曜日",
      "祝日"
    ],
    "openDaysNote": "年末年始休みあり（改行）祝日等は通常営業"
  },
  {
    "id": "2670917166",
    "name": "デイサービス　アルクスタジオ",
    "kana": "デイサービス　アルクスタジオ",
    "address": "醍醐構口町20-6",
    "lat": 34.9450246,
    "lng": 135.8137273,
    "tel": "075-572-8009",
    "url": "http://hp.kaipoke.biz/3yd",
    "pref": "京都府",
    "city": "京都市伏見区",
    "category": "community_day_service",
    "serviceType": "地域密着型通所介護",
    "capacity": null,
    "openDays": [
      "平日",
      "土曜日",
      "祝日"
    ],
    "openDaysNote": "年末年始休暇（１２月３１日　～　１月３日）"
  },
  {
    "id": "2690900481",
    "name": "デイサービスアルクスタジオ",
    "kana": "デイサービスアルクスタジオ",
    "address": "京都市伏見区醍醐構口町20-6",
    "lat": 34.9450566868098,
    "lng": 135.813707580357,
    "tel": "075-572-8009",
    "url": "https://arukusutadio.com",
    "pref": "京都府",
    "city": "京都市伏見区",
    "category": "community_day_service",
    "serviceType": "地域密着型通所介護",
    "capacity": 0,
    "openDays": [
      "平日",
      "祝日"
    ],
    "openDaysNote": ""
  },
  {
    "id": "2670901327",
    "name": "デイサービスしんざわ",
    "kana": "デイサービスシンザワ",
    "address": "京都府京都市伏見区下鳥羽前田町3",
    "lat": 34.9440562,
    "lng": 135.7431393,
    "tel": "090-8143-1067",
    "url": "",
    "pref": "京都府",
    "city": "京都市伏見区",
    "category": "community_day_service",
    "serviceType": "地域密着型通所介護",
    "capacity": 0,
    "openDays": [
      "平日"
    ],
    "openDaysNote": ""
  },
  {
    "id": "2670900618",
    "name": "デイサービスセンター　醍醐の家ほっこり",
    "kana": "デイサービスセンター　ダイゴノイエホッコリ",
    "address": "京都市伏見区醍醐南里町30-1",
    "lat": 34.9465523,
    "lng": 135.8148355,
    "tel": "075-575-5770",
    "url": "http://www.kyoro.or.jp",
    "pref": "京都府",
    "city": "京都市伏見区",
    "category": "community_day_service",
    "serviceType": "地域密着型通所介護",
    "capacity": 18,
    "openDays": [
      "平日",
      "土曜日",
      "祝日"
    ],
    "openDaysNote": "年末年始を除く"
  },
  {
    "id": "2670917299",
    "name": "デイサービスセンター恵寿",
    "kana": "デイサービスセンターケイジュ",
    "address": "京都市伏見区小栗栖小阪町43番地1",
    "lat": 34.9460299462794,
    "lng": 135.80166824418,
    "tel": "075-632-9557",
    "url": "http://keiju-sakouju.com/",
    "pref": "京都府",
    "city": "京都市伏見区",
    "category": "community_day_service",
    "serviceType": "地域密着型通所介護",
    "capacity": 0,
    "openDays": [
      "平日",
      "土曜日",
      "祝日"
    ],
    "openDaysNote": "2022年12月年末年始の休業は12/29から1/3の期間（改行）2023年12月年末年始の休業は12/30から1/3の期間"
  },
  {
    "id": "2670916739",
    "name": "デイサービスみらい",
    "kana": "デイサービスミライ",
    "address": "醍醐落保町１－１",
    "lat": 34.9473495,
    "lng": 135.817322481615,
    "tel": "075-644-5757",
    "url": "",
    "pref": "京都府",
    "city": "京都市伏見区",
    "category": "community_day_service",
    "serviceType": "地域密着型通所介護",
    "capacity": 18,
    "openDays": [
      "平日",
      "祝日"
    ],
    "openDaysNote": "祝日は土日でない場合は通常営業"
  },
  {
    "id": "2670917133",
    "name": "デイサービスみらい日野",
    "kana": "デイサービスミライヒノ",
    "address": "京都府京都市伏見区日野西風呂町1-15",
    "lat": 34.9366559,
    "lng": 135.8109274,
    "tel": "075-574-1909",
    "url": "",
    "pref": "京都府",
    "city": "京都市伏見区",
    "category": "community_day_service",
    "serviceType": "地域密着型通所介護",
    "capacity": 0,
    "openDays": [
      "平日",
      "祝日"
    ],
    "openDaysNote": ""
  },
  {
    "id": "2670916895",
    "name": "デイサービス健康アスモ",
    "kana": "デイサービスケンコウアスモ",
    "address": "京都府京都市伏見区醍醐槇ノ内町8-2シモムラビル102 シモムラビル102",
    "lat": 34.9448692,
    "lng": 135.8152715,
    "tel": "757486091",
    "url": "https://www.asumo0207.com/",
    "pref": "京都府",
    "city": "京都市伏見区",
    "category": "community_day_service",
    "serviceType": "地域密着型通所介護",
    "capacity": 100,
    "openDays": [
      "平日",
      "祝日"
    ],
    "openDaysNote": ""
  },
  {
    "id": "2690900754",
    "name": "デイサービス光清",
    "kana": "デイサービス　コウセイ",
    "address": "京都市伏見区下鳥羽南円面田町6トロスマンション1階 トロスマンション1階",
    "lat": 34.9315331,
    "lng": 135.74055,
    "tel": "075-601-1001",
    "url": "",
    "pref": "京都府",
    "city": "京都市伏見区",
    "category": "community_day_service",
    "serviceType": "地域密着型通所介護",
    "capacity": null,
    "openDays": [
      "平日",
      "祝日"
    ],
    "openDaysNote": ""
  },
  {
    "id": "2670901152",
    "name": "デイサービス晴れる屋",
    "kana": "デイサービスハレルヤ",
    "address": "京都市伏見区桃山町泰長老175-1シャルム世光105号 シャルム世光105号",
    "lat": 34.9299655,
    "lng": 135.7682044,
    "tel": "075-644-5894",
    "url": "",
    "pref": "京都府",
    "city": "京都市伏見区",
    "category": "community_day_service",
    "serviceType": "地域密着型通所介護",
    "capacity": 0,
    "openDays": [
      "平日",
      "土曜日",
      "祝日"
    ],
    "openDaysNote": "営業時間外の利用についても、ご相談ください。"
  },
  {
    "id": "2690900697",
    "name": "ディサービス夢前",
    "kana": "ディサービス　ユメサキ",
    "address": "向島四ツ谷池14番地19",
    "lat": 34.9183821,
    "lng": 135.7784657,
    "tel": "075-612-2530",
    "url": "care-yume.com",
    "pref": "京都府",
    "city": "京都市伏見区",
    "category": "community_day_service",
    "serviceType": "地域密着型通所介護",
    "capacity": 0,
    "openDays": [
      "平日",
      "土曜日",
      "祝日"
    ],
    "openDaysNote": ""
  },
  {
    "id": "2670901590",
    "name": "ピットインデイサービスセンター",
    "kana": "ピットインデイサービスセンター",
    "address": "京都府京都市伏見区深草西浦町七丁目７３－１ニューライフマンション藤森１階 ニューライフマンション藤森１階",
    "lat": 34.957397,
    "lng": 135.763849,
    "tel": "０７５－６４６－０７７５",
    "url": "https://pit-ingym.amebaownd.com/",
    "pref": "京都府",
    "city": "京都市伏見区",
    "category": "community_day_service",
    "serviceType": "地域密着型通所介護",
    "capacity": 0,
    "openDays": [
      "平日",
      "土曜日",
      "祝日"
    ],
    "openDaysNote": ""
  },
  {
    "id": "2690900473",
    "name": "レコードブック伏見",
    "kana": "レコードブックフシミ",
    "address": "京都市伏見区深草飯食町832第49長栄ウィステリアヒルズ2階1号 第49長栄ウィステリアヒルズ2階1号",
    "lat": 34.9546366,
    "lng": 135.7693617,
    "tel": "075-644-6546",
    "url": "",
    "pref": "京都府",
    "city": "京都市伏見区",
    "category": "community_day_service",
    "serviceType": "地域密着型通所介護",
    "capacity": 18,
    "openDays": [
      "平日",
      "土曜日",
      "祝日"
    ],
    "openDaysNote": ""
  },
  {
    "id": "2670900998",
    "name": "わのみちデイサービス中書島",
    "kana": "ワノミチデイサービスチュウショジマ",
    "address": "京都市伏見区東柳町５３９－７",
    "lat": 34.9295607,
    "lng": 135.7608403,
    "tel": "075-634-7342",
    "url": "http://www.sawahonpo.com",
    "pref": "京都府",
    "city": "京都市伏見区",
    "category": "community_day_service",
    "serviceType": "地域密着型通所介護",
    "capacity": 0,
    "openDays": [
      "平日",
      "土曜日",
      "日曜日",
      "祝日"
    ],
    "openDaysNote": ""
  },
  {
    "id": "2670901624",
    "name": "わのみちデイサービス藤森",
    "kana": "ワノミチデイサービスフジノモリ",
    "address": "京都市伏見区深草大亀谷大山町27-6",
    "lat": 34.9470679,
    "lng": 135.7794945,
    "tel": "075-634-9090",
    "url": "http://www.wadoubunka.net/",
    "pref": "京都府",
    "city": "京都市伏見区",
    "category": "community_day_service",
    "serviceType": "地域密着型通所介護",
    "capacity": 0,
    "openDays": [
      "平日",
      "土曜日",
      "日曜日",
      "祝日"
    ],
    "openDaysNote": ""
  },
  {
    "id": "2670916713",
    "name": "安心プラス",
    "kana": "アンシンプラス",
    "address": "京都市伏見区京町六丁目69番地1",
    "lat": 34.9369156,
    "lng": 135.7646261,
    "tel": "075-601-6688",
    "url": "http://ansin-p.jp",
    "pref": "京都府",
    "city": "京都市伏見区",
    "category": "community_day_service",
    "serviceType": "地域密着型通所介護",
    "capacity": 0,
    "openDays": [
      "平日",
      "土曜日",
      "祝日"
    ],
    "openDaysNote": ""
  },
  {
    "id": "2690900408",
    "name": "安心プラス下三栖",
    "kana": "アンシンプラスシモミス",
    "address": "京都市伏見区横大路下三栖里ノ内73",
    "lat": 34.9244973,
    "lng": 135.7492024,
    "tel": "075-632-8282",
    "url": "URL　http://ansin-p.jp",
    "pref": "京都府",
    "city": "京都市伏見区",
    "category": "community_day_service",
    "serviceType": "地域密着型通所介護",
    "capacity": 0,
    "openDays": [
      "平日",
      "土曜日",
      "祝日"
    ],
    "openDaysNote": ""
  },
  {
    "id": "2670901095",
    "name": "医療法人　啓信会　デイサービスセンター　リエゾン羽束師",
    "kana": "イリョウホウジンケイシンカイデイサービスセンターリエゾンハヅカシ",
    "address": "羽束師古川町168-1",
    "lat": 34.9267221,
    "lng": 135.723435,
    "tel": "075-924-3400",
    "url": "http://www.kyoto-keishinkai.or.jp/",
    "pref": "京都府",
    "city": "京都市伏見区",
    "category": "community_day_service",
    "serviceType": "地域密着型通所介護",
    "capacity": 0,
    "openDays": [
      "平日",
      "祝日"
    ],
    "openDaysNote": ""
  },
  {
    "id": "2670917257",
    "name": "元源",
    "kana": "ゲンゲン",
    "address": "京都市伏見区横大路鍬ノ本9-1",
    "lat": 34.9262943,
    "lng": 135.7388838,
    "tel": "075-632-9527",
    "url": "http://www.mukaijima.jp",
    "pref": "京都府",
    "city": "京都市伏見区",
    "category": "community_day_service",
    "serviceType": "地域密着型通所介護",
    "capacity": 32,
    "openDays": [
      "平日"
    ],
    "openDaysNote": "※1/1は年始休業とする。"
  },
  {
    "id": "2690900507",
    "name": "元源深草",
    "kana": "ゲンゲンフカクサ",
    "address": "京都府京都市伏見区深草大亀谷万帖敷町370-1",
    "lat": 34.9434543,
    "lng": 135.7790444,
    "tel": "075-634-8641",
    "url": "http://www.mukaijima.jp/",
    "pref": "京都府",
    "city": "京都市伏見区",
    "category": "community_day_service",
    "serviceType": "地域密着型通所介護",
    "capacity": 32,
    "openDays": [
      "平日",
      "祝日"
    ],
    "openDaysNote": "※1/1は年始休業とする。"
  },
  {
    "id": "2670101019",
    "name": "あさつゆ",
    "kana": "アサツユ",
    "address": "上賀茂朝露ヶ原町10番地の16",
    "lat": 35.0636391,
    "lng": 135.7485331,
    "tel": "075-723-3111",
    "url": "http://hp.kaipoke.biz/cds/index.html",
    "pref": "京都府",
    "city": "京都市北区",
    "category": "community_day_service",
    "serviceType": "地域密着型通所介護",
    "capacity": 0,
    "openDays": [
      "平日"
    ],
    "openDaysNote": ""
  },
  {
    "id": "2690100314",
    "name": "カエラデイサービスセンターきぬがさ",
    "kana": "カエラデイサアビスセンタアキヌガサ",
    "address": "小松原北町112パークハイツ小松原B-1 パークハイツ小松原B-1",
    "lat": 35.0320419,
    "lng": 135.7282826,
    "tel": "075-467-0133",
    "url": "https://www.kaera365.com/",
    "pref": "京都府",
    "city": "京都市北区",
    "category": "community_day_service",
    "serviceType": "地域密着型通所介護",
    "capacity": 10,
    "openDays": [
      "平日",
      "祝日"
    ],
    "openDaysNote": ""
  },
  {
    "id": "2690100199",
    "name": "かけはしデイサービス　ふなおか",
    "kana": "カケハシデイサービス　フナオカ",
    "address": "京都府京都市北区紫野南舟岡町72-1",
    "lat": 35.0373643,
    "lng": 135.7451473,
    "tel": "075-441-7200",
    "url": "",
    "pref": "京都府",
    "city": "京都市北区",
    "category": "community_day_service",
    "serviceType": "地域密着型通所介護",
    "capacity": 10,
    "openDays": [
      "平日",
      "祝日"
    ],
    "openDaysNote": "年末年始（12月30日～1月４日）までを除く"
  },
  {
    "id": "2670100797",
    "name": "ごゆるり倶楽部・紫野",
    "kana": "ゴユルリクラブ・ムラサキノ",
    "address": "京都市北区紫野南舟岡町39番地10",
    "lat": 35.0364949,
    "lng": 135.7442418,
    "tel": "075-204-5634",
    "url": "http://goyururi.com/",
    "pref": "京都府",
    "city": "京都市北区",
    "category": "community_day_service",
    "serviceType": "地域密着型通所介護",
    "capacity": 0,
    "openDays": [
      "平日",
      "土曜日",
      "祝日"
    ],
    "openDaysNote": ""
  },
  {
    "id": "2670101001",
    "name": "ごゆるり倶楽部・北山",
    "kana": "ゴユルリクラブ・キタヤマ",
    "address": "京都市北区紫竹上芝本町22",
    "lat": 35.0510124009763,
    "lng": 135.749738536111,
    "tel": "075-203-5201",
    "url": "http://goyururi.com/",
    "pref": "京都府",
    "city": "京都市北区",
    "category": "community_day_service",
    "serviceType": "地域密着型通所介護",
    "capacity": 0,
    "openDays": [
      "平日",
      "土曜日",
      "祝日"
    ],
    "openDaysNote": ""
  },
  {
    "id": "2670101100",
    "name": "デイサービス　百々福",
    "kana": "デイサービス　モモフク",
    "address": "紫竹上堀川町26",
    "lat": 35.0552596,
    "lng": 135.7504801,
    "tel": "075-468-1007",
    "url": "http://kent-house.s2.weblife.me/",
    "pref": "京都府",
    "city": "京都市北区",
    "category": "community_day_service",
    "serviceType": "地域密着型通所介護",
    "capacity": 15,
    "openDays": [
      "平日",
      "土曜日",
      "祝日"
    ],
    "openDaysNote": ""
  },
  {
    "id": "2670101209",
    "name": "デイサービスセンター北山杉いこいの家",
    "kana": "デイサービスセンターキタヤマスギイコイノイエ",
    "address": "京都府京都市北区小野宮ノ上町12",
    "lat": 35.114333371536,
    "lng": 135.673910502516,
    "tel": "075-406-4555",
    "url": "http://www.nananokai.com",
    "pref": "京都府",
    "city": "京都市北区",
    "category": "community_day_service",
    "serviceType": "地域密着型通所介護",
    "capacity": 0,
    "openDays": [
      "平日",
      "日曜日",
      "祝日"
    ],
    "openDaysNote": "祝日は営業、年末年始（１２/３０～１/３頃）休業"
  },
  {
    "id": "2670600952",
    "name": "にこにこデイサービス",
    "kana": "ニコニコデイサービス",
    "address": "大宮中林町40",
    "lat": 35.0559418039955,
    "lng": 135.746611283081,
    "tel": "075-201-0019",
    "url": "",
    "pref": "京都府",
    "city": "京都市北区",
    "category": "community_day_service",
    "serviceType": "地域密着型通所介護",
    "capacity": 0,
    "openDays": [
      "平日",
      "土曜日",
      "日曜日",
      "祝日"
    ],
    "openDaysNote": "年末・年始、お盆は休業。"
  },
  {
    "id": "2670500327",
    "name": "ハナマダン洛北",
    "kana": "ハナマダンラクホク",
    "address": "小松原北町60-3",
    "lat": 35.032217,
    "lng": 135.7267601,
    "tel": "075-464-3393",
    "url": "http://lfa-kyoto.org/",
    "pref": "京都府",
    "city": "京都市北区",
    "category": "community_day_service",
    "serviceType": "地域密着型通所介護",
    "capacity": 10,
    "openDays": [
      "平日",
      "土曜日",
      "祝日"
    ],
    "openDaysNote": ""
  },
  {
    "id": "2670101225",
    "name": "ポラリスデイサービスセンター紫竹",
    "kana": "ポラリスデイサービスセンターシチク",
    "address": "京都府京都市北区紫竹東大門町10番地",
    "lat": 35.0529694054944,
    "lng": 135.747549348447,
    "tel": "075-494-2969",
    "url": "http://www.polaris.care/",
    "pref": "京都府",
    "city": "京都市北区",
    "category": "community_day_service",
    "serviceType": "地域密着型通所介護",
    "capacity": 216,
    "openDays": [
      "平日",
      "土曜日",
      "祝日"
    ],
    "openDaysNote": "祝日も営業しております。"
  },
  {
    "id": "2690100207",
    "name": "まつちよの家　だいこく",
    "kana": "マツチヨノイエ　ダイコク",
    "address": "京都府京都市北区鷹峯旧土居町1-129",
    "lat": 35.0501757568187,
    "lng": 135.736086995831,
    "tel": "075-468-3309",
    "url": "",
    "pref": "京都府",
    "city": "京都市北区",
    "category": "community_day_service",
    "serviceType": "地域密着型通所介護",
    "capacity": 9,
    "openDays": [
      "平日",
      "土曜日",
      "祝日"
    ],
    "openDaysNote": ""
  },
  {
    "id": "2690100363",
    "name": "モンシャンデイサービス西賀茂店",
    "kana": "モンシャンデイサービスニシガモテン",
    "address": "京都府京都市北区大宮北林町8-1",
    "lat": 35.0567291,
    "lng": 135.7458478,
    "tel": "075-366-6523",
    "url": "https://monchamp-kyoto.com/monchamp-nishigamo/",
    "pref": "京都府",
    "city": "京都市北区",
    "category": "community_day_service",
    "serviceType": "地域密着型通所介護",
    "capacity": null,
    "openDays": [
      "平日",
      "土曜日",
      "日曜日",
      "祝日"
    ],
    "openDaysNote": ""
  },
  {
    "id": "2670101043",
    "name": "リハビリデイサービスnagomi　京都北大路店",
    "kana": "リハビリデイサービスナゴミ　キョウトキタオオジテン",
    "address": "紫野雲林院町４４番２",
    "lat": 35.0409112,
    "lng": 135.7499135,
    "tel": "075-494-1611",
    "url": "http://www.my-nagomi.com",
    "pref": "京都府",
    "city": "京都市北区",
    "category": "community_day_service",
    "serviceType": "地域密着型通所介護",
    "capacity": 15,
    "openDays": [
      "平日",
      "祝日"
    ],
    "openDaysNote": ""
  },
  {
    "id": "2690100306",
    "name": "レコードブック京都北大路",
    "kana": "レコードブックキョウトキタオオジ",
    "address": "京都府京都市北区紫竹東高縄町23-2ルピナス北山1階 ルピナス北山1階",
    "lat": 35.0465441,
    "lng": 135.7513872,
    "tel": "075-366-1262",
    "url": "",
    "pref": "京都府",
    "city": "京都市北区",
    "category": "community_day_service",
    "serviceType": "地域密着型通所介護",
    "capacity": 0,
    "openDays": [
      "平日",
      "祝日"
    ],
    "openDaysNote": ""
  },
  {
    "id": "2670100417",
    "name": "医療法人葵会上賀茂デイサービス",
    "kana": "イリョウホウジンアオイカイ　カミガモデイサービス",
    "address": "京都市北区上賀茂山本町50番地",
    "lat": 35.0586814,
    "lng": 135.7550575,
    "tel": "075-724-2414",
    "url": "http://www.kamigamo.aoikai.net",
    "pref": "京都府",
    "city": "京都市北区",
    "category": "community_day_service",
    "serviceType": "地域密着型通所介護",
    "capacity": 0,
    "openDays": [
      "平日"
    ],
    "openDaysNote": ""
  },
  {
    "id": "2690100348",
    "name": "株式会社デイサービスセンター千寿館",
    "kana": "カブシキガイシャデイサービスセンターセンジュカン",
    "address": "京都府京都市北区平野宮本町４番地２good8mirai1F good8mirai1F",
    "lat": 35.0315880572903,
    "lng": 135.73192133373,
    "tel": "(075)463-2620",
    "url": "http://hp.kaipoke.biz/6w8/index.html",
    "pref": "京都府",
    "city": "京都市北区",
    "category": "community_day_service",
    "serviceType": "地域密着型通所介護",
    "capacity": 10,
    "openDays": [
      "平日",
      "土曜日",
      "祝日"
    ],
    "openDaysNote": "ゴールデンウィーク・お盆・正月は事業所の設定した日時を休業とします。"
  },
  {
    "id": "2673100265",
    "name": "ビーンズリハビリデイサービス",
    "kana": "ビーンズリハビリデイサービス",
    "address": "上植野町北淀井5-12",
    "lat": 34.9326238,
    "lng": 135.7130973,
    "tel": "075-925-8125",
    "url": "ｂeans-muko.com",
    "pref": "京都府",
    "city": "向日市",
    "category": "community_day_service",
    "serviceType": "地域密着型通所介護",
    "capacity": 65,
    "openDays": [
      "平日"
    ],
    "openDaysNote": ""
  },
  {
    "id": "2672800402",
    "name": "デイサ－ビスはる",
    "kana": "デイサ-ビスハル",
    "address": "京都府城陽市富野堀口83番地71",
    "lat": 34.8371235,
    "lng": 135.782882,
    "tel": "0774-56-6932",
    "url": "",
    "pref": "京都府",
    "city": "城陽市",
    "category": "community_day_service",
    "serviceType": "地域密着型通所介護",
    "capacity": 0,
    "openDays": [
      "平日",
      "祝日"
    ],
    "openDaysNote": ""
  },
  {
    "id": "2672800337",
    "name": "デイサービスセンター　百歳倶楽部",
    "kana": "デイサービスセンター　ヒャクサイクラブ",
    "address": "京都府城陽市寺田水度坂15-304",
    "lat": 34.8548959774972,
    "lng": 135.782821009552,
    "tel": "0774-54-0118",
    "url": "",
    "pref": "京都府",
    "city": "城陽市",
    "category": "community_day_service",
    "serviceType": "地域密着型通所介護",
    "capacity": 0,
    "openDays": [
      "平日",
      "祝日"
    ],
    "openDaysNote": ""
  },
  {
    "id": "2672800287",
    "name": "デイサービスゆうあい寺田",
    "kana": "デイサービスユウアイテラダ",
    "address": "城陽市寺田乾出北４５番地",
    "lat": 34.8560801,
    "lng": 135.7702637,
    "tel": "0774-56-1950",
    "url": "http://uikaigo.sakura.ne.jp",
    "pref": "京都府",
    "city": "城陽市",
    "category": "community_day_service",
    "serviceType": "地域密着型通所介護",
    "capacity": 0,
    "openDays": [
      "平日"
    ],
    "openDaysNote": ""
  },
  {
    "id": "2672800147",
    "name": "デイサービス友愛",
    "kana": "デイサービスユウアイ",
    "address": "京都府城陽市市辺中垣内４番地",
    "lat": 34.8252306,
    "lng": 135.8048802,
    "tel": "0774-57-0320",
    "url": "http://uikaigo.sakura.ne.jp",
    "pref": "京都府",
    "city": "城陽市",
    "category": "community_day_service",
    "serviceType": "地域密着型通所介護",
    "capacity": 0,
    "openDays": [
      "平日",
      "土曜日",
      "祝日"
    ],
    "openDaysNote": ""
  },
  {
    "id": "2672800071",
    "name": "社会福祉法人和光会デイサービスセンター梅林園",
    "kana": "シャカイフクシホウジンワコウカイデイサービスセンターバイリンエン",
    "address": "京都府城陽市中芦原55番地",
    "lat": 34.8326675,
    "lng": 135.8174816,
    "tel": "0774-56-3000",
    "url": "https://bairinen.jp/",
    "pref": "京都府",
    "city": "城陽市",
    "category": "community_day_service",
    "serviceType": "地域密着型通所介護",
    "capacity": null,
    "openDays": [
      "平日",
      "土曜日",
      "祝日"
    ],
    "openDaysNote": ""
  },
  {
    "id": "2672800154",
    "name": "通所介護事業所ほほえみの里",
    "kana": "ツウショカイゴジギョウショホホエミノサト",
    "address": "京都府城陽市枇杷庄大堀94番地",
    "lat": 34.8366378,
    "lng": 135.770123,
    "tel": "0774-56-0135",
    "url": "",
    "pref": "京都府",
    "city": "城陽市",
    "category": "community_day_service",
    "serviceType": "地域密着型通所介護",
    "capacity": null,
    "openDays": [
      "平日",
      "土曜日",
      "日曜日",
      "祝日"
    ],
    "openDaysNote": "地域密着型通所介護：年中無休（改行）通所介護相当サービス：年中無休（１２/３０～１/３除く。）"
  },
  {
    "id": "2673000317",
    "name": "デイサービスこもれび",
    "kana": "デイサービスコモレビ",
    "address": "友岡4丁目3番18号ニューコーポヤスダ　103 ニューコーポヤスダ　103",
    "lat": 34.9158829,
    "lng": 135.6906888,
    "tel": "075-958-6848",
    "url": "",
    "pref": "京都府",
    "city": "長岡京市",
    "category": "community_day_service",
    "serviceType": "地域密着型通所介護",
    "capacity": 13,
    "openDays": [
      "平日",
      "土曜日",
      "祝日"
    ],
    "openDaysNote": "サービス時間外対応"
  },
  {
    "id": "2673000085",
    "name": "医療法人村西医院　デイサービスセンター",
    "kana": "イリョウホウジンムラニシイイン　デイサービスセンター",
    "address": "京都府長岡京市神足七ノ坪１１",
    "lat": 34.9204529,
    "lng": 135.7108196,
    "tel": "759577077",
    "url": "",
    "pref": "京都府",
    "city": "長岡京市",
    "category": "community_day_service",
    "serviceType": "地域密着型通所介護",
    "capacity": null,
    "openDays": [
      "平日"
    ],
    "openDaysNote": ""
  },
  {
    "id": "2693000164",
    "name": "笑顔リハぷらす　長岡今里店",
    "kana": "エガオリハプラスナガオカイマザトテン",
    "address": "今里彦林6-1",
    "lat": 34.935556,
    "lng": 135.6856971,
    "tel": "075-957-0088",
    "url": "http://www.smilelink15.com",
    "pref": "京都府",
    "city": "長岡京市",
    "category": "community_day_service",
    "serviceType": "地域密着型通所介護",
    "capacity": 0,
    "openDays": [
      "平日",
      "土曜日",
      "祝日"
    ],
    "openDaysNote": ""
  },
  {
    "id": "2673400129",
    "name": "NISリハトレセンター",
    "kana": "エヌアイエスリハトレセンター",
    "address": "京都府南丹市八木町八木西町裏52-1",
    "lat": 35.0683563317972,
    "lng": 135.535172793393,
    "tel": "0771-20-6052",
    "url": "",
    "pref": "京都府",
    "city": "南丹市",
    "category": "community_day_service",
    "serviceType": "地域密着型通所介護",
    "capacity": 100,
    "openDays": [
      "平日"
    ],
    "openDaysNote": ""
  },
  {
    "id": "2673400061",
    "name": "ＮＰＯ法人ディハウスほっこり",
    "kana": "エヌピーオーホウジンディハウスホッコリ",
    "address": "京都府南丹市八木町八木東久保20-3",
    "lat": 35.0717977,
    "lng": 135.5324407,
    "tel": "0771-42-2148",
    "url": "",
    "pref": "京都府",
    "city": "南丹市",
    "category": "community_day_service",
    "serviceType": "地域密着型通所介護",
    "capacity": 11,
    "openDays": [
      "平日",
      "祝日"
    ],
    "openDaysNote": ""
  },
  {
    "id": "2693400067",
    "name": "Sukku",
    "kana": "スック",
    "address": "京都府南丹市園部町美園町4号16番地３８",
    "lat": 35.107377,
    "lng": 135.473276,
    "tel": "0771-62-0005",
    "url": "",
    "pref": "京都府",
    "city": "南丹市",
    "category": "community_day_service",
    "serviceType": "地域密着型通所介護",
    "capacity": 10,
    "openDays": [
      "平日"
    ],
    "openDaysNote": ""
  },
  {
    "id": "2693400075",
    "name": "ケアリング　みそのまち",
    "kana": "ケアリング　ミソノマチ",
    "address": "京都府南丹市園部町美園町4号1番",
    "lat": 35.1082582,
    "lng": 135.472507,
    "tel": "0771-60-2015",
    "url": "www.care-ring.com",
    "pref": "京都府",
    "city": "南丹市",
    "category": "community_day_service",
    "serviceType": "地域密着型通所介護",
    "capacity": null,
    "openDays": [
      "平日",
      "土曜日",
      "祝日"
    ],
    "openDaysNote": ""
  },
  {
    "id": "2693400083",
    "name": "デイサービスセンターあおぞら",
    "kana": "デイサービスセンターアオゾラ",
    "address": "京都府南丹市八木町大藪穴ノ口7番地2",
    "lat": 35.078202,
    "lng": 135.521216,
    "tel": "0771-42-6311",
    "url": "",
    "pref": "京都府",
    "city": "南丹市",
    "category": "community_day_service",
    "serviceType": "地域密着型通所介護",
    "capacity": null,
    "openDays": [
      "平日",
      "土曜日"
    ],
    "openDaysNote": ""
  },
  {
    "id": "2673400103",
    "name": "デイサービスふれあいハート",
    "kana": "デイサービスフレアイハート",
    "address": "京都府南丹市園部町本町62萌え木 萌え木",
    "lat": 35.11051,
    "lng": 135.4734453,
    "tel": "0771(86)8805",
    "url": "http://www.fureai-heart.jp/",
    "pref": "京都府",
    "city": "南丹市",
    "category": "community_day_service",
    "serviceType": "地域密着型通所介護",
    "capacity": 0,
    "openDays": [
      "平日",
      "土曜日"
    ],
    "openDaysNote": ""
  },
  {
    "id": "2673400160",
    "name": "デイサービスふれあい本町",
    "kana": "デイサービスフレアイホンマチ",
    "address": "南丹市園部町本町33番地",
    "lat": 35.1106904109566,
    "lng": 135.472273816568,
    "tel": "0771（68）2818",
    "url": "https://fureaihonmachi.jp/",
    "pref": "京都府",
    "city": "南丹市",
    "category": "community_day_service",
    "serviceType": "地域密着型通所介護",
    "capacity": null,
    "openDays": [
      "平日",
      "祝日"
    ],
    "openDaysNote": ""
  },
  {
    "id": "2693400059",
    "name": "はぎの里デイサービスセンター",
    "kana": "ハギノサトデイサービスセンター",
    "address": "京都府南丹市日吉町胡麻萩原15番地",
    "lat": 35.1841019,
    "lng": 135.4860689,
    "tel": "0771-72-1500",
    "url": "http://www.cans.zaq.ne.jp/haginosato",
    "pref": "京都府",
    "city": "南丹市",
    "category": "community_day_service",
    "serviceType": "地域密着型通所介護",
    "capacity": 10,
    "openDays": [
      "平日",
      "日曜日",
      "祝日"
    ],
    "openDaysNote": ""
  },
  {
    "id": "2671700124",
    "name": "知井デイサービスセンター",
    "kana": "チイデイサービスセンター",
    "address": "京都府南丹市美山町中上前82-１",
    "lat": 35.3119095,
    "lng": 135.6393687,
    "tel": "0771-77-5080",
    "url": "http://www.hokusoukai.com/",
    "pref": "京都府",
    "city": "南丹市",
    "category": "community_day_service",
    "serviceType": "地域密着型通所介護",
    "capacity": 0,
    "openDays": [
      "平日",
      "祝日"
    ],
    "openDaysNote": ""
  },
  {
    "id": "2692900083",
    "name": "京都ひまわり園",
    "kana": "キョウトヒマワリエン",
    "address": "京都府八幡市八幡清水井31番地",
    "lat": 34.8716441,
    "lng": 135.7012244,
    "tel": "075-983-8111",
    "url": "http://ws-kyoto.jp",
    "pref": "京都府",
    "city": "八幡市",
    "category": "community_day_service",
    "serviceType": "地域密着型通所介護",
    "capacity": 0,
    "openDays": [
      "平日"
    ],
    "openDaysNote": "サービス提供時間（改行）1単位目　9：30～12：30（改行）2単位目　13：30～16：30"
  },
  {
    "id": "2672700271",
    "name": "デイサービスセンターふれあい",
    "kana": "デイサービスセンターフレアイ",
    "address": "京都府舞鶴市字平小字堂ヶ角1558番地1",
    "lat": 35.5177859829506,
    "lng": 135.394698250462,
    "tel": "0773-68-1170",
    "url": "",
    "pref": "京都府",
    "city": "舞鶴市",
    "category": "community_day_service",
    "serviceType": "地域密着型通所介護",
    "capacity": 15,
    "openDays": [
      "平日",
      "祝日"
    ],
    "openDaysNote": "年末年始は12/31～1/4まで定休日です。"
  },
  {
    "id": "2672700578",
    "name": "デイサービス粋生俱楽部　舞鶴",
    "kana": "デイサービスイキナクラブ　マイヅル",
    "address": "寺内88",
    "lat": 35.4505976,
    "lng": 135.3246898,
    "tel": "0773-60-1067",
    "url": "",
    "pref": "京都府",
    "city": "舞鶴市",
    "category": "community_day_service",
    "serviceType": "地域密着型通所介護",
    "capacity": 15,
    "openDays": [
      "平日",
      "祝日"
    ],
    "openDaysNote": "年末年始、夏季休暇あり"
  },
  {
    "id": "2672700487",
    "name": "みぢかなデイサービス田園",
    "kana": "ミヂカナデイサービス　デンエン",
    "address": "京都府舞鶴市字志高５５３番地の5",
    "lat": 35.4356097199082,
    "lng": 135.250894296338,
    "tel": "0773-60-1020",
    "url": "",
    "pref": "京都府",
    "city": "舞鶴市",
    "category": "community_day_service",
    "serviceType": "地域密着型通所介護",
    "capacity": 0,
    "openDays": [
      "平日",
      "土曜日",
      "祝日"
    ],
    "openDaysNote": "年末年始は利用者の状態により臨時営業をすることもある"
  },
  {
    "id": "2672700495",
    "name": "リハプライド　西舞鶴",
    "kana": "リハプライド　ニシマイヅル",
    "address": "京都府舞鶴市字京田63番地",
    "lat": 35.4268548,
    "lng": 135.3281591,
    "tel": "0773-76-6900",
    "url": "http://www.lets-club.com/nishimaizuru/",
    "pref": "京都府",
    "city": "舞鶴市",
    "category": "community_day_service",
    "serviceType": "地域密着型通所介護",
    "capacity": 36,
    "openDays": [
      "平日",
      "祝日"
    ],
    "openDaysNote": "8月13～16日、１２月３０日～１月6日休み　会社都合で休む場合あり"
  },
  {
    "id": "2672700313",
    "name": "医療法人弘愛会西村内科デイサービスさくらプラザ",
    "kana": "イリョウホウジンコウアイカイニシムラナイカ",
    "address": "舞鶴市倉梯中町3番地の2",
    "lat": 35.4614793,
    "lng": 135.3957023,
    "tel": "0773-65-2111",
    "url": "http://www.eonet.ne.jp/~sakuraplaza/",
    "pref": "京都府",
    "city": "舞鶴市",
    "category": "community_day_service",
    "serviceType": "地域密着型通所介護",
    "capacity": 18,
    "openDays": [
      "平日",
      "土曜日",
      "祝日"
    ],
    "openDaysNote": "荒天時、臨時休業および提供時間を短縮することがあります。"
  },
  {
    "id": "2692700020",
    "name": "医療法人社団　外松医院　　ハーモニーデイサービスセンター",
    "kana": "イリョウホウジンシャダン　ソトマツイイン",
    "address": "京都府舞鶴市字竹屋98-1",
    "lat": 35.4505158,
    "lng": 135.3264866,
    "tel": "0773-78-3719",
    "url": "",
    "pref": "京都府",
    "city": "舞鶴市",
    "category": "community_day_service",
    "serviceType": "地域密着型通所介護",
    "capacity": 0,
    "openDays": [
      "平日",
      "土曜日",
      "祝日"
    ],
    "openDaysNote": ""
  },
  {
    "id": "2672600521",
    "name": "デイサービス　プラトー",
    "kana": "デイサービス　プラトー",
    "address": "京都府福知山市土師新町２丁目８６番地の２",
    "lat": 35.2886752659162,
    "lng": 135.146165041,
    "tel": "0773-20-1077",
    "url": "",
    "pref": "京都府",
    "city": "福知山市",
    "category": "community_day_service",
    "serviceType": "地域密着型通所介護",
    "capacity": 0,
    "openDays": [
      "平日",
      "祝日"
    ],
    "openDaysNote": ""
  },
  {
    "id": "2672600117",
    "name": "にれの木園デイサービスセンター",
    "kana": "ニレノキエンデイサービスセンター",
    "address": "京都府福知山市字天田小字大塚14-2",
    "lat": 35.2834458561131,
    "lng": 135.122695054601,
    "tel": "0773-24-0189",
    "url": "http://www.skymind.jp",
    "pref": "京都府",
    "city": "福知山市",
    "category": "community_day_service",
    "serviceType": "地域密着型通所介護",
    "capacity": 0,
    "openDays": [
      "平日",
      "土曜日",
      "祝日"
    ],
    "openDaysNote": "年末年始休業（12/31～1/1）"
  },
  {
    "id": "2692600253",
    "name": "フィットネス型デイサービスえむずケア",
    "kana": "フィットネスガタデイサービスエムズケア",
    "address": "京都府福知山市篠尾新町１丁目７５番地グランコート篠尾新町1Ｆ グランコート篠尾新町1Ｆ",
    "lat": 35.2988167035147,
    "lng": 135.112994059525,
    "tel": "0773-24-3939",
    "url": "https://emuzu-care.jp/",
    "pref": "京都府",
    "city": "福知山市",
    "category": "community_day_service",
    "serviceType": "地域密着型通所介護",
    "capacity": 0,
    "openDays": [
      "平日"
    ],
    "openDaysNote": "夏季・年末年始休みあり"
  },
  {
    "id": "2672600638",
    "name": "リハビリデイサービスたけのこ福知山店",
    "kana": "リハビリデイサービスタケノコフクチヤマテン",
    "address": "篠尾新町２丁目８５番地",
    "lat": 35.3015968021609,
    "lng": 135.113863189549,
    "tel": "0773-22-8900",
    "url": "https://takenoko-rd.jp/",
    "pref": "京都府",
    "city": "福知山市",
    "category": "community_day_service",
    "serviceType": "地域密着型通所介護",
    "capacity": 124,
    "openDays": [
      "平日"
    ],
    "openDaysNote": ""
  },
  {
    "id": "2672600596",
    "name": "南風デイサービスセンター",
    "kana": "ミナミカゼデイサービスセンター",
    "address": "京都府福知山市駅南町2丁目265番地",
    "lat": 35.2928231,
    "lng": 135.1180863,
    "tel": "0773-22-3306",
    "url": "http://hp.kaipoke.biz/z5n/",
    "pref": "京都府",
    "city": "福知山市",
    "category": "community_day_service",
    "serviceType": "地域密着型通所介護",
    "capacity": null,
    "openDays": [
      "平日",
      "土曜日",
      "祝日"
    ],
    "openDaysNote": "お盆休み　8/14～8/16　　年末年始　12/31～1/4"
  },
  {
    "id": "2673500084",
    "name": "デイサービスセンターみかのはら",
    "kana": "デイサービスセンターミカノハラ",
    "address": "京都府木津川市加茂町例幣小ノ林７５",
    "lat": 34.769004292873,
    "lng": 135.862560176225,
    "tel": "０７７４－７６－２００８",
    "url": "",
    "pref": "京都府",
    "city": "木津川市",
    "category": "community_day_service",
    "serviceType": "地域密着型通所介護",
    "capacity": 10,
    "openDays": [
      "平日",
      "土曜日"
    ],
    "openDaysNote": "年末年始：12月29日から1月3日"
  },
  {
    "id": "2671400303",
    "name": "デイサービスふるふる",
    "kana": "デイサービスフルフル",
    "address": "京都府木津川市州見台七丁目１番地１",
    "lat": 34.7153642,
    "lng": 135.8212117,
    "tel": "0774-75-1055",
    "url": "https://seven-ph.co.jp/pages/daycarecenter",
    "pref": "京都府",
    "city": "木津川市",
    "category": "community_day_service",
    "serviceType": "地域密着型通所介護",
    "capacity": 18,
    "openDays": [
      "平日",
      "土曜日",
      "祝日"
    ],
    "openDaysNote": ""
  },
  {
    "id": "2693500106",
    "name": "リスタデイサービス木津川",
    "kana": "リスタデイサービスキヅガワ",
    "address": "京都府木津川市州見台七丁目1-1",
    "lat": 34.715378,
    "lng": 135.8211887,
    "tel": "0774-75-1055",
    "url": "https://hp.kaipoke.biz/y06/",
    "pref": "京都府",
    "city": "木津川市",
    "category": "community_day_service",
    "serviceType": "地域密着型通所介護",
    "capacity": 0,
    "openDays": [
      "平日",
      "土曜日",
      "祝日"
    ],
    "openDaysNote": ""
  },
  {
    "id": "2673500027",
    "name": "通所介護　芽吹",
    "kana": "ツウショカイゴ　メブキ",
    "address": "京都府木津川市城山台８丁目１番地",
    "lat": 34.735723968278,
    "lng": 135.829436435304,
    "tel": "0774-39-4220",
    "url": "https://mebuki.site",
    "pref": "京都府",
    "city": "木津川市",
    "category": "community_day_service",
    "serviceType": "地域密着型通所介護",
    "capacity": 0,
    "openDays": [
      "平日",
      "土曜日",
      "祝日"
    ],
    "openDaysNote": ""
  },
  {
    "id": "2673500175",
    "name": "福丸デイサービスセンター",
    "kana": "フクマルデイサービスセンター",
    "address": "京都府木津川市城山台10丁目１６－９",
    "lat": 34.7272564,
    "lng": 135.8325405,
    "tel": "0774‐71‐8767",
    "url": "fukumaru-kaigo.com",
    "pref": "京都府",
    "city": "木津川市",
    "category": "community_day_service",
    "serviceType": "地域密着型通所介護",
    "capacity": null,
    "openDays": [
      "平日",
      "土曜日",
      "祝日"
    ],
    "openDaysNote": ""
  },
  {
    "id": "2692000140",
    "name": "Lifecareかすみ",
    "kana": "ライフケアカスミ",
    "address": "京都府与謝郡与謝野町字男山217番地1‐3",
    "lat": 35.57193,
    "lng": 135.1617767,
    "tel": "0772-45-1488",
    "url": "",
    "pref": "京都府",
    "city": "与謝野町",
    "category": "community_day_service",
    "serviceType": "地域密着型通所介護",
    "capacity": null,
    "openDays": [
      "平日",
      "祝日"
    ],
    "openDaysNote": ""
  },
  {
    "id": "2692000082",
    "name": "あるけるデイ・ユメライフ",
    "kana": "アルケルデイユメライフ",
    "address": "京都府与謝郡与謝野町男山217-1-3",
    "lat": 35.5719383,
    "lng": 135.1617491,
    "tel": "0772-45-1488",
    "url": "",
    "pref": "京都府",
    "city": "与謝野町",
    "category": "community_day_service",
    "serviceType": "地域密着型通所介護",
    "capacity": null,
    "openDays": [
      "平日",
      "祝日"
    ],
    "openDaysNote": ""
  },
  {
    "id": "2672000292",
    "name": "デイサービスわおん",
    "kana": "デイサービスワオン",
    "address": "京都府与謝郡与謝野町字金屋４３１番地５８",
    "lat": 35.4889994,
    "lng": 135.0894814,
    "tel": "０７７２－４２－８７００",
    "url": "",
    "pref": "京都府",
    "city": "与謝野町",
    "category": "community_day_service",
    "serviceType": "地域密着型通所介護",
    "capacity": 10,
    "openDays": [
      "平日",
      "土曜日"
    ],
    "openDaysNote": ""
  }
]