[
  {
    "id": "4171200639",
    "name": "ミック健康の森　みやき",
    "kana": "ミックケンコウノモリ　ミヤキ",
    "address": "佐賀県三養基郡みやき町白壁690-21階Ｃ号室 1階Ｃ号室",
    "lat": 33.3283775497711,
    "lng": 130.468273745894,
    "tel": "0942-89-5711",
    "url": "http://www.un-mik.co.jp/",
    "pref": "佐賀県",
    "city": "みやき町",
    "category": "community_day_service",
    "serviceType": "地域密着型通所介護",
    "capacity": 18,
    "openDays": [
      "平日",
      "祝日"
    ],
    "openDaysNote": ""
  },
  {
    "id": "4191200163",
    "name": "ミック健康の森　みやき",
    "kana": "ミックケンコウノモリ　ミヤキ",
    "address": "佐賀県三養基郡みやき町白壁690-2",
    "lat": 33.3283347,
    "lng": 130.4682636,
    "tel": "0942-89-5711",
    "url": "http://un-mik.co.jp/",
    "pref": "佐賀県",
    "city": "みやき町",
    "category": "community_day_service",
    "serviceType": "地域密着型通所介護",
    "capacity": null,
    "openDays": [
      "平日",
      "祝日"
    ],
    "openDaysNote": ""
  },
  {
    "id": "4171200654",
    "name": "リハビリ専門デイサービス　らしく・らしく",
    "kana": "リハビリセンモンデイサービス　ラシク・ラシク",
    "address": "佐賀県三養基郡みやき町原古賀7385番地9",
    "lat": 33.3349862,
    "lng": 130.4443432,
    "tel": "0942－80－0696",
    "url": "",
    "pref": "佐賀県",
    "city": "みやき町",
    "category": "community_day_service",
    "serviceType": "地域密着型通所介護",
    "capacity": 0,
    "openDays": [
      "平日",
      "祝日"
    ],
    "openDaysNote": "祝日・祭日は営業する。（改行）年末年始１２月３１日～１月３日は定休日"
  },
  {
    "id": "4171200399",
    "name": "寄り合いステーション　　さくら坂",
    "kana": "ヨリアイステーション　サクラザカ",
    "address": "佐賀県三養基郡みやき町大字原古賀6309-67",
    "lat": 33.3249819,
    "lng": 130.4546984,
    "tel": "0942-94-2071",
    "url": "",
    "pref": "佐賀県",
    "city": "みやき町",
    "category": "community_day_service",
    "serviceType": "地域密着型通所介護",
    "capacity": 18,
    "openDays": [
      "平日",
      "祝日"
    ],
    "openDaysNote": "お正月１～３日休み"
  },
  {
    "id": "4170500609",
    "name": "かさね家",
    "kana": "カサネヤ",
    "address": "佐賀県伊万里市脇田町318-37",
    "lat": 33.2806283,
    "lng": 129.8851825,
    "tel": "0955-23-5925",
    "url": "",
    "pref": "佐賀県",
    "city": "伊万里市",
    "category": "community_day_service",
    "serviceType": "地域密着型通所介護",
    "capacity": 0,
    "openDays": [
      "平日",
      "土曜日",
      "祝日"
    ],
    "openDaysNote": "12月31日～1月3日はお休みです。"
  },
  {
    "id": "4170500716",
    "name": "デイサービス　きずな",
    "kana": "デイサービス　キズナ",
    "address": "佐賀県伊万里市東山代町里4774-4",
    "lat": 33.2814051808542,
    "lng": 129.825444295673,
    "tel": "0955-21-2315",
    "url": "http://hp.kaipoke.biz/3h0/",
    "pref": "佐賀県",
    "city": "伊万里市",
    "category": "community_day_service",
    "serviceType": "地域密着型通所介護",
    "capacity": 12,
    "openDays": [
      "平日",
      "土曜日",
      "日曜日",
      "祝日"
    ],
    "openDaysNote": ""
  },
  {
    "id": "4170500831",
    "name": "デイサービス　ノア",
    "kana": "デイサービス　ノア",
    "address": "佐賀県伊万里市立花町字通谷１６０４番地１５５",
    "lat": 33.2637423332781,
    "lng": 129.883273074097,
    "tel": "０９５５－２５－９８７３",
    "url": "",
    "pref": "佐賀県",
    "city": "伊万里市",
    "category": "community_day_service",
    "serviceType": "地域密着型通所介護",
    "capacity": 15,
    "openDays": [
      "平日",
      "土曜日",
      "日曜日",
      "祝日"
    ],
    "openDaysNote": "大型連休などで人の配置が難しい時などは事前に利用者様とその関係者に連絡して休業する時がある。"
  },
  {
    "id": "4170500773",
    "name": "デイサービス　ゆうゆう",
    "kana": "デイサービス　ユウユウ",
    "address": "佐賀県伊万里市松島町265番地7",
    "lat": 33.2767035,
    "lng": 129.8762861,
    "tel": "0955-22-4458",
    "url": "",
    "pref": "佐賀県",
    "city": "伊万里市",
    "category": "community_day_service",
    "serviceType": "地域密着型通所介護",
    "capacity": 10,
    "openDays": [
      "平日",
      "土曜日",
      "祝日"
    ],
    "openDaysNote": "年末年始の休み　8月13日～8月15日　・　12月31日～1月3日"
  },
  {
    "id": "4170500575",
    "name": "デイサービスながやま　ハナミズキ",
    "kana": "デイサービスナガヤマハナミズキ",
    "address": "佐賀県伊万里市大坪町甲734-1",
    "lat": 33.2952799,
    "lng": 129.8972451,
    "tel": "0955-22-0187",
    "url": "",
    "pref": "佐賀県",
    "city": "伊万里市",
    "category": "community_day_service",
    "serviceType": "地域密着型通所介護",
    "capacity": 15,
    "openDays": [
      "平日",
      "土曜日",
      "日曜日",
      "祝日"
    ],
    "openDaysNote": ""
  },
  {
    "id": "4170500401",
    "name": "デイサービスながやまハナレンゲ",
    "kana": "デイサービスナガヤマハナレンゲ",
    "address": "佐賀県伊万里市大坪町甲740",
    "lat": 33.2953687,
    "lng": 129.8969146,
    "tel": "0955-29-8755",
    "url": "",
    "pref": "佐賀県",
    "city": "伊万里市",
    "category": "community_day_service",
    "serviceType": "地域密着型通所介護",
    "capacity": 15,
    "openDays": [
      "平日",
      "土曜日",
      "日曜日",
      "祝日"
    ],
    "openDaysNote": ""
  },
  {
    "id": "4190500076",
    "name": "デイサービスやまぼうし",
    "kana": "デイサービスヤマボウシ",
    "address": "佐賀県伊万里市波多津町煤屋２４７７番地１",
    "lat": 33.3595785,
    "lng": 129.8529484,
    "tel": "０９５５－２０－５５００",
    "url": "",
    "pref": "佐賀県",
    "city": "伊万里市",
    "category": "community_day_service",
    "serviceType": "地域密着型通所介護",
    "capacity": 3,
    "openDays": [
      "平日",
      "祝日"
    ],
    "openDaysNote": ""
  },
  {
    "id": "4170500583",
    "name": "ふくふくの里よしだデイサービス・宅老所",
    "kana": "フクフクノサトヨシダデイサービスタクロウショ",
    "address": "佐賀県伊万里市大川内町丙924-1",
    "lat": 33.2470157,
    "lng": 129.8873934,
    "tel": "0955-21-1600",
    "url": "https://www.fukufukunosato.net/",
    "pref": "佐賀県",
    "city": "伊万里市",
    "category": "community_day_service",
    "serviceType": "地域密着型通所介護",
    "capacity": 0,
    "openDays": [
      "平日",
      "土曜日",
      "祝日"
    ],
    "openDaysNote": "年末年始（12/31～1/3）を除く毎日営業"
  },
  {
    "id": "4170500781",
    "name": "らくさい倶楽部",
    "kana": "ラクサイクラブ",
    "address": "山代町久原1473番地1",
    "lat": 33.3061407,
    "lng": 129.8124185,
    "tel": "0955-28-1527",
    "url": "",
    "pref": "佐賀県",
    "city": "伊万里市",
    "category": "community_day_service",
    "serviceType": "地域密着型通所介護",
    "capacity": 0,
    "openDays": [
      "平日",
      "祝日"
    ],
    "openDaysNote": "通所介護、通所予防介護を行っております。"
  },
  {
    "id": "4170500765",
    "name": "医療法人　水上医院　デイサービス　はやたハウス",
    "kana": "イリョウホウジン　ミズカミイイン　デイサービス　ハヤタハウス",
    "address": "佐賀県伊万里市山代町立岩409-7",
    "lat": 33.3352977,
    "lng": 129.791502,
    "tel": "0955-28-3822",
    "url": "",
    "pref": "佐賀県",
    "city": "伊万里市",
    "category": "community_day_service",
    "serviceType": "地域密着型通所介護",
    "capacity": 0,
    "openDays": [
      "平日",
      "土曜日",
      "日曜日",
      "祝日"
    ],
    "openDaysNote": ""
  },
  {
    "id": "4170500443",
    "name": "源氣堂リハビリデイサービス",
    "kana": "ゲンキドウリハビリデイサービス",
    "address": "佐賀県伊万里市山代町楠久津177-161",
    "lat": 33.2932036,
    "lng": 129.8316451,
    "tel": "0955-21-2888",
    "url": "http://www.genkido-day.com",
    "pref": "佐賀県",
    "city": "伊万里市",
    "category": "community_day_service",
    "serviceType": "地域密着型通所介護",
    "capacity": 60,
    "openDays": [
      "平日",
      "祝日"
    ],
    "openDaysNote": "その他、夏期・年末年始休業日あり"
  },
  {
    "id": "4170500393",
    "name": "地域共生ステーションぬくもいホームつくし",
    "kana": "チイキキョウセイステーションヌクモイホームツクシ",
    "address": "佐賀県伊万里市大坪町丙１９２４－１",
    "lat": 33.270100107833,
    "lng": 129.888346235582,
    "tel": "0955-22-6670",
    "url": "",
    "pref": "佐賀県",
    "city": "伊万里市",
    "category": "community_day_service",
    "serviceType": "地域密着型通所介護",
    "capacity": 0,
    "openDays": [
      "平日",
      "土曜日",
      "祝日"
    ],
    "openDaysNote": ""
  },
  {
    "id": "4171200621",
    "name": "VOICE音CAFE",
    "kana": "ボイスオンカフェ",
    "address": "佐賀県三養基郡基山町大字宮浦186番地57",
    "lat": 33.4220389,
    "lng": 130.5301705,
    "tel": "0942-85-9024",
    "url": "",
    "pref": "佐賀県",
    "city": "基山町",
    "category": "community_day_service",
    "serviceType": "地域密着型通所介護",
    "capacity": 0,
    "openDays": [
      "平日"
    ],
    "openDaysNote": ""
  },
  {
    "id": "4191200130",
    "name": "デイサービスセンター　基肄の郷",
    "kana": "デイサービスセンター　キイノサト",
    "address": "佐賀県三養基郡基山町大字小倉853-3",
    "lat": 33.4258241,
    "lng": 130.5350212,
    "tel": "942508315",
    "url": "needscrew.jp",
    "pref": "佐賀県",
    "city": "基山町",
    "category": "community_day_service",
    "serviceType": "地域密着型通所介護",
    "capacity": null,
    "openDays": [
      "平日",
      "祝日"
    ],
    "openDaysNote": "R6年3月より月～金の週5日間営業を開始しております。"
  },
  {
    "id": "4170900163",
    "name": "デイサービス　ほほえみの里",
    "kana": "デイサービス　ホホエミノサト",
    "address": "佐賀県嬉野市嬉野町大字下宿甲３７９７番地",
    "lat": 33.1051041,
    "lng": 129.9916,
    "tel": "0954-43-0276",
    "url": "",
    "pref": "佐賀県",
    "city": "嬉野市",
    "category": "community_day_service",
    "serviceType": "地域密着型通所介護",
    "capacity": 0,
    "openDays": [
      "平日",
      "土曜日",
      "日曜日",
      "祝日"
    ],
    "openDaysNote": ""
  },
  {
    "id": "4111710788",
    "name": "デイサービスセンターはつらつ",
    "kana": "デイサービスセンター　ハツラツ",
    "address": "佐賀県嬉野市嬉野町大字下宿甲４７１４番地５",
    "lat": 33.1027961,
    "lng": 129.9956635,
    "tel": "0954-42-2221",
    "url": "",
    "pref": "佐賀県",
    "city": "嬉野市",
    "category": "community_day_service",
    "serviceType": "地域密着型通所介護",
    "capacity": 0,
    "openDays": [
      "平日",
      "土曜日",
      "祝日"
    ],
    "openDaysNote": ""
  },
  {
    "id": "4170900098",
    "name": "デイサービスぬくもいホーム「よつ葉」",
    "kana": "デイサービスヌクモイホーム「ヨツバ」",
    "address": "嬉野市嬉野町大字下野丙１６９９番地２",
    "lat": 33.1231438,
    "lng": 129.9985958,
    "tel": "0954-43-2158",
    "url": "",
    "pref": "佐賀県",
    "city": "嬉野市",
    "category": "community_day_service",
    "serviceType": "地域密着型通所介護",
    "capacity": 10,
    "openDays": [
      "平日",
      "土曜日",
      "日曜日",
      "祝日"
    ],
    "openDaysNote": ""
  },
  {
    "id": "4170900221",
    "name": "デイサービス岩ちゃん家",
    "kana": "デイサービスイワチャンチ",
    "address": "佐賀県嬉野市嬉野町大字岩屋川内乙2848-1",
    "lat": 33.0828869,
    "lng": 129.9785547,
    "tel": "0954-43-2275",
    "url": "",
    "pref": "佐賀県",
    "city": "嬉野市",
    "category": "community_day_service",
    "serviceType": "地域密着型通所介護",
    "capacity": 10,
    "openDays": [
      "平日",
      "土曜日",
      "日曜日",
      "祝日"
    ],
    "openDaysNote": ""
  },
  {
    "id": "4170900197",
    "name": "デイサービス百花之里",
    "kana": "デイサービスモモカノサト",
    "address": "嬉野町大字下宿乙961-1",
    "lat": 33.0980159,
    "lng": 129.9872368,
    "tel": "0954-43-0883",
    "url": "",
    "pref": "佐賀県",
    "city": "嬉野市",
    "category": "community_day_service",
    "serviceType": "地域密着型通所介護",
    "capacity": 0,
    "openDays": [
      "平日",
      "土曜日",
      "日曜日",
      "祝日"
    ],
    "openDaysNote": ""
  },
  {
    "id": "4190700148",
    "name": "佐賀ユートピア",
    "kana": "サガユートピア",
    "address": "佐賀県嬉野市塩田町五町田甲1858-1",
    "lat": 33.1253518194138,
    "lng": 130.06832479276,
    "tel": "0954-66-2700",
    "url": "",
    "pref": "佐賀県",
    "city": "嬉野市",
    "category": "community_day_service",
    "serviceType": "地域密着型通所介護",
    "capacity": 2,
    "openDays": [
      "平日",
      "土曜日",
      "祝日"
    ],
    "openDaysNote": "12/29から1/3までは年末年休日とする。"
  },
  {
    "id": "4190900094",
    "name": "宅幼老所さくらさくら",
    "kana": "タクヨウロウショサクラサクラ",
    "address": "佐賀県嬉野市嬉野町大字下宿甲570番地1",
    "lat": 33.110364,
    "lng": 129.9992049,
    "tel": "954289798",
    "url": "",
    "pref": "佐賀県",
    "city": "嬉野市",
    "category": "community_day_service",
    "serviceType": "地域密着型通所介護",
    "capacity": 0,
    "openDays": [
      "平日",
      "土曜日",
      "日曜日",
      "祝日"
    ],
    "openDaysNote": "12月29日～1月3日までは休み（改行）（ただし、利用者の希望時は相談に応じる）"
  },
  {
    "id": "4170900262",
    "name": "地域共生ステーション　デイサービス・宅老所　たすき",
    "kana": "チイキキョウセイステーション　デイサービス・タクロウショ　（タスキ）",
    "address": "佐賀県嬉野市塩田町大字久間乙1032番地",
    "lat": 33.1280839,
    "lng": 130.0601144,
    "tel": "0954-66-3866",
    "url": "",
    "pref": "佐賀県",
    "city": "嬉野市",
    "category": "community_day_service",
    "serviceType": "地域密着型通所介護",
    "capacity": null,
    "openDays": [
      "平日",
      "土曜日",
      "日曜日",
      "祝日"
    ],
    "openDaysNote": "年末年始の12月31日～1月3日までは、デイサービスはお休みとしていますが、家族様や利用者様のご都合により利用を希望される方が多い場合は開業致しております"
  },
  {
    "id": "4171600382",
    "name": "NPO法人江北　なごむの里",
    "kana": "NPOホウジンコウホク　ナゴムノサト",
    "address": "杵島郡江北町大字総領分1473番地",
    "lat": 33.2160683,
    "lng": 130.177707,
    "tel": "0952-86-4386",
    "url": "",
    "pref": "佐賀県",
    "city": "江北町",
    "category": "community_day_service",
    "serviceType": "地域密着型通所介護",
    "capacity": 15,
    "openDays": [
      "平日",
      "土曜日",
      "日曜日",
      "祝日"
    ],
    "openDaysNote": ""
  },
  {
    "id": "4171600036",
    "name": "デイサービスセンター　るんびに園",
    "kana": "デイサービスセンター　ルンビニエン",
    "address": "佐賀県杵島郡江北町大字惣領分4153番地",
    "lat": 33.2276056,
    "lng": 130.1766404,
    "tel": "0952-86-5500",
    "url": "http://jizankai.jp/",
    "pref": "佐賀県",
    "city": "江北町",
    "category": "community_day_service",
    "serviceType": "地域密着型通所介護",
    "capacity": 0,
    "openDays": [
      "平日",
      "土曜日",
      "祝日"
    ],
    "openDaysNote": ""
  },
  {
    "id": "4190100752",
    "name": "Let’ｓリハinthemall佐賀大和",
    "kana": "レッツリハ　イン　ザ　モール　サガヤマト",
    "address": "佐賀県佐賀市大和町大字尼寺3535イオンモール佐賀大和店　2階 イオンモール佐賀大和店　2階",
    "lat": 33.3041878,
    "lng": 130.2806464,
    "tel": "0952-37-0573",
    "url": "https://www.lets-reha.jp/",
    "pref": "佐賀県",
    "city": "佐賀市",
    "category": "community_day_service",
    "serviceType": "地域密着型通所介護",
    "capacity": null,
    "openDays": [
      "平日",
      "祝日"
    ],
    "openDaysNote": "今後、土曜日営業予定"
  },
  {
    "id": "4171000302",
    "name": "ＮＰＯ法人宅老よりあいひまわりの会居宅サービス事業所ひがたの里",
    "kana": "エヌピーオーホウジンタクロウヨリアイヒマワリノカイキョタクサービスジギョウショヒガタノサト",
    "address": "佐賀県佐賀市東与賀町大字田中554-5",
    "lat": 33.2038935,
    "lng": 130.2855746,
    "tel": "0952-45-5753",
    "url": "",
    "pref": "佐賀県",
    "city": "佐賀市",
    "category": "community_day_service",
    "serviceType": "地域密着型通所介護",
    "capacity": 3,
    "openDays": [
      "平日",
      "土曜日",
      "祝日"
    ],
    "openDaysNote": "延長可能です"
  },
  {
    "id": "4170102497",
    "name": "アクティブデイケアポート晴寿",
    "kana": "アクティブデイ　ケアポートセイジュ",
    "address": "高木瀬町東高木1166番3",
    "lat": 33.2870076,
    "lng": 130.2980266,
    "tel": "0952-20-6565",
    "url": "http://www.seijyukai.com",
    "pref": "佐賀県",
    "city": "佐賀市",
    "category": "community_day_service",
    "serviceType": "地域密着型通所介護",
    "capacity": null,
    "openDays": [
      "平日",
      "祝日"
    ],
    "openDaysNote": ""
  },
  {
    "id": "4170102281",
    "name": "うなぎのねどこデイサービス",
    "kana": "ウナギノネドコデイサービス",
    "address": "本庄町大字末次５７２－１",
    "lat": 33.2318128,
    "lng": 130.3015057,
    "tel": "0952-65-4131",
    "url": "",
    "pref": "佐賀県",
    "city": "佐賀市",
    "category": "community_day_service",
    "serviceType": "地域密着型通所介護",
    "capacity": 10,
    "openDays": [
      "平日",
      "土曜日"
    ],
    "openDaysNote": ""
  },
  {
    "id": "4190100430",
    "name": "きたえる～む佐賀兵庫南",
    "kana": "キタエル～ム　サガヒョウゴミナミ",
    "address": "佐賀県佐賀市兵庫南1丁目19番35号",
    "lat": 33.2613223555366,
    "lng": 130.318094830749,
    "tel": "0952-37-0933",
    "url": "http://kitaeroom.com/sp/",
    "pref": "佐賀県",
    "city": "佐賀市",
    "category": "community_day_service",
    "serviceType": "地域密着型通所介護",
    "capacity": 0,
    "openDays": [
      "平日"
    ],
    "openDaysNote": "※弊社カレンダーに基づく。"
  },
  {
    "id": "4170101200",
    "name": "シオンの園デイサービス水ヶ江",
    "kana": "シオンノソノデイサービスミズガエ",
    "address": "佐賀県佐賀市水ヶ江4丁目2-21",
    "lat": 33.2469740996446,
    "lng": 130.309699227477,
    "tel": "0952-41-5101",
    "url": "http://www.2.saganet.ne,jp/zion",
    "pref": "佐賀県",
    "city": "佐賀市",
    "category": "community_day_service",
    "serviceType": "地域密着型通所介護",
    "capacity": 0,
    "openDays": [
      "平日",
      "土曜日",
      "祝日"
    ],
    "openDaysNote": "年末年始に休業日あり。"
  },
  {
    "id": "4190100539",
    "name": "たすけあい佐賀かせデイサービス",
    "kana": "タスケアイサガ　カセデイサービス",
    "address": "佐賀県佐賀市嘉瀬町大字中原2516番地1地域共生ステーション　たすけあい佐賀かせ 地域共生ステーション　たすけあい佐賀かせ",
    "lat": 33.242320296695,
    "lng": 130.255699988279,
    "tel": "0952-23-6950",
    "url": "https://tasukeai-saga.org/",
    "pref": "佐賀県",
    "city": "佐賀市",
    "category": "community_day_service",
    "serviceType": "地域密着型通所介護",
    "capacity": 0,
    "openDays": [
      "平日",
      "土曜日",
      "日曜日",
      "祝日"
    ],
    "openDaysNote": ""
  },
  {
    "id": "4170102430",
    "name": "ディーサービスオレンヂ",
    "kana": "ディーサービスオレンヂ",
    "address": "佐賀市高木瀬町大字長瀬字一本松71-１",
    "lat": 33.2919113476039,
    "lng": 130.306454697547,
    "tel": "０９５２－３７－５４６７",
    "url": "http://www.frendly-hana.com/cntenl.html",
    "pref": "佐賀県",
    "city": "佐賀市",
    "category": "community_day_service",
    "serviceType": "地域密着型通所介護",
    "capacity": 0,
    "openDays": [
      "平日",
      "土曜日",
      "日曜日",
      "祝日"
    ],
    "openDaysNote": "盆、年末年始も相談に応じます。"
  },
  {
    "id": "4170101598",
    "name": "デイサービス　あかまつ",
    "kana": "デイサービス　アカマツ",
    "address": "佐賀市鬼丸町９－３０",
    "lat": 33.2415284,
    "lng": 130.2985029,
    "tel": "0952-22-0712",
    "url": "",
    "pref": "佐賀県",
    "city": "佐賀市",
    "category": "community_day_service",
    "serviceType": "地域密着型通所介護",
    "capacity": 0,
    "openDays": [
      "平日",
      "土曜日",
      "祝日"
    ],
    "openDaysNote": "サービス提供時間の時間延長対応可（改行）盆・正月・台風等の場合、利用者様もしくはご家族にご連絡いたします。"
  },
  {
    "id": "4170100830",
    "name": "デイサービス　アスク",
    "kana": "デイサービス　アスク",
    "address": "佐賀市大和町大字尼寺1322-1",
    "lat": 33.3134751,
    "lng": 130.2822741,
    "tel": "0952-62-1253",
    "url": "ask@song.ocn.ne.jp",
    "pref": "佐賀県",
    "city": "佐賀市",
    "category": "community_day_service",
    "serviceType": "地域密着型通所介護",
    "capacity": 15,
    "openDays": [
      "平日",
      "祝日"
    ],
    "openDaysNote": ""
  },
  {
    "id": "4170101655",
    "name": "デイサービス　あわてん",
    "kana": "デイサービス　アワテン",
    "address": "佐賀市久保田町久保田1544-6",
    "lat": 33.2508086,
    "lng": 130.2208947,
    "tel": "0952-68-2663",
    "url": "",
    "pref": "佐賀県",
    "city": "佐賀市",
    "category": "community_day_service",
    "serviceType": "地域密着型通所介護",
    "capacity": 8,
    "openDays": [
      "平日"
    ],
    "openDaysNote": "正月休み１２月３１日～１月３日までは休み。"
  },
  {
    "id": "4170102125",
    "name": "デイサービス　しあわせ工房成章",
    "kana": "デイサービス　シアワセコウボウ　セイショウ",
    "address": "成章町5番28号",
    "lat": 33.2547751179492,
    "lng": 130.293346802308,
    "tel": "0952-22-0308",
    "url": "",
    "pref": "佐賀県",
    "city": "佐賀市",
    "category": "community_day_service",
    "serviceType": "地域密着型通所介護",
    "capacity": 18,
    "openDays": [
      "平日",
      "祝日"
    ],
    "openDaysNote": "祝祭日やお盆は平常通り営業いたします。"
  },
  {
    "id": "4170101762",
    "name": "デイサービス　しあわせ工房兵庫",
    "kana": "デイサービス　シアワセコウボウヒョウゴ",
    "address": "兵庫北1丁目19番20号",
    "lat": 33.2671316842586,
    "lng": 130.311026055078,
    "tel": "0952-28-2870",
    "url": "",
    "pref": "佐賀県",
    "city": "佐賀市",
    "category": "community_day_service",
    "serviceType": "地域密着型通所介護",
    "capacity": 18,
    "openDays": [
      "平日",
      "祝日"
    ],
    "openDaysNote": "祝祭日やお盆は平常通り営業いたします。"
  },
  {
    "id": "4170101879",
    "name": "デイサービス　すみれ",
    "kana": "デイサービス　スミレ",
    "address": "佐賀市金立町大字千布2307番地2",
    "lat": 33.3079725,
    "lng": 130.3011923,
    "tel": "0952-98-1399",
    "url": "",
    "pref": "佐賀県",
    "city": "佐賀市",
    "category": "community_day_service",
    "serviceType": "地域密着型通所介護",
    "capacity": 0,
    "openDays": [
      "平日",
      "土曜日",
      "祝日"
    ],
    "openDaysNote": "正月休み（12/31～1/2）"
  },
  {
    "id": "4170102406",
    "name": "デイサービス　せかい樹",
    "kana": "デイサービス　セカイジュ",
    "address": "木原三丁目８番１８号",
    "lat": 33.2428151,
    "lng": 130.3236395,
    "tel": "0952-97-7453",
    "url": "sekaijyu@tiara.ocn.ne.jp",
    "pref": "佐賀県",
    "city": "佐賀市",
    "category": "community_day_service",
    "serviceType": "地域密着型通所介護",
    "capacity": 0,
    "openDays": [
      "平日",
      "土曜日"
    ],
    "openDaysNote": "職員研修等により祝日が定休日になる場合があります。"
  },
  {
    "id": "4170101465",
    "name": "デイサービス　ながせひらお苑",
    "kana": "デイサービス　ナガセヒラオエン",
    "address": "佐賀市高木瀬町長瀬1862－5",
    "lat": 33.2964837987585,
    "lng": 130.286379571333,
    "tel": "0952-20-2660",
    "url": "https://smart-brain.co.jp/",
    "pref": "佐賀県",
    "city": "佐賀市",
    "category": "community_day_service",
    "serviceType": "地域密着型通所介護",
    "capacity": 15,
    "openDays": [
      "平日",
      "土曜日",
      "祝日"
    ],
    "openDaysNote": ""
  },
  {
    "id": "4170102034",
    "name": "デイサービス　ながせ苑",
    "kana": "デイサービス　ナガセエン",
    "address": "佐賀市高木瀬町大字長瀬113－1",
    "lat": 33.2916741,
    "lng": 130.3046314,
    "tel": "0952－37－8905",
    "url": "https://smart-brain.co.jp/",
    "pref": "佐賀県",
    "city": "佐賀市",
    "category": "community_day_service",
    "serviceType": "地域密着型通所介護",
    "capacity": 10,
    "openDays": [
      "平日",
      "土曜日",
      "祝日"
    ],
    "openDaysNote": ""
  },
  {
    "id": "4170102224",
    "name": "デイサービス　ほうむ大願寺",
    "kana": "デイサービス　ホウムダイガンジ",
    "address": "佐賀市大和町大字川上３６３８番地",
    "lat": 33.3243262,
    "lng": 130.2679303,
    "tel": "0952‐62‐1859",
    "url": "http://houmu-group.com/",
    "pref": "佐賀県",
    "city": "佐賀市",
    "category": "community_day_service",
    "serviceType": "地域密着型通所介護",
    "capacity": 0,
    "openDays": [
      "平日",
      "土曜日",
      "日曜日",
      "祝日"
    ],
    "openDaysNote": ""
  },
  {
    "id": "4170102059",
    "name": "デイサービス　ゆう",
    "kana": "デイサービス　ユウ",
    "address": "佐賀市高木瀬東1－1－6",
    "lat": 33.2801332,
    "lng": 130.2986712,
    "tel": "0952－37－7477",
    "url": "",
    "pref": "佐賀県",
    "city": "佐賀市",
    "category": "community_day_service",
    "serviceType": "地域密着型通所介護",
    "capacity": 18,
    "openDays": [
      "平日",
      "土曜日",
      "祝日"
    ],
    "openDaysNote": "サービスの利用に当たっては、医師の診断や日常生活の留意事項、利用当日の健康状態を職員に連絡し、心身の状況に応じたサービスの提供を受けるよう留意する。"
  },
  {
    "id": "4170101978",
    "name": "デイサービス　芙蓉の花",
    "kana": "デイサービス　フヨウノハナ",
    "address": "佐賀市蓮池町大字蓮池350番地1",
    "lat": 33.2461336108335,
    "lng": 130.353018482803,
    "tel": "0952-97-1705",
    "url": "",
    "pref": "佐賀県",
    "city": "佐賀市",
    "category": "community_day_service",
    "serviceType": "地域密着型通所介護",
    "capacity": null,
    "openDays": [
      "平日",
      "土曜日",
      "祝日"
    ],
    "openDaysNote": ""
  },
  {
    "id": "4190100562",
    "name": "デイサービスjoin",
    "kana": "デイサービスジョイン",
    "address": "田代2丁目5－17デイサービスjoin デイサービスjoin",
    "lat": 33.2505487,
    "lng": 130.3135288,
    "tel": "0952-27-8881",
    "url": "",
    "pref": "佐賀県",
    "city": "佐賀市",
    "category": "community_day_service",
    "serviceType": "地域密着型通所介護",
    "capacity": 0,
    "openDays": [
      "平日",
      "土曜日",
      "日曜日",
      "祝日"
    ],
    "openDaysNote": "自然災害発生時　　業務が困難な状況と判断される時、関係機関と連絡を取り臨時休業とする。"
  },
  {
    "id": "4170102778",
    "name": "デイサービスえがお",
    "kana": "デイサービスエガオ",
    "address": "佐賀県佐賀市諸富町大字徳富１９２８番地",
    "lat": 33.2273610988102,
    "lng": 130.358069193254,
    "tel": "0952-47-4797",
    "url": "",
    "pref": "佐賀県",
    "city": "佐賀市",
    "category": "community_day_service",
    "serviceType": "地域密着型通所介護",
    "capacity": null,
    "openDays": [
      "平日",
      "土曜日",
      "祝日"
    ],
    "openDaysNote": ""
  },
  {
    "id": "4190100513",
    "name": "デイサービスセンター　桂寿苑",
    "kana": "デイサービスセンター　ケイジュエン",
    "address": "佐賀県佐賀市久保泉町大字川久保1986番地1",
    "lat": 33.3227111,
    "lng": 130.3191839,
    "tel": "0952-98-3521",
    "url": "http://www.ryoyuukai.jp",
    "pref": "佐賀県",
    "city": "佐賀市",
    "category": "community_day_service",
    "serviceType": "地域密着型通所介護",
    "capacity": 0,
    "openDays": [
      "平日",
      "土曜日",
      "祝日"
    ],
    "openDaysNote": "日曜日以外の年末年始、大型連休等随時実施。"
  },
  {
    "id": "4190100521",
    "name": "デイサービスセンター　好日苑",
    "kana": "デイサービスセンター　コウジツエン",
    "address": "佐賀市木原三丁目２-１１デイサービスセンター好日苑 デイサービスセンター好日苑",
    "lat": 33.2475494,
    "lng": 130.3232256,
    "tel": "0952-29-6141",
    "url": "https://yakabeiin.com/",
    "pref": "佐賀県",
    "city": "佐賀市",
    "category": "community_day_service",
    "serviceType": "地域密着型通所介護",
    "capacity": 18,
    "openDays": [
      "平日",
      "土曜日"
    ],
    "openDaysNote": "長期の連休になる場合は必要に応じて営業する場合があります"
  },
  {
    "id": "4190100612",
    "name": "デイサービスセンターえいる",
    "kana": "デイサービスセンターエイル",
    "address": "佐賀県佐賀市諸富町大字大堂2357番地1",
    "lat": 33.2415265,
    "lng": 130.354046640476,
    "tel": "0952-37-3733",
    "url": "",
    "pref": "佐賀県",
    "city": "佐賀市",
    "category": "community_day_service",
    "serviceType": "地域密着型通所介護",
    "capacity": 0,
    "openDays": [
      "平日",
      "土曜日",
      "祝日"
    ],
    "openDaysNote": "12/31～1/3までは年末年始の為休業"
  },
  {
    "id": "4190100588",
    "name": "デイサービスセンタートクダsaga",
    "kana": "デイサービスセンタートクダサガ",
    "address": "佐賀県佐賀市成章町2-7",
    "lat": 33.2576429,
    "lng": 130.2968962,
    "tel": "0952-97-8285",
    "url": "http://tokuda-sd.com/",
    "pref": "佐賀県",
    "city": "佐賀市",
    "category": "community_day_service",
    "serviceType": "地域密着型通所介護",
    "capacity": 110,
    "openDays": [
      "平日",
      "土曜日"
    ],
    "openDaysNote": ""
  },
  {
    "id": "4170102455",
    "name": "デイサービスセンター杏の樹",
    "kana": "デイサービスセンターアンズノキ",
    "address": "佐賀県佐賀市鬼丸町15-38",
    "lat": 33.2423282,
    "lng": 130.2954559,
    "tel": "0952-40-1101",
    "url": "https://kyokaen.wixsite.com/nicelandkitagata",
    "pref": "佐賀県",
    "city": "佐賀市",
    "category": "community_day_service",
    "serviceType": "地域密着型通所介護",
    "capacity": 0,
    "openDays": [
      "平日",
      "土曜日",
      "祝日"
    ],
    "openDaysNote": ""
  },
  {
    "id": "4170102471",
    "name": "デイサービスセンター縁",
    "kana": "デイサービスセンターエン",
    "address": "佐賀市神園６丁目７－６",
    "lat": 33.2607478436444,
    "lng": 130.278065031877,
    "tel": "0952-30-1122",
    "url": "",
    "pref": "佐賀県",
    "city": "佐賀市",
    "category": "community_day_service",
    "serviceType": "地域密着型通所介護",
    "capacity": 18,
    "openDays": [
      "平日",
      "土曜日",
      "日曜日",
      "祝日"
    ],
    "openDaysNote": ""
  },
  {
    "id": "4170102117",
    "name": "デイサービスセンター西与賀",
    "kana": "デイサービスセンターニシヨカ",
    "address": "佐賀市西与賀町大字高太郎１８４－１",
    "lat": 33.2254182,
    "lng": 130.2683533,
    "tel": "0952-37-7170",
    "url": "https://sunnycourt.info",
    "pref": "佐賀県",
    "city": "佐賀市",
    "category": "community_day_service",
    "serviceType": "地域密着型通所介護",
    "capacity": 18,
    "openDays": [
      "平日",
      "土曜日",
      "祝日"
    ],
    "openDaysNote": "元旦は休み"
  },
  {
    "id": "4190100745",
    "name": "デイサービスそよかぜの丘",
    "kana": "デイサービスソヨカゼノオカ",
    "address": "佐賀県佐賀市大和町尼寺3424番地1",
    "lat": 33.3042297,
    "lng": 130.2783636,
    "tel": "0952-97-7300",
    "url": "",
    "pref": "佐賀県",
    "city": "佐賀市",
    "category": "community_day_service",
    "serviceType": "地域密着型通所介護",
    "capacity": 0,
    "openDays": [
      "平日",
      "土曜日",
      "祝日"
    ],
    "openDaysNote": ""
  },
  {
    "id": "4170101093",
    "name": "ディサービスたかきせ",
    "kana": "ディサービスタカキセ",
    "address": "佐賀市高木瀬東三丁目５番１２号",
    "lat": 33.2827912,
    "lng": 130.2945409,
    "tel": "0952-30-2481",
    "url": "",
    "pref": "佐賀県",
    "city": "佐賀市",
    "category": "community_day_service",
    "serviceType": "地域密着型通所介護",
    "capacity": 0,
    "openDays": [
      "平日",
      "土曜日",
      "日曜日",
      "祝日"
    ],
    "openDaysNote": "盆、年末年始も相談に応じます。"
  },
  {
    "id": "4170102299",
    "name": "デイサービスほたる池上",
    "kana": "デイサービスホタルイケノウエ",
    "address": "佐賀県佐賀市大和町大字池上2059-1",
    "lat": 33.2873595,
    "lng": 130.2511658,
    "tel": "0952-64-9305",
    "url": "",
    "pref": "佐賀県",
    "city": "佐賀市",
    "category": "community_day_service",
    "serviceType": "地域密着型通所介護",
    "capacity": 0,
    "openDays": [
      "平日",
      "土曜日"
    ],
    "openDaysNote": ""
  },
  {
    "id": "4170102679",
    "name": "デイサービスやえみぞ",
    "kana": "デイサービスヤエミゾ",
    "address": "佐賀県佐賀市八戸溝二丁目１番１号",
    "lat": 33.2621426,
    "lng": 130.2776706,
    "tel": "0952-20-0740",
    "url": "",
    "pref": "佐賀県",
    "city": "佐賀市",
    "category": "community_day_service",
    "serviceType": "地域密着型通所介護",
    "capacity": 15,
    "openDays": [
      "平日",
      "祝日"
    ],
    "openDaysNote": ""
  },
  {
    "id": "4190100687",
    "name": "デイサービス運動しましょお伊勢茶屋",
    "kana": "デイサービスウンドウシマショオイセチャヤ",
    "address": "佐賀県佐賀市伊勢町11番9号",
    "lat": 33.2524687,
    "lng": 130.2915841,
    "tel": "0952-20-2299",
    "url": "http://www.osewa.jp/",
    "pref": "佐賀県",
    "city": "佐賀市",
    "category": "community_day_service",
    "serviceType": "地域密着型通所介護",
    "capacity": 0,
    "openDays": [
      "平日",
      "祝日"
    ],
    "openDaysNote": ""
  },
  {
    "id": "4110114545",
    "name": "デイサービス神野",
    "kana": "デイサービスコウノ",
    "address": "佐賀市神野東４丁目10-5",
    "lat": 33.2697509,
    "lng": 130.2991576,
    "tel": "0952-31-1060",
    "url": "",
    "pref": "佐賀県",
    "city": "佐賀市",
    "category": "community_day_service",
    "serviceType": "地域密着型通所介護",
    "capacity": 0,
    "openDays": [
      "平日",
      "土曜日",
      "祝日"
    ],
    "openDaysNote": ""
  },
  {
    "id": "4170101853",
    "name": "デイサービス楠の木園　福富",
    "kana": "デイサービスクスノキエンフクドミ",
    "address": "佐賀市川副町大字福富４０－４",
    "lat": 33.228597,
    "lng": 130.3303196,
    "tel": "０９５２－４５－９００３",
    "url": "",
    "pref": "佐賀県",
    "city": "佐賀市",
    "category": "community_day_service",
    "serviceType": "地域密着型通所介護",
    "capacity": 0,
    "openDays": [
      "平日",
      "土曜日",
      "祝日"
    ],
    "openDaysNote": ""
  },
  {
    "id": "4170102190",
    "name": "デイサービス日和",
    "kana": "デイサービスヒヨリ",
    "address": "佐賀県佐賀市神野東2-7-2",
    "lat": 33.2659539,
    "lng": 130.2961718,
    "tel": "0952-97-7492",
    "url": "http://www.ailife-ics.jp/",
    "pref": "佐賀県",
    "city": "佐賀市",
    "category": "community_day_service",
    "serviceType": "地域密着型通所介護",
    "capacity": 10,
    "openDays": [
      "平日",
      "祝日"
    ],
    "openDaysNote": ""
  },
  {
    "id": "4190100794",
    "name": "デイサービス木蓮",
    "kana": "デイサービス　モクレン",
    "address": "佐賀県佐賀市城内１丁目１３番１３号",
    "lat": 33.2446027,
    "lng": 130.2982171,
    "tel": "0952-23-7324",
    "url": "",
    "pref": "佐賀県",
    "city": "佐賀市",
    "category": "community_day_service",
    "serviceType": "地域密着型通所介護",
    "capacity": null,
    "openDays": [
      "平日",
      "土曜日",
      "日曜日",
      "祝日"
    ],
    "openDaysNote": ""
  },
  {
    "id": "4170102026",
    "name": "でいはうす川久保ひかり",
    "kana": "デイハウスカワクボヒカリ",
    "address": "佐賀県佐賀市久保泉町川久保3686番地2",
    "lat": 33.3255539,
    "lng": 130.3267339,
    "tel": "0952-97-7481",
    "url": "",
    "pref": "佐賀県",
    "city": "佐賀市",
    "category": "community_day_service",
    "serviceType": "地域密着型通所介護",
    "capacity": null,
    "openDays": [
      "平日",
      "土曜日"
    ],
    "openDaysNote": "12月31日～1月2日は休日"
  },
  {
    "id": "4172000210",
    "name": "ほうむ田代",
    "kana": "ホウムタシロ",
    "address": "佐賀県佐賀市田代2丁目7-24なし なし",
    "lat": 33.2498231384538,
    "lng": 130.314047445756,
    "tel": "0952-97-6363",
    "url": "http://houmu-group.com/",
    "pref": "佐賀県",
    "city": "佐賀市",
    "category": "community_day_service",
    "serviceType": "地域密着型通所介護",
    "capacity": 10,
    "openDays": [
      "平日",
      "土曜日",
      "日曜日",
      "祝日"
    ],
    "openDaysNote": ""
  },
  {
    "id": "4170101630",
    "name": "ほうむ富士",
    "kana": "ホウムフジ",
    "address": "佐賀市富士町大字松瀬熊ノ峯２６１８－１１４",
    "lat": 33.3604229,
    "lng": 130.2514087,
    "tel": "0952-63-0168",
    "url": "http://houmu-group.com/",
    "pref": "佐賀県",
    "city": "佐賀市",
    "category": "community_day_service",
    "serviceType": "地域密着型通所介護",
    "capacity": 17,
    "openDays": [
      "平日",
      "土曜日",
      "日曜日",
      "祝日"
    ],
    "openDaysNote": ""
  },
  {
    "id": "4190100414",
    "name": "ほうむ蓮池",
    "kana": "ホウム蓮池",
    "address": "佐賀県佐賀市蓮池町大字蓮池１４９番地",
    "lat": 33.247106,
    "lng": 130.3560661,
    "tel": "0952-37-0703",
    "url": "houmuhasuike@yahoo.co.jp",
    "pref": "佐賀県",
    "city": "佐賀市",
    "category": "community_day_service",
    "serviceType": "地域密着型通所介護",
    "capacity": 0,
    "openDays": [
      "平日",
      "土曜日",
      "日曜日",
      "祝日"
    ],
    "openDaysNote": ""
  },
  {
    "id": "4190100604",
    "name": "ほねつぎデイサービス鍋島",
    "kana": "ホネツギデイサービスナベシマ",
    "address": "佐賀県佐賀市新栄町2丁目2-5",
    "lat": 33.2531094412639,
    "lng": 130.274648528224,
    "tel": "0952-97-8830",
    "url": "",
    "pref": "佐賀県",
    "city": "佐賀市",
    "category": "community_day_service",
    "serviceType": "地域密着型通所介護",
    "capacity": 0,
    "openDays": [
      "平日",
      "祝日"
    ],
    "openDaysNote": ""
  },
  {
    "id": "4190100778",
    "name": "ゆめか家デイサービス鍋島店",
    "kana": "ユメカヤデイサービスナベシマテン",
    "address": "佐賀県佐賀市鍋島3丁目4ｰ16",
    "lat": 33.2811422,
    "lng": 130.2693046,
    "tel": "0952-65-5944",
    "url": "https://yumekaya-dayservice.com/",
    "pref": "佐賀県",
    "city": "佐賀市",
    "category": "community_day_service",
    "serviceType": "地域密着型通所介護",
    "capacity": null,
    "openDays": [
      "平日"
    ],
    "openDaysNote": "AM9:00～12：05（改行）PM13:15～16:20"
  },
  {
    "id": "4190100596",
    "name": "ゆめか整骨院ゆめか家デイサービス",
    "kana": "ユメカセイコツインユメカヤデイサービス",
    "address": "佐賀県佐賀市南佐賀2丁目7-21",
    "lat": 33.237611,
    "lng": 130.3205673,
    "tel": "0952-97-8155",
    "url": "https://adult-day-care-center-1364.business.site/?utm_source=gmb&utm_medium=referral",
    "pref": "佐賀県",
    "city": "佐賀市",
    "category": "community_day_service",
    "serviceType": "地域密着型通所介護",
    "capacity": null,
    "openDays": [
      "平日",
      "祝日"
    ],
    "openDaysNote": "AM9:00～12：05（改行）PM13:15～16:20"
  },
  {
    "id": "4170102463",
    "name": "リハビリデイサービス　ステップ",
    "kana": "リハビリデイサービス　ステップ",
    "address": "佐賀県佐賀市高木瀬西１丁目１－１",
    "lat": 33.2807136,
    "lng": 130.291994,
    "tel": "0952-37-5450",
    "url": "",
    "pref": "佐賀県",
    "city": "佐賀市",
    "category": "community_day_service",
    "serviceType": "地域密着型通所介護",
    "capacity": 15,
    "openDays": [
      "平日",
      "祝日"
    ],
    "openDaysNote": "お盆時期・年末年始は休業"
  },
  {
    "id": "4190100810",
    "name": "わらべのさと",
    "kana": "ワラベノサト",
    "address": "佐賀県佐賀市川副町大字西古賀941番地1",
    "lat": 33.2063356,
    "lng": 130.3126514,
    "tel": "0952-45-8862",
    "url": "",
    "pref": "佐賀県",
    "city": "佐賀市",
    "category": "community_day_service",
    "serviceType": "地域密着型通所介護",
    "capacity": 10,
    "openDays": [
      "平日"
    ],
    "openDaysNote": ""
  },
  {
    "id": "4190100638",
    "name": "介護老人福祉施設シルバーケア三瀬",
    "kana": "カイゴロウジンフクシシセツ　シルバーケアミツセ",
    "address": "佐賀県佐賀市三瀬村三瀬38-1",
    "lat": 33.437737,
    "lng": 130.2708411,
    "tel": "0952-56-2947",
    "url": "http://ｗｗｗ.saganet.ne.jp/KEIAIKAI/",
    "pref": "佐賀県",
    "city": "佐賀市",
    "category": "community_day_service",
    "serviceType": "地域密着型通所介護",
    "capacity": 0,
    "openDays": [
      "平日",
      "祝日"
    ],
    "openDaysNote": ""
  },
  {
    "id": "4190100695",
    "name": "寄り処のんびらーと",
    "kana": "ヨリドコロノンビラート",
    "address": "佐賀市諸富町徳富210-6",
    "lat": 33.2200727,
    "lng": 130.3699528,
    "tel": "0952-97-7859",
    "url": "",
    "pref": "佐賀県",
    "city": "佐賀市",
    "category": "community_day_service",
    "serviceType": "地域密着型通所介護",
    "capacity": 0,
    "openDays": [
      "平日",
      "祝日"
    ],
    "openDaysNote": "祝日は関係なく、曜日により営業しています。"
  },
  {
    "id": "4170100145",
    "name": "佐賀整肢学園　在宅サポートセンターオークス",
    "kana": "サガセイシガクエン　ザイタクサポートセンターオークス",
    "address": "佐賀市金立町大字金立163番地3",
    "lat": 33.3215289761043,
    "lng": 130.313258342189,
    "tel": "0952-98-3771",
    "url": "http://www.saga-seishi.jp/",
    "pref": "佐賀県",
    "city": "佐賀市",
    "category": "community_day_service",
    "serviceType": "地域密着型通所介護",
    "capacity": 10,
    "openDays": [
      "平日",
      "祝日"
    ],
    "openDaysNote": "但し、施設行事等で施設が認める営業日は運営する"
  },
  {
    "id": "4171000146",
    "name": "富士北部デイサービスセンター",
    "kana": "フジホクブデイサービスセンター",
    "address": "佐賀県佐賀市富士町大字大野1065-2",
    "lat": 33.42892,
    "lng": 130.202379,
    "tel": "0952-57-2250",
    "url": "https://www.kenjyu-nagomi.jp",
    "pref": "佐賀県",
    "city": "佐賀市",
    "category": "community_day_service",
    "serviceType": "地域密着型通所介護",
    "capacity": 0,
    "openDays": [
      "平日",
      "土曜日",
      "祝日"
    ],
    "openDaysNote": ""
  },
  {
    "id": "4190100398",
    "name": "有料老人ホーム　花梨",
    "kana": "ユウリョウロウジンホーム",
    "address": "佐賀市鍋島町森田2116-12有料老人ホーム　花梨 有料老人ホーム　花梨",
    "lat": 33.2663637,
    "lng": 130.2551968,
    "tel": "0952-32-0077",
    "url": "http://www.carin.co.jp/",
    "pref": "佐賀県",
    "city": "佐賀市",
    "category": "community_day_service",
    "serviceType": "地域密着型通所介護",
    "capacity": 7,
    "openDays": [
      "平日",
      "土曜日",
      "祝日"
    ],
    "openDaysNote": ""
  },
  {
    "id": "4170700266",
    "name": "ＮＰＯ　ひかり",
    "kana": "エヌピーオー　ヒカリ",
    "address": "鹿島市大字納富分1079番地1",
    "lat": 33.0934587265501,
    "lng": 130.09352404841,
    "tel": "0954-62-1789",
    "url": "http://hikari1079-1.com",
    "pref": "佐賀県",
    "city": "鹿島市",
    "category": "community_day_service",
    "serviceType": "地域密着型通所介護",
    "capacity": 0,
    "openDays": [
      "平日",
      "土曜日",
      "日曜日",
      "祝日"
    ],
    "openDaysNote": "災害時や事業所の都合により定休日とする場合は事前に通達する。"
  },
  {
    "id": "4170700415",
    "name": "グリーンライフケア",
    "kana": "グリーンライフケア",
    "address": "佐賀県鹿島市納富分１５１５",
    "lat": 33.098191,
    "lng": 130.0938781,
    "tel": "0954-69-6226",
    "url": "http://green-life-care.com",
    "pref": "佐賀県",
    "city": "鹿島市",
    "category": "community_day_service",
    "serviceType": "地域密着型通所介護",
    "capacity": 0,
    "openDays": [
      "平日",
      "土曜日",
      "日曜日",
      "祝日"
    ],
    "openDaysNote": ""
  },
  {
    "id": "4170700290",
    "name": "デイサービス　きらきら星",
    "kana": "デイサービス　キラキラボシ",
    "address": "大字納富分４１１４－１５デイサービスきらきら星 デイサービスきらきら星",
    "lat": 33.097605,
    "lng": 130.1077213,
    "tel": "0954-68-0221",
    "url": "",
    "pref": "佐賀県",
    "city": "鹿島市",
    "category": "community_day_service",
    "serviceType": "地域密着型通所介護",
    "capacity": 10,
    "openDays": [
      "平日",
      "土曜日",
      "祝日"
    ],
    "openDaysNote": "８月１３～１５日（改行）１２月３０～１月３日（改行）は休みとなります"
  },
  {
    "id": "4170700332",
    "name": "デイサービス　光輝",
    "kana": "デイサービス　コウキ",
    "address": "佐賀県鹿島市大字納富分579-1",
    "lat": 33.0949607,
    "lng": 130.0898703,
    "tel": "0954-68-0261",
    "url": "kouki8880@voice.ocn.ne.jp",
    "pref": "佐賀県",
    "city": "鹿島市",
    "category": "community_day_service",
    "serviceType": "地域密着型通所介護",
    "capacity": 20,
    "openDays": [
      "平日",
      "土曜日",
      "祝日"
    ],
    "openDaysNote": ""
  },
  {
    "id": "4190700155",
    "name": "デイサービスこころ",
    "kana": "デイサービスココロ",
    "address": "佐賀県鹿島市大字納富分４４８８番地福祉サービスこころ㈱ 福祉サービスこころ㈱",
    "lat": 33.0955219,
    "lng": 130.1009554,
    "tel": "0954-63-6636",
    "url": "http://www.fukushi-kokoro.com.",
    "pref": "佐賀県",
    "city": "鹿島市",
    "category": "community_day_service",
    "serviceType": "地域密着型通所介護",
    "capacity": 18,
    "openDays": [
      "平日",
      "土曜日",
      "日曜日",
      "祝日"
    ],
    "openDaysNote": ""
  },
  {
    "id": "4170700274",
    "name": "デイサービスさえずり",
    "kana": "デイサービスサエズリ",
    "address": "佐賀県鹿島市大字高津原4351番地2",
    "lat": 33.1011767,
    "lng": 130.0851594,
    "tel": "0954-63-4605",
    "url": "http://care-net.biz/41/nukumoi-saezuri/",
    "pref": "佐賀県",
    "city": "鹿島市",
    "category": "community_day_service",
    "serviceType": "地域密着型通所介護",
    "capacity": 0,
    "openDays": [
      "平日",
      "土曜日",
      "日曜日",
      "祝日"
    ],
    "openDaysNote": ""
  },
  {
    "id": "4190700221",
    "name": "合同会社デイサービスのどかの里",
    "kana": "ゴウドウガイシャデイサービスノドカノサト",
    "address": "佐賀県鹿島市古枝甲91-3",
    "lat": 33.0549987,
    "lng": 130.106867,
    "tel": "0954-69-1717",
    "url": "",
    "pref": "佐賀県",
    "city": "鹿島市",
    "category": "community_day_service",
    "serviceType": "地域密着型通所介護",
    "capacity": 0,
    "openDays": [
      "平日",
      "土曜日",
      "日曜日",
      "祝日"
    ],
    "openDaysNote": ""
  },
  {
    "id": "4170700241",
    "name": "特定非営利活動法人なごみの会",
    "kana": "トクテイヒエイリカツドウホウジンナゴミノカイ",
    "address": "佐賀県鹿島市大字山浦甲394番地1",
    "lat": 33.0886133209524,
    "lng": 130.083074471828,
    "tel": "0954-68-0025",
    "url": "",
    "pref": "佐賀県",
    "city": "鹿島市",
    "category": "community_day_service",
    "serviceType": "地域密着型通所介護",
    "capacity": 18,
    "openDays": [
      "平日",
      "土曜日",
      "祝日"
    ],
    "openDaysNote": "個人情報の取り扱いについて関係者以外の者に洩れる事がないように細心の注意を払います。"
  },
  {
    "id": "4170700126",
    "name": "特定非営利活動法人余暇センターきたじま　地域密着型通所介護　宅老所　鹿城デイサービス",
    "kana": "トクテイヒエイリカツドウホウジンヨカセンターキタジマ　　　　　　タクロウショ　ロクジョウ",
    "address": "佐賀県鹿島市大字高津原1193",
    "lat": 33.1122673,
    "lng": 130.0946833,
    "tel": "0954-62-0883",
    "url": "http://yokacenter-kitajima.com/",
    "pref": "佐賀県",
    "city": "鹿島市",
    "category": "community_day_service",
    "serviceType": "地域密着型通所介護",
    "capacity": 18,
    "openDays": [
      "平日",
      "土曜日",
      "日曜日",
      "祝日"
    ],
    "openDaysNote": "介護保険外のサービスでお泊りもしていますので、365日24時間対応が出来ます。延長及び年末年始・盆休みの利用に関しては相談可。"
  },
  {
    "id": "4191300179",
    "name": "あしはらの園デイサービス",
    "kana": "アシハラノソノデイサービス",
    "address": "佐賀県小城市芦刈町三王崎１５２３番地",
    "lat": 33.2248365,
    "lng": 130.2072001,
    "tel": "0952-51-5033",
    "url": "https://rikushinfukushikai.com/",
    "pref": "佐賀県",
    "city": "小城市",
    "category": "community_day_service",
    "serviceType": "地域密着型通所介護",
    "capacity": null,
    "openDays": [
      "平日",
      "土曜日",
      "日曜日",
      "祝日"
    ],
    "openDaysNote": ""
  },
  {
    "id": "4171300330",
    "name": "デイサービス　ほたる",
    "kana": "デイサービス　ホタル",
    "address": "三日月町道辺941",
    "lat": 33.2919448,
    "lng": 130.2344613,
    "tel": "0952-97-7523",
    "url": "",
    "pref": "佐賀県",
    "city": "小城市",
    "category": "community_day_service",
    "serviceType": "地域密着型通所介護",
    "capacity": 0,
    "openDays": [
      "平日",
      "土曜日",
      "祝日"
    ],
    "openDaysNote": ""
  },
  {
    "id": "4171300454",
    "name": "デイサービス　健やか",
    "kana": "デイサービス　スコヤカ",
    "address": "佐賀県小城市芦刈町永田309－1",
    "lat": 33.2155049,
    "lng": 130.208323,
    "tel": "0952-37-9826",
    "url": "",
    "pref": "佐賀県",
    "city": "小城市",
    "category": "community_day_service",
    "serviceType": "地域密着型通所介護",
    "capacity": 0,
    "openDays": [
      "平日",
      "土曜日",
      "祝日"
    ],
    "openDaysNote": ""
  },
  {
    "id": "4171300405",
    "name": "デイサービスぎおん",
    "kana": "デイサービス　ギオン",
    "address": "佐賀県小城市小城町松尾3855",
    "lat": 33.300876,
    "lng": 130.2007941,
    "tel": "0952-97-7560",
    "url": "",
    "pref": "佐賀県",
    "city": "小城市",
    "category": "community_day_service",
    "serviceType": "地域密着型通所介護",
    "capacity": 10,
    "openDays": [
      "平日",
      "土曜日",
      "祝日"
    ],
    "openDaysNote": "別になし"
  },
  {
    "id": "4171300488",
    "name": "デイサービスセンターはるの木",
    "kana": "デイサービスセンターハルノキ",
    "address": "佐賀県小城市三日月町樋口922番地1",
    "lat": 33.2719927250601,
    "lng": 130.217437139148,
    "tel": "0952-97-8365",
    "url": "",
    "pref": "佐賀県",
    "city": "小城市",
    "category": "community_day_service",
    "serviceType": "地域密着型通所介護",
    "capacity": 10,
    "openDays": [
      "平日",
      "土曜日",
      "日曜日",
      "祝日"
    ],
    "openDaysNote": ""
  },
  {
    "id": "4171300504",
    "name": "デイサービスセンターふぉれすと",
    "kana": "デイサービスセンターフォレスト",
    "address": "佐賀県小城市小城町畑田2468-1",
    "lat": 33.2942815,
    "lng": 130.1882012,
    "tel": "952735633",
    "url": "http://lsneo.com/",
    "pref": "佐賀県",
    "city": "小城市",
    "category": "community_day_service",
    "serviceType": "地域密着型通所介護",
    "capacity": 15,
    "openDays": [
      "平日",
      "土曜日",
      "日曜日",
      "祝日"
    ],
    "openDaysNote": ""
  },
  {
    "id": "4171300421",
    "name": "デイサービスセンター共生の里三日月道辺",
    "kana": "デイサービスセンターキョウセイノサトミカツキミチベ",
    "address": "佐賀県小城市三日月町道辺８３８－１共生館２階 共生館２階",
    "lat": 33.2918697,
    "lng": 130.2321087,
    "tel": "0952-73-8081",
    "url": "ogi@kyouseinosato.com",
    "pref": "佐賀県",
    "city": "小城市",
    "category": "community_day_service",
    "serviceType": "地域密着型通所介護",
    "capacity": 0,
    "openDays": [
      "平日",
      "土曜日",
      "日曜日",
      "祝日"
    ],
    "openDaysNote": ""
  },
  {
    "id": "4191300112",
    "name": "デイサービスぬくもり",
    "kana": "デイサービスヌクモリ",
    "address": "小城町269番地3",
    "lat": 33.2934622,
    "lng": 130.199595,
    "tel": "0952-73-5233",
    "url": "",
    "pref": "佐賀県",
    "city": "小城市",
    "category": "community_day_service",
    "serviceType": "地域密着型通所介護",
    "capacity": null,
    "openDays": [
      "平日",
      "土曜日",
      "日曜日",
      "祝日"
    ],
    "openDaysNote": ""
  },
  {
    "id": "4171300223",
    "name": "デイサービス天山の里",
    "kana": "デイサービステンザンノサト",
    "address": "佐賀県小城市小城町畑田1851-29",
    "lat": 33.2895291,
    "lng": 130.1836046,
    "tel": "0952-72-6453",
    "url": "",
    "pref": "佐賀県",
    "city": "小城市",
    "category": "community_day_service",
    "serviceType": "地域密着型通所介護",
    "capacity": 0,
    "openDays": [
      "平日",
      "土曜日",
      "日曜日",
      "祝日"
    ],
    "openDaysNote": ""
  },
  {
    "id": "4171300199",
    "name": "小城市地域共生ステーション　よりあいの家",
    "kana": "オギシチイキキョウセイステーション　ヨリアイノイエ",
    "address": "佐賀県小城市三日月町道辺１９２０番地",
    "lat": 33.2804011,
    "lng": 130.234573,
    "tel": "0952-72-7600",
    "url": "",
    "pref": "佐賀県",
    "city": "小城市",
    "category": "community_day_service",
    "serviceType": "地域密着型通所介護",
    "capacity": 0,
    "openDays": [
      "平日",
      "土曜日",
      "祝日"
    ],
    "openDaysNote": "なし"
  },
  {
    "id": "4171200605",
    "name": "デイサービス家族",
    "kana": "デイサービスカゾク",
    "address": "佐賀県三養基郡上峰町大字坊所3153番地1",
    "lat": 33.3234755,
    "lng": 130.4164068,
    "tel": "0952-55-7878",
    "url": "",
    "pref": "佐賀県",
    "city": "上峰町",
    "category": "community_day_service",
    "serviceType": "地域密着型通所介護",
    "capacity": 10,
    "openDays": [
      "平日",
      "祝日"
    ],
    "openDaysNote": "・年中無休です。"
  },
  {
    "id": "4172000111",
    "name": "デイサービス　あまりえ",
    "kana": "デイサービス　アマリエ",
    "address": "佐賀県神埼市千代田町餘江1208-2",
    "lat": 33.2626926260121,
    "lng": 130.355321255156,
    "tel": "0952-37-8395",
    "url": "https://www.shinzenkai.info/",
    "pref": "佐賀県",
    "city": "神埼市",
    "category": "community_day_service",
    "serviceType": "地域密着型通所介護",
    "capacity": 10,
    "openDays": [
      "平日",
      "土曜日",
      "日曜日",
      "祝日"
    ],
    "openDaysNote": ""
  },
  {
    "id": "4172000079",
    "name": "デイサービス　あやべ",
    "kana": "デイサービス　アヤベ",
    "address": "佐賀県神埼市神埼町枝ケ里２９２－１０",
    "lat": 33.3064714,
    "lng": 130.370705,
    "tel": "0952-20-1414",
    "url": "http://ayabe-sekkotsuin.com/kaigo.html",
    "pref": "佐賀県",
    "city": "神埼市",
    "category": "community_day_service",
    "serviceType": "地域密着型通所介護",
    "capacity": 10,
    "openDays": [
      "平日",
      "土曜日",
      "祝日"
    ],
    "openDaysNote": "正月１日～３日は休み"
  },
  {
    "id": "4172000160",
    "name": "デイサービス　はーとふる",
    "kana": "デイサービス　ハートフル",
    "address": "神埼市神埼町本告牟田１１１１番地１",
    "lat": 33.29880988967,
    "lng": 130.362604989549,
    "tel": "0952-97-9677",
    "url": "",
    "pref": "佐賀県",
    "city": "神埼市",
    "category": "community_day_service",
    "serviceType": "地域密着型通所介護",
    "capacity": 0,
    "openDays": [
      "平日",
      "土曜日",
      "日曜日",
      "祝日"
    ],
    "openDaysNote": ""
  },
  {
    "id": "4192000083",
    "name": "デイサービスコラージュ",
    "kana": "デイサービスコラージュ",
    "address": "佐賀県神埼市千代田町嘉納597番地",
    "lat": 33.2796345,
    "lng": 130.3756243,
    "tel": "0952-37-3749",
    "url": "",
    "pref": "佐賀県",
    "city": "神埼市",
    "category": "community_day_service",
    "serviceType": "地域密着型通所介護",
    "capacity": 0,
    "openDays": [
      "平日",
      "祝日"
    ],
    "openDaysNote": ""
  },
  {
    "id": "4192000075",
    "name": "デイサービス日の隈",
    "kana": "ヒノクマ",
    "address": "佐賀県神埼市神埼町尾崎4530-24",
    "lat": 33.3272442,
    "lng": 130.3510697,
    "tel": "0952-53-6302",
    "url": "",
    "pref": "佐賀県",
    "city": "神埼市",
    "category": "community_day_service",
    "serviceType": "地域密着型通所介護",
    "capacity": 0,
    "openDays": [
      "平日",
      "土曜日",
      "日曜日",
      "祝日"
    ],
    "openDaysNote": "無"
  },
  {
    "id": "4172000178",
    "name": "デイホーム脊振",
    "kana": "デイホームセフリ",
    "address": "脊振町広滝495番地3ファミーユ脊振 ファミーユ脊振",
    "lat": 33.3785981707948,
    "lng": 130.326110879623,
    "tel": "0952-51-9070",
    "url": "",
    "pref": "佐賀県",
    "city": "神埼市",
    "category": "community_day_service",
    "serviceType": "地域密着型通所介護",
    "capacity": 10,
    "openDays": [
      "平日",
      "土曜日",
      "祝日"
    ],
    "openDaysNote": ""
  },
  {
    "id": "4171100094",
    "name": "社会福祉法人　神埼市社会福祉協議会",
    "kana": "シャカイフクシホウジン　カンザキシシャカイフクシキョウギカイ",
    "address": "佐賀県神埼市脊振町広滝532-1脊振町高齢者生活福祉センターそよかぜ荘 脊振町高齢者生活福祉センターそよかぜ荘",
    "lat": 33.3766308,
    "lng": 130.3258204,
    "tel": "0952-59-2227",
    "url": "http://kanzaki-syakyo.com/",
    "pref": "佐賀県",
    "city": "神埼市",
    "category": "community_day_service",
    "serviceType": "地域密着型通所介護",
    "capacity": 15,
    "openDays": [
      "平日"
    ],
    "openDaysNote": "4日以上休みの時は、1日営業"
  },
  {
    "id": "4172000046",
    "name": "生活支援所　おさき",
    "kana": "セイカツシエンショ　オサキ",
    "address": "佐賀県神埼市神埼町尾崎　１８２番地１",
    "lat": 33.3080321,
    "lng": 130.3461181,
    "tel": "0952-20-0207",
    "url": "",
    "pref": "佐賀県",
    "city": "神埼市",
    "category": "community_day_service",
    "serviceType": "地域密着型通所介護",
    "capacity": 10,
    "openDays": [
      "平日",
      "土曜日",
      "日曜日",
      "祝日"
    ],
    "openDaysNote": "土曜日・日曜日や時間については、ご相談下さい。"
  },
  {
    "id": "4172000087",
    "name": "地域共生ホーム　まごころ",
    "kana": "チイキキョウセイホーム　マゴコロ",
    "address": "佐賀県神埼市千代田町﨑村911番地",
    "lat": 33.257162,
    "lng": 130.3873131,
    "tel": "0952-44-6171",
    "url": "",
    "pref": "佐賀県",
    "city": "神埼市",
    "category": "community_day_service",
    "serviceType": "地域密着型通所介護",
    "capacity": 0,
    "openDays": [
      "平日",
      "土曜日",
      "祝日"
    ],
    "openDaysNote": "年末年始：12月28日～1月3日は休み"
  },
  {
    "id": "4192000067",
    "name": "地域密着型通所介護事業所　ひしの花",
    "kana": "チイキミッチャクガタツウショカイゴジギョウショ　ヒシノハナ",
    "address": "佐賀県神埼市千代田町用作2098-3サービス付き高齢者住宅　こすもす サービス付き高齢者住宅　こすもす",
    "lat": 33.2667581514468,
    "lng": 130.379036256236,
    "tel": "0952-44-5519",
    "url": "e-mail：s.cosmos@jasmine.ocn.ne.jp",
    "pref": "佐賀県",
    "city": "神埼市",
    "category": "community_day_service",
    "serviceType": "地域密着型通所介護",
    "capacity": 0,
    "openDays": [
      "平日"
    ],
    "openDaysNote": ""
  },
  {
    "id": "4171100169",
    "name": "特定非営利活動法人宅老ちよだひまわりの会",
    "kana": "トクテイヒエイリカツドウホウジンタクロウチヨダヒマワリノカイ",
    "address": "佐賀県神埼市千代田町直鳥１５００番地",
    "lat": 33.2657056,
    "lng": 130.3675842,
    "tel": "0952-44-6454",
    "url": "",
    "pref": "佐賀県",
    "city": "神埼市",
    "category": "community_day_service",
    "serviceType": "地域密着型通所介護",
    "capacity": 18,
    "openDays": [
      "平日",
      "土曜日",
      "祝日"
    ],
    "openDaysNote": ""
  },
  {
    "id": "4171100219",
    "name": "和みの家　よかとこ",
    "kana": "ナゴミノイエ　ヨカトコ",
    "address": "佐賀県神埼市千代田町餘江1211-3",
    "lat": 33.262117655853,
    "lng": 130.35675987199,
    "tel": "0952-34-6615",
    "url": "nagomi-yokatoko.jimdofree.com",
    "pref": "佐賀県",
    "city": "神埼市",
    "category": "community_day_service",
    "serviceType": "地域密着型通所介護",
    "capacity": null,
    "openDays": [
      "平日",
      "土曜日",
      "日曜日",
      "祝日"
    ],
    "openDaysNote": ""
  },
  {
    "id": "4170400255",
    "name": "デイサービス多久生協",
    "kana": "デイサービスタクセイキョウ",
    "address": "東多久町別府3245-5多久生協クリニック 多久生協クリニック",
    "lat": 33.2825677157469,
    "lng": 130.150346301632,
    "tel": "0952-76-3177",
    "url": "ｈｔｔｐｓ：//ｗｗｗ.saga-iryou-s.or.jp",
    "pref": "佐賀県",
    "city": "多久市",
    "category": "community_day_service",
    "serviceType": "地域密着型通所介護",
    "capacity": 15,
    "openDays": [
      "平日",
      "土曜日"
    ],
    "openDaysNote": "１２月１日より週３日（火曜日・木曜日・土曜日）の営業日に変更（中部広域連合に変更届済み）"
  },
  {
    "id": "4170400123",
    "name": "ホーム西渓デイサービス",
    "kana": "ホームセイケイデイサービス",
    "address": "多久市多久町２０８２番地１",
    "lat": 33.2578902,
    "lng": 130.0860775,
    "tel": "0952-75-4026",
    "url": "http://nposangamhomeseikei.hp.peraichi.com",
    "pref": "佐賀県",
    "city": "多久市",
    "category": "community_day_service",
    "serviceType": "地域密着型通所介護",
    "capacity": null,
    "openDays": [
      "平日",
      "土曜日",
      "日曜日",
      "祝日"
    ],
    "openDaysNote": "７：３０～１９：００の間での延長利用が可能。１９：００～２１：００の長時間延長は、ご相談のうえ対応可能な場合のみご利用いただけます。"
  },
  {
    "id": "4190400038",
    "name": "通所介護事業所ケアハウス立山",
    "kana": "ツウショカイゴジギョウショ　ケアハウスタテヤマ",
    "address": "佐賀県多久市北多久町大字小侍4770-1",
    "lat": 33.3024975689063,
    "lng": 130.102746461377,
    "tel": "0952-75-8414",
    "url": "http://hp.kaipoke.biz/hvd/",
    "pref": "佐賀県",
    "city": "多久市",
    "category": "community_day_service",
    "serviceType": "地域密着型通所介護",
    "capacity": 0,
    "openDays": [
      "平日",
      "土曜日",
      "祝日"
    ],
    "openDaysNote": "サービス提供時間は9:00～16:15となります。"
  },
  {
    "id": "4190400020",
    "name": "天寿荘デイサービスセンター",
    "kana": "テンジュソウデイサービスセンター",
    "address": "佐賀県多久市北多久町大字小侍132-6",
    "lat": 33.2976814,
    "lng": 130.1112711,
    "tel": "0952-71-9631",
    "url": "http://www.tenjukai.com",
    "pref": "佐賀県",
    "city": "多久市",
    "category": "community_day_service",
    "serviceType": "地域密着型通所介護",
    "capacity": 50,
    "openDays": [
      "平日",
      "祝日"
    ],
    "openDaysNote": "火曜日については、地域支援事業(一般介護予防事業の介護予防普及啓発事業)を多久市より委託を受けて営業している。"
  },
  {
    "id": "4191700048",
    "name": "デイサービスせと",
    "kana": "デイサービスセト",
    "address": "佐賀県藤津郡太良町大字多良854-1",
    "lat": 33.0235069,
    "lng": 130.1708656,
    "tel": "0954-67-8282",
    "url": "",
    "pref": "佐賀県",
    "city": "太良町",
    "category": "community_day_service",
    "serviceType": "地域密着型通所介護",
    "capacity": 20,
    "openDays": [
      "平日",
      "土曜日",
      "祝日"
    ],
    "openDaysNote": "日曜日及び12月31日～1月2日のご利用については、7日前までの予約を必要といたします。"
  },
  {
    "id": "4171700240",
    "name": "宅老所　まごころの家",
    "kana": "タクロウショ　マゴコロノイエ",
    "address": "佐賀県藤津郡太良町大字大浦丙1151番地１０",
    "lat": 32.9748013,
    "lng": 130.2163109,
    "tel": "0954-68-2558",
    "url": "",
    "pref": "佐賀県",
    "city": "太良町",
    "category": "community_day_service",
    "serviceType": "地域密着型通所介護",
    "capacity": 15,
    "openDays": [
      "平日",
      "土曜日",
      "日曜日",
      "祝日"
    ],
    "openDaysNote": "大型台風や大雪等送迎が難しい場合はデイサービスのお休みを頂く場合があります。"
  },
  {
    "id": "4191600107",
    "name": "デイサービスふくも",
    "kana": "デイサービスフクモ",
    "address": "佐賀県杵島郡大町町大字福母1800番地31",
    "lat": 33.2169235,
    "lng": 130.0956005,
    "tel": "0952-20-0023",
    "url": "",
    "pref": "佐賀県",
    "city": "大町町",
    "category": "community_day_service",
    "serviceType": "地域密着型通所介護",
    "capacity": 10,
    "openDays": [
      "平日",
      "土曜日",
      "日曜日",
      "祝日"
    ],
    "openDaysNote": ""
  },
  {
    "id": "4190300261",
    "name": "Let’ｓリハ鳥栖",
    "kana": "レッツリハトス",
    "address": "佐賀県鳥栖市轟木町1172-1",
    "lat": 33.3642365,
    "lng": 130.5039357,
    "tel": "0942-85-7311",
    "url": "https://www.lets-reha.jp/shop/saga-tosu/",
    "pref": "佐賀県",
    "city": "鳥栖市",
    "category": "community_day_service",
    "serviceType": "地域密着型通所介護",
    "capacity": 50,
    "openDays": [
      "平日",
      "祝日"
    ],
    "openDaysNote": ""
  },
  {
    "id": "4170300752",
    "name": "デイサービス　人と木",
    "kana": "デイサービス　ヒトトキ",
    "address": "佐賀県鳥栖市原町1253-1",
    "lat": 33.3862543,
    "lng": 130.5263592,
    "tel": "0942-82-2716",
    "url": "http://hitotoki-b.jp/",
    "pref": "佐賀県",
    "city": "鳥栖市",
    "category": "community_day_service",
    "serviceType": "地域密着型通所介護",
    "capacity": 0,
    "openDays": [
      "平日",
      "土曜日",
      "祝日"
    ],
    "openDaysNote": "緊急時に対応するため、電話等による常時の連絡体制の実施"
  },
  {
    "id": "4170300786",
    "name": "デイサービスセンター　トクダ　tosu",
    "kana": "デイサービスセンター　トクダ　トス",
    "address": "佐賀県鳥栖市本町２丁目８３－１",
    "lat": 33.3772632,
    "lng": 130.5110134,
    "tel": "0942-85-8603",
    "url": "http://www.tokuda-sd.com",
    "pref": "佐賀県",
    "city": "鳥栖市",
    "category": "community_day_service",
    "serviceType": "地域密着型通所介護",
    "capacity": 110,
    "openDays": [
      "平日",
      "土曜日"
    ],
    "openDaysNote": "サービス提供時間は（改行）9:00～12：15、14：30～17：45の２単位制で定員各１０名です。"
  },
  {
    "id": "4170300265",
    "name": "デイサービスセンターあさひ",
    "kana": "デイサービスセンターアサヒ",
    "address": "佐賀県鳥栖市江島町１８８０－１",
    "lat": 33.3504975,
    "lng": 130.4828571,
    "tel": "0942-82-2396",
    "url": "http://hp.kaipoke.biz.mf4/",
    "pref": "佐賀県",
    "city": "鳥栖市",
    "category": "community_day_service",
    "serviceType": "地域密着型通所介護",
    "capacity": 0,
    "openDays": [
      "平日",
      "土曜日",
      "祝日"
    ],
    "openDaysNote": ""
  },
  {
    "id": "4170300976",
    "name": "プロジェクトエース弥生が丘",
    "kana": "プロジェクトエースヤヨイガオカ",
    "address": "弥生が丘７丁目１３番地",
    "lat": 33.4077755272597,
    "lng": 130.514250887697,
    "tel": "0942-85-9358",
    "url": "https://projectace-kirameki.jimdo.com/",
    "pref": "佐賀県",
    "city": "鳥栖市",
    "category": "community_day_service",
    "serviceType": "地域密着型通所介護",
    "capacity": 10,
    "openDays": [
      "平日",
      "土曜日",
      "日曜日",
      "祝日"
    ],
    "openDaysNote": ""
  },
  {
    "id": "4190300246",
    "name": "小規模デイサービスひだまりファーム",
    "kana": "ショウキボデイサアビスヒダマリファアム",
    "address": "佐賀県鳥栖市村田町522-18",
    "lat": 33.3583483,
    "lng": 130.4805025,
    "tel": "0942-85-7875",
    "url": "http://care-net.biz/41/hidamari358/",
    "pref": "佐賀県",
    "city": "鳥栖市",
    "category": "community_day_service",
    "serviceType": "地域密着型通所介護",
    "capacity": 0,
    "openDays": [
      "平日",
      "土曜日"
    ],
    "openDaysNote": ""
  },
  {
    "id": "4170300562",
    "name": "半日型デイサービス　リハビリフィットネスばんざい",
    "kana": "ハンジツガタデイサービス　リハビリフィットネスバンザイ",
    "address": "江島町3388番地1",
    "lat": 33.3447226,
    "lng": 130.4822213,
    "tel": "0942-83-2286",
    "url": "http://banzai-lohas.co.jp",
    "pref": "佐賀県",
    "city": "鳥栖市",
    "category": "community_day_service",
    "serviceType": "地域密着型通所介護",
    "capacity": 10,
    "openDays": [
      "平日",
      "祝日"
    ],
    "openDaysNote": ""
  },
  {
    "id": "4170200788",
    "name": "ＮＰＯあんどｉｎおうち宅老所　優　デイサービス",
    "kana": "エヌピーオーアンドインオウチタクロウショヤサシカデイサービス",
    "address": "佐賀県唐津市相知町中山4550番地1",
    "lat": 33.3538138,
    "lng": 130.0119008,
    "tel": "0955-62-2533",
    "url": "",
    "pref": "佐賀県",
    "city": "唐津市",
    "category": "community_day_service",
    "serviceType": "地域密着型通所介護",
    "capacity": 10,
    "openDays": [
      "平日",
      "土曜日",
      "日曜日",
      "祝日"
    ],
    "openDaysNote": ""
  },
  {
    "id": "4170201232",
    "name": "お節介　明　デイサービス",
    "kana": "オセッカイ　アカルカ　デイサービス",
    "address": "佐賀県唐津市相知町横枕1067番地1",
    "lat": 33.3457543,
    "lng": 130.0278501,
    "tel": "0955-62-3732",
    "url": "",
    "pref": "佐賀県",
    "city": "唐津市",
    "category": "community_day_service",
    "serviceType": "地域密着型通所介護",
    "capacity": null,
    "openDays": [
      "平日",
      "土曜日",
      "日曜日",
      "祝日"
    ],
    "openDaysNote": ""
  },
  {
    "id": "4190200735",
    "name": "ケアビレッジ　ちとせ　二タ子",
    "kana": "ケアビレッジ　チトセ　フタゴ",
    "address": "佐賀県唐津市二タ子2丁目2-24",
    "lat": 33.4607927,
    "lng": 129.9549212,
    "tel": "0955-58-9315",
    "url": "https://chitose-gr.com/karatsu/karatsu01/",
    "pref": "佐賀県",
    "city": "唐津市",
    "category": "community_day_service",
    "serviceType": "地域密着型通所介護",
    "capacity": 18,
    "openDays": [
      "平日",
      "土曜日"
    ],
    "openDaysNote": ""
  },
  {
    "id": "4190200834",
    "name": "コンパスウォーク　唐津",
    "kana": "コンパスウォーク　カラツ",
    "address": "佐賀県唐津市原　946",
    "lat": 33.421296,
    "lng": 130.0006339,
    "tel": "0955-58-7285",
    "url": "https://bluedesign-g.jp/bluelife",
    "pref": "佐賀県",
    "city": "唐津市",
    "category": "community_day_service",
    "serviceType": "地域密着型通所介護",
    "capacity": 30,
    "openDays": [
      "平日",
      "祝日"
    ],
    "openDaysNote": "基本的に祝日は営業していますが、唐津くんち期間　11月3日、4日・年末年始（12月31日～1月3日）はお休みさせていただきます。"
  },
  {
    "id": "4170201216",
    "name": "デイサービス　でこぽん",
    "kana": "デイサービス　デコポン",
    "address": "唐津市浜玉町南山1794-6",
    "lat": 33.4400227,
    "lng": 130.0629588,
    "tel": "0955-56-2080",
    "url": "",
    "pref": "佐賀県",
    "city": "唐津市",
    "category": "community_day_service",
    "serviceType": "地域密着型通所介護",
    "capacity": 0,
    "openDays": [
      "平日",
      "土曜日",
      "日曜日",
      "祝日"
    ],
    "openDaysNote": ""
  },
  {
    "id": "4170200861",
    "name": "ディサービス　ひだまり　しいの木",
    "kana": "ディサービスヒダマリ　シイノキ",
    "address": "佐賀県唐津市竹木場５１０９番地６",
    "lat": 33.4235199,
    "lng": 129.9250948,
    "tel": "0955-74-1570",
    "url": "http://www.vf-Life.com",
    "pref": "佐賀県",
    "city": "唐津市",
    "category": "community_day_service",
    "serviceType": "地域密着型通所介護",
    "capacity": 10,
    "openDays": [
      "平日",
      "土曜日",
      "日曜日",
      "祝日"
    ],
    "openDaysNote": ""
  },
  {
    "id": "4110212687",
    "name": "デイサービス　岩本内科かなえ隊",
    "kana": "デイサービス　イワモトナイカカナエタイ",
    "address": "海岸通7182番地78",
    "lat": 33.4685941,
    "lng": 129.9568064,
    "tel": "0955-72-2869",
    "url": "",
    "pref": "佐賀県",
    "city": "唐津市",
    "category": "community_day_service",
    "serviceType": "地域密着型通所介護",
    "capacity": 3,
    "openDays": [
      "平日",
      "土曜日",
      "祝日"
    ],
    "openDaysNote": "降雪等の急な気象状況悪化等の自然災害等によりお休みとさせていただくことがあります。（改行）＊現在、日曜日の営業は休止しています。"
  },
  {
    "id": "4170200820",
    "name": "デイサービス　真心の家",
    "kana": "デイサービス　マゴコロノイエ",
    "address": "唐津市北波多岸山５８７番地５",
    "lat": 33.3722631,
    "lng": 129.9599515,
    "tel": "0955-64-2662",
    "url": "https://www.karatsu-dayservice.com/",
    "pref": "佐賀県",
    "city": "唐津市",
    "category": "community_day_service",
    "serviceType": "地域密着型通所介護",
    "capacity": 15,
    "openDays": [
      "平日",
      "土曜日",
      "日曜日",
      "祝日"
    ],
    "openDaysNote": "休業する場合は、事前に通知致します。"
  },
  {
    "id": "4170201257",
    "name": "デイサービス　南のおひさま",
    "kana": "デイサービス　ミナミノオヒサマ",
    "address": "佐賀県唐津市山田2824-5",
    "lat": 33.4218604812253,
    "lng": 129.95126214949,
    "tel": "0955-53-8237",
    "url": "http://link2005.jp/",
    "pref": "佐賀県",
    "city": "唐津市",
    "category": "community_day_service",
    "serviceType": "地域密着型通所介護",
    "capacity": 10,
    "openDays": [
      "平日",
      "土曜日",
      "日曜日",
      "祝日"
    ],
    "openDaysNote": ""
  },
  {
    "id": "4170201000",
    "name": "デイサービスおひさま",
    "kana": "デイサービス　オヒサマ",
    "address": "佐賀県唐津市海岸通7182-55",
    "lat": 33.4690551,
    "lng": 129.9540538,
    "tel": "0955-58-9126",
    "url": "http://link2005.jp/",
    "pref": "佐賀県",
    "city": "唐津市",
    "category": "community_day_service",
    "serviceType": "地域密着型通所介護",
    "capacity": 10,
    "openDays": [
      "平日",
      "土曜日",
      "日曜日",
      "祝日"
    ],
    "openDaysNote": "年末年始、1月1日～2日のみ休業"
  },
  {
    "id": "4170200952",
    "name": "デイサービスこもれび",
    "kana": "デイサービスコモレビ",
    "address": "佐賀県唐津市北波多稗田3026番地3",
    "lat": 33.3599144,
    "lng": 129.9512498,
    "tel": "0955-64-4301",
    "url": "",
    "pref": "佐賀県",
    "city": "唐津市",
    "category": "community_day_service",
    "serviceType": "地域密着型通所介護",
    "capacity": 0,
    "openDays": [
      "平日",
      "土曜日",
      "日曜日",
      "祝日"
    ],
    "openDaysNote": ""
  },
  {
    "id": "4170201240",
    "name": "デイサービスたから",
    "kana": "デイサービスタカラ",
    "address": "佐賀県唐津市石志3203番地3",
    "lat": 33.3927244079273,
    "lng": 129.9731953883,
    "tel": "０９５５－７８－３５２５",
    "url": "",
    "pref": "佐賀県",
    "city": "唐津市",
    "category": "community_day_service",
    "serviceType": "地域密着型通所介護",
    "capacity": 15,
    "openDays": [
      "平日",
      "土曜日",
      "祝日"
    ],
    "openDaysNote": "元日（１月１日）のみ休日となっています"
  },
  {
    "id": "4190200578",
    "name": "デイサービスひだまり蓮花",
    "kana": "デイサービスヒダマリレンカ",
    "address": "佐賀県唐津市養母田676",
    "lat": 33.4123034,
    "lng": 129.9811216,
    "tel": "0955-72-0558",
    "url": "",
    "pref": "佐賀県",
    "city": "唐津市",
    "category": "community_day_service",
    "serviceType": "地域密着型通所介護",
    "capacity": 0,
    "openDays": [
      "平日",
      "祝日"
    ],
    "openDaysNote": ""
  },
  {
    "id": "4170201323",
    "name": "デイサービス花の家",
    "kana": "デイサービスハナノイエ",
    "address": "佐賀県唐津市北波多岸山560番地1",
    "lat": 33.3726676447033,
    "lng": 129.961322984582,
    "tel": "0955-64-2288",
    "url": "https://www.karatsu-dayservice.com/",
    "pref": "佐賀県",
    "city": "唐津市",
    "category": "community_day_service",
    "serviceType": "地域密着型通所介護",
    "capacity": 10,
    "openDays": [
      "平日",
      "土曜日",
      "日曜日",
      "祝日"
    ],
    "openDaysNote": "正月等休日とする場合、事前に通知する。"
  },
  {
    "id": "4190200586",
    "name": "デイサービス結絆",
    "kana": "デイサービスユイナ",
    "address": "佐賀県唐津市見借3459番地13",
    "lat": 33.4415065138045,
    "lng": 129.942928358141,
    "tel": "0955-58-8151",
    "url": "",
    "pref": "佐賀県",
    "city": "唐津市",
    "category": "community_day_service",
    "serviceType": "地域密着型通所介護",
    "capacity": 0,
    "openDays": [
      "平日",
      "土曜日",
      "日曜日",
      "祝日"
    ],
    "openDaysNote": ""
  },
  {
    "id": "4190200701",
    "name": "デイサービス笑",
    "kana": "デイサービス　ショウ",
    "address": "佐賀県唐津市山本字東路2258-5",
    "lat": 33.3909528548941,
    "lng": 129.974912790178,
    "tel": "955589270",
    "url": "https://persons-yo-sho.com/.",
    "pref": "佐賀県",
    "city": "唐津市",
    "category": "community_day_service",
    "serviceType": "地域密着型通所介護",
    "capacity": 18,
    "openDays": [
      "平日",
      "土曜日",
      "日曜日",
      "祝日"
    ],
    "openDaysNote": ""
  },
  {
    "id": "4190200677",
    "name": "デイサービス笑い愛",
    "kana": "デイサービスワライアイ",
    "address": "佐賀県唐津市和多田先石12-80",
    "lat": 33.4339382567551,
    "lng": 129.988531315518,
    "tel": "0955-75-8038",
    "url": "",
    "pref": "佐賀県",
    "city": "唐津市",
    "category": "community_day_service",
    "serviceType": "地域密着型通所介護",
    "capacity": 0,
    "openDays": [
      "平日",
      "土曜日",
      "日曜日",
      "祝日"
    ],
    "openDaysNote": ""
  },
  {
    "id": "4190200784",
    "name": "デイサービス虹色",
    "kana": "デイサービスニジイロ",
    "address": "佐賀県唐津市石志2878",
    "lat": 33.3906172,
    "lng": 129.9667356,
    "tel": "0955－58－7080",
    "url": "",
    "pref": "佐賀県",
    "city": "唐津市",
    "category": "community_day_service",
    "serviceType": "地域密着型通所介護",
    "capacity": 0,
    "openDays": [
      "平日",
      "土曜日",
      "祝日"
    ],
    "openDaysNote": "月曜日から土曜日まで祝日関係なく営業してます。"
  },
  {
    "id": "4170201026",
    "name": "ぬくもいホーム　だんらん",
    "kana": "ヌクモイホームダンラン",
    "address": "唐津市湊町1133番地３",
    "lat": 33.5231519,
    "lng": 129.947052,
    "tel": "0955-79-1084",
    "url": "http//www.danran.info",
    "pref": "佐賀県",
    "city": "唐津市",
    "category": "community_day_service",
    "serviceType": "地域密着型通所介護",
    "capacity": 12,
    "openDays": [
      "平日",
      "土曜日",
      "日曜日",
      "祝日"
    ],
    "openDaysNote": ""
  },
  {
    "id": "4170201125",
    "name": "ホームケアセンター結",
    "kana": "ホームケアセンタームスビ",
    "address": "佐賀県唐津市鏡1073-6",
    "lat": 33.4250585,
    "lng": 130.005660420238,
    "tel": "0955-77-6727",
    "url": "",
    "pref": "佐賀県",
    "city": "唐津市",
    "category": "community_day_service",
    "serviceType": "地域密着型通所介護",
    "capacity": 0,
    "openDays": [
      "平日",
      "土曜日",
      "祝日"
    ],
    "openDaysNote": "緊急時は実費にて対応。"
  },
  {
    "id": "4190200644",
    "name": "医療生協デイサービスやまもと",
    "kana": "イリョウセイキョウデイサービスヤマモト",
    "address": "佐賀県唐津市山本1398-1",
    "lat": 53.41291,
    "lng": -8.24388999999996,
    "tel": "0955-78-3012",
    "url": "http://saga-iryou-s.or.jp",
    "pref": "佐賀県",
    "city": "唐津市",
    "category": "community_day_service",
    "serviceType": "地域密着型通所介護",
    "capacity": 18,
    "openDays": [
      "平日",
      "土曜日",
      "祝日"
    ],
    "openDaysNote": "祝日は営業します"
  },
  {
    "id": "4190200743",
    "name": "医療法人社団　三浦医院　デイサービスセムイ",
    "kana": "イリョウホウジンシャダン　ミウライイン　デイサービスセムイ",
    "address": "佐賀県唐津市呼子町殿ノ浦984-11テナントＭ　新田ビル4号室5号室 テナントＭ　新田ビル4号室5号室",
    "lat": 33.5364256144653,
    "lng": 129.891375176057,
    "tel": "0955-82-2922",
    "url": "",
    "pref": "佐賀県",
    "city": "唐津市",
    "category": "community_day_service",
    "serviceType": "地域密着型通所介護",
    "capacity": 10,
    "openDays": [
      "平日"
    ],
    "openDaysNote": ""
  },
  {
    "id": "4190200750",
    "name": "一般社団法人笑花　デイサービス花笑結",
    "kana": "イッパンシャダンホウジンエミカ　デイサービスハナエム",
    "address": "佐賀県唐津市和多田先石12-83",
    "lat": 33.4339158396594,
    "lng": 129.988421608598,
    "tel": "０９５５－７３－８０３３",
    "url": "",
    "pref": "佐賀県",
    "city": "唐津市",
    "category": "community_day_service",
    "serviceType": "地域密着型通所介護",
    "capacity": 0,
    "openDays": [
      "平日",
      "土曜日",
      "日曜日",
      "祝日"
    ],
    "openDaysNote": ""
  },
  {
    "id": "4170201182",
    "name": "宅老所　陽　デイサービス",
    "kana": "タクロウショ　アタタカ　デイサービス",
    "address": "佐賀県唐津市相知町相知867番地2",
    "lat": 33.3493422,
    "lng": 130.0130453,
    "tel": "0955-62-3750",
    "url": "",
    "pref": "佐賀県",
    "city": "唐津市",
    "category": "community_day_service",
    "serviceType": "地域密着型通所介護",
    "capacity": null,
    "openDays": [
      "平日",
      "土曜日",
      "日曜日",
      "祝日"
    ],
    "openDaysNote": ""
  },
  {
    "id": "4170200283",
    "name": "宅老所かがみデイサービス",
    "kana": "タクロウショカガミデイサービス",
    "address": "佐賀県唐津市鏡４６５１番地３",
    "lat": 33.43553,
    "lng": 130.011933,
    "tel": "0955-77-4630",
    "url": "http://web.people-i.ne.jp/~satinowa",
    "pref": "佐賀県",
    "city": "唐津市",
    "category": "community_day_service",
    "serviceType": "地域密着型通所介護",
    "capacity": 0,
    "openDays": [
      "平日",
      "土曜日",
      "日曜日",
      "祝日"
    ],
    "openDaysNote": "当該留意事項はありません"
  },
  {
    "id": "4170201356",
    "name": "宅老所和",
    "kana": "タクロウショカズ",
    "address": "佐賀県唐津市双水２６２６番地",
    "lat": 33.3972137,
    "lng": 129.9900072,
    "tel": "0955-78-3880",
    "url": "",
    "pref": "佐賀県",
    "city": "唐津市",
    "category": "community_day_service",
    "serviceType": "地域密着型通所介護",
    "capacity": 10,
    "openDays": [
      "平日",
      "土曜日",
      "日曜日",
      "祝日"
    ],
    "openDaysNote": "正月三ケ日はお休みする場合があります。（事前に連絡します）"
  },
  {
    "id": "4170200689",
    "name": "地域共生ステーションきらり",
    "kana": "チイキキョウセイステーションキラリ",
    "address": "佐賀県唐津市厳木町中島１３９０－３",
    "lat": 33.314055,
    "lng": 130.0723776,
    "tel": "0955-63-2266",
    "url": "",
    "pref": "佐賀県",
    "city": "唐津市",
    "category": "community_day_service",
    "serviceType": "地域密着型通所介護",
    "capacity": 15,
    "openDays": [
      "平日",
      "土曜日",
      "日曜日",
      "祝日"
    ],
    "openDaysNote": "なし"
  },
  {
    "id": "4190200792",
    "name": "唐津市社会福祉協議会通所介護事業所なないろ",
    "kana": "カラツシシャカイフクシキョウギカイツウショカイゴジギョウショナナイロ",
    "address": "佐賀県唐津市七山仁部98番地５",
    "lat": 33.4409381,
    "lng": 130.1143502,
    "tel": "0955-58-2702",
    "url": "www.karatsu-shakyo.or.jp/",
    "pref": "佐賀県",
    "city": "唐津市",
    "category": "community_day_service",
    "serviceType": "地域密着型通所介護",
    "capacity": 18,
    "openDays": [
      "平日",
      "土曜日",
      "日曜日",
      "祝日"
    ],
    "openDaysNote": ""
  },
  {
    "id": "4190200719",
    "name": "唐津市社会福祉協議会通所介護肥前事業所",
    "kana": "カラツシシャカイフクシキョウギカイツウショカイゴヒゼンジギョウショ",
    "address": "佐賀県唐津市肥前町万賀里川953-10",
    "lat": 33.4258497,
    "lng": 129.8600543,
    "tel": "0955-53-2541",
    "url": "",
    "pref": "佐賀県",
    "city": "唐津市",
    "category": "community_day_service",
    "serviceType": "地域密着型通所介護",
    "capacity": 0,
    "openDays": [
      "平日",
      "土曜日",
      "日曜日",
      "祝日"
    ],
    "openDaysNote": ""
  },
  {
    "id": "4190200610",
    "name": "野の里デイサービス",
    "kana": "ノノサトデイサービス",
    "address": "佐賀県唐津市相知町佐里ｲﾊﾞ山1596",
    "lat": 53.41291,
    "lng": -8.24388999999996,
    "tel": "0955-62-3076",
    "url": "",
    "pref": "佐賀県",
    "city": "唐津市",
    "category": "community_day_service",
    "serviceType": "地域密着型通所介護",
    "capacity": null,
    "openDays": [
      "平日",
      "土曜日",
      "日曜日",
      "祝日"
    ],
    "openDaysNote": ""
  },
  {
    "id": "4190200693",
    "name": "有料老人ホームはるの木　唐津館",
    "kana": "ユウリョウロウジンホームハルノキカラツカン",
    "address": "佐賀県唐津市神田字内田２９２０番地",
    "lat": 33.4452724431749,
    "lng": 129.952798527018,
    "tel": "0955-58-9567",
    "url": "",
    "pref": "佐賀県",
    "city": "唐津市",
    "category": "community_day_service",
    "serviceType": "地域密着型通所介護",
    "capacity": 0,
    "openDays": [
      "平日",
      "土曜日",
      "日曜日",
      "祝日"
    ],
    "openDaysNote": ""
  },
  {
    "id": "4171600341",
    "name": "（有）巴屋　デイサービス黒川",
    "kana": "ユウゲンガイシャトモエヤ　デイサービスクロカワ",
    "address": "佐賀県杵島郡白石町大字戸ヶ里2374－10デイサービス　黒川 デイサービス　黒川",
    "lat": 33.1535004582048,
    "lng": 130.126296292665,
    "tel": "0954-65-3369",
    "url": "",
    "pref": "佐賀県",
    "city": "白石町",
    "category": "community_day_service",
    "serviceType": "地域密着型通所介護",
    "capacity": 12,
    "openDays": [
      "平日",
      "土曜日",
      "日曜日",
      "祝日"
    ],
    "openDaysNote": "お盆、年末年始"
  },
  {
    "id": "4171600440",
    "name": "デイサービス　まんまる",
    "kana": "デイサービス　マンマル",
    "address": "大字福田1894番地30",
    "lat": 33.1862707,
    "lng": 130.1366131,
    "tel": "0952-84-6830",
    "url": "",
    "pref": "佐賀県",
    "city": "白石町",
    "category": "community_day_service",
    "serviceType": "地域密着型通所介護",
    "capacity": 0,
    "openDays": [
      "平日",
      "土曜日",
      "日曜日",
      "祝日"
    ],
    "openDaysNote": ""
  },
  {
    "id": "4171600614",
    "name": "ライオンハウスデイ桜の園",
    "kana": "ライオンハウスデイサクラノソノ",
    "address": "佐賀県杵島郡白石町大字福富下分2387番地9",
    "lat": 33.1919996374021,
    "lng": 130.198840618385,
    "tel": "0952-87-2187",
    "url": "http://www.sakuranosono.com",
    "pref": "佐賀県",
    "city": "白石町",
    "category": "community_day_service",
    "serviceType": "地域密着型通所介護",
    "capacity": 15,
    "openDays": [
      "平日",
      "土曜日",
      "日曜日",
      "祝日"
    ],
    "openDaysNote": ""
  },
  {
    "id": "4111610061",
    "name": "医療法人　　醇和会　　有島病院",
    "kana": "イリョウホウジン　ジュンナカイ　アリシマビョウイン",
    "address": "佐賀県杵島郡白石町大字戸ヶ里2352-3",
    "lat": 33.1543406,
    "lng": 130.12565,
    "tel": "0954-65-4100",
    "url": "arishima-hp.com",
    "pref": "佐賀県",
    "city": "白石町",
    "category": "community_day_service",
    "serviceType": "地域密着型通所介護",
    "capacity": 10,
    "openDays": [
      "平日",
      "土曜日",
      "祝日"
    ],
    "openDaysNote": ""
  },
  {
    "id": "4171600242",
    "name": "有限会社　片渕　健やかクラブ",
    "kana": "ユウゲンガイシャ　カタフチ　スコヤカクラブ",
    "address": "佐賀県杵島郡白石町大字福富3393",
    "lat": 33.1859648581324,
    "lng": 130.186455338484,
    "tel": "0952-87-3922",
    "url": "",
    "pref": "佐賀県",
    "city": "白石町",
    "category": "community_day_service",
    "serviceType": "地域密着型通所介護",
    "capacity": 18,
    "openDays": [
      "平日",
      "土曜日",
      "日曜日",
      "祝日"
    ],
    "openDaysNote": ""
  },
  {
    "id": "4190600140",
    "name": "いざき整骨院　リハ特化型デイサービス菜の花",
    "kana": "イザキセイコツインリハトッカガタデイサービスナノハナ",
    "address": "朝日町甘久1778番地",
    "lat": 33.213795,
    "lng": 130.0398571,
    "tel": "0954-33-1314",
    "url": "http://hp.kaipoke.biz/4tg/",
    "pref": "佐賀県",
    "city": "武雄市",
    "category": "community_day_service",
    "serviceType": "地域密着型通所介護",
    "capacity": 10,
    "openDays": [
      "平日"
    ],
    "openDaysNote": "天候、社会情勢等含め、何らかの要因にて臨時的に休業となる場合がある。サービスは半日型にて午前午後共に提供。"
  },
  {
    "id": "4170600524",
    "name": "デイサービス　えん",
    "kana": "デイサービス　エン",
    "address": "佐賀県武雄市武雄町大字武雄２０５番地",
    "lat": 33.1946375,
    "lng": 130.015859,
    "tel": "０９５４－２３－６８２６",
    "url": "",
    "pref": "佐賀県",
    "city": "武雄市",
    "category": "community_day_service",
    "serviceType": "地域密着型通所介護",
    "capacity": 0,
    "openDays": [
      "平日",
      "土曜日",
      "日曜日",
      "祝日"
    ],
    "openDaysNote": ""
  },
  {
    "id": "4170600607",
    "name": "デイサービス　こころの杜",
    "kana": "デイサービス　ココロノモリ",
    "address": "佐賀県武雄市橘町大字大日８４０２番地２",
    "lat": 33.1766094,
    "lng": 130.0607469,
    "tel": "０９５４－２３－５９６３",
    "url": "",
    "pref": "佐賀県",
    "city": "武雄市",
    "category": "community_day_service",
    "serviceType": "地域密着型通所介護",
    "capacity": 18,
    "openDays": [
      "平日",
      "土曜日",
      "日曜日",
      "祝日"
    ],
    "openDaysNote": "無"
  },
  {
    "id": "4190600157",
    "name": "デイサービスあいりす",
    "kana": "デイサービスアイリス",
    "address": "佐賀県武雄市西川登町大字小田志１８３８２－１",
    "lat": 33.1274213,
    "lng": 129.9931241,
    "tel": "0954-28-2977",
    "url": "airis-kaogo.com/",
    "pref": "佐賀県",
    "city": "武雄市",
    "category": "community_day_service",
    "serviceType": "地域密着型通所介護",
    "capacity": 0,
    "openDays": [
      "平日",
      "土曜日",
      "日曜日",
      "祝日"
    ],
    "openDaysNote": "サービスの提供時間　　1単位目：9時から16時半（改行）（改行）　　延長サービス時間　　提供前8時から9時まで　　　提供後16時半から18時まで"
  },
  {
    "id": "4170600649",
    "name": "デイサービスひだまりひだまり",
    "kana": "デイサービスヒダマリ",
    "address": "佐賀県武雄市東川登町大字永野6363番地4地域共生ステーションひだまり 地域共生ステーションひだまり",
    "lat": 33.1624621,
    "lng": 130.0012136,
    "tel": "0954-28-9465",
    "url": "",
    "pref": "佐賀県",
    "city": "武雄市",
    "category": "community_day_service",
    "serviceType": "地域密着型通所介護",
    "capacity": 2,
    "openDays": [
      "平日",
      "土曜日",
      "日曜日",
      "祝日"
    ],
    "openDaysNote": ""
  },
  {
    "id": "4170600599",
    "name": "デイサービス久津具",
    "kana": "デイサービスクツク",
    "address": "北方町大字大崎760-1",
    "lat": 33.2136887,
    "lng": 130.0548581,
    "tel": "0954-36-3000",
    "url": "https://ebisu-mitsuwa.com/",
    "pref": "佐賀県",
    "city": "武雄市",
    "category": "community_day_service",
    "serviceType": "地域密着型通所介護",
    "capacity": 10,
    "openDays": [
      "平日",
      "土曜日",
      "祝日"
    ],
    "openDaysNote": "年末年始休業あり"
  },
  {
    "id": "4190600165",
    "name": "デイサービス富乃美の丘",
    "kana": "デイサービストノミノオカ",
    "address": "佐賀県武雄市山内町大字鳥海12095番地1",
    "lat": 33.200491,
    "lng": 129.9573485,
    "tel": "0954-45-3467",
    "url": "https://tonominooka.com/",
    "pref": "佐賀県",
    "city": "武雄市",
    "category": "community_day_service",
    "serviceType": "地域密着型通所介護",
    "capacity": 0,
    "openDays": [
      "平日",
      "土曜日"
    ],
    "openDaysNote": ""
  },
  {
    "id": "4170600631",
    "name": "リハプライド武雄健創",
    "kana": "リハプライドタケオケンソウ",
    "address": "佐賀県武雄市武雄町大字富岡字サキ田7847番地7",
    "lat": 33.1945414437707,
    "lng": 130.018291423279,
    "tel": "0954-27-8123",
    "url": "",
    "pref": "佐賀県",
    "city": "武雄市",
    "category": "community_day_service",
    "serviceType": "地域密着型通所介護",
    "capacity": 100,
    "openDays": [
      "平日",
      "祝日"
    ],
    "openDaysNote": ""
  },
  {
    "id": "4110611367",
    "name": "医療法人　青葉会　中川内医院　デイサービスセンター",
    "kana": "イリョウホウジン　アオバカイ　ナカガワチイイン　デイサービスセンター",
    "address": "佐賀県武雄市武内町大字真手野28178-1",
    "lat": 33.2300938007319,
    "lng": 129.964313611114,
    "tel": "0954-20-8180",
    "url": "",
    "pref": "佐賀県",
    "city": "武雄市",
    "category": "community_day_service",
    "serviceType": "地域密着型通所介護",
    "capacity": 10,
    "openDays": [
      "平日",
      "土曜日",
      "祝日"
    ],
    "openDaysNote": ""
  },
  {
    "id": "4170600409",
    "name": "介護福祉ステーション森の音",
    "kana": "カイゴフクシステーション　モリノネ",
    "address": "佐賀県武雄市西川登町大字小田志16865番地",
    "lat": 33.1332506,
    "lng": 129.9868551,
    "tel": "0954-28-2336",
    "url": "https://yasaka-takeo.com/",
    "pref": "佐賀県",
    "city": "武雄市",
    "category": "community_day_service",
    "serviceType": "地域密着型通所介護",
    "capacity": null,
    "openDays": [
      "平日",
      "土曜日",
      "日曜日",
      "祝日"
    ],
    "openDaysNote": ""
  },
  {
    "id": "4171600325",
    "name": "宅幼老所笑びす　デイサービス笑びす",
    "kana": "タクヨウロウショエビス　デイサービスエビス",
    "address": "佐賀県武雄市北方町大字大崎753番地",
    "lat": 33.2140998,
    "lng": 130.0550581,
    "tel": "0954-36-4936",
    "url": "https://ebisu-mitsuwa.com/",
    "pref": "佐賀県",
    "city": "武雄市",
    "category": "community_day_service",
    "serviceType": "地域密着型通所介護",
    "capacity": 10,
    "openDays": [
      "平日",
      "土曜日",
      "日曜日",
      "祝日"
    ],
    "openDaysNote": ""
  },
  {
    "id": "4171500145",
    "name": "ふくしま整骨院リハビリデイサービス",
    "kana": "フクシマセイコツインリハビリデイサービス",
    "address": "西松浦郡有田町大木宿乙952-1-2ジャジャの森センターハウス ジャジャの森センターハウス",
    "lat": 33.2228313,
    "lng": 129.8488473,
    "tel": "0955-46-3012",
    "url": "",
    "pref": "佐賀県",
    "city": "有田町",
    "category": "community_day_service",
    "serviceType": "地域密着型通所介護",
    "capacity": 55,
    "openDays": [
      "平日",
      "土曜日"
    ],
    "openDaysNote": ""
  },
  {
    "id": "4171500095",
    "name": "地域密着型通所介護ともなが",
    "kana": "チイキミッチャクガタツウショカイゴトモナガ",
    "address": "佐賀県西松浦郡有田町戸杓丙１２４番地３",
    "lat": 33.1758115,
    "lng": 129.879146,
    "tel": "0955-29-8078",
    "url": "",
    "pref": "佐賀県",
    "city": "有田町",
    "category": "community_day_service",
    "serviceType": "地域密着型通所介護",
    "capacity": 0,
    "openDays": [
      "平日",
      "土曜日",
      "日曜日",
      "祝日"
    ],
    "openDaysNote": "利用がない場合は休みとなる時もある"
  }
]