[
  {
    "id": "3071300101",
    "name": "かつらぎ町社会福祉協議会　花園介護事業所",
    "kana": "カツラギチョウシャカイフクシキョウギカイ　ハナゾノカイゴジギョウショ",
    "address": "和歌山県伊都郡かつらぎ町大字花園梁瀬１５７８番地の２かつらぎ町高齢者生活福祉センター かつらぎ町高齢者生活福祉センター",
    "lat": 34.1380079387854,
    "lng": 135.514956060084,
    "tel": "0737-26-0344",
    "url": "https://katsuragishakyo.or.jp/",
    "pref": "和歌山県",
    "city": "かつらぎ町",
    "category": "community_day_service",
    "serviceType": "地域密着型通所介護",
    "capacity": null,
    "openDays": [
      "平日"
    ],
    "openDaysNote": "留意事項なし"
  },
  {
    "id": "3071300812",
    "name": "デイサービス愛がある",
    "kana": "デイサービスアイガアル",
    "address": "和歌山県伊都郡かつらぎ町中飯降1657－2",
    "lat": 34.3063830675714,
    "lng": 135.540863811314,
    "tel": "0736-22-7770",
    "url": "http://aigaaru.co.jp/",
    "pref": "和歌山県",
    "city": "かつらぎ町",
    "category": "community_day_service",
    "serviceType": "地域密着型通所介護",
    "capacity": 20,
    "openDays": [
      "平日",
      "土曜日",
      "日曜日",
      "祝日"
    ],
    "openDaysNote": "年始（1/1～1/3）に休みになる場合があります。"
  },
  {
    "id": "3071300846",
    "name": "デサービス夢心",
    "kana": "デイサービスユメゴコロ",
    "address": "和歌山県伊都郡かつらぎ町大字佐野347番地",
    "lat": 34.2946183454472,
    "lng": 135.481528705259,
    "tel": "0736-20-1157",
    "url": "http://www.kokoro-animal.co/",
    "pref": "和歌山県",
    "city": "かつらぎ町",
    "category": "community_day_service",
    "serviceType": "地域密着型通所介護",
    "capacity": 10,
    "openDays": [
      "平日",
      "土曜日",
      "祝日"
    ],
    "openDaysNote": ""
  },
  {
    "id": "3071300853",
    "name": "太陽の家",
    "kana": "タイヨウノイエ",
    "address": "和歌山県伊都郡かつらぎ町高田196番地",
    "lat": 34.2814301,
    "lng": 135.450771,
    "tel": "0736-26-5137",
    "url": "",
    "pref": "和歌山県",
    "city": "かつらぎ町",
    "category": "community_day_service",
    "serviceType": "地域密着型通所介護",
    "capacity": 12,
    "openDays": [
      "平日",
      "祝日"
    ],
    "openDaysNote": ""
  },
  {
    "id": "3092100084",
    "name": "三和デイサービス　印南店",
    "kana": "サンワデイサービス　イナミテン",
    "address": "和歌山県日高郡印南町印南1961-6",
    "lat": 33.8142454,
    "lng": 135.2194031,
    "tel": "0738-42-1180",
    "url": "",
    "pref": "和歌山県",
    "city": "印南町",
    "category": "community_day_service",
    "serviceType": "地域密着型通所介護",
    "capacity": 18,
    "openDays": [
      "平日",
      "土曜日"
    ],
    "openDaysNote": "お盆（8/13～8/15）、年末年始（12/29～1/3）はお休みです。"
  },
  {
    "id": "3071400570",
    "name": "ケアセンター和が家",
    "kana": "ケアセンターワガヤ",
    "address": "和歌山県海南市木津273",
    "lat": 53.41291,
    "lng": -8.24388999999996,
    "tel": "073-485-3001",
    "url": "http://kainan-wagaya.jp/",
    "pref": "和歌山県",
    "city": "海南市",
    "category": "community_day_service",
    "serviceType": "地域密着型通所介護",
    "capacity": 0,
    "openDays": [
      "平日",
      "土曜日",
      "祝日"
    ],
    "openDaysNote": ""
  },
  {
    "id": "3071401040",
    "name": "ケアチーム大河",
    "kana": "ケアチームタイガ",
    "address": "名高474番地",
    "lat": 34.1521584,
    "lng": 135.2118529,
    "tel": "073-483-6066",
    "url": "",
    "pref": "和歌山県",
    "city": "海南市",
    "category": "community_day_service",
    "serviceType": "地域密着型通所介護",
    "capacity": 18,
    "openDays": [
      "平日",
      "土曜日",
      "祝日"
    ],
    "openDaysNote": ""
  },
  {
    "id": "3091400139",
    "name": "デイサービスセンター　ウェルネス",
    "kana": "デイサービスセンター　ウェルネス",
    "address": "日方1274-76",
    "lat": 34.1570047,
    "lng": 135.2062256,
    "tel": "073-483-8686",
    "url": "https://www.w428.jp/",
    "pref": "和歌山県",
    "city": "海南市",
    "category": "community_day_service",
    "serviceType": "地域密着型通所介護",
    "capacity": 13,
    "openDays": [
      "平日",
      "土曜日",
      "祝日"
    ],
    "openDaysNote": ""
  },
  {
    "id": "3071400919",
    "name": "デイサービスセンター・スイミー",
    "kana": "デイサービスセンター・スイミー",
    "address": "和歌山県海南市下津町方2088番地28",
    "lat": 34.1225624314223,
    "lng": 135.132781379762,
    "tel": "073-499-4355",
    "url": "http://cocolo4031.com",
    "pref": "和歌山県",
    "city": "海南市",
    "category": "community_day_service",
    "serviceType": "地域密着型通所介護",
    "capacity": 10,
    "openDays": [
      "平日",
      "土曜日",
      "祝日"
    ],
    "openDaysNote": "定休日は住宅型有料老人ホームしおさいの家（073－499－4355）に連絡してください。"
  },
  {
    "id": "3071400604",
    "name": "デイサービスつどいの家",
    "kana": "デイサービスツドイノイエ",
    "address": "海南市名高506-4",
    "lat": 34.1531643595318,
    "lng": 135.212116230791,
    "tel": "073-483-1770",
    "url": "http://care-net.biz/30/kyuseikai/",
    "pref": "和歌山県",
    "city": "海南市",
    "category": "community_day_service",
    "serviceType": "地域密着型通所介護",
    "capacity": 13,
    "openDays": [
      "平日",
      "土曜日",
      "祝日"
    ],
    "openDaysNote": ""
  },
  {
    "id": "3071401156",
    "name": "デイサービス和が家",
    "kana": "デイサービスワガヤ",
    "address": "和歌山県海南市木津285",
    "lat": 34.1547815,
    "lng": 135.2761868,
    "tel": "073-485-2200",
    "url": "",
    "pref": "和歌山県",
    "city": "海南市",
    "category": "community_day_service",
    "serviceType": "地域密着型通所介護",
    "capacity": 18,
    "openDays": [
      "平日",
      "祝日"
    ],
    "openDaysNote": ""
  },
  {
    "id": "3071400034",
    "name": "ライフパートナー",
    "kana": "ライフパートナー",
    "address": "和歌山県海南市重根348-2ライフパートナー重根1F",
    "lat": 34.1561747662495,
    "lng": 135.243071384369,
    "tel": "073-487-3447",
    "url": "",
    "pref": "和歌山県",
    "city": "海南市",
    "category": "community_day_service",
    "serviceType": "地域密着型通所介護",
    "capacity": 0,
    "openDays": [
      "平日",
      "土曜日",
      "日曜日",
      "祝日"
    ],
    "openDaysNote": "延長対応"
  },
  {
    "id": "3071401230",
    "name": "一織庵デイサービス海南",
    "kana": "イオリアンデイサービスカイナン",
    "address": "和歌山県海南市日方１５１２－３",
    "lat": 34.155583,
    "lng": 135.2124917,
    "tel": "073-483-1270",
    "url": "",
    "pref": "和歌山県",
    "city": "海南市",
    "category": "community_day_service",
    "serviceType": "地域密着型通所介護",
    "capacity": 18,
    "openDays": [
      "平日",
      "土曜日",
      "日曜日",
      "祝日"
    ],
    "openDaysNote": ""
  },
  {
    "id": "3091400113",
    "name": "実",
    "kana": "ミノリ～ミノリ～",
    "address": "和歌山県海南市井田151-4",
    "lat": 34.1594412,
    "lng": 135.2235906,
    "tel": "073-488-5561",
    "url": "ism-coltd.com",
    "pref": "和歌山県",
    "city": "海南市",
    "category": "community_day_service",
    "serviceType": "地域密着型通所介護",
    "capacity": 10,
    "openDays": [
      "平日"
    ],
    "openDaysNote": ""
  },
  {
    "id": "3091400121",
    "name": "北浦デイサービス（海南）",
    "kana": "キタウラデイサービス（カイナン）",
    "address": "和歌山県海南市小野田７４",
    "lat": 34.1718475141525,
    "lng": 135.253459279512,
    "tel": "０７３－４８７－５０５５",
    "url": "",
    "pref": "和歌山県",
    "city": "海南市",
    "category": "community_day_service",
    "serviceType": "地域密着型通所介護",
    "capacity": null,
    "openDays": [
      "平日",
      "土曜日",
      "祝日"
    ],
    "openDaysNote": ""
  },
  {
    "id": "3071800100",
    "name": "ケアセンター憩いの里　船戸",
    "kana": "ケアセンターイコイノサト　フナト",
    "address": "和歌山県岩出市船戸１１６番地",
    "lat": 34.248987,
    "lng": 135.3090098,
    "tel": "0736-69-0500",
    "url": "http://www.ikoi-sato.jp",
    "pref": "和歌山県",
    "city": "岩出市",
    "category": "community_day_service",
    "serviceType": "地域密着型通所介護",
    "capacity": 0,
    "openDays": [
      "平日",
      "祝日"
    ],
    "openDaysNote": ""
  },
  {
    "id": "3071800142",
    "name": "たんぽぽ苑",
    "kana": "タンポポエン",
    "address": "和歌山県岩出市西安上267番地",
    "lat": 34.2801811,
    "lng": 135.2931646,
    "tel": "0736-62-7200",
    "url": "http://www.tomita.or.jp",
    "pref": "和歌山県",
    "city": "岩出市",
    "category": "community_day_service",
    "serviceType": "地域密着型通所介護",
    "capacity": 0,
    "openDays": [
      "平日",
      "土曜日",
      "祝日"
    ],
    "openDaysNote": "年末年始（12/30～1/3）休み"
  },
  {
    "id": "3071800340",
    "name": "デイサービスセンターえんがわ",
    "kana": "デイサービスセンターエンガワ",
    "address": "岩出市畑毛111-1エルダリーハウスえんがわ内 エルダリーハウスえんがわ内",
    "lat": 34.2630968,
    "lng": 135.3024633,
    "tel": "0736-63-4165",
    "url": "",
    "pref": "和歌山県",
    "city": "岩出市",
    "category": "community_day_service",
    "serviceType": "地域密着型通所介護",
    "capacity": 0,
    "openDays": [
      "平日",
      "祝日"
    ],
    "openDaysNote": ""
  },
  {
    "id": "3071800282",
    "name": "デイサービスセンターひなたぼっこ",
    "kana": "デイサービスセンターヒナタボッコ",
    "address": "和歌山県岩出市西国分32",
    "lat": 34.2675006429035,
    "lng": 135.337065914267,
    "tel": "0736 62 1440",
    "url": "",
    "pref": "和歌山県",
    "city": "岩出市",
    "category": "community_day_service",
    "serviceType": "地域密着型通所介護",
    "capacity": 18,
    "openDays": [
      "平日",
      "土曜日",
      "祝日"
    ],
    "openDaysNote": "12/31~1/3（改行）年末年始は休みです。"
  },
  {
    "id": "3091700181",
    "name": "OCEANリハビリデイサービス",
    "kana": "オーシャンリハビリデイサービス",
    "address": "和歌山県紀の川市貴志川町丸栖1171番地31",
    "lat": 34.2328301,
    "lng": 135.3309865,
    "tel": "0736-68-9022",
    "url": "",
    "pref": "和歌山県",
    "city": "紀の川市",
    "category": "community_day_service",
    "serviceType": "地域密着型通所介護",
    "capacity": 0,
    "openDays": [
      "平日",
      "祝日"
    ],
    "openDaysNote": "月曜日から金曜日の間であれば祭日もしくは祝日があっても営業しています。"
  },
  {
    "id": "3071700649",
    "name": "えぇわっしょ貴志川",
    "kana": "エェワッショキシガワ",
    "address": "和歌山県紀の川市貴志川町北843",
    "lat": 34.2128977454093,
    "lng": 135.328274762869,
    "tel": "0736-65-2001",
    "url": "",
    "pref": "和歌山県",
    "city": "紀の川市",
    "category": "community_day_service",
    "serviceType": "地域密着型通所介護",
    "capacity": 15,
    "openDays": [
      "平日",
      "土曜日",
      "祝日"
    ],
    "openDaysNote": "年末年始は12月31日～1月2日まで休み"
  },
  {
    "id": "3091700165",
    "name": "デイサービスUUGO",
    "kana": "デイサービスウーゴ",
    "address": "和歌山県紀の川市打田1248-1",
    "lat": 34.2645110248449,
    "lng": 135.365241772339,
    "tel": "0736-60-7084",
    "url": "",
    "pref": "和歌山県",
    "city": "紀の川市",
    "category": "community_day_service",
    "serviceType": "地域密着型通所介護",
    "capacity": 18,
    "openDays": [
      "平日",
      "土曜日",
      "祝日"
    ],
    "openDaysNote": ""
  },
  {
    "id": "3071700557",
    "name": "デイサービスこころね",
    "kana": "デイサービスココロネ",
    "address": "紀の川市西井阪１３９－２",
    "lat": 34.2576808,
    "lng": 135.3374759,
    "tel": "０７３６－７９－３８０８",
    "url": "",
    "pref": "和歌山県",
    "city": "紀の川市",
    "category": "community_day_service",
    "serviceType": "地域密着型通所介護",
    "capacity": 13,
    "openDays": [
      "平日",
      "祝日"
    ],
    "openDaysNote": ""
  },
  {
    "id": "3071700706",
    "name": "デイサービスセンター雅",
    "kana": "デイサービスセンターミヤビ",
    "address": "和歌山県紀の川市深田101番地１",
    "lat": 34.2917035,
    "lng": 135.4194851,
    "tel": "0736-73-2950",
    "url": "http://www.miyabi537.com",
    "pref": "和歌山県",
    "city": "紀の川市",
    "category": "community_day_service",
    "serviceType": "地域密着型通所介護",
    "capacity": 15,
    "openDays": [
      "平日",
      "土曜日",
      "祝日"
    ],
    "openDaysNote": ""
  },
  {
    "id": "3071700730",
    "name": "デイサービスひだまり",
    "kana": "デイサービスヒダマリ",
    "address": "和歌山県紀の川市杉原３９－４",
    "lat": 34.2583825595674,
    "lng": 135.405940034393,
    "tel": "０７３６－７３－６０１０",
    "url": "",
    "pref": "和歌山県",
    "city": "紀の川市",
    "category": "community_day_service",
    "serviceType": "地域密着型通所介護",
    "capacity": 0,
    "openDays": [
      "平日",
      "土曜日",
      "祝日"
    ],
    "openDaysNote": ""
  },
  {
    "id": "3071700490",
    "name": "デイサービスひまわり",
    "kana": "デイサービスヒマワリ",
    "address": "和歌山県紀の川市貴志川町神戸28番地の1",
    "lat": 34.2168299,
    "lng": 135.3184345,
    "tel": "0736-64-1117",
    "url": "",
    "pref": "和歌山県",
    "city": "紀の川市",
    "category": "community_day_service",
    "serviceType": "地域密着型通所介護",
    "capacity": 10,
    "openDays": [
      "平日",
      "祝日"
    ],
    "openDaysNote": "12/30～1/4は、正月休みです。"
  },
  {
    "id": "3071700516",
    "name": "リハビリデイサービスももたろう貴志川",
    "kana": "リハビリデイサービスモモタロウキシガワ",
    "address": "紀の川市貴志川町長原650-1",
    "lat": 34.2135244,
    "lng": 135.3001868,
    "tel": "0736-60-4774",
    "url": "",
    "pref": "和歌山県",
    "city": "紀の川市",
    "category": "community_day_service",
    "serviceType": "地域密着型通所介護",
    "capacity": 0,
    "openDays": [
      "平日",
      "祝日"
    ],
    "openDaysNote": ""
  },
  {
    "id": "3071700748",
    "name": "一織庵デイサービス名手",
    "kana": "イオリアンデイサービスナテ",
    "address": "名手市場729-1",
    "lat": 34.2772635,
    "lng": 135.4340145,
    "tel": "0736-75-9755",
    "url": "http://iorian-dayservice.com/company/",
    "pref": "和歌山県",
    "city": "紀の川市",
    "category": "community_day_service",
    "serviceType": "地域密着型通所介護",
    "capacity": 10,
    "openDays": [
      "平日",
      "土曜日",
      "日曜日",
      "祝日"
    ],
    "openDaysNote": ""
  },
  {
    "id": "3071700698",
    "name": "茶話本舗デイサービス夢音貴志川",
    "kana": "サワホンポデイサービスユメオトキシガワ",
    "address": "和歌山県紀の川市貴志川町井ノ口６１５－５",
    "lat": 34.2029207,
    "lng": 135.3133327,
    "tel": "０７３６－７９－３１００",
    "url": "",
    "pref": "和歌山県",
    "city": "紀の川市",
    "category": "community_day_service",
    "serviceType": "地域密着型通所介護",
    "capacity": 18,
    "openDays": [
      "平日",
      "土曜日",
      "日曜日",
      "祝日"
    ],
    "openDaysNote": ""
  },
  {
    "id": "3071700771",
    "name": "夢音ディサービスセンター貴志川",
    "kana": "ユメオトディサービスセンターキシガワ",
    "address": "貴志川町井ノ口６１５－１",
    "lat": 34.2033067,
    "lng": 135.3132938,
    "tel": "０７３６－７９ー４３２０",
    "url": "",
    "pref": "和歌山県",
    "city": "紀の川市",
    "category": "community_day_service",
    "serviceType": "地域密着型通所介護",
    "capacity": 18,
    "openDays": [
      "平日",
      "土曜日",
      "日曜日",
      "祝日"
    ],
    "openDaysNote": ""
  },
  {
    "id": "3091000236",
    "name": "あおいデイサービス",
    "kana": "アオイデイサービス",
    "address": "和歌山県橋本市あやの台1丁目44-3",
    "lat": 34.3382765,
    "lng": 135.6549354,
    "tel": "0736-26-7226",
    "url": "",
    "pref": "和歌山県",
    "city": "橋本市",
    "category": "community_day_service",
    "serviceType": "地域密着型通所介護",
    "capacity": null,
    "openDays": [
      "平日",
      "土曜日",
      "祝日"
    ],
    "openDaysNote": ""
  },
  {
    "id": "3071001105",
    "name": "あやの台リハビリデイサービスセンター",
    "kana": "アヤノダイリハビリデイサービスセンター",
    "address": "和歌山県橋本市あやの台一丁目44－1",
    "lat": 34.3379726,
    "lng": 135.6549136,
    "tel": "0736-36-8811",
    "url": "",
    "pref": "和歌山県",
    "city": "橋本市",
    "category": "community_day_service",
    "serviceType": "地域密着型通所介護",
    "capacity": 9,
    "openDays": [
      "平日",
      "土曜日",
      "祝日"
    ],
    "openDaysNote": ""
  },
  {
    "id": "3071001055",
    "name": "ケアガーデンズデイサービスセンター",
    "kana": "ケアガーデンズデイサービスセンター",
    "address": "和歌山県橋本市神野々1028",
    "lat": 34.3048008854399,
    "lng": 135.577757354848,
    "tel": "0736-33-5511",
    "url": "http://www.caregardens.zilch-international.com/",
    "pref": "和歌山県",
    "city": "橋本市",
    "category": "community_day_service",
    "serviceType": "地域密着型通所介護",
    "capacity": 15,
    "openDays": [
      "平日",
      "土曜日",
      "祝日"
    ],
    "openDaysNote": ""
  },
  {
    "id": "3071000818",
    "name": "ジュレデイサービス",
    "kana": "ジュレデイサービス",
    "address": "橋本市紀見463-1",
    "lat": 34.3469575,
    "lng": 135.6178027,
    "tel": "0736-37-0700",
    "url": "http://www.marix317.com",
    "pref": "和歌山県",
    "city": "橋本市",
    "category": "community_day_service",
    "serviceType": "地域密着型通所介護",
    "capacity": 0,
    "openDays": [
      "平日",
      "祝日"
    ],
    "openDaysNote": ""
  },
  {
    "id": "3091000160",
    "name": "シルバートレーニング",
    "kana": "シルバートレーニング",
    "address": "和歌山県橋本市岸上415-1",
    "lat": 34.3135957,
    "lng": 135.5864508,
    "tel": "0736-33-5522",
    "url": "",
    "pref": "和歌山県",
    "city": "橋本市",
    "category": "community_day_service",
    "serviceType": "地域密着型通所介護",
    "capacity": 10,
    "openDays": [
      "平日",
      "土曜日",
      "祝日"
    ],
    "openDaysNote": ""
  },
  {
    "id": "3071000362",
    "name": "スマイルデイサービス",
    "kana": "スマイルデイサービス",
    "address": "和歌山県　橋本市　隅田町　芋生178番地の1",
    "lat": 34.3308980164226,
    "lng": 135.655049370548,
    "tel": "0736-32-2627",
    "url": "",
    "pref": "和歌山県",
    "city": "橋本市",
    "category": "community_day_service",
    "serviceType": "地域密着型通所介護",
    "capacity": 18,
    "openDays": [
      "平日",
      "祝日"
    ],
    "openDaysNote": ""
  },
  {
    "id": "3071000867",
    "name": "デイサービス　ひだまりの里",
    "kana": "デイサービス　ヒダマリノサト",
    "address": "高野口町応其36",
    "lat": 34.3120247,
    "lng": 135.5682971,
    "tel": "0736-43-0725",
    "url": "",
    "pref": "和歌山県",
    "city": "橋本市",
    "category": "community_day_service",
    "serviceType": "地域密着型通所介護",
    "capacity": 15,
    "openDays": [
      "平日",
      "土曜日",
      "祝日"
    ],
    "openDaysNote": ""
  },
  {
    "id": "3071001162",
    "name": "デイサービス　愛がある大野",
    "kana": "デイサービスアイガアルオオノ",
    "address": "和歌山県橋本市高野口町大野687",
    "lat": 34.3073619707449,
    "lng": 135.549086822784,
    "tel": "0736-42-5170",
    "url": "http://aigaaru.co.jp/",
    "pref": "和歌山県",
    "city": "橋本市",
    "category": "community_day_service",
    "serviceType": "地域密着型通所介護",
    "capacity": 0,
    "openDays": [
      "平日",
      "土曜日",
      "日曜日",
      "祝日"
    ],
    "openDaysNote": ""
  },
  {
    "id": "3071001022",
    "name": "デイサービスセンター　ライフ・パル",
    "kana": "デイサービスセンター　ライフ・パル",
    "address": "和歌山県橋本市胡麻生467番住宅型有料老人ホーム　ジョイ楽園 住宅型有料老人ホーム　ジョイ楽園",
    "lat": 34.3391998,
    "lng": 135.6074261,
    "tel": "0736-37-0101",
    "url": "http://www.joy-rakuen.jp/",
    "pref": "和歌山県",
    "city": "橋本市",
    "category": "community_day_service",
    "serviceType": "地域密着型通所介護",
    "capacity": 18,
    "openDays": [
      "平日",
      "土曜日",
      "祝日"
    ],
    "openDaysNote": ""
  },
  {
    "id": "3071000958",
    "name": "デイサービスひらい",
    "kana": "デイサービスヒライ",
    "address": "橋本２－７３－１",
    "lat": 37.2334172,
    "lng": 140.5677762,
    "tel": "0736-32-5570",
    "url": "",
    "pref": "和歌山県",
    "city": "橋本市",
    "category": "community_day_service",
    "serviceType": "地域密着型通所介護",
    "capacity": 0,
    "openDays": [
      "平日",
      "祝日"
    ],
    "openDaysNote": ""
  },
  {
    "id": "3071000735",
    "name": "デイサービスまりっくす",
    "kana": "デイサービスマリックス",
    "address": "橋本市高野口町小田６４３－１",
    "lat": 34.2997679,
    "lng": 135.5612536,
    "tel": "0736-44-1007",
    "url": "http://www.marix317.com",
    "pref": "和歌山県",
    "city": "橋本市",
    "category": "community_day_service",
    "serviceType": "地域密着型通所介護",
    "capacity": 0,
    "openDays": [
      "平日",
      "祝日"
    ],
    "openDaysNote": ""
  },
  {
    "id": "3091000202",
    "name": "デイサービスもも",
    "kana": "デイサービスモモ",
    "address": "山田86-3",
    "lat": null,
    "lng": null,
    "tel": "0736-20-6522",
    "url": "",
    "pref": "和歌山県",
    "city": "橋本市",
    "category": "community_day_service",
    "serviceType": "地域密着型通所介護",
    "capacity": null,
    "openDays": [
      "平日",
      "土曜日",
      "日曜日",
      "祝日"
    ],
    "openDaysNote": ""
  },
  {
    "id": "3071000941",
    "name": "デイサービス愛がある伏原",
    "kana": "デイサービスアイガアルフシハラ",
    "address": "和歌山県橋本市高野口町伏原734－1",
    "lat": 34.3095084,
    "lng": 135.5756438,
    "tel": "0736-20-2090",
    "url": "",
    "pref": "和歌山県",
    "city": "橋本市",
    "category": "community_day_service",
    "serviceType": "地域密着型通所介護",
    "capacity": 5,
    "openDays": [
      "平日",
      "土曜日",
      "祝日"
    ],
    "openDaysNote": "年始（1/1～1/3）休みになる場合があります。"
  },
  {
    "id": "3091000129",
    "name": "デイサービス柚っ子",
    "kana": "デイサービスユッコ",
    "address": "和歌山県橋本市城山台2-11-5",
    "lat": 34.3484905,
    "lng": 135.6132281,
    "tel": "0736-26-7460",
    "url": "",
    "pref": "和歌山県",
    "city": "橋本市",
    "category": "community_day_service",
    "serviceType": "地域密着型通所介護",
    "capacity": null,
    "openDays": [
      "平日",
      "土曜日",
      "祝日"
    ],
    "openDaysNote": ""
  },
  {
    "id": "3091000251",
    "name": "デイサロン柚っ子",
    "kana": "デイサロンユッコ",
    "address": "城山台2-15-13丸山ビル1階 丸山ビル1階",
    "lat": 34.734581,
    "lng": 135.8332573,
    "tel": "0736-25-5433",
    "url": "https://waizu-plan.co.jp/",
    "pref": "和歌山県",
    "city": "橋本市",
    "category": "community_day_service",
    "serviceType": "地域密着型通所介護",
    "capacity": null,
    "openDays": [
      "平日",
      "祝日"
    ],
    "openDaysNote": ""
  },
  {
    "id": "3091000186",
    "name": "ひまわり福祉サービス橋本事業所",
    "kana": "ヒマワリフクシサービスハシモトジギョウショ",
    "address": "和歌山県橋本市隅田町下兵庫514-3",
    "lat": 34.3240576,
    "lng": 135.6330601,
    "tel": "0736-39-0565",
    "url": "http://www.himawari-welfare.jp",
    "pref": "和歌山県",
    "city": "橋本市",
    "category": "community_day_service",
    "serviceType": "地域密着型通所介護",
    "capacity": null,
    "openDays": [
      "平日",
      "土曜日"
    ],
    "openDaysNote": ""
  },
  {
    "id": "3071001170",
    "name": "リハビリデイサービス　わが家",
    "kana": "リハビリデイサービス　ワガヤ",
    "address": "和歌山県橋本市高野口町伏原１０１１",
    "lat": 53.41291,
    "lng": -8.24388999999996,
    "tel": "0736-43-2600",
    "url": "http://itou-clinic-hashimoto.jp/",
    "pref": "和歌山県",
    "city": "橋本市",
    "category": "community_day_service",
    "serviceType": "地域密着型通所介護",
    "capacity": 0,
    "openDays": [
      "平日",
      "祝日"
    ],
    "openDaysNote": ""
  },
  {
    "id": "3071000909",
    "name": "リハビリデイサービスももたろう橋本",
    "kana": "リハビリデイサービスモモタロウハシモト",
    "address": "橋本市隅田町中島993-1",
    "lat": 34.3286654,
    "lng": 135.635546,
    "tel": "0736-20-1826",
    "url": "",
    "pref": "和歌山県",
    "city": "橋本市",
    "category": "community_day_service",
    "serviceType": "地域密着型通所介護",
    "capacity": 0,
    "openDays": [
      "平日",
      "祝日"
    ],
    "openDaysNote": ""
  },
  {
    "id": "3071000651",
    "name": "神野々北デイサービス",
    "kana": "コノノキタデイサービス",
    "address": "橋本市神野々308-1",
    "lat": 34.3137699167462,
    "lng": 135.58280819578,
    "tel": "0736-20-6814",
    "url": "",
    "pref": "和歌山県",
    "city": "橋本市",
    "category": "community_day_service",
    "serviceType": "地域密着型通所介護",
    "capacity": 18,
    "openDays": [
      "平日",
      "土曜日",
      "祝日"
    ],
    "openDaysNote": ""
  },
  {
    "id": "3092500291",
    "name": "かわむらさんち",
    "kana": "カワムラサンチ",
    "address": "和歌山県東牟婁郡串本町田並1073",
    "lat": 33.4861355,
    "lng": 135.7170731,
    "tel": "0735-67-7494",
    "url": "",
    "pref": "和歌山県",
    "city": "串本町",
    "category": "community_day_service",
    "serviceType": "地域密着型通所介護",
    "capacity": 0,
    "openDays": [
      "平日",
      "土曜日",
      "祝日"
    ],
    "openDaysNote": ""
  },
  {
    "id": "3072500949",
    "name": "デイサービスセンター　いろは",
    "kana": "デイサービスセンター　イロハ",
    "address": "和歌山県東牟婁郡串本町出雲1614-25",
    "lat": 33.449066020256,
    "lng": 135.781402539298,
    "tel": "0735-62-2024",
    "url": "",
    "pref": "和歌山県",
    "city": "串本町",
    "category": "community_day_service",
    "serviceType": "地域密着型通所介護",
    "capacity": 0,
    "openDays": [
      "平日",
      "祝日"
    ],
    "openDaysNote": ""
  },
  {
    "id": "3092500242",
    "name": "デイサービスセンターこんぺいとう",
    "kana": "デイサービスセンターコンペイトウ",
    "address": "和歌山県東牟婁郡串本町串本町西向697-2",
    "lat": 33.5148145,
    "lng": 135.8217672,
    "tel": "0735-72-0338",
    "url": "",
    "pref": "和歌山県",
    "city": "串本町",
    "category": "community_day_service",
    "serviceType": "地域密着型通所介護",
    "capacity": 0,
    "openDays": [
      "平日",
      "祝日"
    ],
    "openDaysNote": ""
  },
  {
    "id": "3092500200",
    "name": "フィットネスデイサービス健康ラボ",
    "kana": "フィットネスデイサービスケンコウラボ",
    "address": "和歌山県東牟婁郡串本町串本2078-10",
    "lat": 33.4753975,
    "lng": 135.7837287,
    "tel": "0735-67-7985",
    "url": "",
    "pref": "和歌山県",
    "city": "串本町",
    "category": "community_day_service",
    "serviceType": "地域密着型通所介護",
    "capacity": 100,
    "openDays": [
      "平日",
      "祝日"
    ],
    "openDaysNote": ""
  },
  {
    "id": "3072500840",
    "name": "南紀デイサービスセンター",
    "kana": "ナンキデイサービスセンター",
    "address": "和歌山県東牟婁郡串本町サンゴ台1060-47",
    "lat": 33.4820358,
    "lng": 135.7824066,
    "tel": "735677890",
    "url": "",
    "pref": "和歌山県",
    "city": "串本町",
    "category": "community_day_service",
    "serviceType": "地域密着型通所介護",
    "capacity": 0,
    "openDays": [
      "平日",
      "祝日"
    ],
    "openDaysNote": "盆：4日間。正月5日間休み。"
  },
  {
    "id": "3072500220",
    "name": "古座川町高齢者生活福祉センターささゆり",
    "kana": "コザガワチョウコウレイシャセイカツフクシセンターササユリ",
    "address": "和歌山県東牟婁郡古座川町下露598番地",
    "lat": 33.6212802,
    "lng": 135.7112095,
    "tel": "0735-77-0222",
    "url": "http://www.takasekai.or.jp",
    "pref": "和歌山県",
    "city": "古座川町",
    "category": "community_day_service",
    "serviceType": "地域密着型通所介護",
    "capacity": 0,
    "openDays": [
      "平日",
      "祝日"
    ],
    "openDaysNote": ""
  },
  {
    "id": "3092500275",
    "name": "和歌山県東牟婁郡古座川町高瀬423-2",
    "kana": "ワカヤマケンヒガシムログンコザガワチョウタカセ",
    "address": "和歌山県東牟婁郡古座川町高瀬423-2",
    "lat": 33.5349784,
    "lng": 135.77963,
    "tel": "0735-72-3322",
    "url": "",
    "pref": "和歌山県",
    "city": "古座川町",
    "category": "community_day_service",
    "serviceType": "地域密着型通所介護",
    "capacity": 0,
    "openDays": [
      "平日"
    ],
    "openDaysNote": "利用日については現状、火曜日・金曜日の週2回の実施となっております。"
  },
  {
    "id": "3092000110",
    "name": "フィットネスデイキタデRe",
    "kana": "フィットネスデイキタデアールイー",
    "address": "和歌山県御坊市財部728-4北出病院B棟2F 北出病院B棟2F",
    "lat": 33.896886,
    "lng": 135.155238,
    "tel": "0738-52-5021",
    "url": "http://www.hck.jp/",
    "pref": "和歌山県",
    "city": "御坊市",
    "category": "community_day_service",
    "serviceType": "地域密着型通所介護",
    "capacity": 15,
    "openDays": [
      "平日",
      "祝日"
    ],
    "openDaysNote": ""
  },
  {
    "id": "3072000411",
    "name": "三和デイサービス",
    "kana": "サンワ　デイサービス",
    "address": "和歌山県御坊市湯川町小松原607-4",
    "lat": 33.9025827,
    "lng": 135.1463247,
    "tel": "0738-52-7015",
    "url": "",
    "pref": "和歌山県",
    "city": "御坊市",
    "category": "community_day_service",
    "serviceType": "地域密着型通所介護",
    "capacity": 14,
    "openDays": [
      "平日",
      "土曜日"
    ],
    "openDaysNote": "8/13～15　12/29～1/3　はお休みです"
  },
  {
    "id": "3072000536",
    "name": "三和デイサービス本町店",
    "kana": "サンワデイサービスホンマチテン",
    "address": "和歌山県御坊市園198-8",
    "lat": 33.8900758804685,
    "lng": 135.157090675649,
    "tel": "0738-52-7170",
    "url": "",
    "pref": "和歌山県",
    "city": "御坊市",
    "category": "community_day_service",
    "serviceType": "地域密着型通所介護",
    "capacity": 17,
    "openDays": [
      "平日",
      "土曜日"
    ],
    "openDaysNote": ""
  },
  {
    "id": "3071300119",
    "name": "富貴デイ・サービスセンター",
    "kana": "フキデイサービスセンター",
    "address": "和歌山県伊都郡高野町東富貴442-1",
    "lat": 34.2611384887257,
    "lng": 135.700477575039,
    "tel": "0736-53-2200",
    "url": "",
    "pref": "和歌山県",
    "city": "高野町",
    "category": "community_day_service",
    "serviceType": "地域密着型通所介護",
    "capacity": 0,
    "openDays": [
      "平日"
    ],
    "openDaysNote": ""
  },
  {
    "id": "3092400146",
    "name": "デイサービス　ダリア",
    "kana": "デイサービス　ダリア",
    "address": "和歌山県西牟婁郡上富田町岡1-1",
    "lat": 33.7115705,
    "lng": 135.4464805,
    "tel": "0739-47-5090",
    "url": "",
    "pref": "和歌山県",
    "city": "上富田町",
    "category": "community_day_service",
    "serviceType": "地域密着型通所介護",
    "capacity": 13,
    "openDays": [
      "平日",
      "土曜日",
      "祝日"
    ],
    "openDaysNote": ""
  },
  {
    "id": "3092400153",
    "name": "デイサービスセンターあかつき",
    "kana": "デイサービスセンターアカツキ",
    "address": "和歌山県西牟婁郡上富田町生馬2090-1",
    "lat": 33.6878019,
    "lng": 135.4438108,
    "tel": "0739-34-2688",
    "url": "",
    "pref": "和歌山県",
    "city": "上富田町",
    "category": "community_day_service",
    "serviceType": "地域密着型通所介護",
    "capacity": null,
    "openDays": [
      "平日",
      "土曜日",
      "祝日"
    ],
    "openDaysNote": ""
  },
  {
    "id": "3072401106",
    "name": "デイサービスセンターひだまりの華",
    "kana": "デイサービスセンターヒダマリノハナ",
    "address": "和歌山県西牟婁郡上富田町生馬2090-1",
    "lat": 33.687831774735,
    "lng": 135.443830282825,
    "tel": "0739-33-9772",
    "url": "",
    "pref": "和歌山県",
    "city": "上富田町",
    "category": "community_day_service",
    "serviceType": "地域密着型通所介護",
    "capacity": 0,
    "openDays": [
      "平日",
      "土曜日"
    ],
    "openDaysNote": ""
  },
  {
    "id": "3072400983",
    "name": "デイサービスセンターむろの家",
    "kana": "デイサービスセンタームロノイエ",
    "address": "南紀の台５９番-４９号",
    "lat": 33.6964932,
    "lng": 135.4029574,
    "tel": "0739-47-6307",
    "url": "muronoie.net/index.html",
    "pref": "和歌山県",
    "city": "上富田町",
    "category": "community_day_service",
    "serviceType": "地域密着型通所介護",
    "capacity": 1,
    "openDays": [
      "平日",
      "土曜日",
      "祝日"
    ],
    "openDaysNote": "1月1日～3日はお休み　　　（改行）延長時間有　迎え９：００以前可能"
  },
  {
    "id": "3092400112",
    "name": "デイサービスセンター櫟",
    "kana": "デイサービスセンターイチ",
    "address": "和歌山県西牟婁郡上富田町朝来2824",
    "lat": 33.7030859,
    "lng": 135.4168607,
    "tel": "0739-20-4544",
    "url": "",
    "pref": "和歌山県",
    "city": "上富田町",
    "category": "community_day_service",
    "serviceType": "地域密着型通所介護",
    "capacity": null,
    "openDays": [
      "平日",
      "祝日"
    ],
    "openDaysNote": "事業所の都合により11月２３日定休日　　年末年始　12月29日～1月3日"
  },
  {
    "id": "3092400088",
    "name": "結デイサービス",
    "kana": "ユイデイサービス",
    "address": "和歌山県西牟婁郡上富田町市ノ瀬949-4",
    "lat": 33.7110468,
    "lng": 135.4633262,
    "tel": "080-6041-4732",
    "url": "",
    "pref": "和歌山県",
    "city": "上富田町",
    "category": "community_day_service",
    "serviceType": "地域密着型通所介護",
    "capacity": 5,
    "openDays": [
      "平日",
      "土曜日",
      "日曜日",
      "祝日"
    ],
    "openDaysNote": ""
  },
  {
    "id": "3092400104",
    "name": "地域密着型デイサービス　ワンピース",
    "kana": "チイキミッチャクガタデイサービスワンピース",
    "address": "和歌山県西牟婁郡上富田町市ノ瀬2506-7",
    "lat": 33.7156544,
    "lng": 135.458902,
    "tel": "0739-48-0021",
    "url": "",
    "pref": "和歌山県",
    "city": "上富田町",
    "category": "community_day_service",
    "serviceType": "地域密着型通所介護",
    "capacity": 0,
    "openDays": [
      "平日"
    ],
    "openDaysNote": ""
  },
  {
    "id": "3092300114",
    "name": "デイサービスきしゅう",
    "kana": "デイサービスキシュウ",
    "address": "和歌山県新宮市熊野地２－１７－１４",
    "lat": 33.7210855329839,
    "lng": 136.004023192729,
    "tel": "0735-29-1044",
    "url": "",
    "pref": "和歌山県",
    "city": "新宮市",
    "category": "community_day_service",
    "serviceType": "地域密着型通所介護",
    "capacity": 0,
    "openDays": [
      "平日",
      "土曜日",
      "祝日"
    ],
    "openDaysNote": ""
  },
  {
    "id": "3092300064",
    "name": "デイサービスセンターあんじゅ新宮店",
    "kana": "デイサービスセンターアンジュシングウテン",
    "address": "和歌山県新宮市三輪崎2丁目5-16",
    "lat": 33.6868736,
    "lng": 135.9840897,
    "tel": "0735-30-0143",
    "url": "",
    "pref": "和歌山県",
    "city": "新宮市",
    "category": "community_day_service",
    "serviceType": "地域密着型通所介護",
    "capacity": 0,
    "openDays": [
      "平日",
      "土曜日",
      "祝日"
    ],
    "openDaysNote": ""
  },
  {
    "id": "3072300571",
    "name": "デイサービスセンターふじだな",
    "kana": "デイサービスセンターフジダナ",
    "address": "和歌山県新宮市橋本２丁目２番地１６",
    "lat": 33.7177467,
    "lng": 135.9879625,
    "tel": "0735-29-7755",
    "url": "http://www.wisteria-fujidana.com/",
    "pref": "和歌山県",
    "city": "新宮市",
    "category": "community_day_service",
    "serviceType": "地域密着型通所介護",
    "capacity": 18,
    "openDays": [
      "平日",
      "土曜日",
      "日曜日",
      "祝日"
    ],
    "openDaysNote": ""
  },
  {
    "id": "3072500170",
    "name": "デイサービスセンター熊野川園",
    "kana": "デイサービスセンタークマノガワエン",
    "address": "和歌山県新宮市熊野川町西２０４番地１",
    "lat": 33.7581293,
    "lng": 135.8398511,
    "tel": "0735-45-8001",
    "url": "",
    "pref": "和歌山県",
    "city": "新宮市",
    "category": "community_day_service",
    "serviceType": "地域密着型通所介護",
    "capacity": 18,
    "openDays": [
      "平日",
      "祝日"
    ],
    "openDaysNote": ""
  },
  {
    "id": "3092300072",
    "name": "デイサービスとわ",
    "kana": "デイサービストワ",
    "address": "和歌山県新宮市大橋通４－１－８",
    "lat": 33.7277994,
    "lng": 135.9864533,
    "tel": "0735-22-5770",
    "url": "",
    "pref": "和歌山県",
    "city": "新宮市",
    "category": "community_day_service",
    "serviceType": "地域密着型通所介護",
    "capacity": 0,
    "openDays": [
      "平日",
      "土曜日",
      "祝日"
    ],
    "openDaysNote": ""
  },
  {
    "id": "3092300080",
    "name": "リハプライド新宮",
    "kana": "リハプライドシングウ",
    "address": "和歌山県新宮市徐福1-3-19",
    "lat": 33.7258964,
    "lng": 135.9945002,
    "tel": "735282772",
    "url": "http://www.rehapride.co.jp/shingu/",
    "pref": "和歌山県",
    "city": "新宮市",
    "category": "community_day_service",
    "serviceType": "地域密着型通所介護",
    "capacity": 0,
    "openDays": [
      "平日",
      "祝日"
    ],
    "openDaysNote": ""
  },
  {
    "id": "3072300548",
    "name": "通所介護事業所　元気",
    "kana": "ゲンキ",
    "address": "新宮市三輪崎２丁目１４番４号",
    "lat": 33.6852294,
    "lng": 135.9831232,
    "tel": "0735-31-3588",
    "url": "",
    "pref": "和歌山県",
    "city": "新宮市",
    "category": "community_day_service",
    "serviceType": "地域密着型通所介護",
    "capacity": null,
    "openDays": [
      "平日",
      "土曜日",
      "祝日"
    ],
    "openDaysNote": ""
  },
  {
    "id": "3092200249",
    "name": "イクリハ",
    "kana": "イクリハ",
    "address": "和歌山県田辺市明洋一丁目19-13",
    "lat": 33.7355370713342,
    "lng": 135.360184940597,
    "tel": "0739-25-0007",
    "url": "",
    "pref": "和歌山県",
    "city": "田辺市",
    "category": "community_day_service",
    "serviceType": "地域密着型通所介護",
    "capacity": 18,
    "openDays": [
      "平日",
      "土曜日"
    ],
    "openDaysNote": ""
  },
  {
    "id": "3092200215",
    "name": "カノンデイサービス",
    "kana": "カノンデイサービス",
    "address": "和歌山県田辺市下三栖1483-15",
    "lat": 33.729728443071,
    "lng": 135.420527696959,
    "tel": "0739-34-3020",
    "url": "http://kanon-potalaka.com",
    "pref": "和歌山県",
    "city": "田辺市",
    "category": "community_day_service",
    "serviceType": "地域密着型通所介護",
    "capacity": 0,
    "openDays": [
      "平日",
      "土曜日",
      "祝日"
    ],
    "openDaysNote": ""
  },
  {
    "id": "3072200961",
    "name": "デイ・ハウスいなり",
    "kana": "デイハウスイナリ",
    "address": "和歌山県田辺市稲成町２１８７番地の３",
    "lat": 33.7615846,
    "lng": 135.3727184,
    "tel": "0739-24-4671",
    "url": "https://dayservice-inari.com",
    "pref": "和歌山県",
    "city": "田辺市",
    "category": "community_day_service",
    "serviceType": "地域密着型通所介護",
    "capacity": 18,
    "openDays": [
      "平日",
      "土曜日",
      "祝日"
    ],
    "openDaysNote": "１２月３０日～１月３日までを除く。"
  },
  {
    "id": "3072200375",
    "name": "デイサービス　なごみ",
    "kana": "デイサービス　ナゴミ",
    "address": "和歌山県田辺市東陽23-15",
    "lat": 36.204824,
    "lng": 138.252924,
    "tel": "0739-81-0753",
    "url": "",
    "pref": "和歌山県",
    "city": "田辺市",
    "category": "community_day_service",
    "serviceType": "地域密着型通所介護",
    "capacity": 0,
    "openDays": [
      "平日",
      "土曜日",
      "祝日"
    ],
    "openDaysNote": "お盆・年末年始はお休みです。"
  },
  {
    "id": "3072201415",
    "name": "デイサービスあいづ",
    "kana": "デイサービスアイヅ",
    "address": "和歌山県田辺市秋津町209",
    "lat": 53.41291,
    "lng": -8.24388999999996,
    "tel": "0739-25-2750",
    "url": "",
    "pref": "和歌山県",
    "city": "田辺市",
    "category": "community_day_service",
    "serviceType": "地域密着型通所介護",
    "capacity": 15,
    "openDays": [
      "平日",
      "土曜日",
      "祝日"
    ],
    "openDaysNote": "正月休みは現在はあり　ただその年度の曜日日程により変更有"
  },
  {
    "id": "3092200223",
    "name": "デイサービスセンターあおい",
    "kana": "デイサービスセンターアオイ",
    "address": "和歌山県田辺市下屋敷町1-78アオイプラザビル アオイプラザビル",
    "lat": 33.7309276,
    "lng": 135.3813593,
    "tel": "0739-26-4037",
    "url": "http://aoi2006.jp/",
    "pref": "和歌山県",
    "city": "田辺市",
    "category": "community_day_service",
    "serviceType": "地域密着型通所介護",
    "capacity": 0,
    "openDays": [
      "平日",
      "土曜日",
      "祝日"
    ],
    "openDaysNote": ""
  },
  {
    "id": "3072201282",
    "name": "デイサービスセンターほほえみ",
    "kana": "デイサービスセンターホホエミ",
    "address": "和歌山県田辺市下万呂951-6",
    "lat": 53.41291,
    "lng": -8.24388999999996,
    "tel": "0739-22-6116",
    "url": "",
    "pref": "和歌山県",
    "city": "田辺市",
    "category": "community_day_service",
    "serviceType": "地域密着型通所介護",
    "capacity": 0,
    "openDays": [
      "平日",
      "土曜日",
      "祝日"
    ],
    "openDaysNote": ""
  },
  {
    "id": "3092200264",
    "name": "デイサービスセンター湯あみ",
    "kana": "デイサービスセンターユアミ",
    "address": "和歌山県田辺市下屋敷町7-4",
    "lat": 33.7306854,
    "lng": 135.3825607,
    "tel": "0739-33-9171",
    "url": "",
    "pref": "和歌山県",
    "city": "田辺市",
    "category": "community_day_service",
    "serviceType": "地域密着型通所介護",
    "capacity": 14,
    "openDays": [
      "平日",
      "土曜日",
      "祝日"
    ],
    "openDaysNote": ""
  },
  {
    "id": "3072100385",
    "name": "デイサービスセンター龍トピア",
    "kana": "デイサービスセンターリュウトピア",
    "address": "和歌山県田辺市龍神村柳瀬530番地",
    "lat": 33.8792885,
    "lng": 135.4544737,
    "tel": "0739-77-0071",
    "url": "https://care-net.biz/30/kisei",
    "pref": "和歌山県",
    "city": "田辺市",
    "category": "community_day_service",
    "serviceType": "地域密着型通所介護",
    "capacity": 0,
    "openDays": [
      "平日",
      "祝日"
    ],
    "openDaysNote": "土曜・日曜は営業休みですが、特別なイベント等を開催する場合、土曜日に営業する事があります。尚、土曜日の営業時間については平日と同じ時間とします。年末年始の休日につきまして、ご利用者やそのご家族の希望を踏まえて調整し、事前に関係者に通知しております。"
  },
  {
    "id": "3092200272",
    "name": "ハナミズキ・デイサービス",
    "kana": "ハナミズキ・デイサービス",
    "address": "和歌山県田辺市新屋敷町42-2",
    "lat": 33.727331,
    "lng": 135.3813486,
    "tel": "0739-33-9866",
    "url": "https://youmikaigo.wixsite.com/home",
    "pref": "和歌山県",
    "city": "田辺市",
    "category": "community_day_service",
    "serviceType": "地域密着型通所介護",
    "capacity": 0,
    "openDays": [
      "平日",
      "土曜日",
      "祝日"
    ],
    "openDaysNote": "怪我、病気等身体に関わる事症が生じたときは、ケアマネ、家族等と連携しながら支援させていただく"
  },
  {
    "id": "3092200348",
    "name": "プラント　マロ",
    "kana": "プラント　マロ",
    "address": "上万呂146-6",
    "lat": 33.7357037,
    "lng": 135.4048427,
    "tel": "0739-33-2237",
    "url": "",
    "pref": "和歌山県",
    "city": "田辺市",
    "category": "community_day_service",
    "serviceType": "地域密着型通所介護",
    "capacity": 18,
    "openDays": [
      "平日",
      "祝日"
    ],
    "openDaysNote": "月曜日から金曜日に祝祭日が当たる場合は営業しております。"
  },
  {
    "id": "3072201365",
    "name": "ほくそぎデイサービスセンター",
    "kana": "ホクソギデイサービスセンター",
    "address": "和歌山県田辺市中辺路町北郡1000-3",
    "lat": 33.7528761,
    "lng": 135.5012898,
    "tel": "0739-64-8077",
    "url": "http://www.sjk-tanabe.or.jp/",
    "pref": "和歌山県",
    "city": "田辺市",
    "category": "community_day_service",
    "serviceType": "地域密着型通所介護",
    "capacity": null,
    "openDays": [
      "平日"
    ],
    "openDaysNote": ""
  },
  {
    "id": "3092200231",
    "name": "まごころの家",
    "kana": "マゴコロノイエ",
    "address": "和歌山県田辺市中辺路町内井川120-1",
    "lat": 33.8403059,
    "lng": 135.5016253,
    "tel": "0739-64-0936",
    "url": "",
    "pref": "和歌山県",
    "city": "田辺市",
    "category": "community_day_service",
    "serviceType": "地域密着型通所介護",
    "capacity": null,
    "openDays": [
      "平日",
      "祝日"
    ],
    "openDaysNote": ""
  },
  {
    "id": "3072201407",
    "name": "みんなのデイサービスもくれん",
    "kana": "ミンナノデイサービスモクレン",
    "address": "和歌山県田辺市上芳養973-1",
    "lat": 33.8004987,
    "lng": 135.3636235,
    "tel": "0739-33-7876",
    "url": "",
    "pref": "和歌山県",
    "city": "田辺市",
    "category": "community_day_service",
    "serviceType": "地域密着型通所介護",
    "capacity": null,
    "openDays": [
      "平日",
      "土曜日",
      "日曜日",
      "祝日"
    ],
    "openDaysNote": "1/1～1/3　休み"
  },
  {
    "id": "3072201308",
    "name": "むつみの家",
    "kana": "ムツミノイエ",
    "address": "和歌山県田辺市むつみ10-4",
    "lat": 33.7422456,
    "lng": 135.3803566,
    "tel": "0739-26-6680",
    "url": "",
    "pref": "和歌山県",
    "city": "田辺市",
    "category": "community_day_service",
    "serviceType": "地域密着型通所介護",
    "capacity": 9,
    "openDays": [
      "平日",
      "土曜日",
      "祝日"
    ],
    "openDaysNote": "年末12月30日～翌年1月3日迄休業"
  },
  {
    "id": "3092200314",
    "name": "わかわかリハあきづ",
    "kana": "ワカワカリハアキヅ",
    "address": "和歌山県田辺市秋津町277-1",
    "lat": 33.7485262,
    "lng": 135.391891,
    "tel": "0739-34-3333",
    "url": "",
    "pref": "和歌山県",
    "city": "田辺市",
    "category": "community_day_service",
    "serviceType": "地域密着型通所介護",
    "capacity": 216,
    "openDays": [
      "平日",
      "土曜日",
      "祝日"
    ],
    "openDaysNote": ""
  },
  {
    "id": "3092400070",
    "name": "株式会社ADVANCE",
    "kana": "カブシキガイシャアドバンス",
    "address": "和歌山県西牟婁郡上富田町生馬1190番地の10",
    "lat": 33.689339,
    "lng": 135.418081,
    "tel": "0739-33-7942",
    "url": "https://www.catachi.jp/",
    "pref": "和歌山県",
    "city": "田辺市",
    "category": "community_day_service",
    "serviceType": "地域密着型通所介護",
    "capacity": 0,
    "openDays": [
      "平日"
    ],
    "openDaysNote": "土・日・祝日（改行）盆8月13日～15日（改行）年末年始12月30日～1月3日"
  },
  {
    "id": "3072200169",
    "name": "社会福祉法人　田辺市社会福祉協議会　田辺事業所",
    "kana": "シャカイフクシホウジンタナベシシャカイフクシキョウギカイタナベジギョウショ",
    "address": "和歌山県田辺市高雄一丁目２３番１号田辺市民総合センター 田辺市民総合センター",
    "lat": 33.7354965,
    "lng": 135.3773791,
    "tel": "0739-24-8319",
    "url": "https://zchiiki.net/hp/1289/",
    "pref": "和歌山県",
    "city": "田辺市",
    "category": "community_day_service",
    "serviceType": "地域密着型通所介護",
    "capacity": 0,
    "openDays": [
      "平日",
      "祝日"
    ],
    "openDaysNote": ""
  },
  {
    "id": "3072200490",
    "name": "真寿苑三栖谷デイサービスセンター",
    "kana": "シンジュエンミスダニデイサービスセンター",
    "address": "和歌山県田辺市中三栖110-9",
    "lat": 33.7407323726767,
    "lng": 135.431083757345,
    "tel": "0739-33-0034",
    "url": "http://www.sjk-tanabe.or.jp/",
    "pref": "和歌山県",
    "city": "田辺市",
    "category": "community_day_service",
    "serviceType": "地域密着型通所介護",
    "capacity": null,
    "openDays": [
      "平日",
      "土曜日",
      "祝日"
    ],
    "openDaysNote": ""
  },
  {
    "id": "3072200912",
    "name": "真寿苑三川デイサービスセンター",
    "kana": "シンジュエンミカワデイサービスセンター",
    "address": "田辺市向山354-1三川福祉センター内 三川福祉センター内",
    "lat": 33.7034925733214,
    "lng": 135.572406011639,
    "tel": "0739-62-0606",
    "url": "http://www.sjk-tanabe.or.jp/",
    "pref": "和歌山県",
    "city": "田辺市",
    "category": "community_day_service",
    "serviceType": "地域密着型通所介護",
    "capacity": null,
    "openDays": [
      "平日"
    ],
    "openDaysNote": ""
  },
  {
    "id": "3072200730",
    "name": "通所介護　潮風",
    "kana": "ツウショカイゴ　シオカゼ",
    "address": "和歌山県田辺市上屋敷２－３－３３",
    "lat": 33.7302888,
    "lng": 135.3758487,
    "tel": "0739-24-1156",
    "url": "",
    "pref": "和歌山県",
    "city": "田辺市",
    "category": "community_day_service",
    "serviceType": "地域密着型通所介護",
    "capacity": 18,
    "openDays": [
      "平日",
      "土曜日",
      "日曜日",
      "祝日"
    ],
    "openDaysNote": "年末、年始はこの限りでない。"
  },
  {
    "id": "3092200306",
    "name": "田辺市社会福祉協議会　龍神事業所",
    "kana": "タナベシシャカイフクシキョウギカイ　リュウジンジギョウショ",
    "address": "和歌山県田辺市龍神村柳瀬1134",
    "lat": 33.8801738,
    "lng": 135.4704561,
    "tel": "0739-78-2132",
    "url": "",
    "pref": "和歌山県",
    "city": "田辺市",
    "category": "community_day_service",
    "serviceType": "地域密着型通所介護",
    "capacity": 0,
    "openDays": [
      "平日",
      "祝日"
    ],
    "openDaysNote": "祝祭日も休業の場合があります。"
  },
  {
    "id": "3092200298",
    "name": "田辺市社会福祉協議会大塔事業所（富里）",
    "kana": "タナベシシャカイフクシキョウギカイオオトウジギョウショ（トミサト）",
    "address": "和歌山県田辺市下川下989番地富里福祉センター 富里福祉センター",
    "lat": 33.7424066,
    "lng": 135.5846884,
    "tel": "0739-63-0707",
    "url": "",
    "pref": "和歌山県",
    "city": "田辺市",
    "category": "community_day_service",
    "serviceType": "地域密着型通所介護",
    "capacity": 18,
    "openDays": [
      "平日",
      "祝日"
    ],
    "openDaysNote": ""
  },
  {
    "id": "3092200322",
    "name": "芳養の里デイサービスセンター",
    "kana": "ハヤノサトデイサービスセンター",
    "address": "和歌山県田辺市中芳養1591-1生活支援ハウス芳養の里内 生活支援ハウス芳養の里内",
    "lat": 33.764379,
    "lng": 135.3553772,
    "tel": "0739-23-2222",
    "url": "http://www.sjk-tanabe.or.jp",
    "pref": "和歌山県",
    "city": "田辺市",
    "category": "community_day_service",
    "serviceType": "地域密着型通所介護",
    "capacity": null,
    "openDays": [
      "平日",
      "土曜日",
      "祝日"
    ],
    "openDaysNote": ""
  },
  {
    "id": "3071601193",
    "name": "デイサービス　はのや",
    "kana": "デイサービス　ハノヤ",
    "address": "和歌山県有田郡湯浅町湯浅1407-6",
    "lat": 34.0337875,
    "lng": 135.187494,
    "tel": "0737-62-5611",
    "url": "",
    "pref": "和歌山県",
    "city": "湯浅町",
    "category": "community_day_service",
    "serviceType": "地域密着型通所介護",
    "capacity": 0,
    "openDays": [
      "平日",
      "土曜日",
      "祝日"
    ],
    "openDaysNote": "なし"
  },
  {
    "id": "3091600142",
    "name": "リハビリデイサービス　リプロ",
    "kana": "リハビリデイサービス　リプロ",
    "address": "和歌山県有田郡湯浅町別所７４－５",
    "lat": 34.0317635,
    "lng": 135.1847812,
    "tel": "090‐2658‐2395",
    "url": "",
    "pref": "和歌山県",
    "city": "湯浅町",
    "category": "community_day_service",
    "serviceType": "地域密着型通所介護",
    "capacity": 0,
    "openDays": [
      "平日"
    ],
    "openDaysNote": ""
  },
  {
    "id": "3092500283",
    "name": "かいてきライフ　ハピネス",
    "kana": "カイテキライフ　ハピネス",
    "address": "和歌山県東牟婁郡那智勝浦町朝日1-120",
    "lat": 33.627894,
    "lng": 135.9380538,
    "tel": "0735-30-1800",
    "url": "",
    "pref": "和歌山県",
    "city": "那智勝浦町",
    "category": "community_day_service",
    "serviceType": "地域密着型通所介護",
    "capacity": 0,
    "openDays": [
      "平日",
      "土曜日",
      "祝日"
    ],
    "openDaysNote": ""
  },
  {
    "id": "3072500931",
    "name": "デイサービスセンターあんじゅ",
    "kana": "デイサービスセンターアンジュ",
    "address": "天満442-27",
    "lat": 33.6339096,
    "lng": 135.9391804,
    "tel": "0735-30-0882",
    "url": "",
    "pref": "和歌山県",
    "city": "那智勝浦町",
    "category": "community_day_service",
    "serviceType": "地域密着型通所介護",
    "capacity": null,
    "openDays": [
      "平日",
      "土曜日",
      "日曜日",
      "祝日"
    ],
    "openDaysNote": ""
  },
  {
    "id": "3092500267",
    "name": "デイサービスセンターあんじゅ北浜店",
    "kana": "デイサービスセンターアンジュキタハマ",
    "address": "和歌山県東牟婁郡那智勝浦町北浜1‐52‐1デイサービスセンターあんじゅ北浜店 デイサービスセンターあんじゅ北浜店",
    "lat": 33.6306359,
    "lng": 135.9430525,
    "tel": "0735‐30‐0333",
    "url": "",
    "pref": "和歌山県",
    "city": "那智勝浦町",
    "category": "community_day_service",
    "serviceType": "地域密着型通所介護",
    "capacity": null,
    "openDays": [
      "平日",
      "土曜日",
      "祝日"
    ],
    "openDaysNote": ""
  },
  {
    "id": "3072500683",
    "name": "ドマーニ宇久井",
    "kana": "ドマーニウグイ",
    "address": "宇久井５４９番地",
    "lat": 33.6570328,
    "lng": 135.9793742,
    "tel": "０７３５－５４－０３４３",
    "url": "http://domani-ugui.jimdo.com/",
    "pref": "和歌山県",
    "city": "那智勝浦町",
    "category": "community_day_service",
    "serviceType": "地域密着型通所介護",
    "capacity": 0,
    "openDays": [
      "平日",
      "祝日"
    ],
    "openDaysNote": ""
  },
  {
    "id": "3092500234",
    "name": "合同会社　YUA　　デイサービス　ゆうが",
    "kana": "ゴウドウガイシャ　ユア　　デイサービス　ユウガ",
    "address": "和歌山県東牟婁郡那智勝浦町宇久井557-21",
    "lat": 33.6560293,
    "lng": 135.9794458,
    "tel": "0735-30-1822",
    "url": "",
    "pref": "和歌山県",
    "city": "那智勝浦町",
    "category": "community_day_service",
    "serviceType": "地域密着型通所介護",
    "capacity": 0,
    "openDays": [
      "平日",
      "土曜日",
      "祝日"
    ],
    "openDaysNote": ""
  },
  {
    "id": "3092500184",
    "name": "太地町社会福祉協議会デイサービスセンターであい",
    "kana": "タイジチョウシャカイフクシキョウギカイデイサービスセンターデアイ",
    "address": "和歌山県東牟婁郡那智勝浦町市屋１０５６－８",
    "lat": 33.5991245,
    "lng": 135.9270437,
    "tel": "0735-52-1101",
    "url": "",
    "pref": "和歌山県",
    "city": "那智勝浦町",
    "category": "community_day_service",
    "serviceType": "地域密着型通所介護",
    "capacity": 18,
    "openDays": [
      "平日",
      "土曜日",
      "祝日"
    ],
    "openDaysNote": ""
  },
  {
    "id": "3072500501",
    "name": "通所介護事業所はるかぜ",
    "kana": "ツウショカイゴジギョウショ",
    "address": "東牟婁郡那智勝浦町大字宇久井２７１番地",
    "lat": 33.6602629,
    "lng": 135.9733913,
    "tel": "0735-54-0235",
    "url": "",
    "pref": "和歌山県",
    "city": "那智勝浦町",
    "category": "community_day_service",
    "serviceType": "地域密着型通所介護",
    "capacity": 0,
    "openDays": [
      "平日",
      "土曜日",
      "日曜日",
      "祝日"
    ],
    "openDaysNote": ""
  },
  {
    "id": "3072500857",
    "name": "民家型デイサービス　太陽",
    "kana": "ミンカガタデイサービス　タイヨウ",
    "address": "和歌山県東牟婁郡那智勝浦町八尺鏡野６５７－１",
    "lat": 33.577602,
    "lng": 135.9195145,
    "tel": "０７３５－５８－１２３４",
    "url": "",
    "pref": "和歌山県",
    "city": "那智勝浦町",
    "category": "community_day_service",
    "serviceType": "地域密着型通所介護",
    "capacity": null,
    "openDays": [
      "平日",
      "土曜日",
      "祝日"
    ],
    "openDaysNote": ""
  },
  {
    "id": "3092400096",
    "name": "デイサービスセンターシールド",
    "kana": "デイサービスセンターシールド",
    "address": "和歌山県西牟婁郡白浜町堅田2578-443",
    "lat": 33.680161,
    "lng": 135.3844707,
    "tel": "0739-20-4244",
    "url": "",
    "pref": "和歌山県",
    "city": "白浜町",
    "category": "community_day_service",
    "serviceType": "地域密着型通所介護",
    "capacity": 0,
    "openDays": [
      "平日",
      "土曜日",
      "祝日"
    ],
    "openDaysNote": "年末年始については、ご利用者の希望によりこれに限らず。"
  },
  {
    "id": "3092400138",
    "name": "デイサービスセンター南紀",
    "kana": "デイサービスセンターナンキ",
    "address": "和歌山県西牟婁郡白浜町富田1703",
    "lat": 33.6380912398988,
    "lng": 135.398153239812,
    "tel": "0739-45-8866",
    "url": "https://www.nankishirahama-fukushikai.or.jp/",
    "pref": "和歌山県",
    "city": "白浜町",
    "category": "community_day_service",
    "serviceType": "地域密着型通所介護",
    "capacity": 5,
    "openDays": [
      "平日",
      "土曜日",
      "祝日"
    ],
    "openDaysNote": ""
  },
  {
    "id": "3072400991",
    "name": "デイサービスでいごの郷",
    "kana": "デイサービスデイゴノサト",
    "address": "西牟婁郡白浜町1729-19",
    "lat": 33.6781671,
    "lng": 135.3480655,
    "tel": "0739-34-2022",
    "url": "",
    "pref": "和歌山県",
    "city": "白浜町",
    "category": "community_day_service",
    "serviceType": "地域密着型通所介護",
    "capacity": 50,
    "openDays": [
      "平日",
      "祝日"
    ],
    "openDaysNote": ""
  },
  {
    "id": "3072500154",
    "name": "北山村社会福祉協議会",
    "kana": "キタヤマムラシャカイフクシキョウギカイ",
    "address": "和歌山県東牟婁郡北山村大沼312番地",
    "lat": 33.9295413,
    "lng": 135.9669074,
    "tel": "0735-49-2090",
    "url": "http://www.za.ztv.ne.jp/k-fukusi.yamasaki/",
    "pref": "和歌山県",
    "city": "北山村",
    "category": "community_day_service",
    "serviceType": "地域密着型通所介護",
    "capacity": 15,
    "openDays": [
      "平日"
    ],
    "openDaysNote": "台風接近時、災害時等は利用者の安全を優先して休む場合もあります。"
  },
  {
    "id": "3091500110",
    "name": "デイサービス　あすなろ",
    "kana": "デイサービス　アスナロ",
    "address": "和歌山県有田市港町231-62",
    "lat": 34.0896036,
    "lng": 135.1085552,
    "tel": "0737-83-0747",
    "url": "https://care-net.biz/30/asunaro/",
    "pref": "和歌山県",
    "city": "有田市",
    "category": "community_day_service",
    "serviceType": "地域密着型通所介護",
    "capacity": 18,
    "openDays": [
      "平日",
      "土曜日",
      "祝日"
    ],
    "openDaysNote": "なし"
  },
  {
    "id": "3071500544",
    "name": "デイサービスびっくりOrange",
    "kana": "デイサービスビックリオレンジ",
    "address": "和歌山県有田市初島町里1923-1",
    "lat": 34.094234330307,
    "lng": 135.115404557672,
    "tel": "0737-23-7606",
    "url": "",
    "pref": "和歌山県",
    "city": "有田市",
    "category": "community_day_service",
    "serviceType": "地域密着型通所介護",
    "capacity": 0,
    "openDays": [
      "平日",
      "土曜日",
      "日曜日",
      "祝日"
    ],
    "openDaysNote": ""
  },
  {
    "id": "3071500346",
    "name": "ゆりのき苑デイサービス",
    "kana": "ユリノキエンデイサービス",
    "address": "和歌山県有田市山地４４",
    "lat": 34.0744327,
    "lng": 135.1323905,
    "tel": "0737-82-5300",
    "url": "http://www.technologybox.co.jp/yurinoki/",
    "pref": "和歌山県",
    "city": "有田市",
    "category": "community_day_service",
    "serviceType": "地域密着型通所介護",
    "capacity": 0,
    "openDays": [
      "平日",
      "祝日"
    ],
    "openDaysNote": ""
  },
  {
    "id": "3071500668",
    "name": "リハトレみのしま",
    "kana": "リハトレミノシマ",
    "address": "和歌山県有田市箕島１００－７",
    "lat": 34.0847895,
    "lng": 135.1259435,
    "tel": "0737-20-1158",
    "url": "http://nakatune.com/",
    "pref": "和歌山県",
    "city": "有田市",
    "category": "community_day_service",
    "serviceType": "地域密着型通所介護",
    "capacity": 100,
    "openDays": [
      "平日",
      "祝日"
    ],
    "openDaysNote": "特別休業日：夏季休業・冬季休業"
  },
  {
    "id": "3091600100",
    "name": "きびデイサービスセンター",
    "kana": "キビデイサービスセンター",
    "address": "和歌山県有田郡有田川町小島15",
    "lat": 34.0657136,
    "lng": 135.193937,
    "tel": "0737-52-2322",
    "url": "http://www.akemikai.or.jp",
    "pref": "和歌山県",
    "city": "有田川町",
    "category": "community_day_service",
    "serviceType": "地域密着型通所介護",
    "capacity": 0,
    "openDays": [
      "平日",
      "土曜日",
      "日曜日",
      "祝日"
    ],
    "openDaysNote": ""
  },
  {
    "id": "3091600092",
    "name": "サンライズケアくる笑",
    "kana": "サンライズケアクルミ",
    "address": "和歌山県有田郡有田川町東丹生図73-3",
    "lat": 34.065449,
    "lng": 135.230137,
    "tel": "0737-52-2211",
    "url": "http://www.sunrisecare.co.jp/",
    "pref": "和歌山県",
    "city": "有田川町",
    "category": "community_day_service",
    "serviceType": "地域密着型通所介護",
    "capacity": 18,
    "openDays": [
      "平日",
      "祝日"
    ],
    "openDaysNote": ""
  },
  {
    "id": "3091600118",
    "name": "デイサービスこもれび",
    "kana": "デイサービスコモレビ",
    "address": "和歌山県有田郡有田川町金屋819番地3",
    "lat": 34.05975,
    "lng": 135.2543258,
    "tel": "0737-23-7700",
    "url": "",
    "pref": "和歌山県",
    "city": "有田川町",
    "category": "community_day_service",
    "serviceType": "地域密着型通所介護",
    "capacity": 0,
    "openDays": [
      "平日",
      "祝日"
    ],
    "openDaysNote": ""
  },
  {
    "id": "3071601300",
    "name": "デイサービスぬくもり",
    "kana": "デイサービスヌクモリ",
    "address": "和歌山県有田郡有田川町徳田192",
    "lat": 34.0519812,
    "lng": 135.2454473,
    "tel": "0737-52-4668",
    "url": "",
    "pref": "和歌山県",
    "city": "有田川町",
    "category": "community_day_service",
    "serviceType": "地域密着型通所介護",
    "capacity": 2,
    "openDays": [
      "平日",
      "土曜日",
      "祝日"
    ],
    "openDaysNote": ""
  },
  {
    "id": "3091600126",
    "name": "デイサービスわらく",
    "kana": "デイサービスワラク",
    "address": "和歌山県有田郡有田川町徳田250-2",
    "lat": 34.0636113,
    "lng": 135.2490913,
    "tel": "737223404",
    "url": "",
    "pref": "和歌山県",
    "city": "有田川町",
    "category": "community_day_service",
    "serviceType": "地域密着型通所介護",
    "capacity": null,
    "openDays": [
      "平日"
    ],
    "openDaysNote": "年末年始12/30～1/3"
  },
  {
    "id": "3071601276",
    "name": "健幸の里",
    "kana": "ケンコウノサト",
    "address": "和歌山県有田郡有田川町水尻１２７－７",
    "lat": 53.41291,
    "lng": -8.24388999999996,
    "tel": "0737-52-4323",
    "url": "",
    "pref": "和歌山県",
    "city": "有田川町",
    "category": "community_day_service",
    "serviceType": "地域密着型通所介護",
    "capacity": 10,
    "openDays": [
      "平日"
    ],
    "openDaysNote": ""
  },
  {
    "id": "3072100930",
    "name": "デイサービスセンターえなの家",
    "kana": "デイサービスセンターエナノイエ",
    "address": "和歌山県日高郡由良町大字衣奈685番地旧衣奈保育所 旧衣奈保育所",
    "lat": 33.9853228,
    "lng": 135.1105771,
    "tel": "0738-70-0200",
    "url": "",
    "pref": "和歌山県",
    "city": "由良町",
    "category": "community_day_service",
    "serviceType": "地域密着型通所介護",
    "capacity": 0,
    "openDays": [
      "平日",
      "日曜日",
      "祝日"
    ],
    "openDaysNote": "休日・夜間は転送電話により対応可能。（改行）その他の時間帯は相談可（早朝・延長サービスあり）"
  },
  {
    "id": "3072100898",
    "name": "デイサービスほのか",
    "kana": "デイサービスホノカ",
    "address": "和歌山県日高郡由良町里248-1",
    "lat": 33.9606952,
    "lng": 135.1224564,
    "tel": "0738-52-7656",
    "url": "",
    "pref": "和歌山県",
    "city": "由良町",
    "category": "community_day_service",
    "serviceType": "地域密着型通所介護",
    "capacity": 0,
    "openDays": [
      "平日",
      "土曜日",
      "祝日"
    ],
    "openDaysNote": "ご利用者さまの事情により利用時間についてはご相談に応じます。"
  },
  {
    "id": "3070110782",
    "name": "あすかリハビリデイサービス",
    "kana": "アスカリハビリデイサービス",
    "address": "新在家165-8",
    "lat": 34.2441069279545,
    "lng": 135.197247026899,
    "tel": "073-460-2674",
    "url": "",
    "pref": "和歌山県",
    "city": "和歌山市",
    "category": "community_day_service",
    "serviceType": "地域密着型通所介護",
    "capacity": 10,
    "openDays": [
      "平日",
      "祝日"
    ],
    "openDaysNote": "月曜日～金曜日の間の祝日に限り営業"
  },
  {
    "id": "3070108380",
    "name": "いこいデイサービス",
    "kana": "イコイデイサービス",
    "address": "和歌山市手平１０番５号",
    "lat": 34.2147136,
    "lng": 135.1853852,
    "tel": "073-423-2230",
    "url": "http://www.heart-careservice.jp/",
    "pref": "和歌山県",
    "city": "和歌山市",
    "category": "community_day_service",
    "serviceType": "地域密着型通所介護",
    "capacity": 0,
    "openDays": [
      "平日",
      "祝日"
    ],
    "openDaysNote": ""
  },
  {
    "id": "3070103613",
    "name": "いやしハウスカインド",
    "kana": "イヤシハウスカインド",
    "address": "和歌山市和歌町12番地",
    "lat": 34.2293728,
    "lng": 135.1797353,
    "tel": "073-432-8731",
    "url": "http://www.tba-net.co.jp",
    "pref": "和歌山県",
    "city": "和歌山市",
    "category": "community_day_service",
    "serviceType": "地域密着型通所介護",
    "capacity": null,
    "openDays": [
      "平日",
      "土曜日",
      "祝日"
    ],
    "openDaysNote": "なし"
  },
  {
    "id": "3090101670",
    "name": "オリーブの丘デイサービス",
    "kana": "オリーブノオカデイサービス",
    "address": "和歌山県和歌山市園部110-6",
    "lat": 34.269597,
    "lng": 135.1935561,
    "tel": "734888155",
    "url": "",
    "pref": "和歌山県",
    "city": "和歌山市",
    "category": "community_day_service",
    "serviceType": "地域密着型通所介護",
    "capacity": 15,
    "openDays": [
      "平日",
      "祝日"
    ],
    "openDaysNote": "月曜日から金曜日までとし、祝日も営業する。（改行）ただし、１２月２９日から１月３日を除く。（改行）(上記、営業時間外のサービス提供については応相談)"
  },
  {
    "id": "3090101803",
    "name": "オリーブの丘デイサービス宮前",
    "kana": "オリーブノオカデイサービスミヤマエ",
    "address": "和歌山県和歌山市新中島130",
    "lat": 34.2151772144703,
    "lng": 135.195820261342,
    "tel": "734991227",
    "url": "https://hp.kaipoke.biz/4eb/184089/base_0004.html",
    "pref": "和歌山県",
    "city": "和歌山市",
    "category": "community_day_service",
    "serviceType": "地域密着型通所介護",
    "capacity": 10,
    "openDays": [
      "平日",
      "祝日"
    ],
    "openDaysNote": "月曜日から金曜日までとする。（改行）ただし、１２月２９日から１月３日を除く。（改行）(上記、営業時間外のサービス提供については応相談)"
  },
  {
    "id": "3070110311",
    "name": "キララリハビリデイサービス",
    "kana": "キララリハビリデイサービス",
    "address": "和歌山県和歌山市太田299番地7",
    "lat": 34.2278817,
    "lng": 135.1931703,
    "tel": "073-474-3221",
    "url": "http://kiraraday.info",
    "pref": "和歌山県",
    "city": "和歌山市",
    "category": "community_day_service",
    "serviceType": "地域密着型通所介護",
    "capacity": 0,
    "openDays": [
      "平日",
      "土曜日",
      "祝日"
    ],
    "openDaysNote": "土曜日は午前のみ（改行）12月30日～1月3日は休み"
  },
  {
    "id": "3070110899",
    "name": "グリーン介護センター",
    "kana": "グリーンカイゴセンター",
    "address": "和歌山県和歌山市黒田３５９番地",
    "lat": 34.2387888,
    "lng": 135.1942282,
    "tel": "073-496-0975",
    "url": "",
    "pref": "和歌山県",
    "city": "和歌山市",
    "category": "community_day_service",
    "serviceType": "地域密着型通所介護",
    "capacity": 9,
    "openDays": [
      "平日",
      "祝日"
    ],
    "openDaysNote": "日々安全対策に心がける"
  },
  {
    "id": "3070111491",
    "name": "ケアセンターおたっしゃ倶楽部れくらん",
    "kana": "ケアセンターオタッシャクラブレクラン",
    "address": "和歌山県和歌山市里198-2やまぐちおたっしゃ館 やまぐちおたっしゃ館",
    "lat": 34.2689732121441,
    "lng": 135.267032154492,
    "tel": "073-462-5558",
    "url": "http://www.s-co-op.or.jp/",
    "pref": "和歌山県",
    "city": "和歌山市",
    "category": "community_day_service",
    "serviceType": "地域密着型通所介護",
    "capacity": 0,
    "openDays": [
      "平日",
      "土曜日",
      "祝日"
    ],
    "openDaysNote": ""
  },
  {
    "id": "3070105188",
    "name": "ケアセンターやわらぎ",
    "kana": "ケアセンターヤワラギ",
    "address": "和歌山市葵町6番11号",
    "lat": 34.2132342,
    "lng": 135.1627125,
    "tel": "073‐435‐3737",
    "url": "",
    "pref": "和歌山県",
    "city": "和歌山市",
    "category": "community_day_service",
    "serviceType": "地域密着型通所介護",
    "capacity": 0,
    "openDays": [
      "平日"
    ],
    "openDaysNote": ""
  },
  {
    "id": "3090101787",
    "name": "さくら庵",
    "kana": "サクラアン",
    "address": "和歌山県和歌山市布引865-19",
    "lat": 34.1694594404459,
    "lng": 135.188897693379,
    "tel": "073-499-1020",
    "url": "http://harukazekai.jp/",
    "pref": "和歌山県",
    "city": "和歌山市",
    "category": "community_day_service",
    "serviceType": "地域密着型通所介護",
    "capacity": 18,
    "openDays": [
      "平日",
      "土曜日",
      "祝日"
    ],
    "openDaysNote": ""
  },
  {
    "id": "3090101340",
    "name": "シニアカレッジtomorrow",
    "kana": "シニアカレッジ　トゥモロー",
    "address": "和歌山県和歌山市新留丁136",
    "lat": 34.2268431,
    "lng": 135.1853082,
    "tel": "073-435-5501",
    "url": "",
    "pref": "和歌山県",
    "city": "和歌山市",
    "category": "community_day_service",
    "serviceType": "地域密着型通所介護",
    "capacity": 0,
    "openDays": [
      "平日",
      "土曜日",
      "祝日"
    ],
    "openDaysNote": ""
  },
  {
    "id": "3070100346",
    "name": "ジョイフルホームやつなみ",
    "kana": "ジョイフルホームヤツナミ",
    "address": "和歌山市西庄527-4",
    "lat": 34.262407,
    "lng": 135.1087249,
    "tel": "073-456-1947",
    "url": "",
    "pref": "和歌山県",
    "city": "和歌山市",
    "category": "community_day_service",
    "serviceType": "地域密着型通所介護",
    "capacity": null,
    "openDays": [
      "平日"
    ],
    "openDaysNote": ""
  },
  {
    "id": "3090101589",
    "name": "そうわヘルスケア",
    "kana": "ソウワヘルスケア",
    "address": "和歌山県和歌山市屋形町2丁目7番地西川ビル1階 西川ビル1階",
    "lat": 34.2296309,
    "lng": 135.1773254,
    "tel": "073-488-9837",
    "url": "www.souwacare.org",
    "pref": "和歌山県",
    "city": "和歌山市",
    "category": "community_day_service",
    "serviceType": "地域密着型通所介護",
    "capacity": 0,
    "openDays": [
      "平日",
      "土曜日",
      "祝日"
    ],
    "openDaysNote": ""
  },
  {
    "id": "3070105246",
    "name": "つくし介護センター",
    "kana": "ツクシカイゴセンター",
    "address": "和歌山県和歌山市東高松1-3-4",
    "lat": 36.204824,
    "lng": 138.252924,
    "tel": "073-424-7586",
    "url": "",
    "pref": "和歌山県",
    "city": "和歌山市",
    "category": "community_day_service",
    "serviceType": "地域密着型通所介護",
    "capacity": null,
    "openDays": [
      "平日",
      "土曜日",
      "祝日"
    ],
    "openDaysNote": "定休日でも臨時営業する場合あり。"
  },
  {
    "id": "3070111699",
    "name": "つるかめ庵東松江",
    "kana": "ツルカメアンヒガシマツエ",
    "address": "和歌山市松江東4丁目8-19",
    "lat": 34.2470257,
    "lng": 135.1412263,
    "tel": "073-456-0352",
    "url": "",
    "pref": "和歌山県",
    "city": "和歌山市",
    "category": "community_day_service",
    "serviceType": "地域密着型通所介護",
    "capacity": 10,
    "openDays": [
      "平日",
      "祝日"
    ],
    "openDaysNote": ""
  },
  {
    "id": "3090101845",
    "name": "つるかめ庵東松江",
    "kana": "ツルカメアンヒガシマツエ",
    "address": "和歌山県和歌山市松江東4丁目８－１９",
    "lat": 34.2470455690462,
    "lng": 135.141252010739,
    "tel": "073-456-0352",
    "url": "",
    "pref": "和歌山県",
    "city": "和歌山市",
    "category": "community_day_service",
    "serviceType": "地域密着型通所介護",
    "capacity": null,
    "openDays": [
      "平日",
      "祝日"
    ],
    "openDaysNote": ""
  },
  {
    "id": "3070109875",
    "name": "デイサ－ビス吉祥",
    "kana": "デイサービスキッショウ",
    "address": "和歌山県和歌山市禰宜１０２７-１サービス付き高齢者向け住宅　吉祥苑 サービス付き高齢者向け住宅　吉祥苑",
    "lat": 34.239206627163,
    "lng": 135.246128326598,
    "tel": "０７３-４７７-６５４１",
    "url": "http://kishou-w.jp/",
    "pref": "和歌山県",
    "city": "和歌山市",
    "category": "community_day_service",
    "serviceType": "地域密着型通所介護",
    "capacity": 15,
    "openDays": [
      "平日",
      "祝日"
    ],
    "openDaysNote": ""
  },
  {
    "id": "3070110444",
    "name": "ﾃﾞｲｻｰﾋﾞｽｾﾝﾀｰ　かしの木　舟津",
    "kana": "デイサービスセンター　カシノキ　フナツ",
    "address": "和歌山市舟津町１丁目13-1",
    "lat": 34.2231757,
    "lng": 135.1593537,
    "tel": "073-425-5418",
    "url": "http://kasinoki.in",
    "pref": "和歌山県",
    "city": "和歌山市",
    "category": "community_day_service",
    "serviceType": "地域密着型通所介護",
    "capacity": 18,
    "openDays": [
      "平日",
      "土曜日",
      "祝日"
    ],
    "openDaysNote": ""
  },
  {
    "id": "3070109370",
    "name": "デイサービス　アトム",
    "kana": "デイサービス　アトム",
    "address": "和歌山市宇治家裏278番地",
    "lat": 34.2425812758232,
    "lng": 135.177519827895,
    "tel": "073-433-5277",
    "url": "",
    "pref": "和歌山県",
    "city": "和歌山市",
    "category": "community_day_service",
    "serviceType": "地域密着型通所介護",
    "capacity": null,
    "openDays": [
      "平日",
      "祝日"
    ],
    "openDaysNote": "１２月３０日～１月３日　休み"
  },
  {
    "id": "3070111608",
    "name": "デイサービス　アンダンテ",
    "kana": "デイサービス　アンダンテ",
    "address": "和歌山県和歌山市東高松3丁目3－39Ｃａｓａ・東高松 Ｃａｓａ・東高松",
    "lat": 34.2055977,
    "lng": 135.1728474,
    "tel": "073-447-1118",
    "url": "",
    "pref": "和歌山県",
    "city": "和歌山市",
    "category": "community_day_service",
    "serviceType": "地域密着型通所介護",
    "capacity": 18,
    "openDays": [
      "平日",
      "土曜日"
    ],
    "openDaysNote": ""
  },
  {
    "id": "3070107093",
    "name": "デイサービス　ケアネット雑賀屋町",
    "kana": "デイサービス　ケアネットサイカヤマチ",
    "address": "和歌山県和歌山市雑賀屋町１２番地",
    "lat": 34.227681,
    "lng": 135.1675613,
    "tel": "073-436-5050",
    "url": "http//carenet-wakayama.com/",
    "pref": "和歌山県",
    "city": "和歌山市",
    "category": "community_day_service",
    "serviceType": "地域密着型通所介護",
    "capacity": 14,
    "openDays": [
      "平日",
      "土曜日",
      "祝日"
    ],
    "openDaysNote": ""
  },
  {
    "id": "3070111574",
    "name": "デイサービス　ケアネット新生町",
    "kana": "デイサービス　ケアネットシンセイチョウ",
    "address": "和歌山県和歌山市新生町2-5",
    "lat": 34.224021,
    "lng": 135.1894791,
    "tel": "073-494-3985",
    "url": "ｈｔｔｐ//ｗｗｗ.ｃａｒｅｎｅｔ-ｗａｋａｙａｍａ.ｃｏｍ/",
    "pref": "和歌山県",
    "city": "和歌山市",
    "category": "community_day_service",
    "serviceType": "地域密着型通所介護",
    "capacity": 14,
    "openDays": [
      "平日",
      "土曜日",
      "祝日"
    ],
    "openDaysNote": ""
  },
  {
    "id": "3070110170",
    "name": "デイサービス　ケアネット布引",
    "kana": "デイサービス　ケアネットヌノヒキ",
    "address": "和歌山県和歌山市布引704-3",
    "lat": 34.1713742,
    "lng": 135.1831886,
    "tel": "073-488-5207",
    "url": "ｈｔｔｐ//ｃａｒｅｎｅｔ-ｗａｋａｙａｍａ.ｃｏｍ/",
    "pref": "和歌山県",
    "city": "和歌山市",
    "category": "community_day_service",
    "serviceType": "地域密着型通所介護",
    "capacity": 10,
    "openDays": [
      "平日",
      "土曜日",
      "祝日"
    ],
    "openDaysNote": ""
  },
  {
    "id": "3090101720",
    "name": "デイサービス　さやか",
    "kana": "デイサービス　サヤカ",
    "address": "和歌山県和歌山市布引９３５－１",
    "lat": 34.1750785,
    "lng": 135.1870857,
    "tel": "０７３－４９９－１０８８",
    "url": "",
    "pref": "和歌山県",
    "city": "和歌山市",
    "category": "community_day_service",
    "serviceType": "地域密着型通所介護",
    "capacity": null,
    "openDays": [
      "平日"
    ],
    "openDaysNote": ""
  },
  {
    "id": "3090101738",
    "name": "デイサービス　ふたば",
    "kana": "デイサービス　フタバ",
    "address": "和歌山県和歌山市太田６６７番地６",
    "lat": 34.2363758,
    "lng": 135.2050808,
    "tel": "０７３－４７５－０８５２",
    "url": "https://satonaika.or.jp/",
    "pref": "和歌山県",
    "city": "和歌山市",
    "category": "community_day_service",
    "serviceType": "地域密着型通所介護",
    "capacity": null,
    "openDays": [
      "平日",
      "土曜日",
      "祝日"
    ],
    "openDaysNote": ""
  },
  {
    "id": "3070105113",
    "name": "デイサービス　やまごや",
    "kana": "デイサービス　ヤマゴヤ",
    "address": "和歌山県和歌山市上野537番地の12",
    "lat": 34.2744929,
    "lng": 135.2549728,
    "tel": "073-464-2033",
    "url": "yamagoya-shinwa@hera.eonet.ne.jp",
    "pref": "和歌山県",
    "city": "和歌山市",
    "category": "community_day_service",
    "serviceType": "地域密着型通所介護",
    "capacity": 10,
    "openDays": [
      "平日",
      "祝日"
    ],
    "openDaysNote": ""
  },
  {
    "id": "3070109552",
    "name": "デイサービス　ゆうゆうライフ",
    "kana": "デイサービス　ユウユウライフ",
    "address": "西浜１１７０－２サービス付き高齢者向け住宅ふるさと内１Ｆ サービス付き高齢者向け住宅ふるさと内１Ｆ",
    "lat": 34.1938909188683,
    "lng": 135.15260496729,
    "tel": "073-441-8600",
    "url": "http://www.lifecare-soyokaze.jp/",
    "pref": "和歌山県",
    "city": "和歌山市",
    "category": "community_day_service",
    "serviceType": "地域密着型通所介護",
    "capacity": 0,
    "openDays": [
      "平日",
      "土曜日",
      "祝日"
    ],
    "openDaysNote": ""
  },
  {
    "id": "3090101290",
    "name": "デイサービス　ライフサイズのざき",
    "kana": "デイサービス　ライフサイズノザキ",
    "address": "和歌山県和歌山市野崎62-1ライフサイズ野崎 ライフサイズ野崎",
    "lat": 34.2421829,
    "lng": 135.1554784,
    "tel": "073-499-7227",
    "url": "",
    "pref": "和歌山県",
    "city": "和歌山市",
    "category": "community_day_service",
    "serviceType": "地域密着型通所介護",
    "capacity": 0,
    "openDays": [
      "平日",
      "祝日"
    ],
    "openDaysNote": ""
  },
  {
    "id": "3070111541",
    "name": "デイサービス　リデンテ",
    "kana": "デイサービス　リデンテ",
    "address": "和歌山県和歌山市湊２丁目11-7",
    "lat": 34.2338938566646,
    "lng": 135.14556414184,
    "tel": "073-463-5628",
    "url": "",
    "pref": "和歌山県",
    "city": "和歌山市",
    "category": "community_day_service",
    "serviceType": "地域密着型通所介護",
    "capacity": 0,
    "openDays": [
      "平日",
      "祝日"
    ],
    "openDaysNote": ""
  },
  {
    "id": "3070106574",
    "name": "デイサービス　りゅうじん",
    "kana": "デイサービス　リュウジン",
    "address": "和歌山市北中島1丁目2番4号",
    "lat": 34.214311,
    "lng": 135.1882239,
    "tel": "073-436-5108",
    "url": "",
    "pref": "和歌山県",
    "city": "和歌山市",
    "category": "community_day_service",
    "serviceType": "地域密着型通所介護",
    "capacity": 10,
    "openDays": [
      "平日",
      "土曜日",
      "祝日"
    ],
    "openDaysNote": ""
  },
  {
    "id": "3090100987",
    "name": "デイサービス　成幸出島",
    "kana": "デイサービス　セイコウデジマ",
    "address": "出島472-5",
    "lat": 36.204824,
    "lng": 138.252924,
    "tel": "073-475-9971",
    "url": "",
    "pref": "和歌山県",
    "city": "和歌山市",
    "category": "community_day_service",
    "serviceType": "地域密着型通所介護",
    "capacity": 0,
    "openDays": [
      "平日",
      "土曜日"
    ],
    "openDaysNote": "月～金　9：30～14：45（改行）土　　　9：05～14：15"
  },
  {
    "id": "3070102243",
    "name": "デイサービス　草原",
    "kana": "デイサービス　ソウゲン",
    "address": "和歌山市田尻１５３番地の５",
    "lat": 34.2121947,
    "lng": 135.1977648,
    "tel": "073-475-9007",
    "url": "",
    "pref": "和歌山県",
    "city": "和歌山市",
    "category": "community_day_service",
    "serviceType": "地域密着型通所介護",
    "capacity": 15,
    "openDays": [
      "平日",
      "祝日"
    ],
    "openDaysNote": ""
  },
  {
    "id": "3070109560",
    "name": "デイサービス　浜風の家",
    "kana": "デイサービス　ハマカゼノイエ",
    "address": "和歌山市内原882番地1",
    "lat": 34.1699077081016,
    "lng": 135.193968543268,
    "tel": "073-463-4814",
    "url": "",
    "pref": "和歌山県",
    "city": "和歌山市",
    "category": "community_day_service",
    "serviceType": "地域密着型通所介護",
    "capacity": 0,
    "openDays": [
      "平日",
      "土曜日",
      "祝日"
    ],
    "openDaysNote": ""
  },
  {
    "id": "3070110691",
    "name": "デイサービス　夢広場",
    "kana": "デイサービス　ユメヒロバ",
    "address": "和歌山県和歌山市駕町56番地",
    "lat": 34.2256771801227,
    "lng": 135.162530391346,
    "tel": "073-499-6693",
    "url": "",
    "pref": "和歌山県",
    "city": "和歌山市",
    "category": "community_day_service",
    "serviceType": "地域密着型通所介護",
    "capacity": 0,
    "openDays": [
      "平日",
      "土曜日",
      "日曜日",
      "祝日"
    ],
    "openDaysNote": ""
  },
  {
    "id": "3070110832",
    "name": "デイサービス　陽なた",
    "kana": "デイサービス　ヒナタ",
    "address": "和歌山市有家320-1",
    "lat": 34.2210604,
    "lng": 135.201092,
    "tel": "073-488-6474",
    "url": "",
    "pref": "和歌山県",
    "city": "和歌山市",
    "category": "community_day_service",
    "serviceType": "地域密着型通所介護",
    "capacity": 90,
    "openDays": [
      "平日"
    ],
    "openDaysNote": ""
  },
  {
    "id": "3070109362",
    "name": "デイサービスアーク",
    "kana": "デイサービス　アーク",
    "address": "和歌山県和歌山市野崎3番地4",
    "lat": 34.2451803688543,
    "lng": 135.153392887697,
    "tel": "073-457-1777",
    "url": "",
    "pref": "和歌山県",
    "city": "和歌山市",
    "category": "community_day_service",
    "serviceType": "地域密着型通所介護",
    "capacity": null,
    "openDays": [
      "平日",
      "祝日"
    ],
    "openDaysNote": "12/30～1/3"
  },
  {
    "id": "3070106798",
    "name": "デイサービスあい楠見",
    "kana": "デイサービスアイクスミ",
    "address": "和歌山市楠見中197-8",
    "lat": 34.2547287,
    "lng": 135.1798844,
    "tel": "073-451-8787",
    "url": "http://www.nakae.or.jp/contents/ai/index.html",
    "pref": "和歌山県",
    "city": "和歌山市",
    "category": "community_day_service",
    "serviceType": "地域密着型通所介護",
    "capacity": 29,
    "openDays": [
      "平日",
      "土曜日",
      "日曜日",
      "祝日"
    ],
    "openDaysNote": "年中無休"
  },
  {
    "id": "3090101316",
    "name": "デイサービスあみご",
    "kana": "デイサービスアミゴ",
    "address": "和歌山県和歌山市湊5丁目7番11号",
    "lat": 34.2281622112706,
    "lng": 135.146022687836,
    "tel": "073-463-0622",
    "url": "",
    "pref": "和歌山県",
    "city": "和歌山市",
    "category": "community_day_service",
    "serviceType": "地域密着型通所介護",
    "capacity": 0,
    "openDays": [
      "平日",
      "祝日"
    ],
    "openDaysNote": ""
  },
  {
    "id": "3070108281",
    "name": "デイサービスいろは",
    "kana": "デイサービスイロハ",
    "address": "有家375-24",
    "lat": 34.2180048827949,
    "lng": 135.201510628097,
    "tel": "073-499-5267",
    "url": "https://iroha-robust.com/",
    "pref": "和歌山県",
    "city": "和歌山市",
    "category": "community_day_service",
    "serviceType": "地域密着型通所介護",
    "capacity": 18,
    "openDays": [
      "平日",
      "土曜日",
      "日曜日",
      "祝日"
    ],
    "openDaysNote": ""
  },
  {
    "id": "3090101795",
    "name": "デイサービスえみろっと和歌山",
    "kana": "デイサービスエミロットワカヤマ",
    "address": "本渡800番1",
    "lat": null,
    "lng": null,
    "tel": "073-460-0871",
    "url": "https://www.emi-rot.co.jp",
    "pref": "和歌山県",
    "city": "和歌山市",
    "category": "community_day_service",
    "serviceType": "地域密着型通所介護",
    "capacity": 0,
    "openDays": [
      "平日",
      "祝日"
    ],
    "openDaysNote": "年末年始12月30日～1月3日は休み"
  },
  {
    "id": "3070109131",
    "name": "デイサービスおかえり",
    "kana": "デイサービスオカエリ",
    "address": "和歌山市善明寺645-5",
    "lat": 34.2713812516796,
    "lng": 135.185649080146,
    "tel": "073-488-6233",
    "url": "",
    "pref": "和歌山県",
    "city": "和歌山市",
    "category": "community_day_service",
    "serviceType": "地域密着型通所介護",
    "capacity": null,
    "openDays": [
      "平日",
      "祝日"
    ],
    "openDaysNote": "12/30～1/3休み"
  },
  {
    "id": "3070109891",
    "name": "デイサービスおれんじ",
    "kana": "デイサービスオレンジ",
    "address": "相坂534-22",
    "lat": 34.2021571,
    "lng": 135.2264626,
    "tel": "073-479-1222",
    "url": "",
    "pref": "和歌山県",
    "city": "和歌山市",
    "category": "community_day_service",
    "serviceType": "地域密着型通所介護",
    "capacity": 0,
    "openDays": [
      "平日",
      "祝日"
    ],
    "openDaysNote": "危険性を伴う天候（改行）体調不良等により主治医からの指示（改行）他の利用者様に迷惑行為　等（改行）サービスの中止・変更をさせていただく場合がございます"
  },
  {
    "id": "3090101480",
    "name": "デイサービスがじゅまる",
    "kana": "デイサービスガジュマル",
    "address": "和歌山市木ノ本３０７ー１",
    "lat": 34.2588818686735,
    "lng": 135.127663499945,
    "tel": "073-488-2495",
    "url": "carna8.co.jp",
    "pref": "和歌山県",
    "city": "和歌山市",
    "category": "community_day_service",
    "serviceType": "地域密着型通所介護",
    "capacity": 18,
    "openDays": [
      "平日",
      "土曜日",
      "祝日"
    ],
    "openDaysNote": ""
  },
  {
    "id": "3070108331",
    "name": "デイサービスきしゅう",
    "kana": "デイサービス　キシュウ",
    "address": "和歌山市和佐関戸20",
    "lat": 34.239970949849,
    "lng": 135.26263700321,
    "tel": "073-477-5681",
    "url": "",
    "pref": "和歌山県",
    "city": "和歌山市",
    "category": "community_day_service",
    "serviceType": "地域密着型通所介護",
    "capacity": 15,
    "openDays": [
      "平日",
      "土曜日",
      "日曜日",
      "祝日"
    ],
    "openDaysNote": "できる限り利用者の希望に応じたサービス提供を行う。"
  },
  {
    "id": "3070110352",
    "name": "デイサービスクローバー",
    "kana": "デイサービスクローバー",
    "address": "和歌山市杭ノ瀬４４９－２",
    "lat": 34.2048692968958,
    "lng": 135.190319968717,
    "tel": "073-474-0098",
    "url": "http://www.hs-clover.co.jp/",
    "pref": "和歌山県",
    "city": "和歌山市",
    "category": "community_day_service",
    "serviceType": "地域密着型通所介護",
    "capacity": 14,
    "openDays": [
      "平日",
      "祝日"
    ],
    "openDaysNote": "設備点検・研修・清掃での突発的な定休日あり"
  },
  {
    "id": "3090101050",
    "name": "デイサービスケアネット大谷",
    "kana": "デイサービスケアネットオオタニ",
    "address": "和歌山県和歌山市大谷264-9",
    "lat": 34.2587226,
    "lng": 135.1738903,
    "tel": "073-419-0511",
    "url": "ｈｔｔｐ//ｃａｒｅｎｅｔ-ｗａｋａｙａｍａ.ｃｏｍ/",
    "pref": "和歌山県",
    "city": "和歌山市",
    "category": "community_day_service",
    "serviceType": "地域密着型通所介護",
    "capacity": 0,
    "openDays": [
      "平日",
      "土曜日",
      "祝日"
    ],
    "openDaysNote": ""
  },
  {
    "id": "3090101019",
    "name": "デイサービスココア",
    "kana": "デイサアビスココア",
    "address": "和歌山県和歌山市冬野1305-1",
    "lat": 34.1762879034392,
    "lng": 135.207565342163,
    "tel": "073-460-3727",
    "url": "",
    "pref": "和歌山県",
    "city": "和歌山市",
    "category": "community_day_service",
    "serviceType": "地域密着型通所介護",
    "capacity": null,
    "openDays": [
      "平日",
      "土曜日",
      "祝日"
    ],
    "openDaysNote": ""
  },
  {
    "id": "3070107796",
    "name": "デイサービスセンター　かしの木",
    "kana": "デイサービスセンター　カシノキ",
    "address": "和歌山市府中114",
    "lat": 34.2669455,
    "lng": 135.2227313,
    "tel": "073-412-5419",
    "url": "http://kasinoki.in",
    "pref": "和歌山県",
    "city": "和歌山市",
    "category": "community_day_service",
    "serviceType": "地域密着型通所介護",
    "capacity": 18,
    "openDays": [
      "平日",
      "土曜日",
      "祝日"
    ],
    "openDaysNote": ""
  },
  {
    "id": "3070109768",
    "name": "デイサービスセンター　光彩",
    "kana": "デイサービスセンター　コウサイ",
    "address": "大河内188-3",
    "lat": 34.1993055403678,
    "lng": 135.259970952418,
    "tel": "073-466-3021",
    "url": "",
    "pref": "和歌山県",
    "city": "和歌山市",
    "category": "community_day_service",
    "serviceType": "地域密着型通所介護",
    "capacity": 0,
    "openDays": [
      "平日",
      "祝日"
    ],
    "openDaysNote": "上記営業時間外でも相談等に応じる体制をとります。"
  },
  {
    "id": "3070105162",
    "name": "デイサービスセンターしるばあはっぴい道場町",
    "kana": "デイサービスセンターシルバアハッピイドウジョウマチ",
    "address": "和歌山市道場町7番地はっぴいビル2Ｆ",
    "lat": 34.2307472,
    "lng": 135.1649643,
    "tel": "073-402-2690",
    "url": "",
    "pref": "和歌山県",
    "city": "和歌山市",
    "category": "community_day_service",
    "serviceType": "地域密着型通所介護",
    "capacity": null,
    "openDays": [
      "平日",
      "祝日"
    ],
    "openDaysNote": ""
  },
  {
    "id": "3070105196",
    "name": "デイサービスセンターつばさ",
    "kana": "デイサービスセンターツバサ",
    "address": "和歌山県和歌山市六十谷421-3",
    "lat": 34.2633981,
    "lng": 135.2063574,
    "tel": "073-462-3227",
    "url": "http://www.sakai-sekkotsu.jp/tsubasa/index.html",
    "pref": "和歌山県",
    "city": "和歌山市",
    "category": "community_day_service",
    "serviceType": "地域密着型通所介護",
    "capacity": 18,
    "openDays": [
      "平日",
      "土曜日"
    ],
    "openDaysNote": ""
  },
  {
    "id": "3070109313",
    "name": "デイサービスセンターぱせり",
    "kana": "デイサービスセンターパセリ",
    "address": "和歌山市狐島３８８－４メゾンKITSUNEJIMA１０１号室 メゾンKITSUNEJIMA１０１号室",
    "lat": 34.2439594,
    "lng": 135.152937,
    "tel": "０７３－４８０－５１５１",
    "url": "",
    "pref": "和歌山県",
    "city": "和歌山市",
    "category": "community_day_service",
    "serviceType": "地域密着型通所介護",
    "capacity": 0,
    "openDays": [
      "平日",
      "土曜日",
      "祝日"
    ],
    "openDaysNote": "12/29～1/3までを除く"
  },
  {
    "id": "3070109883",
    "name": "デイサービスセンターピース",
    "kana": "デイサービスセンターピース",
    "address": "新中島118新中島エクセランス１Ｆ 新中島エクセランス１Ｆ",
    "lat": 34.2156998,
    "lng": 135.1963259,
    "tel": "073-488-4526",
    "url": "",
    "pref": "和歌山県",
    "city": "和歌山市",
    "category": "community_day_service",
    "serviceType": "地域密着型通所介護",
    "capacity": 12,
    "openDays": [
      "平日"
    ],
    "openDaysNote": "1単位目は9：00から11：30（改行）2単位目は13：30から16：45"
  },
  {
    "id": "3090101118",
    "name": "デイサービスセンター雑賀荘",
    "kana": "デイサービスセンターサイカソウ",
    "address": "和歌山市関戸1丁目4番13号",
    "lat": 34.2009314,
    "lng": 135.167745,
    "tel": "073－445－0606",
    "url": "https://wakaurakai.or.jp/",
    "pref": "和歌山県",
    "city": "和歌山市",
    "category": "community_day_service",
    "serviceType": "地域密着型通所介護",
    "capacity": 0,
    "openDays": [
      "平日",
      "祝日"
    ],
    "openDaysNote": "年末年始は１２／３１～１／３まで休業"
  },
  {
    "id": "3070107085",
    "name": "デイサービスセンター楪～ゆずりは～",
    "kana": "デイサービスセンター　ユズリハ～ユズリハ～",
    "address": "和歌山県　和歌山市　榎原174-100",
    "lat": 34.2531555,
    "lng": 135.1306989,
    "tel": "073-454-0072",
    "url": "https://www.ancianatio.com/",
    "pref": "和歌山県",
    "city": "和歌山市",
    "category": "community_day_service",
    "serviceType": "地域密着型通所介護",
    "capacity": 0,
    "openDays": [
      "平日",
      "土曜日",
      "祝日"
    ],
    "openDaysNote": "12月31日～1月3日　休み　　不定期にて毎月1回土休み"
  },
  {
    "id": "3070111301",
    "name": "デイサービスたいようの風",
    "kana": "デイサービスタイヨウノカゼ",
    "address": "和歌山県和歌山市六十谷208-12サンライト坂本1F西号室 サンライト坂本1F西号室",
    "lat": 34.2610038,
    "lng": 135.2023716,
    "tel": "073-462-0031",
    "url": "",
    "pref": "和歌山県",
    "city": "和歌山市",
    "category": "community_day_service",
    "serviceType": "地域密着型通所介護",
    "capacity": null,
    "openDays": [
      "平日",
      "祝日"
    ],
    "openDaysNote": "年末年始12/30～1/3　（ゴールデンウィーク・お盆臨時休業する場合あり）"
  },
  {
    "id": "3090101522",
    "name": "デイサービスハピネス",
    "kana": "デイサービスハピネス",
    "address": "和歌山県和歌山市直川1700番地3",
    "lat": 34.2629057448503,
    "lng": 135.215094538531,
    "tel": "073-499-5476",
    "url": "",
    "pref": "和歌山県",
    "city": "和歌山市",
    "category": "community_day_service",
    "serviceType": "地域密着型通所介護",
    "capacity": 3,
    "openDays": [
      "平日",
      "祝日"
    ],
    "openDaysNote": ""
  },
  {
    "id": "3070110303",
    "name": "デイサービスひなた",
    "kana": "デイサービス　ヒナタ",
    "address": "和歌山県和歌山市野崎45-2",
    "lat": 34.242665820839,
    "lng": 135.153796719713,
    "tel": "073-457-2205",
    "url": "",
    "pref": "和歌山県",
    "city": "和歌山市",
    "category": "community_day_service",
    "serviceType": "地域密着型通所介護",
    "capacity": 15,
    "openDays": [
      "平日",
      "祝日"
    ],
    "openDaysNote": "営業日は月曜日から金曜日までとする。ただし、1月1日から1月3日までを除く。"
  },
  {
    "id": "3070109404",
    "name": "デイサービスひろみ",
    "kana": "デイサービスヒロミ",
    "address": "和歌山県和歌山市福島674番地3住宅型有料老人ホームひろみ 住宅型有料老人ホームひろみ",
    "lat": 34.2468043586065,
    "lng": 135.161161727638,
    "tel": "073-481-2784",
    "url": "",
    "pref": "和歌山県",
    "city": "和歌山市",
    "category": "community_day_service",
    "serviceType": "地域密着型通所介護",
    "capacity": 13,
    "openDays": [
      "平日",
      "土曜日",
      "日曜日",
      "祝日"
    ],
    "openDaysNote": "上記以外時間外でも相談等に応じます。"
  },
  {
    "id": "3070109594",
    "name": "デイサービスマーガレット",
    "kana": "デイサービスマーガレット",
    "address": "畑屋敷新道丁９番地セレブ畑屋敷 セレブ畑屋敷",
    "lat": 34.2362943255278,
    "lng": 135.181706964418,
    "tel": "073-499-5777",
    "url": "",
    "pref": "和歌山県",
    "city": "和歌山市",
    "category": "community_day_service",
    "serviceType": "地域密着型通所介護",
    "capacity": 13,
    "openDays": [
      "平日",
      "祝日"
    ],
    "openDaysNote": "ただし１２月３０日から１月３日までは休みとする。"
  },
  {
    "id": "3070111657",
    "name": "デイサービス旺",
    "kana": "デイサービスヒカリ",
    "address": "和歌山県和歌山市元博労町29シオジビル1F シオジビル1F",
    "lat": 34.2349496,
    "lng": 135.1692361,
    "tel": "073-425-2340",
    "url": "",
    "pref": "和歌山県",
    "city": "和歌山市",
    "category": "community_day_service",
    "serviceType": "地域密着型通所介護",
    "capacity": null,
    "openDays": [
      "平日",
      "祝日"
    ],
    "openDaysNote": ""
  },
  {
    "id": "3070108703",
    "name": "デイサービス喜楽々",
    "kana": "デイサービスキララ",
    "address": "和歌山県和歌山市狐島691-17",
    "lat": 34.2417741857363,
    "lng": 135.149249689413,
    "tel": "073-457-2200",
    "url": "",
    "pref": "和歌山県",
    "city": "和歌山市",
    "category": "community_day_service",
    "serviceType": "地域密着型通所介護",
    "capacity": 15,
    "openDays": [
      "平日",
      "祝日"
    ],
    "openDaysNote": ""
  },
  {
    "id": "3070108240",
    "name": "デイサービス小人町",
    "kana": "デイサービスコビトマチ",
    "address": "和歌山県和歌山市小人町５番地県貿ビル 県貿ビル",
    "lat": 34.2259867,
    "lng": 135.1675086,
    "tel": "734350666",
    "url": "",
    "pref": "和歌山県",
    "city": "和歌山市",
    "category": "community_day_service",
    "serviceType": "地域密着型通所介護",
    "capacity": 10,
    "openDays": [
      "平日",
      "土曜日",
      "日曜日",
      "祝日"
    ],
    "openDaysNote": ""
  },
  {
    "id": "3070109206",
    "name": "デイサービス心和",
    "kana": "デイサービスココワ",
    "address": "雄松町一丁目61番地1",
    "lat": 34.2222810401748,
    "lng": 135.183038085954,
    "tel": "０７３－４８８－６９６９",
    "url": "",
    "pref": "和歌山県",
    "city": "和歌山市",
    "category": "community_day_service",
    "serviceType": "地域密着型通所介護",
    "capacity": 0,
    "openDays": [
      "平日",
      "祝日"
    ],
    "openDaysNote": "年末年始はお休み（改行）１２月３０日、３１日（改行）１月１日、２日、３日"
  },
  {
    "id": "3070106848",
    "name": "デイサービス成幸",
    "kana": "デイサービス　セイコウ",
    "address": "和歌山県和歌山市岩橋1632-9",
    "lat": 34.2308738052518,
    "lng": 135.221369384519,
    "tel": "073-474-0381",
    "url": "",
    "pref": "和歌山県",
    "city": "和歌山市",
    "category": "community_day_service",
    "serviceType": "地域密着型通所介護",
    "capacity": 18,
    "openDays": [
      "平日",
      "祝日"
    ],
    "openDaysNote": ""
  },
  {
    "id": "3090101514",
    "name": "デイサービス成幸紀三井寺",
    "kana": "デイサービスセイコウキミイデラ",
    "address": "紀三井寺748-3",
    "lat": 34.1860775,
    "lng": 135.1867061,
    "tel": "073-488-9311",
    "url": "",
    "pref": "和歌山県",
    "city": "和歌山市",
    "category": "community_day_service",
    "serviceType": "地域密着型通所介護",
    "capacity": 0,
    "openDays": [
      "平日",
      "祝日"
    ],
    "openDaysNote": ""
  },
  {
    "id": "3090101746",
    "name": "デイサービス成幸出水",
    "kana": "デイサービスセイコウデミズ",
    "address": "出水43-8",
    "lat": 32.0903001,
    "lng": 130.3531905,
    "tel": "073-499-5683",
    "url": "",
    "pref": "和歌山県",
    "city": "和歌山市",
    "category": "community_day_service",
    "serviceType": "地域密着型通所介護",
    "capacity": null,
    "openDays": [
      "平日",
      "祝日"
    ],
    "openDaysNote": ""
  },
  {
    "id": "3090101639",
    "name": "デイサービス成幸西浜",
    "kana": "デイサービスセイコウデニシハマ",
    "address": "湊4-1プレザントパレス1階 プレザントパレス1階",
    "lat": null,
    "lng": null,
    "tel": "073-488-7683",
    "url": "",
    "pref": "和歌山県",
    "city": "和歌山市",
    "category": "community_day_service",
    "serviceType": "地域密着型通所介護",
    "capacity": null,
    "openDays": [
      "平日"
    ],
    "openDaysNote": ""
  },
  {
    "id": "3070108596",
    "name": "デイサービス宝夢",
    "kana": "デイサービスホウム",
    "address": "榎原84-4",
    "lat": 34.254386,
    "lng": 135.1352597,
    "tel": "073-452-2525",
    "url": "",
    "pref": "和歌山県",
    "city": "和歌山市",
    "category": "community_day_service",
    "serviceType": "地域密着型通所介護",
    "capacity": 0,
    "openDays": [
      "平日",
      "祝日"
    ],
    "openDaysNote": ""
  },
  {
    "id": "3090101530",
    "name": "デイサービス絆",
    "kana": "デイサービスキズナ",
    "address": "和歌山県和歌山市井戸192-1",
    "lat": 34.1974616,
    "lng": 135.2266457,
    "tel": "073-460-2613",
    "url": "",
    "pref": "和歌山県",
    "city": "和歌山市",
    "category": "community_day_service",
    "serviceType": "地域密着型通所介護",
    "capacity": null,
    "openDays": [
      "平日",
      "土曜日",
      "日曜日",
      "祝日"
    ],
    "openDaysNote": ""
  },
  {
    "id": "3090101779",
    "name": "てんまりてんてん",
    "kana": "テンマリテンテン",
    "address": "和歌山県和歌山市西浜1407-1",
    "lat": 34.2068826,
    "lng": 135.1537715,
    "tel": "073-446-2530",
    "url": "",
    "pref": "和歌山県",
    "city": "和歌山市",
    "category": "community_day_service",
    "serviceType": "地域密着型通所介護",
    "capacity": null,
    "openDays": [
      "平日",
      "土曜日",
      "祝日"
    ],
    "openDaysNote": ""
  },
  {
    "id": "3070107374",
    "name": "パインデイサービス",
    "kana": "パインデイサービス",
    "address": "久保丁1丁目21番地",
    "lat": 34.2311389,
    "lng": 135.1675419,
    "tel": "073-422-8833",
    "url": "",
    "pref": "和歌山県",
    "city": "和歌山市",
    "category": "community_day_service",
    "serviceType": "地域密着型通所介護",
    "capacity": null,
    "openDays": [
      "平日"
    ],
    "openDaysNote": ""
  },
  {
    "id": "3090101282",
    "name": "はっぴー＆はーとⅢ",
    "kana": "ハッピーアンドハートスリー",
    "address": "和歌山県和歌山市布施屋339-2",
    "lat": 34.2414169,
    "lng": 135.2677005,
    "tel": "734770080",
    "url": "",
    "pref": "和歌山県",
    "city": "和歌山市",
    "category": "community_day_service",
    "serviceType": "地域密着型通所介護",
    "capacity": 15,
    "openDays": [
      "平日",
      "祝日"
    ],
    "openDaysNote": "記念日等　土または日曜の営業の場合あり"
  },
  {
    "id": "3090101225",
    "name": "パパイヤデイサービス",
    "kana": "パパイヤデイサービス",
    "address": "北中間町50",
    "lat": 34.2254004,
    "lng": 135.163091,
    "tel": "073-481-5339",
    "url": "",
    "pref": "和歌山県",
    "city": "和歌山市",
    "category": "community_day_service",
    "serviceType": "地域密着型通所介護",
    "capacity": 0,
    "openDays": [
      "平日"
    ],
    "openDaysNote": ""
  },
  {
    "id": "3070108885",
    "name": "ピーチデイサービス",
    "kana": "ピーチデイサービス",
    "address": "和歌山市土佐町2丁目53-1",
    "lat": 34.2220426,
    "lng": 135.1611091,
    "tel": "073-412-1234",
    "url": "",
    "pref": "和歌山県",
    "city": "和歌山市",
    "category": "community_day_service",
    "serviceType": "地域密着型通所介護",
    "capacity": 15,
    "openDays": [
      "平日",
      "土曜日",
      "祝日"
    ],
    "openDaysNote": ""
  },
  {
    "id": "3090101472",
    "name": "ひかりサロンりゅうじん",
    "kana": "ヒカリサロンリュウジン",
    "address": "小雑賀805-1オークワセントラルシティ和歌山店 オークワセントラルシティ和歌山店",
    "lat": 34.1955601511926,
    "lng": 135.183182039745,
    "tel": "090-1705-3706",
    "url": "ryujin-cl.jp",
    "pref": "和歌山県",
    "city": "和歌山市",
    "category": "community_day_service",
    "serviceType": "地域密着型通所介護",
    "capacity": 0,
    "openDays": [
      "平日"
    ],
    "openDaysNote": "お盆8/11から8/15、12/30から1/3まで休日とする。"
  },
  {
    "id": "3070103894",
    "name": "ひだまりの家",
    "kana": "ヒダマリノイエ",
    "address": "和歌山市金谷206-6",
    "lat": 34.2393597,
    "lng": 135.2762191,
    "tel": "073-477-6682",
    "url": "",
    "pref": "和歌山県",
    "city": "和歌山市",
    "category": "community_day_service",
    "serviceType": "地域密着型通所介護",
    "capacity": 0,
    "openDays": [
      "平日",
      "土曜日"
    ],
    "openDaysNote": ""
  },
  {
    "id": "3090101712",
    "name": "フィットネス型デイサービス　か・ら・ふ・る",
    "kana": "フィットネスガタデイサービス　カ・ラ・フ・ル",
    "address": "和歌山県和歌山市次郎丸80－3パークハウスJ2　1F パークハウスJ2　1F",
    "lat": 34.2547248,
    "lng": 135.1478444,
    "tel": "073-488-7080",
    "url": "https://peraichi.com/landing_pages/view/kenko-style?_ga=2.23300857.2141631270.1680833520-1353048768.1678275817",
    "pref": "和歌山県",
    "city": "和歌山市",
    "category": "community_day_service",
    "serviceType": "地域密着型通所介護",
    "capacity": 0,
    "openDays": [
      "平日",
      "祝日"
    ],
    "openDaysNote": ""
  },
  {
    "id": "3070108166",
    "name": "プライマリーリハビリ・デイサービス和歌山北",
    "kana": "プライマリーリハビリ・デイサービスワカヤマキタ",
    "address": "和歌山市園部８７０－１",
    "lat": 34.2627534,
    "lng": 135.1944582,
    "tel": "073-464-1566",
    "url": "http://primary.style",
    "pref": "和歌山県",
    "city": "和歌山市",
    "category": "community_day_service",
    "serviceType": "地域密着型通所介護",
    "capacity": 0,
    "openDays": [
      "平日"
    ],
    "openDaysNote": "年末年始休み（12月30日～1月3日）"
  },
  {
    "id": "3070110683",
    "name": "プラムデイサービス",
    "kana": "プラムデイサービス",
    "address": "和歌山県和歌山市湊1820-28",
    "lat": 34.2345548,
    "lng": 135.1535652,
    "tel": "073-419-0198",
    "url": "",
    "pref": "和歌山県",
    "city": "和歌山市",
    "category": "community_day_service",
    "serviceType": "地域密着型通所介護",
    "capacity": 0,
    "openDays": [
      "平日",
      "土曜日"
    ],
    "openDaysNote": ""
  },
  {
    "id": "3090101597",
    "name": "ほうらい苑デイサービスセンター",
    "kana": "ホウライエンデイサービスセンター",
    "address": "和歌山県和歌山市新和歌浦２番９号",
    "lat": 34.1858097,
    "lng": 135.1566875,
    "tel": "073-448-3335",
    "url": "www.horai-en.com",
    "pref": "和歌山県",
    "city": "和歌山市",
    "category": "community_day_service",
    "serviceType": "地域密着型通所介護",
    "capacity": 0,
    "openDays": [
      "平日",
      "祝日"
    ],
    "openDaysNote": ""
  },
  {
    "id": "3090101837",
    "name": "ポシブルわかやま楠見中",
    "kana": "ポシブルワカヤマクスミナカ",
    "address": "和歌山市楠見中188-1",
    "lat": 34.2534888,
    "lng": 135.1785322,
    "tel": "073-488-1730",
    "url": "https://www.possible-plus.co.jp/",
    "pref": "和歌山県",
    "city": "和歌山市",
    "category": "community_day_service",
    "serviceType": "地域密着型通所介護",
    "capacity": 0,
    "openDays": [
      "平日",
      "祝日"
    ],
    "openDaysNote": "・夏季休暇　８月１３日～８月１５日（改行）・年末年始　１２月３０日～１月３日"
  },
  {
    "id": "3090101506",
    "name": "まつい訪問看護ステーション　メイプル",
    "kana": "マツイホウモンカンゴステーション　メイプル",
    "address": "和歌山県和歌山市西浜１２２３－１８",
    "lat": 34.1967239377656,
    "lng": 135.15445185228,
    "tel": "073-488-9551",
    "url": "http://matsui-houmonkango.co.jp/",
    "pref": "和歌山県",
    "city": "和歌山市",
    "category": "community_day_service",
    "serviceType": "地域密着型通所介護",
    "capacity": 0,
    "openDays": [
      "平日",
      "祝日"
    ],
    "openDaysNote": ""
  },
  {
    "id": "3070109701",
    "name": "ユア・デイサービス",
    "kana": "ユア・デイサービス",
    "address": "小雑賀１３４－５",
    "lat": 34.2035621,
    "lng": 135.1827635,
    "tel": "073-421-8515",
    "url": "",
    "pref": "和歌山県",
    "city": "和歌山市",
    "category": "community_day_service",
    "serviceType": "地域密着型通所介護",
    "capacity": 10,
    "openDays": [
      "平日",
      "祝日"
    ],
    "openDaysNote": "年末年始は１２／２９～翌年１／３までお休みさせていただきます。"
  },
  {
    "id": "3070109644",
    "name": "よっといで三木町",
    "kana": "ヨットイデミキマチ",
    "address": "和歌山市南材木町2丁目14番地",
    "lat": 34.2282202,
    "lng": 135.1821879,
    "tel": "073-435-0818",
    "url": "https://www.pasona-lc.jp/",
    "pref": "和歌山県",
    "city": "和歌山市",
    "category": "community_day_service",
    "serviceType": "地域密着型通所介護",
    "capacity": 18,
    "openDays": [
      "平日",
      "土曜日",
      "祝日"
    ],
    "openDaysNote": ""
  },
  {
    "id": "3090101761",
    "name": "より処デイサービス塩屋",
    "kana": "ヨリドコロデイサービスシオヤ",
    "address": "和歌山県和歌山市塩屋３丁目２－２１",
    "lat": 34.199927968109,
    "lng": 135.174471098148,
    "tel": "073-499-6400",
    "url": "",
    "pref": "和歌山県",
    "city": "和歌山市",
    "category": "community_day_service",
    "serviceType": "地域密着型通所介護",
    "capacity": 0,
    "openDays": [
      "平日",
      "土曜日",
      "日曜日",
      "祝日"
    ],
    "openDaysNote": ""
  },
  {
    "id": "3070109727",
    "name": "りはびりデイ長寿館",
    "kana": "リハビリデイチョウジュカン",
    "address": "和歌山県和歌山市神前194-5",
    "lat": 34.215950465846,
    "lng": 135.204290037296,
    "tel": "073-499-6313",
    "url": "http://care-net.biz/30/marix",
    "pref": "和歌山県",
    "city": "和歌山市",
    "category": "community_day_service",
    "serviceType": "地域密着型通所介護",
    "capacity": 0,
    "openDays": [
      "平日",
      "祝日"
    ],
    "openDaysNote": "（午前）9：00～12：00、（午後）13：30～16：30　の　1日2回の運営"
  },
  {
    "id": "3090101654",
    "name": "リハビリテーションデイサービス紀のいえ",
    "kana": "リハビリテーションデイサービスキノイエ",
    "address": "園部416-11小林ビル105 小林ビル105",
    "lat": null,
    "lng": null,
    "tel": "073-480-5110",
    "url": "https://kinoie-wakayama.jimdofree.com",
    "pref": "和歌山県",
    "city": "和歌山市",
    "category": "community_day_service",
    "serviceType": "地域密着型通所介護",
    "capacity": 0,
    "openDays": [
      "平日",
      "祝日"
    ],
    "openDaysNote": ""
  },
  {
    "id": "3090101662",
    "name": "リハビリテーションデイサービス紀のいえぷらす",
    "kana": "リハビリテーションデイサービスキノイエプラス",
    "address": "和歌山市園部1360-5",
    "lat": 34.2589506,
    "lng": 135.1951725,
    "tel": "073-462-0611",
    "url": "https://kinoie-wakayama.jimdofree.com",
    "pref": "和歌山県",
    "city": "和歌山市",
    "category": "community_day_service",
    "serviceType": "地域密着型通所介護",
    "capacity": 0,
    "openDays": [
      "平日",
      "祝日"
    ],
    "openDaysNote": ""
  },
  {
    "id": "3070109461",
    "name": "リハビリテーション倶楽部ひかり",
    "kana": "リハビリテーションクラブヒカリ",
    "address": "和歌山県和歌山市和歌浦南2丁目3-11",
    "lat": 34.1877880235606,
    "lng": 135.167251746033,
    "tel": "073-499-8992",
    "url": "http://rehabilitation-hikari.com",
    "pref": "和歌山県",
    "city": "和歌山市",
    "category": "community_day_service",
    "serviceType": "地域密着型通所介護",
    "capacity": 18,
    "openDays": [
      "平日",
      "祝日"
    ],
    "openDaysNote": "曜日・時間帯にも相談可能です。"
  },
  {
    "id": "3090101134",
    "name": "リハビリ特化型デイサービススマイルラボ和歌浦",
    "kana": "リハビリトッカガタデイサービススマイルラボワカウラ",
    "address": "和歌山県和歌山市和歌浦東３丁目１－１６",
    "lat": 34.1899802283707,
    "lng": 135.175337442853,
    "tel": "073-488-4001",
    "url": "http://smilelabo-wakaura.com/",
    "pref": "和歌山県",
    "city": "和歌山市",
    "category": "community_day_service",
    "serviceType": "地域密着型通所介護",
    "capacity": 0,
    "openDays": [
      "平日",
      "土曜日",
      "祝日"
    ],
    "openDaysNote": "年末年始休みあり（一週間）"
  },
  {
    "id": "3070110519",
    "name": "リハビリ特化型デイサービスリハいち",
    "kana": "リハビリトッカガタデイサービスリハイチ",
    "address": "和歌山県和歌山市宇治鉄砲場112フジコーポ1F フジコーポ1F",
    "lat": 34.2429601,
    "lng": 135.1749659,
    "tel": "073-499-4536",
    "url": "http://axis-support.com/",
    "pref": "和歌山県",
    "city": "和歌山市",
    "category": "community_day_service",
    "serviceType": "地域密着型通所介護",
    "capacity": 18,
    "openDays": [
      "平日",
      "土曜日"
    ],
    "openDaysNote": "・一日２部制でのｻｰﾋﾞｽ提供（午後の部は13:30〜16:30）（改行）・夏期休暇(8/13～8/15)、年末年始(12/29の午後～1/3)"
  },
  {
    "id": "3090101373",
    "name": "リハビリ特化型デイサービス蒲輪の里",
    "kana": "リハビリトッカガタデイサービスホリンノサト",
    "address": "和歌山県和歌山市西浜1270-1",
    "lat": 34.1991222822219,
    "lng": 135.154955621532,
    "tel": "073-488-3373",
    "url": "https://www.horinnosato.com",
    "pref": "和歌山県",
    "city": "和歌山市",
    "category": "community_day_service",
    "serviceType": "地域密着型通所介護",
    "capacity": 0,
    "openDays": [
      "平日",
      "祝日"
    ],
    "openDaysNote": ""
  },
  {
    "id": "3090101696",
    "name": "わかうら園デイサービスセンター",
    "kana": "ワカウラエンデイサービスセンター",
    "address": "和歌山市田野178番地",
    "lat": 34.1858876503641,
    "lng": 135.150065074869,
    "tel": "073-445-2277",
    "url": "wakaurakai.or.jp",
    "pref": "和歌山県",
    "city": "和歌山市",
    "category": "community_day_service",
    "serviceType": "地域密着型通所介護",
    "capacity": null,
    "openDays": [
      "平日",
      "土曜日",
      "祝日"
    ],
    "openDaysNote": ""
  },
  {
    "id": "3090101159",
    "name": "わくわくMOTHERデイ・ホーム",
    "kana": "ワクワクマバーデイホーム",
    "address": "和歌山市向167番地",
    "lat": 34.2569942,
    "lng": 135.1442007,
    "tel": "073-496-2576",
    "url": "",
    "pref": "和歌山県",
    "city": "和歌山市",
    "category": "community_day_service",
    "serviceType": "地域密着型通所介護",
    "capacity": 10,
    "openDays": [
      "平日",
      "土曜日",
      "祝日"
    ],
    "openDaysNote": ""
  },
  {
    "id": "3090101555",
    "name": "わくわくMOTHERデイホーム北島",
    "kana": "ワクワクマザーデイホームキタジマ",
    "address": "和歌山県和歌山市北島468-8",
    "lat": 34.2373208,
    "lng": 135.1551957,
    "tel": "073-418-0907",
    "url": "",
    "pref": "和歌山県",
    "city": "和歌山市",
    "category": "community_day_service",
    "serviceType": "地域密着型通所介護",
    "capacity": 10,
    "openDays": [
      "平日",
      "祝日"
    ],
    "openDaysNote": "ゴールデンウイークや夏季休暇（お盆休み）は随時、ひと月前には報告します。"
  },
  {
    "id": "3090101498",
    "name": "医療法人　甃友会　リハビリ・フィットネス型デイサービス　ＢＬＩＳＳ　ＭＯＲＥ",
    "kana": "イリョウホウジン　シュウユウカイ　リハビリ・フィットネスガタデイサービス　ブリス　モア",
    "address": "和歌山県和歌山市米屋町３番地ぶらくり丁ブリスビル１階 ぶらくり丁ブリスビル１階",
    "lat": 34.2337504,
    "lng": 135.1755355,
    "tel": "073-494-6262",
    "url": "http://www.bliss-burakuri.com/",
    "pref": "和歌山県",
    "city": "和歌山市",
    "category": "community_day_service",
    "serviceType": "地域密着型通所介護",
    "capacity": null,
    "openDays": [
      "平日",
      "祝日"
    ],
    "openDaysNote": "AM9：00～12：00　PM13：30～16：30の二部制"
  },
  {
    "id": "3090101464",
    "name": "一織庵デイサービス安原",
    "kana": "イオリアンデイサービスヤスハラ",
    "address": "桑山157-1",
    "lat": null,
    "lng": null,
    "tel": "073-488-6444",
    "url": "",
    "pref": "和歌山県",
    "city": "和歌山市",
    "category": "community_day_service",
    "serviceType": "地域密着型通所介護",
    "capacity": null,
    "openDays": [
      "平日",
      "土曜日",
      "日曜日",
      "祝日"
    ],
    "openDaysNote": ""
  },
  {
    "id": "3070111103",
    "name": "一織庵デイサービス秋月",
    "kana": "イオリアンデイサービスアキヅキ",
    "address": "和歌山県和歌山市秋月95-9",
    "lat": 34.2340257,
    "lng": 135.2038442,
    "tel": "073-499-7095",
    "url": "http://ameblo.jp/sawa-arimoto/",
    "pref": "和歌山県",
    "city": "和歌山市",
    "category": "community_day_service",
    "serviceType": "地域密着型通所介護",
    "capacity": 0,
    "openDays": [
      "平日",
      "土曜日",
      "日曜日",
      "祝日"
    ],
    "openDaysNote": ""
  },
  {
    "id": "3070111129",
    "name": "一織庵デイサービス直川",
    "kana": "イオリアンデイサービスノウガワ",
    "address": "和歌山県和歌山市府中18-1",
    "lat": 34.2634653,
    "lng": 135.223909,
    "tel": "073-488-2877",
    "url": "",
    "pref": "和歌山県",
    "city": "和歌山市",
    "category": "community_day_service",
    "serviceType": "地域密着型通所介護",
    "capacity": 18,
    "openDays": [
      "平日",
      "土曜日",
      "日曜日",
      "祝日"
    ],
    "openDaysNote": ""
  },
  {
    "id": "3010110827",
    "name": "河西診療所",
    "kana": "カセイシンリョウショ",
    "address": "和歌山市平井66-1",
    "lat": 34.2599361,
    "lng": 135.1660213,
    "tel": "073-451-6177",
    "url": "http://www.w-iryoseikyo.com/inst/kasei.html",
    "pref": "和歌山県",
    "city": "和歌山市",
    "category": "community_day_service",
    "serviceType": "地域密着型通所介護",
    "capacity": 18,
    "openDays": [
      "平日",
      "土曜日"
    ],
    "openDaysNote": "土曜日の利用者がいない場合はお休みします。"
  },
  {
    "id": "3090101332",
    "name": "学校法人　響和会",
    "kana": "ガッコウホウジン　キョウワカイ",
    "address": "和歌山県和歌山市北野229番地2",
    "lat": 34.2646299,
    "lng": 135.2440178,
    "tel": "073-462-0300",
    "url": "http://www.kyowa.ac.jp",
    "pref": "和歌山県",
    "city": "和歌山市",
    "category": "community_day_service",
    "serviceType": "地域密着型通所介護",
    "capacity": 18,
    "openDays": [
      "平日",
      "土曜日"
    ],
    "openDaysNote": ""
  },
  {
    "id": "3090101829",
    "name": "楽しみやデイ和歌山",
    "kana": "タノシミヤデイワカヤマ",
    "address": "和歌山県和歌山市北島58-3",
    "lat": 34.2438767,
    "lng": 135.160878,
    "tel": "073-488-2715",
    "url": "",
    "pref": "和歌山県",
    "city": "和歌山市",
    "category": "community_day_service",
    "serviceType": "地域密着型通所介護",
    "capacity": null,
    "openDays": [
      "平日",
      "祝日"
    ],
    "openDaysNote": "営業日は月曜日から金曜日まで（祝日含む）（改行）ただし、12月31日から1月3日までを除く。"
  },
  {
    "id": "3070107218",
    "name": "株式会社やすらぎ介護事業部",
    "kana": "カブシキガイシャヤスラギカイゴジギョウブ",
    "address": "和歌山市府中１０５－１",
    "lat": 34.2665761,
    "lng": 135.2222619,
    "tel": "073-464-0770",
    "url": "",
    "pref": "和歌山県",
    "city": "和歌山市",
    "category": "community_day_service",
    "serviceType": "地域密着型通所介護",
    "capacity": 0,
    "openDays": [
      "平日",
      "土曜日",
      "祝日"
    ],
    "openDaysNote": ""
  },
  {
    "id": "3070111475",
    "name": "機能訓練＆ケアデイサービスエイル",
    "kana": "キノウクンレンアンドケアデイサービスエイル",
    "address": "和歌山県和歌山市六十谷180-22",
    "lat": 34.2607622,
    "lng": 135.2050714,
    "tel": "073-499-8522",
    "url": "www.sakai-sekkotsu.jp",
    "pref": "和歌山県",
    "city": "和歌山市",
    "category": "community_day_service",
    "serviceType": "地域密着型通所介護",
    "capacity": 75,
    "openDays": [
      "平日",
      "土曜日"
    ],
    "openDaysNote": ""
  },
  {
    "id": "3090101381",
    "name": "紀風苑デイサービスふうど",
    "kana": "キフウエンデイサービスフウド",
    "address": "岩橋１２７１－１風土記の丘診療所１階 風土記の丘診療所１階",
    "lat": 34.2303534,
    "lng": 135.2289889,
    "tel": "073-499-7812",
    "url": "https://www.kifuen.net/fuudo/",
    "pref": "和歌山県",
    "city": "和歌山市",
    "category": "community_day_service",
    "serviceType": "地域密着型通所介護",
    "capacity": null,
    "openDays": [
      "平日"
    ],
    "openDaysNote": ""
  },
  {
    "id": "3070107283",
    "name": "輝楽魂やすらぎの家",
    "kana": "キラタマシイヤスラギノイエ",
    "address": "和歌山市北出島87－7メゾンタニアイ8・10号 メゾンタニアイ8・10号",
    "lat": 34.2198193535598,
    "lng": 135.192297215448,
    "tel": "073-419-1821",
    "url": "",
    "pref": "和歌山県",
    "city": "和歌山市",
    "category": "community_day_service",
    "serviceType": "地域密着型通所介護",
    "capacity": 10,
    "openDays": [
      "平日",
      "土曜日",
      "祝日"
    ],
    "openDaysNote": "サービス提供時間は09：00～17：00（改行）但し個人の要望により営業時間内でのサービス提供は可能ですので、お問い合わせください"
  },
  {
    "id": "3070101237",
    "name": "君里苑デイサービスセンター",
    "kana": "キミサトエンデイサービスセンター",
    "address": "和歌山市木ノ本権現山1837番地の1",
    "lat": 34.2652609358434,
    "lng": 135.130049782478,
    "tel": "073-454-9820",
    "url": "http://www.medi-wel.jp/",
    "pref": "和歌山県",
    "city": "和歌山市",
    "category": "community_day_service",
    "serviceType": "地域密着型通所介護",
    "capacity": null,
    "openDays": [
      "平日",
      "土曜日",
      "祝日"
    ],
    "openDaysNote": "１２月３０日から１月３日までを休みとする。"
  },
  {
    "id": "3070109180",
    "name": "憩いの郷　デイサービス",
    "kana": "イコイノサト　デイサービス",
    "address": "三葛243憩いの郷　紀三井寺 憩いの郷　紀三井寺",
    "lat": 34.191958,
    "lng": 135.186005,
    "tel": "073-445-4151",
    "url": "",
    "pref": "和歌山県",
    "city": "和歌山市",
    "category": "community_day_service",
    "serviceType": "地域密着型通所介護",
    "capacity": 0,
    "openDays": [
      "平日",
      "祝日"
    ],
    "openDaysNote": ""
  },
  {
    "id": "3070105873",
    "name": "今福いきいきデイサービス",
    "kana": "イマフクイキイキデイサービス",
    "address": "和歌山県和歌山市今福3丁目5-10",
    "lat": 34.2112884,
    "lng": 135.164284,
    "tel": "073-425-8008",
    "url": "",
    "pref": "和歌山県",
    "city": "和歌山市",
    "category": "community_day_service",
    "serviceType": "地域密着型通所介護",
    "capacity": 10,
    "openDays": [
      "平日",
      "祝日"
    ],
    "openDaysNote": ""
  },
  {
    "id": "3070103597",
    "name": "彩友",
    "kana": "サイユウ",
    "address": "和歌山県和歌山市鳴神870-1",
    "lat": 34.2366337738508,
    "lng": 135.209551131877,
    "tel": "073-475-8088",
    "url": "",
    "pref": "和歌山県",
    "city": "和歌山市",
    "category": "community_day_service",
    "serviceType": "地域密着型通所介護",
    "capacity": 18,
    "openDays": [
      "平日",
      "土曜日",
      "祝日"
    ],
    "openDaysNote": ""
  },
  {
    "id": "3070100551",
    "name": "桜園",
    "kana": "サクラエン",
    "address": "和歌山県和歌山市紀三井寺437ー1",
    "lat": 34.1767166243775,
    "lng": 135.188593203346,
    "tel": "073-441-6426",
    "url": "http://w-sakuraen.com",
    "pref": "和歌山県",
    "city": "和歌山市",
    "category": "community_day_service",
    "serviceType": "地域密着型通所介護",
    "capacity": 0,
    "openDays": [
      "平日",
      "土曜日",
      "祝日"
    ],
    "openDaysNote": "年末年始　12/30～1/3休み"
  },
  {
    "id": "3070109800",
    "name": "自遊会園部デイサービス",
    "kana": "ジユウカイソノベデイサービス",
    "address": "和歌山県和歌山市園部1218-75",
    "lat": 34.2548428,
    "lng": 135.1875339,
    "tel": "734620110",
    "url": "",
    "pref": "和歌山県",
    "city": "和歌山市",
    "category": "community_day_service",
    "serviceType": "地域密着型通所介護",
    "capacity": 0,
    "openDays": [
      "平日",
      "土曜日",
      "祝日"
    ],
    "openDaysNote": ""
  },
  {
    "id": "3090101415",
    "name": "寿寿ソーラス",
    "kana": "ジュジュソーラス",
    "address": "和歌山県和歌山市福島898番6",
    "lat": 34.2461099,
    "lng": 135.1639623,
    "tel": "073-499-6619",
    "url": "http://www.hukumikai.jp/",
    "pref": "和歌山県",
    "city": "和歌山市",
    "category": "community_day_service",
    "serviceType": "地域密着型通所介護",
    "capacity": null,
    "openDays": [
      "平日",
      "土曜日",
      "祝日"
    ],
    "openDaysNote": ""
  },
  {
    "id": "3070109735",
    "name": "吹屋町デイサービス園",
    "kana": "フキヤチョウデイサービスエン",
    "address": "和歌山県和歌山市吹屋町二丁目６９－１",
    "lat": 53.41291,
    "lng": -8.24388999999996,
    "tel": "073-488-4440",
    "url": "",
    "pref": "和歌山県",
    "city": "和歌山市",
    "category": "community_day_service",
    "serviceType": "地域密着型通所介護",
    "capacity": 0,
    "openDays": [
      "平日",
      "土曜日",
      "日曜日",
      "祝日"
    ],
    "openDaysNote": ""
  },
  {
    "id": "3010111148",
    "name": "生協芦原診療所",
    "kana": "セイキョウアシハラシンリョウショ",
    "address": "和歌山市雄松町２－５５",
    "lat": 34.2218155,
    "lng": 135.1826852,
    "tel": "073-423-4349",
    "url": "",
    "pref": "和歌山県",
    "city": "和歌山市",
    "category": "community_day_service",
    "serviceType": "地域密着型通所介護",
    "capacity": 0,
    "openDays": [
      "平日",
      "土曜日"
    ],
    "openDaysNote": ""
  },
  {
    "id": "3070107572",
    "name": "大日倶楽部ヒメジオン",
    "kana": "ダイニチクラブヒメジオン",
    "address": "和歌山県和歌山市吉田４２３番地",
    "lat": 34.2355224,
    "lng": 135.1899787,
    "tel": "073-432-8001",
    "url": "http://www.jukeikai.jp",
    "pref": "和歌山県",
    "city": "和歌山市",
    "category": "community_day_service",
    "serviceType": "地域密着型通所介護",
    "capacity": 18,
    "openDays": [
      "平日",
      "土曜日",
      "祝日"
    ],
    "openDaysNote": ""
  },
  {
    "id": "3070101062",
    "name": "第二親和園　デイサービスセンター",
    "kana": "ダイニシンワエンデイサービスセンター",
    "address": "和歌山市杭ノ瀬462-2特別養護老人ホーム第二親和園 特別養護老人ホーム第二親和園",
    "lat": 34.2021291,
    "lng": 135.1897102,
    "tel": "073-474-0552",
    "url": "http://shinwaen.jp/",
    "pref": "和歌山県",
    "city": "和歌山市",
    "category": "community_day_service",
    "serviceType": "地域密着型通所介護",
    "capacity": 18,
    "openDays": [
      "平日",
      "土曜日"
    ],
    "openDaysNote": "年末年始についてはその年により定休日の変動あり。"
  },
  {
    "id": "3070109081",
    "name": "地域密着型デイサービスぴゅあ",
    "kana": "チイキミッチャクガタデイサービスピュア",
    "address": "和歌山市下和佐441",
    "lat": 34.2302516,
    "lng": 135.2368001,
    "tel": "073-477-7273",
    "url": "",
    "pref": "和歌山県",
    "city": "和歌山市",
    "category": "community_day_service",
    "serviceType": "地域密着型通所介護",
    "capacity": 0,
    "openDays": [
      "平日",
      "祝日"
    ],
    "openDaysNote": "居宅サービス計画などにより、休業日や時間外であってもサービスの提供をする場合があります。（改行）ご相談ください。"
  },
  {
    "id": "3090101431",
    "name": "特化型デイサービス湊リハ",
    "kana": "トッカガタデイサービスミナトリハ",
    "address": "和歌山県和歌山市湊1丁目8番33号",
    "lat": 34.2358805,
    "lng": 135.1503094,
    "tel": "073-453-0765",
    "url": "",
    "pref": "和歌山県",
    "city": "和歌山市",
    "category": "community_day_service",
    "serviceType": "地域密着型通所介護",
    "capacity": 10,
    "openDays": [
      "平日"
    ],
    "openDaysNote": "8月13日から15日、12月29日から1月4日までは休業"
  },
  {
    "id": "3070107580",
    "name": "北浦デイサービス",
    "kana": "キタウラデイサービス",
    "address": "和歌山県和歌山市森小手穂７３８－３",
    "lat": 34.2092833691313,
    "lng": 135.223816176032,
    "tel": "０７３－４６０－４９１５",
    "url": "",
    "pref": "和歌山県",
    "city": "和歌山市",
    "category": "community_day_service",
    "serviceType": "地域密着型通所介護",
    "capacity": 0,
    "openDays": [
      "平日"
    ],
    "openDaysNote": ""
  },
  {
    "id": "3070107069",
    "name": "本町デイサービスセンターしあわせ",
    "kana": "ホンマチデイサービスセンターシアワセ",
    "address": "和歌山市北新博労町８－４",
    "lat": 34.2401133,
    "lng": 135.1782657,
    "tel": "073-422-1519",
    "url": "http://www.shiawase-kaigo.or.jp",
    "pref": "和歌山県",
    "city": "和歌山市",
    "category": "community_day_service",
    "serviceType": "地域密着型通所介護",
    "capacity": 0,
    "openDays": [
      "平日",
      "土曜日",
      "祝日"
    ],
    "openDaysNote": "年末年始（１２／３０～１／３）は休日"
  },
  {
    "id": "3090101167",
    "name": "湊ﾘﾊﾋﾞﾘﾃﾞｲｻｰﾋﾞｽひぐち",
    "kana": "ミナトリハビリデイサービスヒグチ",
    "address": "和歌山県和歌山市湊1丁目８－１３",
    "lat": 34.2350131,
    "lng": 135.1501069,
    "tel": "073-453-0776",
    "url": "",
    "pref": "和歌山県",
    "city": "和歌山市",
    "category": "community_day_service",
    "serviceType": "地域密着型通所介護",
    "capacity": 7,
    "openDays": [
      "平日",
      "土曜日",
      "祝日"
    ],
    "openDaysNote": ""
  },
  {
    "id": "3090101811",
    "name": "和歌山市布施屋５５７番地１７",
    "kana": "ワカヤマシホシヤ",
    "address": "和歌山県和歌山市布施屋５５７番地１７",
    "lat": 34.2454498,
    "lng": 135.2648126,
    "tel": "073-463-7520",
    "url": "https://colors7716.com/",
    "pref": "和歌山県",
    "city": "和歌山市",
    "category": "community_day_service",
    "serviceType": "地域密着型通所介護",
    "capacity": null,
    "openDays": [
      "平日",
      "祝日"
    ],
    "openDaysNote": ""
  }
]