[
  {
    "id": "1176508495",
    "name": "さくら倶楽部",
    "kana": "サクラクラブ",
    "address": "埼玉県さいたま市浦和区上木崎６－９－３",
    "lat": 35.8832599,
    "lng": 139.6516226,
    "tel": "080-1295-1744",
    "url": "http://www.net-sakura.jp",
    "pref": "埼玉県",
    "city": "さいたま市浦和区",
    "category": "community_day_service",
    "serviceType": "地域密着型通所介護",
    "capacity": 18,
    "openDays": [
      "平日"
    ],
    "openDaysNote": ""
  },
  {
    "id": "1176508131",
    "name": "だんらんの家　浦和",
    "kana": "ダンランノイエ　ウラワ",
    "address": "さいたま市浦和区常盤５－１３－１６",
    "lat": 35.8652039,
    "lng": 139.647082,
    "tel": "048-762-9500",
    "url": "www.danrannoie.com",
    "pref": "埼玉県",
    "city": "さいたま市浦和区",
    "category": "community_day_service",
    "serviceType": "地域密着型通所介護",
    "capacity": 0,
    "openDays": [
      "平日",
      "土曜日",
      "日曜日",
      "祝日"
    ],
    "openDaysNote": "２４時間３６５日、年中無休。"
  },
  {
    "id": "1176508198",
    "name": "デイサロンまちや",
    "kana": "デイサロンマチヤ",
    "address": "埼玉県さいたま市浦和区本太3-1-14",
    "lat": 35.8639671,
    "lng": 139.6541568,
    "tel": "488135106",
    "url": "http://www.fc-machiya.jp/",
    "pref": "埼玉県",
    "city": "さいたま市浦和区",
    "category": "community_day_service",
    "serviceType": "地域密着型通所介護",
    "capacity": 0,
    "openDays": [
      "平日"
    ],
    "openDaysNote": ""
  },
  {
    "id": "1176510111",
    "name": "デイハウス　さくらんぼめんそーれ",
    "kana": "デイハウス　サクランボメンソーレ",
    "address": "埼玉県　さいたま市　浦和区　本太　5-32-14",
    "lat": 35.8676914,
    "lng": 139.660664,
    "tel": "488297915",
    "url": "",
    "pref": "埼玉県",
    "city": "さいたま市浦和区",
    "category": "community_day_service",
    "serviceType": "地域密着型通所介護",
    "capacity": 0,
    "openDays": [
      "平日",
      "土曜日",
      "祝日"
    ],
    "openDaysNote": "ご希望の方には19時までの延長利用あり。月～木"
  },
  {
    "id": "1176513248",
    "name": "ヘルシーステーションＮＯＡＨ",
    "kana": "ヘルシーステーションノア",
    "address": "埼玉県さいたま市浦和区仲町２－１７－１中島ビル１０１ 中島ビル１０１",
    "lat": 35.8595341,
    "lng": 139.6517653,
    "tel": "048-825-2727",
    "url": "",
    "pref": "埼玉県",
    "city": "さいたま市浦和区",
    "category": "community_day_service",
    "serviceType": "地域密着型通所介護",
    "capacity": 100,
    "openDays": [
      "平日",
      "土曜日",
      "祝日"
    ],
    "openDaysNote": "お盆、年末年始は定休日"
  },
  {
    "id": "1176509097",
    "name": "リハビリデイサービスnagomi浦和店",
    "kana": "リハビリデイサービスナゴミウラワテン",
    "address": "埼玉県さいたま市浦和区常盤5-5-2",
    "lat": 35.8605682,
    "lng": 139.6486514,
    "tel": "048-789-6235",
    "url": "http://www.my-nagomi.com",
    "pref": "埼玉県",
    "city": "さいたま市浦和区",
    "category": "community_day_service",
    "serviceType": "地域密着型通所介護",
    "capacity": 150,
    "openDays": [
      "平日",
      "祝日"
    ],
    "openDaysNote": "別途に法人の定める休日あり"
  },
  {
    "id": "1176506895",
    "name": "アリス・デイサービス",
    "kana": "アリス・デイサービス",
    "address": "さいたま市岩槻区城南１－６－５３－９",
    "lat": 35.9401067,
    "lng": 139.7014438,
    "tel": "048-798-6432",
    "url": "http://arisutanaka.web.fc2.com/",
    "pref": "埼玉県",
    "city": "さいたま市岩槻区",
    "category": "community_day_service",
    "serviceType": "地域密着型通所介護",
    "capacity": 0,
    "openDays": [
      "平日",
      "土曜日",
      "祝日"
    ],
    "openDaysNote": ""
  },
  {
    "id": "1176514634",
    "name": "だんらんの家岩槻",
    "kana": "ダンランノイエイワツキ",
    "address": "埼玉県さいたま市岩槻区本町6-5-19",
    "lat": 35.9495804,
    "lng": 139.70126,
    "tel": "048-878-9772",
    "url": "https://danrannoie.com/home/iwatsuki.html",
    "pref": "埼玉県",
    "city": "さいたま市岩槻区",
    "category": "community_day_service",
    "serviceType": "地域密着型通所介護",
    "capacity": 10,
    "openDays": [
      "平日",
      "土曜日",
      "日曜日",
      "祝日"
    ],
    "openDaysNote": "7：00〜8：59（改行）17：05〜19：00（改行）時間延長サービス時間帯"
  },
  {
    "id": "1170700130",
    "name": "社会福祉法人春秋会松鶴園",
    "kana": "シャカイフクシホウジンシュンジュウカイショウカクエン",
    "address": "さいたま市岩槻区大字古ケ場11番地",
    "lat": 35.9803537,
    "lng": 139.6966727,
    "tel": "048-795-2201",
    "url": "https://syoukakuen.jp/",
    "pref": "埼玉県",
    "city": "さいたま市岩槻区",
    "category": "community_day_service",
    "serviceType": "地域密着型通所介護",
    "capacity": 0,
    "openDays": [
      "平日"
    ],
    "openDaysNote": ""
  },
  {
    "id": "1176511853",
    "name": "GENKINEXT東大宮",
    "kana": "ゲンキネクストヒガシオオミヤ",
    "address": "埼玉県さいたま市見沼区東大宮１－１１－１３",
    "lat": 35.9436154,
    "lng": 139.6403497,
    "tel": "０４８－８８４－８７２７",
    "url": "http://www.medicalassist‐s.com",
    "pref": "埼玉県",
    "city": "さいたま市見沼区",
    "category": "community_day_service",
    "serviceType": "地域密着型通所介護",
    "capacity": 0,
    "openDays": [
      "平日",
      "祝日"
    ],
    "openDaysNote": ""
  },
  {
    "id": "1196501090",
    "name": "だんらんの家大和田町",
    "kana": "ダンランノイエオオワダチョウ",
    "address": "埼玉県さいたま市見沼区大和田町1-1032-2",
    "lat": 35.9259946915783,
    "lng": 139.649342310451,
    "tel": "048-878-9507",
    "url": "https://danrannoie.com/home/owada.html",
    "pref": "埼玉県",
    "city": "さいたま市見沼区",
    "category": "community_day_service",
    "serviceType": "地域密着型通所介護",
    "capacity": 10,
    "openDays": [
      "平日",
      "土曜日",
      "日曜日",
      "祝日"
    ],
    "openDaysNote": "7：00〜8：29（改行）17：01〜19：00（改行）時間延長サービス時間帯"
  },
  {
    "id": "1176512877",
    "name": "デイサービス　三日月",
    "kana": "デイサービス　ミカヅキ",
    "address": "埼玉県さいたま市見沼区大和田町2丁目１５５３－１９",
    "lat": 35.9358612,
    "lng": 139.6482131,
    "tel": "０４８－７９５－９３９３",
    "url": "",
    "pref": "埼玉県",
    "city": "さいたま市見沼区",
    "category": "community_day_service",
    "serviceType": "地域密着型通所介護",
    "capacity": 10,
    "openDays": [
      "平日",
      "土曜日",
      "祝日"
    ],
    "openDaysNote": ""
  },
  {
    "id": "1196501058",
    "name": "デイサービスありがたい大宮",
    "kana": "デイサービスアリガタイオオミヤ",
    "address": "埼玉県さいたま市見沼区東新井311-3",
    "lat": 35.9097625,
    "lng": 139.6689242,
    "tel": "048-797-9392",
    "url": "https://arigatai.org/",
    "pref": "埼玉県",
    "city": "さいたま市見沼区",
    "category": "community_day_service",
    "serviceType": "地域密着型通所介護",
    "capacity": 5,
    "openDays": [
      "平日",
      "土曜日",
      "祝日"
    ],
    "openDaysNote": ""
  },
  {
    "id": "1176511804",
    "name": "デイサービスゆかり",
    "kana": "デイサービスユカリ",
    "address": "さいたま市見沼区春岡3-26-13",
    "lat": 35.9502836249099,
    "lng": 139.657892940475,
    "tel": "048-878-8762",
    "url": "https://medicalassist-s.com/",
    "pref": "埼玉県",
    "city": "さいたま市見沼区",
    "category": "community_day_service",
    "serviceType": "地域密着型通所介護",
    "capacity": 0,
    "openDays": [
      "平日",
      "土曜日",
      "日曜日",
      "祝日"
    ],
    "openDaysNote": ""
  },
  {
    "id": "1176513354",
    "name": "ぷらす",
    "kana": "プラス",
    "address": "埼玉県さいたま市見沼区東門前351番地１",
    "lat": 35.9317735,
    "lng": 139.6729082,
    "tel": "０４８－７９７－７２０２",
    "url": "",
    "pref": "埼玉県",
    "city": "さいたま市見沼区",
    "category": "community_day_service",
    "serviceType": "地域密着型通所介護",
    "capacity": 0,
    "openDays": [
      "平日",
      "祝日"
    ],
    "openDaysNote": ""
  },
  {
    "id": "1176514360",
    "name": "デイサービス・ハレオル　ラナ",
    "kana": "デイサービス・ハレオル　ラナ",
    "address": "埼玉県さいたま市桜区西堀1-17-15岩﨑ビル1階 岩﨑ビル1階",
    "lat": 35.8559189979401,
    "lng": 139.635164785554,
    "tel": "048-829-7926",
    "url": "https://a-look-sac.com/",
    "pref": "埼玉県",
    "city": "さいたま市桜区",
    "category": "community_day_service",
    "serviceType": "地域密着型通所介護",
    "capacity": 10,
    "openDays": [
      "平日",
      "土曜日",
      "日曜日",
      "祝日"
    ],
    "openDaysNote": "年中無休"
  },
  {
    "id": "1176502258",
    "name": "ネヲハル　デイサービス田島",
    "kana": "ネヲハル　デイサービスタジマ",
    "address": "埼玉県さいたま市桜区田島４－９－８",
    "lat": 35.8496497,
    "lng": 139.6324087,
    "tel": "048-866-7200",
    "url": "http://www.neoharu.jp",
    "pref": "埼玉県",
    "city": "さいたま市桜区",
    "category": "community_day_service",
    "serviceType": "地域密着型通所介護",
    "capacity": 18,
    "openDays": [
      "平日",
      "土曜日",
      "祝日"
    ],
    "openDaysNote": ""
  },
  {
    "id": "1176513230",
    "name": "リハビリ俱楽部　楽",
    "kana": "リハビリクラブ　ラク",
    "address": "埼玉県さいたま市桜区神田236-1",
    "lat": 35.8735435,
    "lng": 139.6074657,
    "tel": "048-678-3195",
    "url": "http://forestfamily.jp",
    "pref": "埼玉県",
    "city": "さいたま市桜区",
    "category": "community_day_service",
    "serviceType": "地域密着型通所介護",
    "capacity": 360,
    "openDays": [
      "平日",
      "祝日"
    ],
    "openDaysNote": "祝日営業開始しています。"
  },
  {
    "id": "1176509857",
    "name": "健康倶楽部　楽",
    "kana": "ケンコウクラブ　ラク",
    "address": "さいたま市桜区五関820-1",
    "lat": 35.869202,
    "lng": 139.5976085,
    "tel": "048-678-2195",
    "url": "http://forestfamily.jp/",
    "pref": "埼玉県",
    "city": "さいたま市桜区",
    "category": "community_day_service",
    "serviceType": "地域密着型通所介護",
    "capacity": 240,
    "openDays": [
      "平日",
      "祝日"
    ],
    "openDaysNote": ""
  },
  {
    "id": "1196501322",
    "name": "だんらんの家　指扇",
    "kana": "ダンランノイエ　サシオウギ",
    "address": "埼玉県さいたま市西区指扇1118-36",
    "lat": 35.9106695,
    "lng": 139.5785136,
    "tel": "048-783-3440",
    "url": "https://danrannoie.com/sasiougi",
    "pref": "埼玉県",
    "city": "さいたま市西区",
    "category": "community_day_service",
    "serviceType": "地域密着型通所介護",
    "capacity": 10,
    "openDays": [
      "平日",
      "土曜日",
      "祝日"
    ],
    "openDaysNote": "天災害等により自治体からの避難命令及びその状況に匹敵する危険が予測される場合は臨時休業となる。"
  },
  {
    "id": "1176502308",
    "name": "デイサービス　楽しいわが家",
    "kana": "デイサービス　タノシイワガヤ",
    "address": "さいたま市西区西遊馬71-1",
    "lat": 35.9017147687286,
    "lng": 139.575045466951,
    "tel": "048-782-9073",
    "url": "https://www.t-wagaya.com",
    "pref": "埼玉県",
    "city": "さいたま市西区",
    "category": "community_day_service",
    "serviceType": "地域密着型通所介護",
    "capacity": 18,
    "openDays": [
      "平日",
      "土曜日",
      "祝日"
    ],
    "openDaysNote": "年末年始休日あり"
  },
  {
    "id": "1176509758",
    "name": "ロコモ介護予防デイサービス",
    "kana": "ロコモカイゴヨボウデイサービス",
    "address": "さいたま市西区三橋6丁目132-1",
    "lat": 35.9117069,
    "lng": 139.5866838,
    "tel": "048-621-0210",
    "url": "www.hattorigroup.jp",
    "pref": "埼玉県",
    "city": "さいたま市西区",
    "category": "community_day_service",
    "serviceType": "地域密着型通所介護",
    "capacity": 0,
    "openDays": [
      "平日",
      "土曜日"
    ],
    "openDaysNote": ""
  },
  {
    "id": "1176501730",
    "name": "光和堂通所介護",
    "kana": "コウワドウツウショカイゴ",
    "address": "埼玉県さいたま市西区指扇領別所３２６－１",
    "lat": 35.9187563,
    "lng": 139.566134,
    "tel": "048-625-6848",
    "url": "https://kowado.jpn.com",
    "pref": "埼玉県",
    "city": "さいたま市西区",
    "category": "community_day_service",
    "serviceType": "地域密着型通所介護",
    "capacity": 2,
    "openDays": [
      "平日",
      "土曜日",
      "祝日"
    ],
    "openDaysNote": ""
  },
  {
    "id": "1176512000",
    "name": "GENKI　NEXT　大宮浅間町",
    "kana": "ゲンキネクスト　オオミヤセンゲンチョウ",
    "address": "埼玉県さいたま市大宮区浅間町1-168-1D1ビル　１階 D1ビル　１階",
    "lat": 35.9052317,
    "lng": 139.6345008,
    "tel": "048-783-3272",
    "url": "http://kaigo-next.com/search/detail/851/",
    "pref": "埼玉県",
    "city": "さいたま市大宮区",
    "category": "community_day_service",
    "serviceType": "地域密着型通所介護",
    "capacity": 150,
    "openDays": [
      "平日",
      "祝日"
    ],
    "openDaysNote": ""
  },
  {
    "id": "1176509295",
    "name": "コンパスウォーク大宮西口",
    "kana": "コンパスウォークオオミヤニシグチ",
    "address": "埼玉県さいたま市大宮区上小町１１０６",
    "lat": 35.8996294,
    "lng": 139.6136414,
    "tel": "048-650-7116",
    "url": "http://www.kinoukaifuku.com/index.html",
    "pref": "埼玉県",
    "city": "さいたま市大宮区",
    "category": "community_day_service",
    "serviceType": "地域密着型通所介護",
    "capacity": 0,
    "openDays": [
      "平日",
      "祝日"
    ],
    "openDaysNote": "1単位目：9：00～12：05（改行）2単位目：13：30～16：35（改行）（改行）祝日は営業"
  },
  {
    "id": "1176513115",
    "name": "レッツ倶楽部　大宮櫛引",
    "kana": "レッツクラブ　オオミヤクシヒキ",
    "address": "埼玉県さいたま市大宮区櫛引1丁目661番地ＫＳ櫛引 ＫＳ櫛引",
    "lat": 35.9138937,
    "lng": 139.6082778,
    "tel": "048-871-7260",
    "url": "http://www.lets-club.jp/shop/omiyakushihiki/",
    "pref": "埼玉県",
    "city": "さいたま市大宮区",
    "category": "community_day_service",
    "serviceType": "地域密着型通所介護",
    "capacity": 18,
    "openDays": [
      "平日",
      "祝日"
    ],
    "openDaysNote": ""
  },
  {
    "id": "1196500753",
    "name": "上小町デイサービス１５１A",
    "kana": "カミコチョウデイサービスイチゴイチエ",
    "address": "上小町183-1",
    "lat": 35.9054174,
    "lng": 139.6105248,
    "tel": "048-783-2280",
    "url": "ｈｔｔｐ://www.ukoukoyao.com",
    "pref": "埼玉県",
    "city": "さいたま市大宮区",
    "category": "community_day_service",
    "serviceType": "地域密着型通所介護",
    "capacity": 40,
    "openDays": [
      "平日",
      "土曜日",
      "日曜日",
      "祝日"
    ],
    "openDaysNote": ""
  },
  {
    "id": "1176514816",
    "name": "大宮諏訪の苑デイサービスセンター",
    "kana": "オオミヤスワノエン　デイサービスセンター",
    "address": "埼玉県さいたま市大宮区三橋4-875-2",
    "lat": 35.890873,
    "lng": 139.6043345,
    "tel": "048-622-7300",
    "url": "http://suwanoen.jp",
    "pref": "埼玉県",
    "city": "さいたま市大宮区",
    "category": "community_day_service",
    "serviceType": "地域密着型通所介護",
    "capacity": 0,
    "openDays": [
      "平日",
      "祝日"
    ],
    "openDaysNote": "年末年始休み"
  },
  {
    "id": "1171500166",
    "name": "さいたま市上峰デイサービスセンター",
    "kana": "サイタマシウエミネデイサービスセンター",
    "address": "埼玉県さいたま市中央区上峰3-10-6",
    "lat": 35.8746937,
    "lng": 139.6209866,
    "tel": "048-856-4101",
    "url": "http://www.kirishiki.jp",
    "pref": "埼玉県",
    "city": "さいたま市中央区",
    "category": "community_day_service",
    "serviceType": "地域密着型通所介護",
    "capacity": 15,
    "openDays": [
      "平日",
      "祝日"
    ],
    "openDaysNote": ""
  },
  {
    "id": "1176511275",
    "name": "スマイルケアステーション",
    "kana": "スマイルケアステーション",
    "address": "埼玉県さいたま市中央区上落合3-4-15",
    "lat": 35.8902140803185,
    "lng": 139.625416419991,
    "tel": "048-711-3671",
    "url": "smile-care2525site",
    "pref": "埼玉県",
    "city": "さいたま市中央区",
    "category": "community_day_service",
    "serviceType": "地域密着型通所介護",
    "capacity": 0,
    "openDays": [
      "平日",
      "祝日"
    ],
    "openDaysNote": ""
  },
  {
    "id": "1176510418",
    "name": "だんらんの家　円阿弥",
    "kana": "ダンランノイエ　エンナミ",
    "address": "埼玉県さいたま市中央区円阿弥４－４－１",
    "lat": 35.8878806,
    "lng": 139.6070732,
    "tel": "048-762-6437",
    "url": "",
    "pref": "埼玉県",
    "city": "さいたま市中央区",
    "category": "community_day_service",
    "serviceType": "地域密着型通所介護",
    "capacity": 10,
    "openDays": [
      "平日",
      "土曜日",
      "日曜日",
      "祝日"
    ],
    "openDaysNote": "３６５日２４時間対応"
  },
  {
    "id": "1176513610",
    "name": "だんらんの家　北与野",
    "kana": "ダンランノイエ　キタヨノ",
    "address": "埼玉県さいたま市中央区下落合４－１－１６",
    "lat": 35.8869313,
    "lng": 139.6300297,
    "tel": "048-711-8535",
    "url": "",
    "pref": "埼玉県",
    "city": "さいたま市中央区",
    "category": "community_day_service",
    "serviceType": "地域密着型通所介護",
    "capacity": 10,
    "openDays": [
      "平日",
      "土曜日",
      "日曜日",
      "祝日"
    ],
    "openDaysNote": ""
  },
  {
    "id": "1176511549",
    "name": "デイサービス　ふあり",
    "kana": "デイサービス　フアリ",
    "address": "さいたま市中央区新中里2-9-38",
    "lat": 35.8716752653702,
    "lng": 139.633026218385,
    "tel": "048-709-0066",
    "url": "",
    "pref": "埼玉県",
    "city": "さいたま市中央区",
    "category": "community_day_service",
    "serviceType": "地域密着型通所介護",
    "capacity": 100,
    "openDays": [
      "平日",
      "祝日"
    ],
    "openDaysNote": ""
  },
  {
    "id": "1176514667",
    "name": "デイサロン　オルポノ",
    "kana": "デイサロン　オルポノ",
    "address": "埼玉県さいたま市中央区上落合1－9与野ハウス2号棟108 与野ハウス2号棟108",
    "lat": 35.889874180383,
    "lng": 139.629470968639,
    "tel": "048-755-9632",
    "url": "",
    "pref": "埼玉県",
    "city": "さいたま市中央区",
    "category": "community_day_service",
    "serviceType": "地域密着型通所介護",
    "capacity": 9,
    "openDays": [
      "平日",
      "祝日"
    ],
    "openDaysNote": ""
  },
  {
    "id": "1176507919",
    "name": "ひだまりの会デイサービス与野本町の家　弐番館",
    "kana": "ヒダマリノカイデイサービスヨノホンマチノイエ　ニバンカン",
    "address": "さいたま市中央区本町東4-17-6",
    "lat": 35.8866034,
    "lng": 139.6232524,
    "tel": "048-851-6612",
    "url": "https://nsf.co.jp",
    "pref": "埼玉県",
    "city": "さいたま市中央区",
    "category": "community_day_service",
    "serviceType": "地域密着型通所介護",
    "capacity": 0,
    "openDays": [
      "平日",
      "土曜日",
      "日曜日",
      "祝日"
    ],
    "openDaysNote": ""
  },
  {
    "id": "1176511622",
    "name": "幸皆歓おおと",
    "kana": "コウミンカンオオト",
    "address": "さいたま市中央区新中里2-4-5丸販本社ビル102 丸販本社ビル102",
    "lat": 35.8714603173909,
    "lng": 139.633219608127,
    "tel": "０４８－６７８－４１６５",
    "url": "",
    "pref": "埼玉県",
    "city": "さいたま市中央区",
    "category": "community_day_service",
    "serviceType": "地域密着型通所介護",
    "capacity": 18,
    "openDays": [
      "平日",
      "土曜日",
      "祝日"
    ],
    "openDaysNote": "祝日は営業。"
  },
  {
    "id": "1176513024",
    "name": "GENKINEXT西浦和",
    "kana": "ゲンキネクストニシウラワ",
    "address": "四谷1-6-24",
    "lat": 35.8407645,
    "lng": 139.6348005,
    "tel": "048-711-7741",
    "url": "https://kaigo-next.com/search/detail/871/",
    "pref": "埼玉県",
    "city": "さいたま市南区",
    "category": "community_day_service",
    "serviceType": "地域密着型通所介護",
    "capacity": 18,
    "openDays": [
      "平日",
      "祝日"
    ],
    "openDaysNote": "夏季休暇8/13～8/16（改行）冬期休暇12/30～1/3"
  },
  {
    "id": "1176513149",
    "name": "PlatinaSalon浦和南",
    "kana": "プラチナ　サロン　ウラワミナミ",
    "address": "埼玉県さいたま市南区南浦和2-4-2Mﾋﾞﾙ1F Mﾋﾞﾙ1F",
    "lat": 35.850664,
    "lng": 139.6693359,
    "tel": "048－711－7857",
    "url": "http://picoeve.wixsite.com/picoeve",
    "pref": "埼玉県",
    "city": "さいたま市南区",
    "category": "community_day_service",
    "serviceType": "地域密着型通所介護",
    "capacity": 10,
    "openDays": [
      "平日",
      "土曜日",
      "祝日"
    ],
    "openDaysNote": ""
  },
  {
    "id": "1176507695",
    "name": "ケアフロンティア別所沼公園",
    "kana": "ケアフロンティア　ベッショヌマコウエン",
    "address": "埼玉県さいたま市南区別所４丁目５番１３号",
    "lat": 35.8573379,
    "lng": 139.6434325,
    "tel": "048-755-9231",
    "url": "https://care-frontier.com/",
    "pref": "埼玉県",
    "city": "さいたま市南区",
    "category": "community_day_service",
    "serviceType": "地域密着型通所介護",
    "capacity": 0,
    "openDays": [
      "平日",
      "土曜日",
      "日曜日",
      "祝日"
    ],
    "openDaysNote": ""
  },
  {
    "id": "1176513008",
    "name": "こころデイサービス武蔵浦和",
    "kana": "ココロデイサービス　ムサシウラワ",
    "address": "埼玉県さいたま市南区内谷7-7-26",
    "lat": 35.8351015406688,
    "lng": 139.650432534393,
    "tel": "048-838-4165",
    "url": "www.cocoro-group.com",
    "pref": "埼玉県",
    "city": "さいたま市南区",
    "category": "community_day_service",
    "serviceType": "地域密着型通所介護",
    "capacity": 300,
    "openDays": [
      "平日",
      "土曜日",
      "祝日"
    ],
    "openDaysNote": ""
  },
  {
    "id": "1176508073",
    "name": "デイサービス奏",
    "kana": "デイサービスカナデ",
    "address": "さいたま市南区別所１－１１－２",
    "lat": 35.853094,
    "lng": 139.6483683,
    "tel": "048-872-8215",
    "url": "http://www.kanade-kaigoshien.com/",
    "pref": "埼玉県",
    "city": "さいたま市南区",
    "category": "community_day_service",
    "serviceType": "地域密着型通所介護",
    "capacity": 10,
    "openDays": [
      "平日",
      "土曜日",
      "祝日"
    ],
    "openDaysNote": ""
  },
  {
    "id": "1196501066",
    "name": "ＧＥＮＫＩ　ＮＥＸＴ大宮大成町",
    "kana": "ゲンキネクスト　オオミヤオオナリチョウ",
    "address": "埼玉県さいたま市北区大成町4-402",
    "lat": 35.9242408,
    "lng": 139.6150465,
    "tel": "048-607-5133",
    "url": "https://kaigo-next.com/sp/",
    "pref": "埼玉県",
    "city": "さいたま市北区",
    "category": "community_day_service",
    "serviceType": "地域密着型通所介護",
    "capacity": 0,
    "openDays": [
      "平日",
      "祝日"
    ],
    "openDaysNote": ""
  },
  {
    "id": "1176508735",
    "name": "あけぼしデイサービス",
    "kana": "アケボシデイサービス",
    "address": "埼玉県さいたま市北区吉野町1-3-1茂木ビル1F 茂木ビル1F",
    "lat": 35.9470223,
    "lng": 139.6220595,
    "tel": "048-871-7100",
    "url": "https://grateful-kaigo.com/",
    "pref": "埼玉県",
    "city": "さいたま市北区",
    "category": "community_day_service",
    "serviceType": "地域密着型通所介護",
    "capacity": 18,
    "openDays": [
      "平日",
      "土曜日",
      "祝日"
    ],
    "openDaysNote": ""
  },
  {
    "id": "1176513818",
    "name": "コンパスウォーク宮原",
    "kana": "コンパスウォークミヤハラ",
    "address": "埼玉県さいたま市北区宮原町1-746",
    "lat": 35.9412945,
    "lng": 139.6222784,
    "tel": "048-788-2563",
    "url": "https://keigo-group.co.jp/shop/saitamaken/1149/",
    "pref": "埼玉県",
    "city": "さいたま市北区",
    "category": "community_day_service",
    "serviceType": "地域密着型通所介護",
    "capacity": 0,
    "openDays": [
      "平日",
      "祝日"
    ],
    "openDaysNote": ""
  },
  {
    "id": "1170300709",
    "name": "さいたま市大砂土デイ・サービスセンター",
    "kana": "サイタマシオオサトデイ・サービスセンター",
    "address": "さいたま市北区今羽町６３７番地１",
    "lat": 35.9504886,
    "lng": 139.6265174,
    "tel": "048-652-8366",
    "url": "https://www.keijuen.info/",
    "pref": "埼玉県",
    "city": "さいたま市北区",
    "category": "community_day_service",
    "serviceType": "地域密着型通所介護",
    "capacity": 0,
    "openDays": [
      "平日",
      "祝日"
    ],
    "openDaysNote": ""
  },
  {
    "id": "1176511820",
    "name": "シマダリビングパートナーズ株式会社",
    "kana": "シマダリビングパートナーズカブシキガイシャ",
    "address": "埼玉県さいたま市北区盆栽町434-1ガーデンテラス大宮公園1階 ガーデンテラス大宮公園1階",
    "lat": 35.9265342,
    "lng": 139.6276038,
    "tel": "048-665-0088",
    "url": "www.hibari-kaigo.jp",
    "pref": "埼玉県",
    "city": "さいたま市北区",
    "category": "community_day_service",
    "serviceType": "地域密着型通所介護",
    "capacity": 10,
    "openDays": [
      "平日",
      "土曜日",
      "祝日"
    ],
    "openDaysNote": "祝日は営業してます。"
  },
  {
    "id": "1176512265",
    "name": "デイサービス　南国の唄",
    "kana": "デイサービス　ナンゴクノウタ",
    "address": "埼玉県さいたま市北区宮原町1－459アコール十文字　１階 アコール十文字　１階",
    "lat": 35.935324,
    "lng": 139.6157188,
    "tel": "０４８－７７８－７６９６",
    "url": "http://nangokunouta.jp",
    "pref": "埼玉県",
    "city": "さいたま市北区",
    "category": "community_day_service",
    "serviceType": "地域密着型通所介護",
    "capacity": 0,
    "openDays": [
      "平日",
      "土曜日",
      "日曜日",
      "祝日"
    ],
    "openDaysNote": ""
  },
  {
    "id": "1176511838",
    "name": "デイサービスねこの手",
    "kana": "デイサービスネコノテ",
    "address": "埼玉県さいたま市北区土呂町２－５９－３",
    "lat": 35.9314297,
    "lng": 139.6351209,
    "tel": "048-671-6822",
    "url": "",
    "pref": "埼玉県",
    "city": "さいたま市北区",
    "category": "community_day_service",
    "serviceType": "地域密着型通所介護",
    "capacity": 0,
    "openDays": [
      "平日",
      "祝日"
    ],
    "openDaysNote": ""
  },
  {
    "id": "1176508792",
    "name": "デイサービスほのか",
    "kana": "デイサービスホノカ",
    "address": "埼玉県さいたま市北区今羽町5番地デイサービスほのか デイサービスほのか",
    "lat": 35.9478356062971,
    "lng": 139.621256899698,
    "tel": "048-651-8148",
    "url": "http://www.honoka-day.com",
    "pref": "埼玉県",
    "city": "さいたま市北区",
    "category": "community_day_service",
    "serviceType": "地域密着型通所介護",
    "capacity": 0,
    "openDays": [
      "平日"
    ],
    "openDaysNote": ""
  },
  {
    "id": "1196501520",
    "name": "奈良町デイサービス",
    "kana": "ナラチョウデイサービス",
    "address": "奈良町159-6",
    "lat": 35.9530088,
    "lng": 139.595001,
    "tel": "０４８－７１５－０８４５",
    "url": "",
    "pref": "埼玉県",
    "city": "さいたま市北区",
    "category": "community_day_service",
    "serviceType": "地域密着型通所介護",
    "capacity": 0,
    "openDays": [
      "平日",
      "土曜日",
      "祝日"
    ],
    "openDaysNote": "１時間延長サービスあり"
  },
  {
    "id": "1176509477",
    "name": "遊季の里",
    "kana": "ユウキノサト",
    "address": "さいたま市北区土呂町２丁目77-12",
    "lat": 35.9348388,
    "lng": 139.6362169,
    "tel": "048-871-5290",
    "url": "http://hp.kaipoke.biz/zof/",
    "pref": "埼玉県",
    "city": "さいたま市北区",
    "category": "community_day_service",
    "serviceType": "地域密着型通所介護",
    "capacity": 10,
    "openDays": [
      "平日",
      "土曜日",
      "祝日"
    ],
    "openDaysNote": "日曜日　お正月三が日以外は休まず営業しております。"
  },
  {
    "id": "1196501132",
    "name": "GENKINEXT浦和原山",
    "kana": "ゲンキネクストウラワハラヤマ",
    "address": "埼玉県さいたま市緑区原山4-4-5",
    "lat": 35.8714361,
    "lng": 139.6763741,
    "tel": "048-813-4380",
    "url": "",
    "pref": "埼玉県",
    "city": "さいたま市緑区",
    "category": "community_day_service",
    "serviceType": "地域密着型通所介護",
    "capacity": 0,
    "openDays": [
      "平日",
      "土曜日",
      "祝日"
    ],
    "openDaysNote": ""
  },
  {
    "id": "1176514659",
    "name": "あんしん介護デイサービス　東浦和",
    "kana": "アンシンカイゴデイサービス　ヒガシウラワ",
    "address": "埼玉県さいたま市緑区中尾2030-4",
    "lat": 35.8673873,
    "lng": 139.6937082,
    "tel": "048-712-4111",
    "url": "http://anshin-k.info/",
    "pref": "埼玉県",
    "city": "さいたま市緑区",
    "category": "community_day_service",
    "serviceType": "地域密着型通所介護",
    "capacity": 18,
    "openDays": [
      "平日",
      "土曜日",
      "祝日"
    ],
    "openDaysNote": "他年末年始（12/30～1/3）"
  },
  {
    "id": "1176505764",
    "name": "デイサービス　おがわさん家",
    "kana": "デイサービス　オガワサンチ",
    "address": "さいたま市緑区大間木3丁目3番地6",
    "lat": 35.8777833,
    "lng": 139.6922886,
    "tel": "048-874-5856",
    "url": "",
    "pref": "埼玉県",
    "city": "さいたま市緑区",
    "category": "community_day_service",
    "serviceType": "地域密着型通所介護",
    "capacity": 6,
    "openDays": [
      "平日"
    ],
    "openDaysNote": ""
  },
  {
    "id": "1176514352",
    "name": "デイサービス・ハレオル　アロハ",
    "kana": "デイサービスハレオル　アロハ",
    "address": "埼玉県さいたま市緑区太田窪3－7－6",
    "lat": 35.8636486026975,
    "lng": 139.673847512701,
    "tel": "048‐711-7464",
    "url": "https://a-look-sac.com",
    "pref": "埼玉県",
    "city": "さいたま市緑区",
    "category": "community_day_service",
    "serviceType": "地域密着型通所介護",
    "capacity": 18,
    "openDays": [
      "平日",
      "土曜日",
      "日曜日",
      "祝日"
    ],
    "openDaysNote": "年中無休"
  },
  {
    "id": "1176513388",
    "name": "デイサービス・ハレオル　オハナ",
    "kana": "デイサービス・ハレオル　オハナ",
    "address": "埼玉県さいたま市緑区道祖土1-6-13",
    "lat": 35.8765861,
    "lng": 139.6696046,
    "tel": "048-767-3587",
    "url": "https://a-look-sac.com/company/",
    "pref": "埼玉県",
    "city": "さいたま市緑区",
    "category": "community_day_service",
    "serviceType": "地域密着型通所介護",
    "capacity": 10,
    "openDays": [
      "平日",
      "土曜日",
      "日曜日",
      "祝日"
    ],
    "openDaysNote": "延長サービスあり。"
  },
  {
    "id": "1176508172",
    "name": "デイサービスいずみ東浦和",
    "kana": "デイサービスイズミヒガシウラワ",
    "address": "埼玉県さいたま市緑区東浦和2-49-12メゾンオパール1階 メゾンオパール1階",
    "lat": 35.8601971,
    "lng": 139.6972611,
    "tel": "048-876-5315",
    "url": "",
    "pref": "埼玉県",
    "city": "さいたま市緑区",
    "category": "community_day_service",
    "serviceType": "地域密着型通所介護",
    "capacity": null,
    "openDays": [
      "平日",
      "土曜日"
    ],
    "openDaysNote": ""
  },
  {
    "id": "1176510608",
    "name": "デイサービスこんぺいとう",
    "kana": "デイサービスコンペイトウ",
    "address": "さいたま市緑区芝原2-9-9",
    "lat": 35.8830438,
    "lng": 139.6914968,
    "tel": "048-799-2923",
    "url": "",
    "pref": "埼玉県",
    "city": "さいたま市緑区",
    "category": "community_day_service",
    "serviceType": "地域密着型通所介護",
    "capacity": 0,
    "openDays": [
      "平日",
      "祝日"
    ],
    "openDaysNote": ""
  },
  {
    "id": "1176508149",
    "name": "デイサービスぱる浦和",
    "kana": "デイサービスパルウラワ",
    "address": "さいたま市緑区原山１－５－９コーポ原山1階 コーポ原山1階",
    "lat": 35.8698842,
    "lng": 139.6711213,
    "tel": "048-811-2300",
    "url": "http://www.shafuku-pal.or.jp",
    "pref": "埼玉県",
    "city": "さいたま市緑区",
    "category": "community_day_service",
    "serviceType": "地域密着型通所介護",
    "capacity": 18,
    "openDays": [
      "平日",
      "土曜日",
      "祝日"
    ],
    "openDaysNote": ""
  },
  {
    "id": "1176512315",
    "name": "ネヲハルデイサービス中尾",
    "kana": "ネヲハルデイサービスナカオ",
    "address": "埼玉県さいたま市緑区中尾2659-13",
    "lat": 35.8675602290435,
    "lng": 139.68115033161,
    "tel": "048-876-3400",
    "url": "www.neoharu.jp",
    "pref": "埼玉県",
    "city": "さいたま市緑区",
    "category": "community_day_service",
    "serviceType": "地域密着型通所介護",
    "capacity": 18,
    "openDays": [
      "平日",
      "土曜日",
      "祝日"
    ],
    "openDaysNote": ""
  },
  {
    "id": "1173202001",
    "name": "グレープフルーツリハビリデイサービス",
    "kana": "グレープフルーツリハビリデイサービス",
    "address": "埼玉県比企郡ときがわ町大字玉川２７０３番地２",
    "lat": 36.0102419,
    "lng": 139.2954123,
    "tel": "0493-65-5136",
    "url": "",
    "pref": "埼玉県",
    "city": "ときがわ町",
    "category": "community_day_service",
    "serviceType": "地域密着型通所介護",
    "capacity": 30,
    "openDays": [
      "平日",
      "祝日"
    ],
    "openDaysNote": ""
  },
  {
    "id": "1173000959",
    "name": "aruku+",
    "kana": "アルク",
    "address": "埼玉県ふじみ野市大井中央4-18-31　１Ｆ",
    "lat": 35.8620428,
    "lng": 139.5053216,
    "tel": "049-293-8540",
    "url": "http://3810.co.jp",
    "pref": "埼玉県",
    "city": "ふじみ野市",
    "category": "community_day_service",
    "serviceType": "地域密着型通所介護",
    "capacity": 15,
    "openDays": [
      "平日"
    ],
    "openDaysNote": ""
  },
  {
    "id": "1173000926",
    "name": "きらめきリハビリデイサービスふじみ野",
    "kana": "キラメキリハビリデイサービスフジミノ",
    "address": "埼玉県ふじみ野市鶴ヶ岡2-3-19101 101",
    "lat": 35.8642536,
    "lng": 139.5063825,
    "tel": "049-261-3555",
    "url": "https://wellbe-holdings.com/",
    "pref": "埼玉県",
    "city": "ふじみ野市",
    "category": "community_day_service",
    "serviceType": "地域密着型通所介護",
    "capacity": 0,
    "openDays": [
      "平日",
      "祝日"
    ],
    "openDaysNote": ""
  },
  {
    "id": "1173001049",
    "name": "デイサービス　すずらんの花",
    "kana": "デイサービス　スズランノハナ",
    "address": "埼玉県ふじみ野市鶴ヶ岡二丁目２７－３",
    "lat": 35.8653785,
    "lng": 139.5068963,
    "tel": "049-293-3826",
    "url": "",
    "pref": "埼玉県",
    "city": "ふじみ野市",
    "category": "community_day_service",
    "serviceType": "地域密着型通所介護",
    "capacity": 0,
    "openDays": [
      "平日",
      "土曜日",
      "祝日"
    ],
    "openDaysNote": ""
  },
  {
    "id": "1173000702",
    "name": "なごみ",
    "kana": "ナゴミ",
    "address": "ふじみ野市川崎２－４－１０",
    "lat": 35.8860431,
    "lng": 139.5204163,
    "tel": "049-263-0088",
    "url": "http://nakanokisetsu.com/nagomi/",
    "pref": "埼玉県",
    "city": "ふじみ野市",
    "category": "community_day_service",
    "serviceType": "地域密着型通所介護",
    "capacity": null,
    "openDays": [
      "平日",
      "祝日"
    ],
    "openDaysNote": ""
  },
  {
    "id": "1173000843",
    "name": "ふじみ野地域福祉事業所デイサービス「そらまめ」",
    "kana": "フジミノチイキフクシジギョウショデイサービス「ソラマメ」",
    "address": "埼玉県ふじみ野市川崎　232－1",
    "lat": 35.8883372968734,
    "lng": 139.519929561663,
    "tel": "049-278-7071",
    "url": "f-soramame.roukyou.gr.jp",
    "pref": "埼玉県",
    "city": "ふじみ野市",
    "category": "community_day_service",
    "serviceType": "地域密着型通所介護",
    "capacity": 10,
    "openDays": [
      "平日",
      "土曜日",
      "祝日"
    ],
    "openDaysNote": ""
  },
  {
    "id": "1173001031",
    "name": "ほほえみケアセンター　リハビリデイサービス",
    "kana": "ホホエミケアセンター　リハビリデイサービス",
    "address": "埼玉県ふじみ野市福岡中央１－１－１６",
    "lat": 35.8730001367791,
    "lng": 139.518194671936,
    "tel": "０４９－２９３－１２２２",
    "url": "https://hohoemi-care.jp/",
    "pref": "埼玉県",
    "city": "ふじみ野市",
    "category": "community_day_service",
    "serviceType": "地域密着型通所介護",
    "capacity": 0,
    "openDays": [
      "平日",
      "祝日"
    ],
    "openDaysNote": ""
  },
  {
    "id": "1193000138",
    "name": "リハビリ＆ショッピングアヤカリナ",
    "kana": "リハビリアンドショッピングアヤカリナ",
    "address": "埼玉県ふじみ野市福岡2-1-6イオンタウンふじみ野3階 イオンタウンふじみ野3階",
    "lat": 35.8799055609831,
    "lng": 139.522995650768,
    "tel": "049-256-5580",
    "url": "https://ayakarina.com/",
    "pref": "埼玉県",
    "city": "ふじみ野市",
    "category": "community_day_service",
    "serviceType": "地域密着型通所介護",
    "capacity": 10,
    "openDays": [
      "平日"
    ],
    "openDaysNote": ""
  },
  {
    "id": "1191300050",
    "name": "ご長寿くらぶ埼玉・伊奈ディサービスセンター",
    "kana": "ゴチョウジュクラブサイタマイナディサービスセンター",
    "address": "埼玉県北足立郡伊奈町内宿台6-41",
    "lat": 36.0189126,
    "lng": 139.6096209,
    "tel": "048-783-5118",
    "url": "gotyoujyuclub.com/recruit/994",
    "pref": "埼玉県",
    "city": "伊奈町",
    "category": "community_day_service",
    "serviceType": "地域密着型通所介護",
    "capacity": 0,
    "openDays": [
      "平日",
      "土曜日",
      "祝日"
    ],
    "openDaysNote": ""
  },
  {
    "id": "1191300068",
    "name": "ご長寿くらぶ埼玉・伊奈中央デイサービスセンター",
    "kana": "ゴチョウジュクラブサイタマ・イナチュウオウデイサービスセンター",
    "address": "埼玉県北足立郡伊奈町中央３丁目３３２",
    "lat": 36.0022586,
    "lng": 139.6203463,
    "tel": "048-796-5886",
    "url": "https://gotyoujyuclub.com/hometype/saitama/kitaadachi/7771",
    "pref": "埼玉県",
    "city": "伊奈町",
    "category": "community_day_service",
    "serviceType": "地域密着型通所介護",
    "capacity": 18,
    "openDays": [
      "平日",
      "土曜日",
      "日曜日",
      "祝日"
    ],
    "openDaysNote": "営業日月曜日～日曜日（12/29～1/3を除く）"
  },
  {
    "id": "1171300062",
    "name": "デイサービスセンター伊奈の里",
    "kana": "デイサービスセンターイナノサト",
    "address": "埼玉県北足立郡伊奈町中央１－９３",
    "lat": 35.9976975248554,
    "lng": 139.615654649599,
    "tel": "048-723-1122",
    "url": "http://www.taijukai.com",
    "pref": "埼玉県",
    "city": "伊奈町",
    "category": "community_day_service",
    "serviceType": "地域密着型通所介護",
    "capacity": 0,
    "openDays": [
      "平日",
      "土曜日",
      "祝日"
    ],
    "openDaysNote": ""
  },
  {
    "id": "1171300393",
    "name": "ゆめこうぼう　虹",
    "kana": "ユメコウボウ　ニジ",
    "address": "埼玉県北足立郡伊奈町中央2-320",
    "lat": 36.0018921,
    "lng": 139.613339,
    "tel": "048-607-8778",
    "url": "http://yume-niji.sakura.ne.jp",
    "pref": "埼玉県",
    "city": "伊奈町",
    "category": "community_day_service",
    "serviceType": "地域密着型通所介護",
    "capacity": 10,
    "openDays": [
      "平日",
      "土曜日",
      "日曜日",
      "祝日"
    ],
    "openDaysNote": ""
  },
  {
    "id": "1173900422",
    "name": "GENKI　NEXT　イオンモール羽生店",
    "kana": "ゲンキ　ネクスト　イオンモール　ハニュウテン",
    "address": "埼玉県羽生市川崎2-281-3イオンモール羽生1F イオンモール羽生1F",
    "lat": 36.1426659,
    "lng": 139.5421606,
    "tel": "048-560-0395",
    "url": "https://kaigo-next.com/sp/search/detail/710/",
    "pref": "埼玉県",
    "city": "羽生市",
    "category": "community_day_service",
    "serviceType": "地域密着型通所介護",
    "capacity": 15,
    "openDays": [
      "平日",
      "土曜日",
      "日曜日",
      "祝日"
    ],
    "openDaysNote": ""
  },
  {
    "id": "1193900139",
    "name": "コンパスウォーク羽生藤井",
    "kana": "コンパスウォークハニュウフジイ",
    "address": "埼玉県羽生市藤井上組1341-2",
    "lat": 36.1773219,
    "lng": 139.5457611,
    "tel": "048-578-5011",
    "url": "https://keigo-group.co.jp/shop/saitamaken/15726/",
    "pref": "埼玉県",
    "city": "羽生市",
    "category": "community_day_service",
    "serviceType": "地域密着型通所介護",
    "capacity": 0,
    "openDays": [
      "平日",
      "祝日"
    ],
    "openDaysNote": "年末年始休業"
  },
  {
    "id": "1173900604",
    "name": "デイサービス　ニパータ羽生",
    "kana": "デイサービス　ニパータハニュウ",
    "address": "埼玉県羽生市東3丁目23番7号",
    "lat": 36.180803,
    "lng": 139.5431563,
    "tel": "048‐560‐3202",
    "url": "http:/nipata.com",
    "pref": "埼玉県",
    "city": "羽生市",
    "category": "community_day_service",
    "serviceType": "地域密着型通所介護",
    "capacity": 0,
    "openDays": [
      "平日",
      "土曜日",
      "祝日"
    ],
    "openDaysNote": ""
  },
  {
    "id": "1173900380",
    "name": "デイサービス　ルミエール",
    "kana": "デイサービス　ルミエール",
    "address": "埼玉県羽生市上岩瀬１８０６",
    "lat": 36.1639402,
    "lng": 139.5230535,
    "tel": "048-580-7561",
    "url": "http://www.lumie-re.jp/",
    "pref": "埼玉県",
    "city": "羽生市",
    "category": "community_day_service",
    "serviceType": "地域密着型通所介護",
    "capacity": 0,
    "openDays": [
      "平日",
      "土曜日",
      "祝日"
    ],
    "openDaysNote": "アットホームな雰囲気のなかで、利用者の価値観を大切にし、利用者同士の人間関係にも留意して、楽しい時間をすごしていただくようにします。"
  },
  {
    "id": "1173900620",
    "name": "デイサービスセンター　リハ・トリム",
    "kana": "デイサービスセンター　リハトリム",
    "address": "埼玉県羽生市南八丁目3番10号",
    "lat": 36.165589,
    "lng": 139.5385206,
    "tel": "048-577-5115",
    "url": "https://rihatorimu.amebaownd.com",
    "pref": "埼玉県",
    "city": "羽生市",
    "category": "community_day_service",
    "serviceType": "地域密着型通所介護",
    "capacity": 0,
    "openDays": [
      "平日",
      "土曜日",
      "祝日"
    ],
    "openDaysNote": "令和4年4月より就業規則改定に伴い日曜日を法定休日と定め、営業時間を8：20～17：20へと変更する。"
  },
  {
    "id": "1193900113",
    "name": "デイサービス井泉",
    "kana": "デイサービスイイズミ",
    "address": "埼玉県羽生市藤井上組97-2",
    "lat": 36.1860446,
    "lng": 139.5588463,
    "tel": "048-565-2910",
    "url": "http://www.fb-kaigo.co.jp",
    "pref": "埼玉県",
    "city": "羽生市",
    "category": "community_day_service",
    "serviceType": "地域密着型通所介護",
    "capacity": null,
    "openDays": [
      "平日",
      "土曜日",
      "祝日"
    ],
    "openDaysNote": "年始休み（1/1～1/3）"
  },
  {
    "id": "1173900588",
    "name": "デイサービス未来　南羽生",
    "kana": "デイサービスミライ　ミナミハニュウ",
    "address": "埼玉県羽生市南羽生1－15－29",
    "lat": 36.1504956,
    "lng": 139.5589511,
    "tel": "048－561－0828",
    "url": "http://www.e-kagu.jp/kaigo/kaigo.html",
    "pref": "埼玉県",
    "city": "羽生市",
    "category": "community_day_service",
    "serviceType": "地域密着型通所介護",
    "capacity": 20,
    "openDays": [
      "平日",
      "祝日"
    ],
    "openDaysNote": "祝日は営業"
  },
  {
    "id": "1193900121",
    "name": "デイサービス未来元町",
    "kana": "デイサービスミライモトマチ",
    "address": "埼玉県羽生市南8－3－16",
    "lat": 36.1660434741382,
    "lng": 139.538663331877,
    "tel": "048-598-6016",
    "url": "https://www.mirai-yoshimaru.com/2021/03/29/1344/",
    "pref": "埼玉県",
    "city": "羽生市",
    "category": "community_day_service",
    "serviceType": "地域密着型通所介護",
    "capacity": 18,
    "openDays": [
      "平日",
      "祝日"
    ],
    "openDaysNote": "年末年始休業日：１２月３０日～１月３日（改行）夏季休業日：８月中に１日"
  },
  {
    "id": "1173900463",
    "name": "笑いデイサービスセンター",
    "kana": "ワライデイサービスセンター",
    "address": "羽生市下新田41-2",
    "lat": 36.1581878,
    "lng": 139.5125134,
    "tel": "048-501-2336",
    "url": "www.npoho-jin.com/",
    "pref": "埼玉県",
    "city": "羽生市",
    "category": "community_day_service",
    "serviceType": "地域密着型通所介護",
    "capacity": 0,
    "openDays": [
      "平日",
      "祝日"
    ],
    "openDaysNote": ""
  },
  {
    "id": "1170802118",
    "name": "ＧＥＮＫＩＮＥＸＴ越谷千間台東",
    "kana": "ゲンキネクストコシガヤセンゲンダイヒガシ",
    "address": "埼玉県越谷市千間台東2－6－12ビスカ１－Ｂ ビスカ１－Ｂ",
    "lat": 35.9360313649445,
    "lng": 139.779944128479,
    "tel": "048-940-1482",
    "url": "http://kaigonext.jimdo.com/",
    "pref": "埼玉県",
    "city": "越谷市",
    "category": "community_day_service",
    "serviceType": "地域密着型通所介護",
    "capacity": 0,
    "openDays": [
      "平日",
      "土曜日",
      "祝日"
    ],
    "openDaysNote": "月～土曜日であれば、祝日でも営業"
  },
  {
    "id": "1170802696",
    "name": "ＧＥＮＫＩＮＥＸＴ北越谷",
    "kana": "ゲンキネクストキタコシガヤ",
    "address": "越谷市大沢4丁目6番24号三貴ビル1Ｆ 三貴ビル1Ｆ",
    "lat": 35.8977972723885,
    "lng": 139.784104226984,
    "tel": "048-940-7720",
    "url": "",
    "pref": "埼玉県",
    "city": "越谷市",
    "category": "community_day_service",
    "serviceType": "地域密着型通所介護",
    "capacity": 150,
    "openDays": [
      "平日",
      "祝日"
    ],
    "openDaysNote": ""
  },
  {
    "id": "1170802993",
    "name": "あおぞら整骨院デイサービス",
    "kana": "アオゾラセイコツインデイサービス",
    "address": "埼玉県越谷市千間台東１－１５－５コムフラット１Ｆ コムフラット１Ｆ",
    "lat": 35.9345074,
    "lng": 139.7773975,
    "tel": "048-973-0100",
    "url": "",
    "pref": "埼玉県",
    "city": "越谷市",
    "category": "community_day_service",
    "serviceType": "地域密着型通所介護",
    "capacity": 10,
    "openDays": [
      "平日",
      "土曜日"
    ],
    "openDaysNote": ""
  },
  {
    "id": "1170802431",
    "name": "あさひリハビリデイサービス",
    "kana": "アサヒリハビリデイサービス",
    "address": "埼玉県越谷市東越谷10-23-1",
    "lat": 35.9012052,
    "lng": 139.8048972,
    "tel": "048-947-0595",
    "url": "",
    "pref": "埼玉県",
    "city": "越谷市",
    "category": "community_day_service",
    "serviceType": "地域密着型通所介護",
    "capacity": 100,
    "openDays": [
      "平日",
      "祝日"
    ],
    "openDaysNote": "土・日曜日にかかる祝日は定休日とする。"
  },
  {
    "id": "1190800464",
    "name": "イオンスマイル北越谷店",
    "kana": "イオンスマイルキタコシガヤテン",
    "address": "埼玉県越谷市大林384-1",
    "lat": 35.9143046,
    "lng": 139.778461,
    "tel": "048-972-4041",
    "url": "https://www.aeonretail.jp/aeonsmile/",
    "pref": "埼玉県",
    "city": "越谷市",
    "category": "community_day_service",
    "serviceType": "地域密着型通所介護",
    "capacity": 180,
    "openDays": [
      "平日",
      "土曜日"
    ],
    "openDaysNote": "その他年間の休日：GW、夏季、秋季および年末年始（年度休業日カレンダーにて告知）"
  },
  {
    "id": "1190800811",
    "name": "お泊りデイサービス　プエンテ",
    "kana": "オトマリデイサービス　プエンテ",
    "address": "埼玉県越谷市東越谷２－１２－１ムラヤマビル1階A-1 ムラヤマビル1階A-1",
    "lat": 35.8906155,
    "lng": 139.798462,
    "tel": "048-967-5228",
    "url": "",
    "pref": "埼玉県",
    "city": "越谷市",
    "category": "community_day_service",
    "serviceType": "地域密着型通所介護",
    "capacity": 0,
    "openDays": [
      "平日",
      "土曜日",
      "日曜日",
      "祝日"
    ],
    "openDaysNote": "12/311/1休む"
  },
  {
    "id": "1190800803",
    "name": "お泊りデイサービス越谷",
    "kana": "オトマリデイサービスコシガヤ",
    "address": "埼玉県越谷市弥栄町3-43-196",
    "lat": 35.9210324,
    "lng": 139.7954255,
    "tel": "048-971-6485",
    "url": "",
    "pref": "埼玉県",
    "city": "越谷市",
    "category": "community_day_service",
    "serviceType": "地域密着型通所介護",
    "capacity": 0,
    "openDays": [
      "平日",
      "土曜日",
      "日曜日",
      "祝日"
    ],
    "openDaysNote": ""
  },
  {
    "id": "1170802290",
    "name": "けあらーず越谷指定通所介護事業所",
    "kana": "ケアラーズコシガヤシテイツウショカイゴジギョウショ",
    "address": "埼玉県越谷市東越谷九丁目29番地5",
    "lat": 35.8955568,
    "lng": 139.8084161,
    "tel": "048-971-7590",
    "url": "https://www.seramu.com/",
    "pref": "埼玉県",
    "city": "越谷市",
    "category": "community_day_service",
    "serviceType": "地域密着型通所介護",
    "capacity": 10,
    "openDays": [
      "平日",
      "土曜日",
      "日曜日",
      "祝日"
    ],
    "openDaysNote": ""
  },
  {
    "id": "1190800381",
    "name": "コミュニティ・ライフ越谷",
    "kana": "コミュニティライフコシガヤ",
    "address": "埼玉県越谷市相模町1-93-1",
    "lat": 35.8855380532822,
    "lng": 139.801899215344,
    "tel": "048-918-1399",
    "url": "http://hp.kaipoke.biz/rv0/",
    "pref": "埼玉県",
    "city": "越谷市",
    "category": "community_day_service",
    "serviceType": "地域密着型通所介護",
    "capacity": 5,
    "openDays": [
      "平日",
      "土曜日",
      "祝日"
    ],
    "openDaysNote": ""
  },
  {
    "id": "1170803082",
    "name": "さわやかサロン",
    "kana": "サワヤカサロン",
    "address": "埼玉県越谷市東越谷8-20-6",
    "lat": 35.8949977,
    "lng": 139.8059251,
    "tel": "048-969-1005",
    "url": "http://www.kishinkai.or.jp/",
    "pref": "埼玉県",
    "city": "越谷市",
    "category": "community_day_service",
    "serviceType": "地域密着型通所介護",
    "capacity": 10,
    "openDays": [
      "平日",
      "祝日"
    ],
    "openDaysNote": "12/30～1/3休み"
  },
  {
    "id": "1170802019",
    "name": "スマイルリハビリデイサービス",
    "kana": "スマイルリハビリデイサービス",
    "address": "越谷市越ヶ谷2649",
    "lat": 35.90416,
    "lng": 139.7922927,
    "tel": "048-965-8585",
    "url": "",
    "pref": "埼玉県",
    "city": "越谷市",
    "category": "community_day_service",
    "serviceType": "地域密着型通所介護",
    "capacity": 20,
    "openDays": [
      "平日"
    ],
    "openDaysNote": ""
  },
  {
    "id": "1170802787",
    "name": "デイサービス　さんすまいる",
    "kana": "デイサービス　サンスマイル",
    "address": "埼玉県越谷市蒲生茜町１１－６スカーラ105 スカーラ105",
    "lat": 35.8676047189922,
    "lng": 139.7904768295,
    "tel": "048-940-7426",
    "url": "http://sansumairu-corp.hp.gogo.jp/pc/",
    "pref": "埼玉県",
    "city": "越谷市",
    "category": "community_day_service",
    "serviceType": "地域密着型通所介護",
    "capacity": 10,
    "openDays": [
      "平日",
      "土曜日",
      "祝日"
    ],
    "openDaysNote": ""
  },
  {
    "id": "1170601387",
    "name": "デイサービス　ななみ",
    "kana": "デイサービス　ナナミ",
    "address": "埼玉県越谷市大林588-2",
    "lat": 35.9171193,
    "lng": 139.7882177,
    "tel": "048-971-5778",
    "url": "",
    "pref": "埼玉県",
    "city": "越谷市",
    "category": "community_day_service",
    "serviceType": "地域密着型通所介護",
    "capacity": 10,
    "openDays": [
      "平日",
      "土曜日",
      "日曜日",
      "祝日"
    ],
    "openDaysNote": "休日　夜間等は転送電話にて応対します"
  },
  {
    "id": "1170803330",
    "name": "デイサービスセンターシエロ　新越谷",
    "kana": "デイサービスセンターシエロ　シンコシガヤ",
    "address": "埼玉県越谷市南越谷３－３－５",
    "lat": 35.8796496,
    "lng": 139.7882272,
    "tel": "03-6824-5815",
    "url": "http://cielo.jp.net/",
    "pref": "埼玉県",
    "city": "越谷市",
    "category": "community_day_service",
    "serviceType": "地域密着型通所介護",
    "capacity": 10,
    "openDays": [
      "平日",
      "土曜日",
      "日曜日",
      "祝日"
    ],
    "openDaysNote": ""
  },
  {
    "id": "1170802746",
    "name": "デイサービスセンターらいふリハ大沢",
    "kana": "デイサービスセンターライフリハオオサワ",
    "address": "埼玉県越谷市大沢3-28-1",
    "lat": 35.9038209,
    "lng": 139.7857988,
    "tel": "048-970-0500",
    "url": "ds-rehaoosawa@kouboukai.com",
    "pref": "埼玉県",
    "city": "越谷市",
    "category": "community_day_service",
    "serviceType": "地域密着型通所介護",
    "capacity": 18,
    "openDays": [
      "平日",
      "土曜日",
      "祝日"
    ],
    "openDaysNote": ""
  },
  {
    "id": "1190800928",
    "name": "デイサービスセンター言葉の森",
    "kana": "デイサービスセンターコトバノモリ",
    "address": "埼玉県越谷市宮本町３丁目６３番地１",
    "lat": 35.8906648408677,
    "lng": 139.776687274869,
    "tel": "048-930-7215",
    "url": "https://ishizue-group.co.jp/",
    "pref": "埼玉県",
    "city": "越谷市",
    "category": "community_day_service",
    "serviceType": "地域密着型通所介護",
    "capacity": null,
    "openDays": [
      "平日",
      "祝日"
    ],
    "openDaysNote": ""
  },
  {
    "id": "1170803249",
    "name": "デイサービスそら　北越谷",
    "kana": "デイサービスソラ　キタコシガヤ",
    "address": "神明町2-181-6",
    "lat": 35.89916,
    "lng": 139.7710364,
    "tel": "048-947-2741",
    "url": "https://nr-service.jp",
    "pref": "埼玉県",
    "city": "越谷市",
    "category": "community_day_service",
    "serviceType": "地域密着型通所介護",
    "capacity": 10,
    "openDays": [
      "平日",
      "土曜日",
      "祝日"
    ],
    "openDaysNote": "年末年始休業日あり"
  },
  {
    "id": "1190800647",
    "name": "デイサービスそら新川",
    "kana": "デイサービスソラシンカワ",
    "address": "埼玉県越谷市新川1-217-2",
    "lat": 35.8736792,
    "lng": 139.7596774,
    "tel": "048-947-9906",
    "url": "https://nr-service.jp",
    "pref": "埼玉県",
    "city": "越谷市",
    "category": "community_day_service",
    "serviceType": "地域密着型通所介護",
    "capacity": 0,
    "openDays": [
      "平日",
      "土曜日",
      "祝日"
    ],
    "openDaysNote": "※別途、年末年始休みがあります"
  },
  {
    "id": "1170802738",
    "name": "デイサービスそら大袋",
    "kana": "デイサービスソラオオブクロ",
    "address": "埼玉県越谷市袋山１４０２－１",
    "lat": 35.9234036,
    "lng": 139.776165,
    "tel": "０４８－９４０－７３６３",
    "url": "",
    "pref": "埼玉県",
    "city": "越谷市",
    "category": "community_day_service",
    "serviceType": "地域密着型通所介護",
    "capacity": 0,
    "openDays": [
      "平日",
      "土曜日",
      "祝日"
    ],
    "openDaysNote": ""
  },
  {
    "id": "1170802043",
    "name": "デイサービス純誠会こしがや",
    "kana": "デイサービスジュンセイカイコシガヤ",
    "address": "越谷市東大沢４－１３－３",
    "lat": 35.9107673,
    "lng": 139.7929561,
    "tel": "048-940-0303",
    "url": "http://junseikai.com",
    "pref": "埼玉県",
    "city": "越谷市",
    "category": "community_day_service",
    "serviceType": "地域密着型通所介護",
    "capacity": 18,
    "openDays": [
      "平日"
    ],
    "openDaysNote": ""
  },
  {
    "id": "1190800886",
    "name": "デイ運動センター　笑顔の家",
    "kana": "デイウンドウセンター　エガオノイエ",
    "address": "大字大道621番地",
    "lat": 35.9213566,
    "lng": 139.7613745,
    "tel": "048-984-7158",
    "url": "",
    "pref": "埼玉県",
    "city": "越谷市",
    "category": "community_day_service",
    "serviceType": "地域密着型通所介護",
    "capacity": 0,
    "openDays": [
      "平日",
      "土曜日",
      "祝日"
    ],
    "openDaysNote": ""
  },
  {
    "id": "1190800357",
    "name": "にこにこリハビリデイサービス",
    "kana": "ニコニコリハビリデイサービス",
    "address": "埼玉県越谷市相模町3-105-1",
    "lat": 35.889168,
    "lng": 139.8090361,
    "tel": "048-940-6101",
    "url": "http://nikoniko-riha.jimdo.jp/",
    "pref": "埼玉県",
    "city": "越谷市",
    "category": "community_day_service",
    "serviceType": "地域密着型通所介護",
    "capacity": 10,
    "openDays": [
      "平日",
      "祝日"
    ],
    "openDaysNote": ""
  },
  {
    "id": "1190800563",
    "name": "リハてらす花田苑",
    "kana": "リハテラスハナタエン",
    "address": "埼玉県越谷市花田6－4－10",
    "lat": 35.9032049,
    "lng": 139.8036056,
    "tel": "048-960-2753",
    "url": "http://sprise.co.jp/",
    "pref": "埼玉県",
    "city": "越谷市",
    "category": "community_day_service",
    "serviceType": "地域密着型通所介護",
    "capacity": 15,
    "openDays": [
      "平日",
      "土曜日",
      "祝日"
    ],
    "openDaysNote": ""
  },
  {
    "id": "1190800480",
    "name": "リハビリ特化型デイサービスリアン",
    "kana": "リハビリトッカガタデイサービスリアン",
    "address": "千間台東3-19-7",
    "lat": 35.9337938,
    "lng": 139.7800001,
    "tel": "048-973-0061",
    "url": "https://www.ripple-c.jp/",
    "pref": "埼玉県",
    "city": "越谷市",
    "category": "community_day_service",
    "serviceType": "地域密着型通所介護",
    "capacity": 0,
    "openDays": [
      "平日",
      "土曜日"
    ],
    "openDaysNote": "年末年始12／29～1／3"
  },
  {
    "id": "1170803140",
    "name": "リハプライド・越谷駅前",
    "kana": "リハプライド・コシガヤエキマエ",
    "address": "埼玉県越谷市越ヶ谷本町5-23",
    "lat": 35.8948234831067,
    "lng": 139.783472762045,
    "tel": "048-971-7919",
    "url": "http://rehapride.co.jp/kousagien/",
    "pref": "埼玉県",
    "city": "越谷市",
    "category": "community_day_service",
    "serviceType": "地域密着型通所介護",
    "capacity": 18,
    "openDays": [
      "平日",
      "土曜日",
      "祝日"
    ],
    "openDaysNote": ""
  },
  {
    "id": "1190800506",
    "name": "レコードブック南越谷",
    "kana": "レコードブックミナミコシガヤ",
    "address": "埼玉県越谷市南町3-9-20ペンキャビンマンション1F ペンキャビンマンション1F",
    "lat": 35.8603577,
    "lng": 139.8058544,
    "tel": "048-940-3566",
    "url": "https://www.recordbook.jp",
    "pref": "埼玉県",
    "city": "越谷市",
    "category": "community_day_service",
    "serviceType": "地域密着型通所介護",
    "capacity": 40,
    "openDays": [
      "平日",
      "祝日"
    ],
    "openDaysNote": "年末年始（12/30～1/3）以外は、祝日も営業しております。"
  },
  {
    "id": "1190800555",
    "name": "樹楽　北越谷",
    "kana": "キラク　キタコシガヤ",
    "address": "埼玉県越谷市大沢3406-5",
    "lat": 35.9033128,
    "lng": 139.788582,
    "tel": "048-916-5017",
    "url": "http://www.kiraku-ac.com/shisetsu/home/saitama/kitakoshigaya.php",
    "pref": "埼玉県",
    "city": "越谷市",
    "category": "community_day_service",
    "serviceType": "地域密着型通所介護",
    "capacity": 0,
    "openDays": [
      "平日",
      "土曜日",
      "日曜日",
      "祝日"
    ],
    "openDaysNote": ""
  },
  {
    "id": "1190800936",
    "name": "小規模デイサービス四季　北越谷事業所",
    "kana": "ショウキボデイサービスシキ　キタコシガヤジギョウショ",
    "address": "大沢1519-4",
    "lat": null,
    "lng": null,
    "tel": "048-972-6995",
    "url": "be-your-self.wixstudio.io/shiki",
    "pref": "埼玉県",
    "city": "越谷市",
    "category": "community_day_service",
    "serviceType": "地域密着型通所介護",
    "capacity": null,
    "openDays": [
      "平日",
      "土曜日",
      "日曜日",
      "祝日"
    ],
    "openDaysNote": "12/31～1/3はお休み。"
  },
  {
    "id": "1190800548",
    "name": "早稲田イーライフ越谷大袋",
    "kana": "ワセダイーライフコシガヤオオブクロ",
    "address": "下間久里290-2プレジデント深田Ⅰ-101 プレジデント深田Ⅰ-101",
    "lat": 35.9249373,
    "lng": 139.7879974,
    "tel": "048-940-7010",
    "url": "",
    "pref": "埼玉県",
    "city": "越谷市",
    "category": "community_day_service",
    "serviceType": "地域密着型通所介護",
    "capacity": 0,
    "openDays": [
      "平日",
      "土曜日",
      "祝日"
    ],
    "openDaysNote": ""
  },
  {
    "id": "1170801714",
    "name": "地域密着型通所介護　デイサービス里仁",
    "kana": "チイキミッチャクガタツウショカイゴ　デイサービスリジン",
    "address": "埼玉県越谷市七左町４－１００－４",
    "lat": 35.8725326,
    "lng": 139.7714329,
    "tel": "０４８－９８５－３３８５",
    "url": "",
    "pref": "埼玉県",
    "city": "越谷市",
    "category": "community_day_service",
    "serviceType": "地域密着型通所介護",
    "capacity": 15,
    "openDays": [
      "平日",
      "土曜日",
      "祝日"
    ],
    "openDaysNote": ""
  },
  {
    "id": "1190800795",
    "name": "地域密着型通所介護はぁべすと",
    "kana": "チイキミッチャクガタツウショカイゴハァベスト",
    "address": "埼玉県越谷市赤山町1-57-1Aテック秋山ビルNo.3 Aテック秋山ビルNo.3",
    "lat": 35.8882399302406,
    "lng": 139.784269237434,
    "tel": "048-971-8849",
    "url": "",
    "pref": "埼玉県",
    "city": "越谷市",
    "category": "community_day_service",
    "serviceType": "地域密着型通所介護",
    "capacity": 12,
    "openDays": [
      "平日",
      "土曜日",
      "祝日"
    ],
    "openDaysNote": "祝日は平日・土曜の営業時間に準ずる"
  },
  {
    "id": "1190800720",
    "name": "南こしがや翔裕館",
    "kana": "ミナミコシガヤショウユウカン",
    "address": "埼玉県越谷市南越谷1-2-16",
    "lat": 35.8750377,
    "lng": 139.7945699,
    "tel": "048-961-3770",
    "url": "https://www.sangajapan.co.jp/product/minamikoshigaya/",
    "pref": "埼玉県",
    "city": "越谷市",
    "category": "community_day_service",
    "serviceType": "地域密着型通所介護",
    "capacity": 0,
    "openDays": [
      "平日",
      "土曜日",
      "祝日"
    ],
    "openDaysNote": ""
  },
  {
    "id": "1174800985",
    "name": "デイサービスほのか",
    "kana": "デイサービスホノカ",
    "address": "埼玉県秩父郡横瀬町大字横瀬4641-5",
    "lat": 35.9895639,
    "lng": 139.0974211,
    "tel": "0494-26-5576",
    "url": "",
    "pref": "埼玉県",
    "city": "横瀬町",
    "category": "community_day_service",
    "serviceType": "地域密着型通所介護",
    "capacity": 0,
    "openDays": [
      "平日",
      "土曜日",
      "祝日"
    ],
    "openDaysNote": ""
  },
  {
    "id": "1174800779",
    "name": "ぶこうの里デイサービスセンター",
    "kana": "ブコウノサトデイサービスセンター",
    "address": "秩父郡横瀬町横瀬1170-20",
    "lat": 35.9814371,
    "lng": 139.1075979,
    "tel": "0494-27-8080",
    "url": "",
    "pref": "埼玉県",
    "city": "横瀬町",
    "category": "community_day_service",
    "serviceType": "地域密着型通所介護",
    "capacity": 18,
    "openDays": [
      "平日",
      "土曜日",
      "祝日"
    ],
    "openDaysNote": ""
  },
  {
    "id": "1174801058",
    "name": "ライフアップサポート　おたっしゃ倶楽部",
    "kana": "ライフアップサポート　オタッシャクラブ",
    "address": "埼玉県秩父郡横瀬町大字横瀬4549番地1",
    "lat": 35.9879057,
    "lng": 139.1000236,
    "tel": "0494-21-3373",
    "url": "http://www.lifeupsupport.org/",
    "pref": "埼玉県",
    "city": "横瀬町",
    "category": "community_day_service",
    "serviceType": "地域密着型通所介護",
    "capacity": 0,
    "openDays": [
      "平日",
      "土曜日",
      "祝日"
    ],
    "openDaysNote": "12月３日　年末年始12/30～1/3"
  },
  {
    "id": "1195200074",
    "name": "オカダの学校",
    "kana": "オカダノガッコウ",
    "address": "東2-12-27",
    "lat": 35.6529021,
    "lng": 139.7104443,
    "tel": "048-776-8900",
    "url": "http://kaigo-okadanogakkou.com/",
    "pref": "埼玉県",
    "city": "桶川市",
    "category": "community_day_service",
    "serviceType": "地域密着型通所介護",
    "capacity": 11,
    "openDays": [
      "平日",
      "土曜日",
      "祝日"
    ],
    "openDaysNote": ""
  },
  {
    "id": "1195200058",
    "name": "コンパスウォーク桶川",
    "kana": "コンパスウォークオケガワ",
    "address": "下日出谷930-6",
    "lat": 53.41291,
    "lng": -8.24388999999996,
    "tel": "048-871-5858",
    "url": "www.heart-service.com",
    "pref": "埼玉県",
    "city": "桶川市",
    "category": "community_day_service",
    "serviceType": "地域密着型通所介護",
    "capacity": 18,
    "openDays": [
      "平日",
      "祝日"
    ],
    "openDaysNote": ""
  },
  {
    "id": "1195200116",
    "name": "デイサービスグラハ桶川",
    "kana": "デイサービスグラハオケガワ",
    "address": "鴨川二丁目5番8号グラハ桶川1階 グラハ桶川1階",
    "lat": 35.9931492,
    "lng": 139.5582749,
    "tel": "048‐729‐5112",
    "url": "",
    "pref": "埼玉県",
    "city": "桶川市",
    "category": "community_day_service",
    "serviceType": "地域密着型通所介護",
    "capacity": 0,
    "openDays": [
      "平日",
      "土曜日",
      "日曜日",
      "祝日"
    ],
    "openDaysNote": ""
  },
  {
    "id": "1195200066",
    "name": "デイサービスセンター　かなで",
    "kana": "デイサービスセンター　カナデ",
    "address": "埼玉県桶川市坂田西1丁目8番地3はーとらいふ桶川1階 はーとらいふ桶川1階",
    "lat": 36.0108619537773,
    "lng": 139.57140817791,
    "tel": "048-778-9393",
    "url": "https:/www.reliable-heartlife.com",
    "pref": "埼玉県",
    "city": "桶川市",
    "category": "community_day_service",
    "serviceType": "地域密着型通所介護",
    "capacity": 0,
    "openDays": [
      "平日",
      "土曜日",
      "祝日"
    ],
    "openDaysNote": ""
  },
  {
    "id": "1175200078",
    "name": "べに花の郷",
    "kana": "ベニバナノサト",
    "address": "埼玉県桶川市坂田字原５１６番地１",
    "lat": 36.0136248057816,
    "lng": 139.579540288899,
    "tel": "048-729-1241",
    "url": "http://s-meiwakai.jp",
    "pref": "埼玉県",
    "city": "桶川市",
    "category": "community_day_service",
    "serviceType": "地域密着型通所介護",
    "capacity": 0,
    "openDays": [
      "平日",
      "祝日"
    ],
    "openDaysNote": ""
  },
  {
    "id": "1175200151",
    "name": "指定通所介護事業所　ルーエハイム",
    "kana": "シテイツウショカイゴジギョウショ　ルーエハイム",
    "address": "埼玉県桶川市川田谷４９４８－１",
    "lat": 35.9943739,
    "lng": 139.5189026,
    "tel": "048-786-5550",
    "url": "http://www.anseifukushikai.or.jp",
    "pref": "埼玉県",
    "city": "桶川市",
    "category": "community_day_service",
    "serviceType": "地域密着型通所介護",
    "capacity": 0,
    "openDays": [
      "平日",
      "土曜日",
      "祝日"
    ],
    "openDaysNote": ""
  },
  {
    "id": "1173600394",
    "name": "いちごデイサービス",
    "kana": "イチゴデイサービス",
    "address": "埼玉県加須市正能5-10",
    "lat": 36.1107482226057,
    "lng": 139.567250149074,
    "tel": "0480-73-1518",
    "url": "ichigodayy.wixsite.com/ichigo",
    "pref": "埼玉県",
    "city": "加須市",
    "category": "community_day_service",
    "serviceType": "地域密着型通所介護",
    "capacity": 10,
    "openDays": [
      "平日",
      "祝日"
    ],
    "openDaysNote": ""
  },
  {
    "id": "1193800164",
    "name": "デイサービスセンターハーモニー",
    "kana": "デイサービスセンターハーモニー",
    "address": "埼玉県加須市本町６－３３本町福島クリニック　３階 本町福島クリニック　３階",
    "lat": 36.1246592,
    "lng": 139.6010984,
    "tel": "0480-48-7561",
    "url": "fhos.jp",
    "pref": "埼玉県",
    "city": "加須市",
    "category": "community_day_service",
    "serviceType": "地域密着型通所介護",
    "capacity": null,
    "openDays": [
      "平日",
      "土曜日",
      "祝日"
    ],
    "openDaysNote": ""
  },
  {
    "id": "1173800499",
    "name": "デイサービスセンターひばりの里",
    "kana": "デイサービスセンターヒバリノサト",
    "address": "埼玉県加須市久下字高畑１６２５番地１",
    "lat": 36.1163061,
    "lng": 139.6084963,
    "tel": "0480-67-0069",
    "url": "http://hibarinosato.main.jp/",
    "pref": "埼玉県",
    "city": "加須市",
    "category": "community_day_service",
    "serviceType": "地域密着型通所介護",
    "capacity": 3,
    "openDays": [
      "平日",
      "日曜日",
      "祝日"
    ],
    "openDaysNote": ""
  },
  {
    "id": "1173800549",
    "name": "デイサービスセンターひまわり",
    "kana": "デイサービスセンターヒマワリ",
    "address": "埼玉県加須市向川岸町７－３９",
    "lat": 36.127133,
    "lng": 139.5997947,
    "tel": "0480-61-3069",
    "url": "http://www.i-k-m.com",
    "pref": "埼玉県",
    "city": "加須市",
    "category": "community_day_service",
    "serviceType": "地域密着型通所介護",
    "capacity": 15,
    "openDays": [
      "平日",
      "祝日"
    ],
    "openDaysNote": "年末年始12月30日～1月3日は営業を見合わせています。（改行）通所サービスの提供時間は９:１５～１６:３０になります。"
  },
  {
    "id": "1173801166",
    "name": "デイサービス未来加須",
    "kana": "デイサービスミライカゾ",
    "address": "埼玉県加須市元町９－１０ー ー",
    "lat": 36.1233974,
    "lng": 139.6020668,
    "tel": "0480-53-8860",
    "url": "http://www.e-kagu.jp/kaigo/kaigo.html",
    "pref": "埼玉県",
    "city": "加須市",
    "category": "community_day_service",
    "serviceType": "地域密着型通所介護",
    "capacity": 20,
    "openDays": [
      "平日",
      "土曜日",
      "祝日"
    ],
    "openDaysNote": "年末年始の休業日（12/30～翌年1/30）、及び8月中に休業日1日。"
  },
  {
    "id": "1173800697",
    "name": "ミモザ花崎",
    "kana": "ミモザハナサキ",
    "address": "埼玉県加須市花崎北1-18-2",
    "lat": 36.1104496,
    "lng": 139.6336081,
    "tel": "0480-48-6026",
    "url": "http://www.mimoza-care.jp/",
    "pref": "埼玉県",
    "city": "加須市",
    "category": "community_day_service",
    "serviceType": "地域密着型通所介護",
    "capacity": 0,
    "openDays": [
      "平日",
      "土曜日",
      "祝日"
    ],
    "openDaysNote": "台風、大雪など荒天で、ご利用者の安全が守れない恐れがある時、、営業中止させていただく場合あり。"
  },
  {
    "id": "1173801133",
    "name": "リハスタジオ・プラス",
    "kana": "リハスタジオ・プラス",
    "address": "埼玉県加須市南町6-15",
    "lat": 36.1195062,
    "lng": 139.6013447,
    "tel": "0480-62-0012",
    "url": "www.hope-seed.com",
    "pref": "埼玉県",
    "city": "加須市",
    "category": "community_day_service",
    "serviceType": "地域密着型通所介護",
    "capacity": 15,
    "openDays": [
      "平日",
      "土曜日",
      "祝日"
    ],
    "openDaysNote": ""
  },
  {
    "id": "1173800945",
    "name": "リハスタジオ花咲",
    "kana": "リハスタジオハナサキ",
    "address": "埼玉県加須市鴻茎6-1",
    "lat": 36.0971774496279,
    "lng": 139.580210355006,
    "tel": "0480-53-7143",
    "url": "http://hope-seed.com",
    "pref": "埼玉県",
    "city": "加須市",
    "category": "community_day_service",
    "serviceType": "地域密着型通所介護",
    "capacity": 20,
    "openDays": [
      "平日",
      "土曜日",
      "祝日"
    ],
    "openDaysNote": ""
  },
  {
    "id": "1193800123",
    "name": "結　デイサービス",
    "kana": "ユイ　デイサアビス",
    "address": "埼玉県加須市下谷1439",
    "lat": 36.1460678,
    "lng": 139.5971863,
    "tel": "0480-62-6339",
    "url": "",
    "pref": "埼玉県",
    "city": "加須市",
    "category": "community_day_service",
    "serviceType": "地域密着型通所介護",
    "capacity": 0,
    "openDays": [
      "平日",
      "土曜日",
      "祝日"
    ],
    "openDaysNote": ""
  },
  {
    "id": "1193800081",
    "name": "早稲田イーライフ加須",
    "kana": "ワセダイーライフカゾ",
    "address": "埼玉県加須市向川岸町4-29",
    "lat": 36.1286828,
    "lng": 139.5999585,
    "tel": "0480-53-5173",
    "url": "",
    "pref": "埼玉県",
    "city": "加須市",
    "category": "community_day_service",
    "serviceType": "地域密着型通所介護",
    "capacity": 0,
    "openDays": [
      "平日",
      "祝日"
    ],
    "openDaysNote": ""
  },
  {
    "id": "1174801116",
    "name": "デイサービスだいきゅう",
    "kana": "デイサービスダイキュウ",
    "address": "埼玉県秩父郡皆野町皆野187",
    "lat": 36.062302,
    "lng": 139.094944,
    "tel": "0494-26-6193",
    "url": "",
    "pref": "埼玉県",
    "city": "皆野町",
    "category": "community_day_service",
    "serviceType": "地域密着型通所介護",
    "capacity": null,
    "openDays": [
      "平日",
      "土曜日",
      "日曜日",
      "祝日"
    ],
    "openDaysNote": ""
  },
  {
    "id": "1174900801",
    "name": "デイサービスやまなみ",
    "kana": "デイサービスヤマナミ",
    "address": "秩父郡皆野町大渕６１６番地３",
    "lat": 35.9959074,
    "lng": 139.0778007,
    "tel": "0494-26-5452",
    "url": "",
    "pref": "埼玉県",
    "city": "皆野町",
    "category": "community_day_service",
    "serviceType": "地域密着型通所介護",
    "capacity": 0,
    "openDays": [
      "平日",
      "祝日"
    ],
    "openDaysNote": ""
  },
  {
    "id": "1173201532",
    "name": "通所介護事業所森林園",
    "kana": "ツウショカイゴジギョウショシンリンエン",
    "address": "埼玉県比企郡滑川町大字羽尾字寺谷4738-2",
    "lat": 36.0550500643127,
    "lng": 139.363083924884,
    "tel": "0493-56-5636",
    "url": "https://www.shinrinen.or.jp/",
    "pref": "埼玉県",
    "city": "滑川町",
    "category": "community_day_service",
    "serviceType": "地域密着型通所介護",
    "capacity": 0,
    "openDays": [
      "平日",
      "土曜日",
      "祝日"
    ],
    "openDaysNote": ""
  },
  {
    "id": "1174501401",
    "name": "あかつき苑",
    "kana": "アカツキエン",
    "address": "埼玉県大里郡寄居町西ノ入１７９９－１",
    "lat": 36.0841558,
    "lng": 139.1944304,
    "tel": "048-598-8001",
    "url": "http://www..gh-akatuki.net/",
    "pref": "埼玉県",
    "city": "寄居町",
    "category": "community_day_service",
    "serviceType": "地域密着型通所介護",
    "capacity": 14,
    "openDays": [
      "平日",
      "土曜日",
      "日曜日",
      "祝日"
    ],
    "openDaysNote": "営業時間の前後３時間の延長サービスの提供ができる"
  },
  {
    "id": "1174500288",
    "name": "あきやま苑デイサービスセンター",
    "kana": "アキヤマエンデイサービスセンター",
    "address": "埼玉県大里郡寄居町寄居141-1",
    "lat": 36.1182170287838,
    "lng": 139.187579882829,
    "tel": "048-580-1212",
    "url": "http://eijyukai-akiyamaen.jp",
    "pref": "埼玉県",
    "city": "寄居町",
    "category": "community_day_service",
    "serviceType": "地域密着型通所介護",
    "capacity": 15,
    "openDays": [
      "平日",
      "土曜日",
      "祝日"
    ],
    "openDaysNote": "特になし"
  },
  {
    "id": "1194500144",
    "name": "デイサービスセンタースマイル",
    "kana": "デイサービスセンタースマイル",
    "address": "埼玉県大里郡寄居町大字用土２４５１番地２グリーンビレッジ大里 グリーンビレッジ大里",
    "lat": 36.1760103,
    "lng": 139.1901144,
    "tel": "048-584-7766",
    "url": "http://gv-go.com",
    "pref": "埼玉県",
    "city": "寄居町",
    "category": "community_day_service",
    "serviceType": "地域密着型通所介護",
    "capacity": 18,
    "openDays": [
      "平日",
      "土曜日",
      "日曜日",
      "祝日"
    ],
    "openDaysNote": ""
  },
  {
    "id": "1174501252",
    "name": "デイサービスセンターよりいほうむ",
    "kana": "デイサービスセンターヨリイホウム",
    "address": "埼玉県大里郡寄居町大字寄居１７１２番地１",
    "lat": 36.120323,
    "lng": 139.1822902,
    "tel": "048-581-2343",
    "url": "",
    "pref": "埼玉県",
    "city": "寄居町",
    "category": "community_day_service",
    "serviceType": "地域密着型通所介護",
    "capacity": 4,
    "openDays": [
      "平日",
      "土曜日",
      "日曜日",
      "祝日"
    ],
    "openDaysNote": ""
  },
  {
    "id": "1194500136",
    "name": "介護デイサービス彩優",
    "kana": "カイゴデイサービスサイユウ",
    "address": "埼玉県大里郡寄居町大字西ノ入476-1",
    "lat": 36.0952734,
    "lng": 139.194202,
    "tel": "048-586-0900",
    "url": "",
    "pref": "埼玉県",
    "city": "寄居町",
    "category": "community_day_service",
    "serviceType": "地域密着型通所介護",
    "capacity": 0,
    "openDays": [
      "平日"
    ],
    "openDaysNote": ""
  },
  {
    "id": "1193200209",
    "name": "デイサービスセンター　よしみの",
    "kana": "デイサービスセンター　ヨシミノ",
    "address": "埼玉県比企郡吉見町地頭方３３３ケアハウスよしみの ケアハウスよしみの",
    "lat": 36.0604938070659,
    "lng": 139.457889886508,
    "tel": "0493-54-5544",
    "url": "http://www.yoshimino.or.jp",
    "pref": "埼玉県",
    "city": "吉見町",
    "category": "community_day_service",
    "serviceType": "地域密着型通所介護",
    "capacity": 18,
    "openDays": [
      "平日",
      "土曜日",
      "祝日"
    ],
    "openDaysNote": ""
  },
  {
    "id": "1173201839",
    "name": "リハビリデイサービス　やまざき",
    "kana": "リハビリデイサービス　ヤマザキ",
    "address": "山ノ下886",
    "lat": 37.9401094,
    "lng": 139.0739956,
    "tel": "0493-81-6604",
    "url": "https://rihabiridayymzk.wixsite.com/home",
    "pref": "埼玉県",
    "city": "吉見町",
    "category": "community_day_service",
    "serviceType": "地域密着型通所介護",
    "capacity": 100,
    "openDays": [
      "平日"
    ],
    "openDaysNote": ""
  },
  {
    "id": "1173201730",
    "name": "株式会社　なの花苑　デイサービス　なの花苑",
    "kana": "カブシキガイシャ　ナノハナエン　デイサービス　ナノハナエン",
    "address": "埼玉県比企郡吉見町飯島新田７８０",
    "lat": 36.0270499,
    "lng": 139.4841668,
    "tel": "0493－54－1117",
    "url": "",
    "pref": "埼玉県",
    "city": "吉見町",
    "category": "community_day_service",
    "serviceType": "地域密着型通所介護",
    "capacity": 9,
    "openDays": [
      "平日",
      "土曜日",
      "祝日"
    ],
    "openDaysNote": ""
  },
  {
    "id": "1196400103",
    "name": "MarvelousReha",
    "kana": "マーベラスリハ",
    "address": "埼玉県吉川市吉川団地1-6-101",
    "lat": 35.8922575,
    "lng": 139.8466606,
    "tel": "048-961-8164",
    "url": "",
    "pref": "埼玉県",
    "city": "吉川市",
    "category": "community_day_service",
    "serviceType": "地域密着型通所介護",
    "capacity": 15,
    "openDays": [
      "平日",
      "土曜日",
      "祝日"
    ],
    "openDaysNote": "午前中は、9：00～12：05（予防の方は、2時間）（改行）午後は、13：25～16：30（予防の方は、2時間）"
  },
  {
    "id": "1176400701",
    "name": "リハビリデイサービスＯＮＥ",
    "kana": "リハビリデイサービスワン",
    "address": "埼玉県吉川市きよみ野2-25-1きよみ野ビル102 きよみ野ビル102",
    "lat": 35.8943523028467,
    "lng": 139.848624064418,
    "tel": "048-940-8717",
    "url": "",
    "pref": "埼玉県",
    "city": "吉川市",
    "category": "community_day_service",
    "serviceType": "地域密着型通所介護",
    "capacity": 5,
    "openDays": [
      "平日",
      "土曜日"
    ],
    "openDaysNote": "サービス提供時間は1単位目午前9時から12時5分、2単位目午後2時から5時5分までとなります。（改行）年末年始の休日及び開設記念の休日は毎年変更になります。"
  },
  {
    "id": "1196400186",
    "name": "リハビリデイねむの木",
    "kana": "リハビリデイネムノキ",
    "address": "埼玉県吉川市吉川1-28-1エトワール吉川1階 エトワール吉川1階",
    "lat": 35.8900279,
    "lng": 139.842632,
    "tel": "048-984-5555",
    "url": "",
    "pref": "埼玉県",
    "city": "吉川市",
    "category": "community_day_service",
    "serviceType": "地域密着型通所介護",
    "capacity": null,
    "openDays": [
      "平日"
    ],
    "openDaysNote": ""
  },
  {
    "id": "1196400145",
    "name": "リハビリ特化型自立支援型デイサービス　アクティブサポート",
    "kana": "リハビリトッカガタジリツシエンガタデイサービス　アクティブサポート",
    "address": "埼玉県吉川市平沼143番地1",
    "lat": 35.8836863,
    "lng": 139.8413756,
    "tel": "048-973-7492",
    "url": "https://aktiv-sp.jp/",
    "pref": "埼玉県",
    "city": "吉川市",
    "category": "community_day_service",
    "serviceType": "地域密着型通所介護",
    "capacity": 0,
    "openDays": [
      "平日"
    ],
    "openDaysNote": ""
  },
  {
    "id": "1176400412",
    "name": "医療法人相羽医院　たんぽぽ",
    "kana": "イリョウホウジンアイバイイン　タンポポ",
    "address": "埼玉県吉川市中央３丁目２８番地２",
    "lat": 35.8925715,
    "lng": 139.8571598,
    "tel": "048-983-8872",
    "url": "http://www.aibaiin.or.jp",
    "pref": "埼玉県",
    "city": "吉川市",
    "category": "community_day_service",
    "serviceType": "地域密着型通所介護",
    "capacity": 15,
    "openDays": [
      "平日",
      "土曜日",
      "祝日"
    ],
    "openDaysNote": "緊急時には、電話等により連絡がとれる体制をとっています。"
  },
  {
    "id": "1176400081",
    "name": "社会福祉法人　楽栄会　ききょう苑",
    "kana": "シャカイフクシホウジン　ラクエイカイ　キキョウエン",
    "address": "吉川市大字飯島274番地",
    "lat": 35.8801282,
    "lng": 139.8813808,
    "tel": "048-984-1603",
    "url": "http://kikyouen-rakueikai.jimdofree.com/",
    "pref": "埼玉県",
    "city": "吉川市",
    "category": "community_day_service",
    "serviceType": "地域密着型通所介護",
    "capacity": null,
    "openDays": [
      "平日",
      "土曜日",
      "日曜日",
      "祝日"
    ],
    "openDaysNote": ""
  },
  {
    "id": "1196400129",
    "name": "社会福祉法人平成会　吉川平成園",
    "kana": "シャカイフクシホウジン　ヨシカワヘイセイエン",
    "address": "埼玉県吉川市大字加藤字中道１８７－１",
    "lat": 35.8889311,
    "lng": 139.8815153,
    "tel": "048-981-8811",
    "url": "https://y-heiseien.net/",
    "pref": "埼玉県",
    "city": "吉川市",
    "category": "community_day_service",
    "serviceType": "地域密着型通所介護",
    "capacity": 0,
    "openDays": [
      "平日",
      "土曜日",
      "祝日"
    ],
    "openDaysNote": ""
  },
  {
    "id": "1170900482",
    "name": "あおぞらデイサービス久喜",
    "kana": "アオゾラデイサービスクキ",
    "address": "埼玉県久喜市青葉3-20-3",
    "lat": 36.0690253,
    "lng": 139.6986991,
    "tel": "0480-29-1620",
    "url": "https://aozora8639.jimdofree.com/",
    "pref": "埼玉県",
    "city": "久喜市",
    "category": "community_day_service",
    "serviceType": "地域密着型通所介護",
    "capacity": 18,
    "openDays": [
      "平日",
      "祝日"
    ],
    "openDaysNote": "お休みの場合はお早めにご連絡くださいますようお願いいたします。"
  },
  {
    "id": "1170900748",
    "name": "いきいきステーション",
    "kana": "イキイキステーション",
    "address": "埼玉県久喜市青葉4-3-3",
    "lat": 36.07215,
    "lng": 139.7000405,
    "tel": "0480-53-5000",
    "url": "https://aozora21.jimdofree.com/",
    "pref": "埼玉県",
    "city": "久喜市",
    "category": "community_day_service",
    "serviceType": "地域密着型通所介護",
    "capacity": 18,
    "openDays": [
      "平日",
      "土曜日",
      "祝日"
    ],
    "openDaysNote": ""
  },
  {
    "id": "1170900995",
    "name": "たんぽぽ",
    "kana": "タンポポ",
    "address": "埼玉県久喜市南1-8-18",
    "lat": 36.0632563,
    "lng": 139.6719153,
    "tel": "0480-53-7381",
    "url": "https://tanpopo-dayservice.com",
    "pref": "埼玉県",
    "city": "久喜市",
    "category": "community_day_service",
    "serviceType": "地域密着型通所介護",
    "capacity": 0,
    "openDays": [
      "平日",
      "祝日"
    ],
    "openDaysNote": ""
  },
  {
    "id": "1170901191",
    "name": "だんらんの家　栗橋",
    "kana": "ダンランノイエ　クリハシ",
    "address": "埼玉県久喜市緑1-6-5",
    "lat": 36.1309622,
    "lng": 139.6945417,
    "tel": "0480-53-7913",
    "url": "https://danrannoie.com/archives/1737",
    "pref": "埼玉県",
    "city": "久喜市",
    "category": "community_day_service",
    "serviceType": "地域密着型通所介護",
    "capacity": 10,
    "openDays": [
      "平日",
      "土曜日",
      "日曜日",
      "祝日"
    ],
    "openDaysNote": "原則、365日営業しております。"
  },
  {
    "id": "1190900173",
    "name": "デイサービス　ウィング翔",
    "kana": "デイサービス　ウィング　ショウ",
    "address": "埼玉県久喜市南栗橋5-17-9",
    "lat": 36.1076709,
    "lng": 139.7138677,
    "tel": "0480-38-6291",
    "url": "",
    "pref": "埼玉県",
    "city": "久喜市",
    "category": "community_day_service",
    "serviceType": "地域密着型通所介護",
    "capacity": 0,
    "openDays": [
      "平日",
      "土曜日",
      "日曜日",
      "祝日"
    ],
    "openDaysNote": ""
  },
  {
    "id": "1170901068",
    "name": "デイサービス　にこにこ",
    "kana": "デイサービス　ニコニコ",
    "address": "埼玉県久喜市除堀1523番地14",
    "lat": 36.0492353164955,
    "lng": 139.645606293254,
    "tel": "0480-53-7425",
    "url": "",
    "pref": "埼玉県",
    "city": "久喜市",
    "category": "community_day_service",
    "serviceType": "地域密着型通所介護",
    "capacity": 0,
    "openDays": [
      "平日",
      "土曜日",
      "祝日"
    ],
    "openDaysNote": ""
  },
  {
    "id": "1170901027",
    "name": "でいさーびす　ぽけっと　かめさん",
    "kana": "デイサービス　ポケット　カメサン",
    "address": "埼玉県久喜市八甫３９０－９",
    "lat": 36.0983437,
    "lng": 139.6875322,
    "tel": "0480-59-1025",
    "url": "",
    "pref": "埼玉県",
    "city": "久喜市",
    "category": "community_day_service",
    "serviceType": "地域密着型通所介護",
    "capacity": 0,
    "openDays": [
      "平日",
      "土曜日",
      "祝日"
    ],
    "openDaysNote": ""
  },
  {
    "id": "1170901209",
    "name": "ほっと・ケアライフデイサービス",
    "kana": "ホット・ケアライフデイサービス",
    "address": "埼玉県久喜市間鎌470－1ハーウィル栗橋 ハーウィル栗橋",
    "lat": 36.1197845328161,
    "lng": 139.698913292625,
    "tel": "050-5784-9193",
    "url": "http://www.hot-carelife.com/dayservice/index.html",
    "pref": "埼玉県",
    "city": "久喜市",
    "category": "community_day_service",
    "serviceType": "地域密着型通所介護",
    "capacity": 3,
    "openDays": [
      "平日",
      "土曜日",
      "祝日"
    ],
    "openDaysNote": "年末年始(12/30～1/3)はお休みになります。"
  },
  {
    "id": "1190900181",
    "name": "みらいちリハ江面",
    "kana": "ミライチリハエズラ",
    "address": "江面491-1",
    "lat": 36.061427,
    "lng": 139.6579635,
    "tel": "0480-37-8358",
    "url": "",
    "pref": "埼玉県",
    "city": "久喜市",
    "category": "community_day_service",
    "serviceType": "地域密着型通所介護",
    "capacity": null,
    "openDays": [
      "平日",
      "祝日"
    ],
    "openDaysNote": "年末年始休業：12月30日～1月3日"
  },
  {
    "id": "1170900912",
    "name": "わしのみやリハビリデイサービス",
    "kana": "ワシノミヤリハビリデイサービス",
    "address": "埼玉県久喜市鷲宮3丁目2284-1",
    "lat": 36.1045043354231,
    "lng": 139.658659604624,
    "tel": "0480-31-6651",
    "url": "qnjjt435@ybb.ne.jp",
    "pref": "埼玉県",
    "city": "久喜市",
    "category": "community_day_service",
    "serviceType": "地域密着型通所介護",
    "capacity": 0,
    "openDays": [
      "平日",
      "土曜日",
      "祝日"
    ],
    "openDaysNote": ""
  },
  {
    "id": "1190900116",
    "name": "街のお風呂やさん　くき",
    "kana": "マチノオフロヤサンクキ",
    "address": "埼玉県久喜市古久喜845-1ライオンズガーデン久喜店舗棟1号室 ライオンズガーデン久喜店舗棟1号室",
    "lat": 36.072872,
    "lng": 139.6805735,
    "tel": "0480-29-0020",
    "url": "",
    "pref": "埼玉県",
    "city": "久喜市",
    "category": "community_day_service",
    "serviceType": "地域密着型通所介護",
    "capacity": 0,
    "openDays": [
      "平日",
      "祝日"
    ],
    "openDaysNote": "夏季・冬季休業各５日間"
  },
  {
    "id": "1190900165",
    "name": "株式会社ＭｉＲＡｉＴｉ",
    "kana": "カブシキガイシャ　ミライチ",
    "address": "埼玉県久喜市本町5-13-17ダイワビル１Ｆ ダイワビル１Ｆ",
    "lat": 36.071482,
    "lng": 139.6622796,
    "tel": "0480-31-9656",
    "url": "",
    "pref": "埼玉県",
    "city": "久喜市",
    "category": "community_day_service",
    "serviceType": "地域密着型通所介護",
    "capacity": null,
    "openDays": [
      "平日",
      "土曜日",
      "祝日"
    ],
    "openDaysNote": "年末年始休業：12月30日～1月3日"
  },
  {
    "id": "1170901365",
    "name": "吉羽デイサービスセンター縁",
    "kana": "ヨシバデイサービスセンターエニシ",
    "address": "埼玉県久喜市吉羽１－３８－１６",
    "lat": 36.0658531,
    "lng": 139.6880777,
    "tel": "０４８０－８８－２４７６",
    "url": "",
    "pref": "埼玉県",
    "city": "久喜市",
    "category": "community_day_service",
    "serviceType": "地域密着型通所介護",
    "capacity": 0,
    "openDays": [
      "平日",
      "土曜日",
      "祝日"
    ],
    "openDaysNote": "年末年始の休日は状況に応じて変動あり"
  },
  {
    "id": "1170901175",
    "name": "早稲田イーライフ久喜",
    "kana": "ワセダイーライフクキ",
    "address": "埼玉県久喜市野久喜1231-1",
    "lat": 36.0699082,
    "lng": 139.6815308,
    "tel": "0480-53-8094",
    "url": "",
    "pref": "埼玉県",
    "city": "久喜市",
    "category": "community_day_service",
    "serviceType": "地域密着型通所介護",
    "capacity": 0,
    "openDays": [
      "平日",
      "祝日"
    ],
    "openDaysNote": ""
  },
  {
    "id": "1170901324",
    "name": "地域密着型通所介護事業所　喜びの里鷲宮",
    "kana": "チイキミッチャクガタツウショカイゴジギョウショ　ヨロコビノサトワシノミヤ",
    "address": "埼玉県久喜市鷲宮3055-1",
    "lat": 36.1026875627481,
    "lng": 139.669075431274,
    "tel": "0480-98-2100",
    "url": "http://www.kukinosato.jp/yorokobinosato/",
    "pref": "埼玉県",
    "city": "久喜市",
    "category": "community_day_service",
    "serviceType": "地域密着型通所介護",
    "capacity": 18,
    "openDays": [
      "平日",
      "土曜日"
    ],
    "openDaysNote": ""
  },
  {
    "id": "1170900755",
    "name": "和み堂　はばたき",
    "kana": "ナゴミドウ　ハバタキ",
    "address": "埼玉県久喜市北青柳38-5",
    "lat": 36.0560625543895,
    "lng": 139.665846490971,
    "tel": "0480-26-2150",
    "url": "http://melphis.co.jp/",
    "pref": "埼玉県",
    "city": "久喜市",
    "category": "community_day_service",
    "serviceType": "地域密着型通所介護",
    "capacity": 0,
    "openDays": [
      "平日",
      "土曜日",
      "祝日"
    ],
    "openDaysNote": "夜間および、デイルーム定休日は転送電話にて対応（改行）年末年始…会社カレンダーによる"
  },
  {
    "id": "1170501025",
    "name": "デイサービスセンターリンク",
    "kana": "デイサービスセンターリンク",
    "address": "埼玉県南埼玉郡宮代町川端3丁目11番地38",
    "lat": 36.0034783354535,
    "lng": 139.743247419574,
    "tel": "0480-44-8093",
    "url": "http://www.e-crea.biz",
    "pref": "埼玉県",
    "city": "宮代町",
    "category": "community_day_service",
    "serviceType": "地域密着型通所介護",
    "capacity": 0,
    "openDays": [
      "平日",
      "土曜日",
      "祝日"
    ],
    "openDaysNote": "祝祭日は通常通り営業しております。"
  },
  {
    "id": "1170500597",
    "name": "デイサービス喜楽里",
    "kana": "デイサービスキラリ",
    "address": "埼玉県南埼玉郡宮代町川端３－８－２５",
    "lat": 36.0031978,
    "lng": 139.7420651,
    "tel": "0480-36-3621",
    "url": "http://www.kirari.or.jp/",
    "pref": "埼玉県",
    "city": "宮代町",
    "category": "community_day_service",
    "serviceType": "地域密着型通所介護",
    "capacity": 18,
    "openDays": [
      "平日",
      "祝日"
    ],
    "openDaysNote": ""
  },
  {
    "id": "1192700290",
    "name": "K＆SリハONE合同会社",
    "kana": "ケイアンドエスリハワンゴウドウガイシャ",
    "address": "埼玉県狭山市大字水野453-1ヒルグランデ101号 ヒルグランデ101号",
    "lat": 35.8309229,
    "lng": 139.4314276,
    "tel": "429415855",
    "url": "",
    "pref": "埼玉県",
    "city": "狭山市",
    "category": "community_day_service",
    "serviceType": "地域密着型通所介護",
    "capacity": 40,
    "openDays": [
      "平日",
      "土曜日"
    ],
    "openDaysNote": "年末年始休暇あり。"
  },
  {
    "id": "1172701391",
    "name": "アカラリゾート",
    "kana": "アカラリゾート",
    "address": "埼玉県狭山市富士見1-27-25アマン富士見・1階 アマン富士見・1階",
    "lat": 35.8505809811467,
    "lng": 139.417895471164,
    "tel": "04-2935-3604",
    "url": "melphis.co.jp",
    "pref": "埼玉県",
    "city": "狭山市",
    "category": "community_day_service",
    "serviceType": "地域密着型通所介護",
    "capacity": 0,
    "openDays": [
      "平日",
      "土曜日",
      "祝日"
    ],
    "openDaysNote": ""
  },
  {
    "id": "1172701433",
    "name": "シニアライフサポートセンター　ディフィットえみあす",
    "kana": "シニアライフサポートセンター　ディフィットエミアス",
    "address": "狭山市富士見2丁目21番地27号",
    "lat": 35.8457099,
    "lng": 139.4214564,
    "tel": "04-2950-2211",
    "url": "http://www.emius.co.jp",
    "pref": "埼玉県",
    "city": "狭山市",
    "category": "community_day_service",
    "serviceType": "地域密着型通所介護",
    "capacity": 18,
    "openDays": [
      "平日",
      "土曜日",
      "祝日"
    ],
    "openDaysNote": "祝祭日も営業。（改行）夏季休業・年末年始休業あり。"
  },
  {
    "id": "1172701698",
    "name": "だんらんの家狭山",
    "kana": "ダンランノイエサヤマ",
    "address": "埼玉県狭山市入間川3丁目8番20号",
    "lat": 35.8563901,
    "lng": 139.4074247,
    "tel": "04-2952-5341",
    "url": "http://caretasu.com/A2030?t_shisetsucode=1101847",
    "pref": "埼玉県",
    "city": "狭山市",
    "category": "community_day_service",
    "serviceType": "地域密着型通所介護",
    "capacity": 10,
    "openDays": [
      "平日",
      "土曜日",
      "日曜日",
      "祝日"
    ],
    "openDaysNote": ""
  },
  {
    "id": "1192700258",
    "name": "ちゃのみサロン",
    "kana": "チャノミサロン",
    "address": "埼玉県狭山市柏原2699番地2",
    "lat": 35.8718535745548,
    "lng": 139.405122558996,
    "tel": "０４－２９０２－６６６０",
    "url": "https://npo.cha.com",
    "pref": "埼玉県",
    "city": "狭山市",
    "category": "community_day_service",
    "serviceType": "地域密着型通所介護",
    "capacity": null,
    "openDays": [
      "平日",
      "土曜日",
      "祝日"
    ],
    "openDaysNote": "12月30日～1月3日(5日間)休日"
  },
  {
    "id": "1192700159",
    "name": "デイサービスセンター椿・狭山",
    "kana": "デイサービスセンターツバキサヤマ",
    "address": "埼玉県狭山市入間川1730-1",
    "lat": 35.8598973329776,
    "lng": 139.421204213706,
    "tel": "04-2946-9816",
    "url": "http://hp.kaipoke.biz/knc/",
    "pref": "埼玉県",
    "city": "狭山市",
    "category": "community_day_service",
    "serviceType": "地域密着型通所介護",
    "capacity": 0,
    "openDays": [
      "平日",
      "土曜日",
      "祝日"
    ],
    "openDaysNote": "その他、年末年始12/30～1/3"
  },
  {
    "id": "1172701243",
    "name": "デイサービスちゃのみの家",
    "kana": "デイサービスチャノミノイエ",
    "address": "狭山市柏原２２３０－１",
    "lat": 35.8890928,
    "lng": 139.410434,
    "tel": "04-2936-6457",
    "url": "https://npo-cha.com",
    "pref": "埼玉県",
    "city": "狭山市",
    "category": "community_day_service",
    "serviceType": "地域密着型通所介護",
    "capacity": 16,
    "openDays": [
      "平日",
      "土曜日",
      "祝日"
    ],
    "openDaysNote": "休日も営業時間も利用者の状況に応じて柔軟に対応"
  },
  {
    "id": "1172701060",
    "name": "デイサービス茶々",
    "kana": "デイサービスチャチャ",
    "address": "埼玉県狭山市狭山台２－２２－２４",
    "lat": 35.8567474,
    "lng": 139.4355969,
    "tel": "04-2950-0021",
    "url": "",
    "pref": "埼玉県",
    "city": "狭山市",
    "category": "community_day_service",
    "serviceType": "地域密着型通所介護",
    "capacity": 25,
    "openDays": [
      "平日",
      "土曜日",
      "祝日"
    ],
    "openDaysNote": "年末年始、１２月３１日、１月１日・２日・３日"
  },
  {
    "id": "1172701300",
    "name": "トータルケアサービスいずな",
    "kana": "トータルケアサービスイズナ",
    "address": "埼玉県狭山市下奥富７３７－１",
    "lat": 35.8813248,
    "lng": 139.4292437,
    "tel": "04-2968-8200",
    "url": "http://saitama-izuna.com/",
    "pref": "埼玉県",
    "city": "狭山市",
    "category": "community_day_service",
    "serviceType": "地域密着型通所介護",
    "capacity": 0,
    "openDays": [
      "平日",
      "土曜日",
      "日曜日",
      "祝日"
    ],
    "openDaysNote": ""
  },
  {
    "id": "1192700183",
    "name": "フィットリハ陽　富士見",
    "kana": "フィットリハヨウ　フジミ",
    "address": "埼玉県狭山市富士見1-27--18煉瓦館ノイエルンテA号室 煉瓦館ノイエルンテA号室",
    "lat": 35.8502034,
    "lng": 139.4181296,
    "tel": "429353339",
    "url": "https://sijinkai-you.com/",
    "pref": "埼玉県",
    "city": "狭山市",
    "category": "community_day_service",
    "serviceType": "地域密着型通所介護",
    "capacity": 0,
    "openDays": [
      "平日",
      "土曜日"
    ],
    "openDaysNote": ""
  },
  {
    "id": "1192700225",
    "name": "メディカルデイつむぎ",
    "kana": "メディカルデイツムギ",
    "address": "広瀬2-3-23",
    "lat": null,
    "lng": null,
    "tel": "04-2902-6811",
    "url": "https://syojukai-local-service.jp/tsumugi/",
    "pref": "埼玉県",
    "city": "狭山市",
    "category": "community_day_service",
    "serviceType": "地域密着型通所介護",
    "capacity": 0,
    "openDays": [
      "平日"
    ],
    "openDaysNote": ""
  },
  {
    "id": "1192700274",
    "name": "リイフ",
    "kana": "リイフ",
    "address": "埼玉県狭山市水野1265-10",
    "lat": 35.8195782,
    "lng": 139.4197458,
    "tel": "04-2941-4545",
    "url": "https://www.koai.co.jp/reif-kenbikan.html",
    "pref": "埼玉県",
    "city": "狭山市",
    "category": "community_day_service",
    "serviceType": "地域密着型通所介護",
    "capacity": null,
    "openDays": [
      "平日"
    ],
    "openDaysNote": ""
  },
  {
    "id": "1172701821",
    "name": "雅乃湯あから",
    "kana": "ミヤビノユアカラ",
    "address": "下奥富644",
    "lat": 35.8811376038622,
    "lng": 139.434913812898,
    "tel": "04-2937-5580",
    "url": "melphis.co.jp",
    "pref": "埼玉県",
    "city": "狭山市",
    "category": "community_day_service",
    "serviceType": "地域密着型通所介護",
    "capacity": 0,
    "openDays": [
      "平日",
      "土曜日",
      "祝日"
    ],
    "openDaysNote": "年末年始12/29～1/3"
  },
  {
    "id": "1193100243",
    "name": "GENKINEXT熊谷上之",
    "kana": "ゲンキネクスト　クマガヤカミノ",
    "address": "上之1881",
    "lat": 36.1545262,
    "lng": 139.4026598,
    "tel": "048-528-2227",
    "url": "",
    "pref": "埼玉県",
    "city": "熊谷市",
    "category": "community_day_service",
    "serviceType": "地域密着型通所介護",
    "capacity": 0,
    "openDays": [
      "平日",
      "祝日"
    ],
    "openDaysNote": ""
  },
  {
    "id": "1173102508",
    "name": "Kファミリー千代",
    "kana": "ケイファミリーセンダイ",
    "address": "埼玉県熊谷市千代293-1",
    "lat": 36.1197542,
    "lng": 139.3318961,
    "tel": "048-594-8870",
    "url": "",
    "pref": "埼玉県",
    "city": "熊谷市",
    "category": "community_day_service",
    "serviceType": "地域密着型通所介護",
    "capacity": null,
    "openDays": [
      "平日",
      "土曜日",
      "祝日"
    ],
    "openDaysNote": ""
  },
  {
    "id": "1173103225",
    "name": "カナケン　デイサービス未来",
    "kana": "カナケン　デイサービスミライ",
    "address": "埼玉県熊谷市中奈良1736",
    "lat": 36.1778701,
    "lng": 139.3740216,
    "tel": "048-501-5099",
    "url": "",
    "pref": "埼玉県",
    "city": "熊谷市",
    "category": "community_day_service",
    "serviceType": "地域密着型通所介護",
    "capacity": 0,
    "openDays": [
      "平日",
      "祝日"
    ],
    "openDaysNote": ""
  },
  {
    "id": "1173102888",
    "name": "デイサービス　きらめき",
    "kana": "デイサービス　キラメキ",
    "address": "埼玉県熊谷市佐谷田3769-3",
    "lat": 36.1298453,
    "lng": 139.403505,
    "tel": "048-501-5081",
    "url": "http://www.kumagaya-kirameki.com/",
    "pref": "埼玉県",
    "city": "熊谷市",
    "category": "community_day_service",
    "serviceType": "地域密着型通所介護",
    "capacity": 10,
    "openDays": [
      "平日",
      "土曜日",
      "祝日"
    ],
    "openDaysNote": ""
  },
  {
    "id": "1173102334",
    "name": "デイサービス　フォルテシモ　おおさと",
    "kana": "デイサービス　フォルテシモ　オオサト",
    "address": "埼玉県熊谷市船木台3-12-10",
    "lat": 36.0762004,
    "lng": 139.4187583,
    "tel": "0493-36-1700",
    "url": "",
    "pref": "埼玉県",
    "city": "熊谷市",
    "category": "community_day_service",
    "serviceType": "地域密着型通所介護",
    "capacity": 10,
    "openDays": [
      "平日",
      "土曜日"
    ],
    "openDaysNote": "８月１３日から８月１６日、１２月３０日から１月３日、当事業所が定めた日"
  },
  {
    "id": "1193100326",
    "name": "デイサービスありがたい熊谷",
    "kana": "クマガヤ",
    "address": "埼玉県熊谷市柿沼927-1",
    "lat": 36.1623281,
    "lng": 139.3838516,
    "tel": "048-599-1160",
    "url": "",
    "pref": "埼玉県",
    "city": "熊谷市",
    "category": "community_day_service",
    "serviceType": "地域密着型通所介護",
    "capacity": 10,
    "openDays": [
      "平日",
      "土曜日",
      "祝日"
    ],
    "openDaysNote": ""
  },
  {
    "id": "1173103134",
    "name": "デイサービスひらえ",
    "kana": "デイサービスヒラエ",
    "address": "埼玉県熊谷市塩443番地1",
    "lat": 36.1033755284186,
    "lng": 139.322718818784,
    "tel": "048-577-7750",
    "url": "",
    "pref": "埼玉県",
    "city": "熊谷市",
    "category": "community_day_service",
    "serviceType": "地域密着型通所介護",
    "capacity": 10,
    "openDays": [
      "平日",
      "土曜日",
      "祝日"
    ],
    "openDaysNote": "サービス提供時間は9:00～16:10　（改行）年末年始12/29～1/3は休み"
  },
  {
    "id": "1173101450",
    "name": "デイサービスふくしのまち熊谷平戸",
    "kana": "デイサービスフクシノマチクマガヤヒラト",
    "address": "埼玉県熊谷市平戸622-1",
    "lat": 36.1425857,
    "lng": 139.4095617,
    "tel": "048-522-6030",
    "url": "http://www.youism.co.jp",
    "pref": "埼玉県",
    "city": "熊谷市",
    "category": "community_day_service",
    "serviceType": "地域密着型通所介護",
    "capacity": 18,
    "openDays": [
      "平日",
      "土曜日",
      "祝日"
    ],
    "openDaysNote": ""
  },
  {
    "id": "1173102227",
    "name": "デイサービス心音",
    "kana": "デイサービスココネ",
    "address": "熊谷市肥塚５５３番地１３",
    "lat": 36.1622586,
    "lng": 139.3961093,
    "tel": "048-598-5682",
    "url": "",
    "pref": "埼玉県",
    "city": "熊谷市",
    "category": "community_day_service",
    "serviceType": "地域密着型通所介護",
    "capacity": 0,
    "openDays": [
      "平日"
    ],
    "openDaysNote": ""
  },
  {
    "id": "1193100318",
    "name": "デイリハセンターうちリハ籠原店",
    "kana": "デイリハセンターウチリハカゴハラテン",
    "address": "埼玉県熊谷市籠原南1-288",
    "lat": 36.1734666,
    "lng": 139.3267775,
    "tel": "048-501-6675",
    "url": "http://waichi.hp.gogo.jp/",
    "pref": "埼玉県",
    "city": "熊谷市",
    "category": "community_day_service",
    "serviceType": "地域密着型通所介護",
    "capacity": 0,
    "openDays": [
      "平日",
      "祝日"
    ],
    "openDaysNote": "祝日は営業しています。"
  },
  {
    "id": "1174602050",
    "name": "ファミリーケア　深谷さくら物語",
    "kana": "ファミリーケア　フカヤサクラモノガタリ",
    "address": "埼玉県熊谷市新堀915-10エクスバル熊谷101 エクスバル熊谷101",
    "lat": 36.1791179026619,
    "lng": 139.332659931511,
    "tel": "０４８－５８０－６０６８",
    "url": "http://yamahirogroup.co.jp",
    "pref": "埼玉県",
    "city": "熊谷市",
    "category": "community_day_service",
    "serviceType": "地域密着型通所介護",
    "capacity": 18,
    "openDays": [
      "平日",
      "土曜日",
      "日曜日",
      "祝日"
    ],
    "openDaysNote": ""
  },
  {
    "id": "1173100759",
    "name": "ほしのみやデイサービスセンター",
    "kana": "ホシノミヤデイサービスセンター",
    "address": "熊谷市池上576-1",
    "lat": 36.1543032793223,
    "lng": 139.422294493918,
    "tel": "048-525-0088",
    "url": "",
    "pref": "埼玉県",
    "city": "熊谷市",
    "category": "community_day_service",
    "serviceType": "地域密着型通所介護",
    "capacity": 0,
    "openDays": [
      "平日"
    ],
    "openDaysNote": ""
  },
  {
    "id": "1174601003",
    "name": "みどりの里デイサービスセンター",
    "kana": "ミドリノサトデイサービスセンター",
    "address": "埼玉県熊谷市戸出１０４７番５",
    "lat": 36.1395,
    "lng": 139.4127838,
    "tel": "048-599-3602",
    "url": "http://www17.plala.or.jp/Midorinosato/",
    "pref": "埼玉県",
    "city": "熊谷市",
    "category": "community_day_service",
    "serviceType": "地域密着型通所介護",
    "capacity": 0,
    "openDays": [
      "平日",
      "土曜日",
      "日曜日",
      "祝日"
    ],
    "openDaysNote": ""
  },
  {
    "id": "1173102557",
    "name": "もみリハの家",
    "kana": "モミリハノイエ",
    "address": "埼玉県熊谷市押切2554-8",
    "lat": 36.1127073002049,
    "lng": 139.34642057777,
    "tel": "048-501-8470",
    "url": "",
    "pref": "埼玉県",
    "city": "熊谷市",
    "category": "community_day_service",
    "serviceType": "地域密着型通所介護",
    "capacity": 0,
    "openDays": [
      "平日",
      "土曜日",
      "祝日"
    ],
    "openDaysNote": "夏季休暇：8月13日～15日　年末年始：12月30日から1月3日"
  },
  {
    "id": "1173102250",
    "name": "ラブアンドスマイル江南",
    "kana": "ラブアンドスマイルコウナン",
    "address": "樋春2070-1",
    "lat": 36.1129941,
    "lng": 139.3406104,
    "tel": "048-579-5766",
    "url": "",
    "pref": "埼玉県",
    "city": "熊谷市",
    "category": "community_day_service",
    "serviceType": "地域密着型通所介護",
    "capacity": 10,
    "openDays": [
      "平日"
    ],
    "openDaysNote": ""
  },
  {
    "id": "1173100726",
    "name": "熊谷介護センター",
    "kana": "クマガヤカイゴセンター",
    "address": "埼玉県熊谷市津田新田2024番地24",
    "lat": 36.1120647,
    "lng": 139.4105413,
    "tel": "0493-39-5886",
    "url": "",
    "pref": "埼玉県",
    "city": "熊谷市",
    "category": "community_day_service",
    "serviceType": "地域密着型通所介護",
    "capacity": 10,
    "openDays": [
      "平日",
      "土曜日",
      "祝日"
    ],
    "openDaysNote": ""
  },
  {
    "id": "1173102177",
    "name": "幸せの幸望庵",
    "kana": "シアワセノコウボウアン",
    "address": "熊谷市下奈良381-32",
    "lat": 36.1833531,
    "lng": 139.3818291,
    "tel": "048-501-0881",
    "url": "htt://www.koubouan.jp/",
    "pref": "埼玉県",
    "city": "熊谷市",
    "category": "community_day_service",
    "serviceType": "地域密着型通所介護",
    "capacity": 0,
    "openDays": [
      "平日",
      "土曜日",
      "日曜日",
      "祝日"
    ],
    "openDaysNote": "不定期で月始め１日は、サービス向上のために勉強会を行っています。"
  },
  {
    "id": "1173101203",
    "name": "上石デイサービスセンター",
    "kana": "カミイシデイサービスセンター",
    "address": "熊谷市新堀新田12-4",
    "lat": 36.1693683113674,
    "lng": 139.33233978111,
    "tel": "048-501-5063",
    "url": "http://www.daiwakensetu.co.jp",
    "pref": "埼玉県",
    "city": "熊谷市",
    "category": "community_day_service",
    "serviceType": "地域密着型通所介護",
    "capacity": 15,
    "openDays": [
      "平日",
      "土曜日",
      "日曜日",
      "祝日"
    ],
    "openDaysNote": ""
  },
  {
    "id": "1173101906",
    "name": "村岡Co茶楼",
    "kana": "ムラオカコサロウ",
    "address": "熊谷市村岡２３３コーポ太平B1F コーポ太平B1F",
    "lat": 36.12164,
    "lng": 139.3760329,
    "tel": "048-580-7917",
    "url": "https://socialwork-honpo.com/",
    "pref": "埼玉県",
    "city": "熊谷市",
    "category": "community_day_service",
    "serviceType": "地域密着型通所介護",
    "capacity": 10,
    "openDays": [
      "平日",
      "土曜日",
      "日曜日",
      "祝日"
    ],
    "openDaysNote": ""
  },
  {
    "id": "1173102722",
    "name": "望みの幸望庵",
    "kana": "ノゾミノコウボウアン",
    "address": "埼玉県熊谷市赤城町2丁目64番地1",
    "lat": 36.1452563345573,
    "lng": 139.365917281476,
    "tel": "048-577-5730",
    "url": "kumagaya02@koubouan.jp",
    "pref": "埼玉県",
    "city": "熊谷市",
    "category": "community_day_service",
    "serviceType": "地域密着型通所介護",
    "capacity": 0,
    "openDays": [
      "平日",
      "土曜日",
      "日曜日",
      "祝日"
    ],
    "openDaysNote": "毎月第一営業日はサービス向上社員研修の為休み(感染症の状況による)。（改行）一か月前に各事業所・ご本人・ご家族に予定表を配布しています。（改行）毎月第三日曜日のみ営業。"
  },
  {
    "id": "1171901109",
    "name": "スマイルデイサービス・楽",
    "kana": "スマイルデイサービス・ラク",
    "address": "戸田市本町2-14-21　アニバーサリー戸田公園1Ｆ",
    "lat": 35.8090088387752,
    "lng": 139.674221457043,
    "tel": "048-445-0700",
    "url": "https://lupinus-care.jimdofree.com/",
    "pref": "埼玉県",
    "city": "戸田市",
    "category": "community_day_service",
    "serviceType": "地域密着型通所介護",
    "capacity": 10,
    "openDays": [
      "平日",
      "土曜日",
      "祝日"
    ],
    "openDaysNote": ""
  },
  {
    "id": "1171901463",
    "name": "スマイルデイサービス・結",
    "kana": "スマイルデイサービス・ユイ",
    "address": "埼玉県戸田市上戸田2-38-10スクエアコート　１-Ａ スクエアコート　１-Ａ",
    "lat": 35.8141739365571,
    "lng": 139.679153578574,
    "tel": "０４８-４３３-００３３",
    "url": "https://lupinus-care.jimdo.com/",
    "pref": "埼玉県",
    "city": "戸田市",
    "category": "community_day_service",
    "serviceType": "地域密着型通所介護",
    "capacity": 10,
    "openDays": [
      "平日",
      "土曜日",
      "祝日"
    ],
    "openDaysNote": "年末年始休業（改行）１２月３０日～１月３日（曜日の都合上変更あり）"
  },
  {
    "id": "1171900978",
    "name": "でいさーびす　にりん草",
    "kana": "デイサービス　ニリンソウ",
    "address": "戸田市新曽2133－1",
    "lat": 35.8212285,
    "lng": 139.6601765,
    "tel": "048-229-2724",
    "url": "",
    "pref": "埼玉県",
    "city": "戸田市",
    "category": "community_day_service",
    "serviceType": "地域密着型通所介護",
    "capacity": 13,
    "openDays": [
      "平日",
      "土曜日",
      "祝日"
    ],
    "openDaysNote": "年末年始も営業"
  },
  {
    "id": "1171901224",
    "name": "でいさーびす　ふくじゅ草",
    "kana": "デイサービス　フクジュソウ",
    "address": "戸田市新曽2133－1　東館東館 東館",
    "lat": 35.8212208879854,
    "lng": 139.660387053408,
    "tel": "048－229－4364",
    "url": "",
    "pref": "埼玉県",
    "city": "戸田市",
    "category": "community_day_service",
    "serviceType": "地域密着型通所介護",
    "capacity": 15,
    "openDays": [
      "平日",
      "土曜日",
      "祝日"
    ],
    "openDaysNote": "年末年始営業"
  },
  {
    "id": "1171900846",
    "name": "デイサービスセンター　くつろぎの家",
    "kana": "デイサービスセンター　クツロギノイエ",
    "address": "戸田市美女木１－２９－４４",
    "lat": 35.8306991,
    "lng": 139.6370617,
    "tel": "048-449-6105",
    "url": "http://www.s-kuturogi.com",
    "pref": "埼玉県",
    "city": "戸田市",
    "category": "community_day_service",
    "serviceType": "地域密着型通所介護",
    "capacity": 0,
    "openDays": [
      "平日",
      "土曜日",
      "日曜日",
      "祝日"
    ],
    "openDaysNote": ""
  },
  {
    "id": "1171901489",
    "name": "デイサービスセンターくつろぎの家２号館",
    "kana": "デイサービスセンタークツロギノイエ２ゴウカン",
    "address": "戸田市美女木１－１４－３",
    "lat": 35.8315962,
    "lng": 139.6403863,
    "tel": "０４８－４２４－４４７０",
    "url": "http://s-kuturogi.com/",
    "pref": "埼玉県",
    "city": "戸田市",
    "category": "community_day_service",
    "serviceType": "地域密着型通所介護",
    "capacity": 0,
    "openDays": [
      "平日",
      "土曜日",
      "日曜日",
      "祝日"
    ],
    "openDaysNote": "但し、家族の状況により提供時間の変更、延長もその限りではありません。"
  },
  {
    "id": "1171900382",
    "name": "デイサービスセンター美笹の湯",
    "kana": "デイサービスセンターミササノユ",
    "address": "戸田市笹目3丁目8番13号セヴンスけやき1F セヴンスけやき1F",
    "lat": 35.8164087,
    "lng": 139.6484174,
    "tel": "048-421-0700",
    "url": "",
    "pref": "埼玉県",
    "city": "戸田市",
    "category": "community_day_service",
    "serviceType": "地域密着型通所介護",
    "capacity": 0,
    "openDays": [
      "平日",
      "土曜日",
      "祝日"
    ],
    "openDaysNote": "12/29～1/3　及び　8/13～8/15は休業"
  },
  {
    "id": "1171901125",
    "name": "デイサービス本舗　戸田公園",
    "kana": "デイサービスホンポトダコウエン",
    "address": "埼玉県戸田市下前2-12-11",
    "lat": 35.8072341,
    "lng": 139.6836276,
    "tel": "048-291-9328",
    "url": "",
    "pref": "埼玉県",
    "city": "戸田市",
    "category": "community_day_service",
    "serviceType": "地域密着型通所介護",
    "capacity": 10,
    "openDays": [
      "平日",
      "土曜日",
      "日曜日",
      "祝日"
    ],
    "openDaysNote": ""
  },
  {
    "id": "1171900796",
    "name": "健やか人生福はうち",
    "kana": "スコヤカジンセイフクハウチ",
    "address": "埼玉県戸田市笹目５丁目３５番地の２２大畑第一マンション１Ｆ 大畑第一マンション１Ｆ",
    "lat": 35.8146786,
    "lng": 139.6416425,
    "tel": "048-421-2981",
    "url": "",
    "pref": "埼玉県",
    "city": "戸田市",
    "category": "community_day_service",
    "serviceType": "地域密着型通所介護",
    "capacity": 15,
    "openDays": [
      "平日",
      "土曜日",
      "祝日"
    ],
    "openDaysNote": ""
  },
  {
    "id": "1171901554",
    "name": "樹楽　団らんの家　戸田",
    "kana": "キラク　ダンランノイエ　トダ",
    "address": "埼玉県戸田市喜沢2-9-9-101コスモプレイス喜沢 コスモプレイス喜沢",
    "lat": 35.8096758,
    "lng": 139.6960792,
    "tel": "048-234-0006",
    "url": "",
    "pref": "埼玉県",
    "city": "戸田市",
    "category": "community_day_service",
    "serviceType": "地域密着型通所介護",
    "capacity": 10,
    "openDays": [
      "平日",
      "土曜日",
      "日曜日",
      "祝日"
    ],
    "openDaysNote": ""
  },
  {
    "id": "1171901174",
    "name": "通所介護サービス　ＧｏｏＤａｙ",
    "kana": "ツウショカイゴサービス　グッデイ",
    "address": "埼玉県戸田市笹目5-2-15",
    "lat": 35.817926,
    "lng": 139.6454863,
    "tel": "048-423-8048",
    "url": "https://warabi-kaigo.co.jp",
    "pref": "埼玉県",
    "city": "戸田市",
    "category": "community_day_service",
    "serviceType": "地域密着型通所介護",
    "capacity": 0,
    "openDays": [
      "平日",
      "土曜日",
      "祝日"
    ],
    "openDaysNote": "12/31～1/3はお休みさせていただきます。"
  },
  {
    "id": "1176100699",
    "name": "デイサービス喜楽家さって",
    "kana": "デイサービスキラクヤサッテ",
    "address": "幸手市東2-10-15増田ビル1階増田ビル1Ｆ 増田ビル1Ｆ",
    "lat": 36.0702029081171,
    "lng": 139.725970715344,
    "tel": "0480-44-2221",
    "url": "",
    "pref": "埼玉県",
    "city": "幸手市",
    "category": "community_day_service",
    "serviceType": "地域密着型通所介護",
    "capacity": 10,
    "openDays": [
      "平日",
      "祝日"
    ],
    "openDaysNote": "8月13日～8月16日と12月30日～1月5日はお休みを頂いております。"
  },
  {
    "id": "1176100871",
    "name": "フィットネスデイ　リズムさって",
    "kana": "フィットネスデイ　リズムサッテ",
    "address": "埼玉県幸手市西１丁目１５番３１号",
    "lat": 36.0833241,
    "lng": 139.715339,
    "tel": "0480-53-8602",
    "url": "",
    "pref": "埼玉県",
    "city": "幸手市",
    "category": "community_day_service",
    "serviceType": "地域密着型通所介護",
    "capacity": 15,
    "openDays": [
      "平日",
      "土曜日",
      "祝日"
    ],
    "openDaysNote": ""
  },
  {
    "id": "1196100075",
    "name": "リハプライド幸手HappyHand's",
    "kana": "リハプライドサッテハッピーハンズ",
    "address": "埼玉県幸手市東4-27-3",
    "lat": 36.0778021,
    "lng": 139.7289793,
    "tel": "0480-48-7060",
    "url": "satte@rehapride.co.jp",
    "pref": "埼玉県",
    "city": "幸手市",
    "category": "community_day_service",
    "serviceType": "地域密着型通所介護",
    "capacity": 18,
    "openDays": [
      "平日",
      "祝日"
    ],
    "openDaysNote": "なし"
  },
  {
    "id": "1173700780",
    "name": "ＧＥＮＫＩＮＥＸＴ行田城西",
    "kana": "ゲンキネクスト　ギョウダジョウサイ",
    "address": "埼玉県行田市城西2-7-39パークフロントＡ102号室 パークフロントＡ102号室",
    "lat": 36.1350661,
    "lng": 139.4494541,
    "tel": "048-594-9854",
    "url": "http://www.genki-next.com",
    "pref": "埼玉県",
    "city": "行田市",
    "category": "community_day_service",
    "serviceType": "地域密着型通所介護",
    "capacity": 10,
    "openDays": [
      "平日",
      "祝日"
    ],
    "openDaysNote": "お盆休み（８月１３日～８月１６日）、年末年始休み（１２月３０日～１月３日）"
  },