[
  {
    "id": "4471100521",
    "name": "いきいきデイサービスセンター",
    "kana": "イキイキデイサービスセンター",
    "address": "大分県宇佐市上田１０５２番地宇佐整骨院 宇佐整骨院",
    "lat": 33.533244,
    "lng": 131.3489085,
    "tel": "０９７８－３３－３４４４",
    "url": "http://usa1961.com/？page_id=147",
    "pref": "大分県",
    "city": "宇佐市",
    "category": "community_day_service",
    "serviceType": "地域密着型通所介護",
    "capacity": 0,
    "openDays": [
      "平日",
      "土曜日"
    ],
    "openDaysNote": ""
  },
  {
    "id": "4471101032",
    "name": "デイサービスかぼす",
    "kana": "デイサービスカボス",
    "address": "大分県宇佐市大字大塚741-1",
    "lat": 33.518862,
    "lng": 131.3361824,
    "tel": "0978-25-8988",
    "url": "",
    "pref": "大分県",
    "city": "宇佐市",
    "category": "community_day_service",
    "serviceType": "地域密着型通所介護",
    "capacity": 0,
    "openDays": [
      "平日"
    ],
    "openDaysNote": ""
  },
  {
    "id": "4471100836",
    "name": "デイサービスセンタ―のどか園",
    "kana": "デイサービスセンターノドカエン",
    "address": "大分県宇佐市大字長洲１１１８番地",
    "lat": 33.5636663,
    "lng": 131.3830413,
    "tel": "0978-38-0517",
    "url": "",
    "pref": "大分県",
    "city": "宇佐市",
    "category": "community_day_service",
    "serviceType": "地域密着型通所介護",
    "capacity": 0,
    "openDays": [
      "平日",
      "祝日"
    ],
    "openDaysNote": ""
  },
  {
    "id": "4471101214",
    "name": "デイサービスセンターすこやかの里",
    "kana": "デイサービスセンタースコヤカノサト",
    "address": "大分県宇佐市大字松崎524番地",
    "lat": 33.5597006,
    "lng": 131.4011959,
    "tel": "0978-38-7377",
    "url": "http://www.sukoyaka-usa.com/index2.html",
    "pref": "大分県",
    "city": "宇佐市",
    "category": "community_day_service",
    "serviceType": "地域密着型通所介護",
    "capacity": 15,
    "openDays": [
      "平日",
      "土曜日",
      "祝日"
    ],
    "openDaysNote": "盆・正月も休日あり"
  },
  {
    "id": "4471101123",
    "name": "デイサービスやまぶき",
    "kana": "デイサービスヤマブキ",
    "address": "大分県宇佐市大字上高３１番地の10",
    "lat": 33.5350176,
    "lng": 131.3103229,
    "tel": "0978-32-6383",
    "url": "http://www.yamabuki-no-sato.com/",
    "pref": "大分県",
    "city": "宇佐市",
    "category": "community_day_service",
    "serviceType": "地域密着型通所介護",
    "capacity": 18,
    "openDays": [
      "平日",
      "土曜日",
      "日曜日",
      "祝日"
    ],
    "openDaysNote": ""
  },
  {
    "id": "4491100147",
    "name": "デイサービス海原の郷",
    "kana": "デイサービスウナバラノサト",
    "address": "大分県宇佐市大字四日市4501番地の1",
    "lat": 33.532828583862,
    "lng": 131.315208494443,
    "tel": "0978-32-6383",
    "url": "http://yamabuki-no-sato.com",
    "pref": "大分県",
    "city": "宇佐市",
    "category": "community_day_service",
    "serviceType": "地域密着型通所介護",
    "capacity": 18,
    "openDays": [
      "平日",
      "祝日"
    ],
    "openDaysNote": ""
  },
  {
    "id": "4471101420",
    "name": "デイサービス木もれ陽",
    "kana": "デイサービスコモレビ",
    "address": "大分県宇佐市大字江須賀4046-2",
    "lat": 33.5568611,
    "lng": 131.3663231,
    "tel": "0978-38-7301",
    "url": "http://www.usa-chuo.jp/rindou/",
    "pref": "大分県",
    "city": "宇佐市",
    "category": "community_day_service",
    "serviceType": "地域密着型通所介護",
    "capacity": 0,
    "openDays": [
      "平日",
      "祝日"
    ],
    "openDaysNote": ""
  },
  {
    "id": "4471100703",
    "name": "ひかりデイサービス",
    "kana": "ヒカリデイサービス",
    "address": "大分県宇佐市大字四日市4442-4",
    "lat": 33.5232332,
    "lng": 131.3188975,
    "tel": "0978-33-5834",
    "url": "http://meihokai.or.jp",
    "pref": "大分県",
    "city": "宇佐市",
    "category": "community_day_service",
    "serviceType": "地域密着型通所介護",
    "capacity": 2,
    "openDays": [
      "平日",
      "土曜日",
      "祝日"
    ],
    "openDaysNote": "●上記以外に年末年始休暇（12月31日から1月3日まで）"
  },
  {
    "id": "4471100323",
    "name": "阿香月デイサービスセンター",
    "kana": "アカツキデイサービスセンター",
    "address": "大分県宇佐市大字上元重697-2",
    "lat": 33.518897,
    "lng": 131.3001299,
    "tel": "0978-33-3789",
    "url": "",
    "pref": "大分県",
    "city": "宇佐市",
    "category": "community_day_service",
    "serviceType": "地域密着型通所介護",
    "capacity": 3,
    "openDays": [
      "平日",
      "土曜日",
      "祝日"
    ],
    "openDaysNote": "風水害など施設長が危険と判断した場合"
  },
  {
    "id": "4471100166",
    "name": "泰生の里デイサービスセンター「ルプリーズ宇佐」",
    "kana": "タイセイノサトデイサービスセンター「ルプリーズウサ」",
    "address": "大分県宇佐市大字山下字下坂本２１００番地",
    "lat": 33.5351609661891,
    "lng": 131.305439989641,
    "tel": "0978-33-0331",
    "url": "http://www.wellb.or.jp/usa/index.html",
    "pref": "大分県",
    "city": "宇佐市",
    "category": "community_day_service",
    "serviceType": "地域密着型通所介護",
    "capacity": 15,
    "openDays": [
      "平日",
      "土曜日",
      "祝日"
    ],
    "openDaysNote": "8月13日～8月15日の3日間・12月29日～翌年1月3日の6日間を休業することがあります。（改行）又、災害時（地震、台風、積雪等）の場合、お休みすることがあります。"
  },
  {
    "id": "4470600802",
    "name": "アート訪問看護ステーション療養通所介護事業所",
    "kana": "アートホウモンカンゴステイションリョウヨウツウショカイゴジギョウショ",
    "address": "大分県臼杵市大字江無田字中通257番地4臼杵市大字江無田字中通257番地4 臼杵市大字江無田字中通257番地4",
    "lat": 33.1267150219333,
    "lng": 131.789666236662,
    "tel": "0972-64-0231",
    "url": "",
    "pref": "大分県",
    "city": "臼杵市",
    "category": "community_day_service",
    "serviceType": "地域密着型通所介護",
    "capacity": 10,
    "openDays": [
      "平日",
      "土曜日",
      "祝日"
    ],
    "openDaysNote": ""
  },
  {
    "id": "4470600901",
    "name": "コープおおいた　デイサービスセンターにじいろ２号館",
    "kana": "コープオオイタデイサービスセンターニジイロニゴウカン",
    "address": "大字江無田２８０－２",
    "lat": 33.1250447685197,
    "lng": 131.791751422619,
    "tel": "0972-62-3355",
    "url": "",
    "pref": "大分県",
    "city": "臼杵市",
    "category": "community_day_service",
    "serviceType": "地域密着型通所介護",
    "capacity": 18,
    "openDays": [
      "平日",
      "土曜日",
      "祝日"
    ],
    "openDaysNote": ""
  },
  {
    "id": "4470600828",
    "name": "コープおおいたデイサービスセンターにじいろ",
    "kana": "コープオオイタデイサービスセンターニジイロ",
    "address": "大分県　臼杵市　臼杵８１番地の４８",
    "lat": 33.1248226,
    "lng": 131.8018469,
    "tel": "０９７２－６３－６２００",
    "url": "",
    "pref": "大分県",
    "city": "臼杵市",
    "category": "community_day_service",
    "serviceType": "地域密着型通所介護",
    "capacity": 0,
    "openDays": [
      "平日",
      "土曜日",
      "祝日"
    ],
    "openDaysNote": "営業日は祝日を含む月曜日～土曜日となっています。"
  },
  {
    "id": "4470600943",
    "name": "ﾃﾞｲｻｰﾋﾞｽｾﾝﾀｰいごこち良好",
    "kana": "デイサービスセンターイゴコチリョウコウ",
    "address": "臼杵市大字藤河内1055番地ﾃﾞｲｻｰﾋﾞｽｾﾝﾀｰいごこち良好 ﾃﾞｲｻｰﾋﾞｽｾﾝﾀｰいごこち良好",
    "lat": 33.1605180776749,
    "lng": 131.787402983668,
    "tel": "０９７２－６２－５５８０",
    "url": "",
    "pref": "大分県",
    "city": "臼杵市",
    "category": "community_day_service",
    "serviceType": "地域密着型通所介護",
    "capacity": 10,
    "openDays": [
      "平日",
      "土曜日",
      "祝日"
    ],
    "openDaysNote": ""
  },
  {
    "id": "4470600471",
    "name": "デイサービスセンター・どんぐり",
    "kana": "デイサービスセンター・ドングリ",
    "address": "野津町大字吉田3266",
    "lat": 33.0291559,
    "lng": 131.6854258,
    "tel": "0974-32-7227",
    "url": "",
    "pref": "大分県",
    "city": "臼杵市",
    "category": "community_day_service",
    "serviceType": "地域密着型通所介護",
    "capacity": 0,
    "openDays": [
      "平日",
      "土曜日",
      "祝日"
    ],
    "openDaysNote": ""
  },
  {
    "id": "4490600105",
    "name": "デイサービスセンター・もみじ",
    "kana": "デイサービスセンター・モミジ",
    "address": "野津町大字野津市1050番地",
    "lat": 33.0405837,
    "lng": 131.6921504,
    "tel": "0974-24-3320",
    "url": "",
    "pref": "大分県",
    "city": "臼杵市",
    "category": "community_day_service",
    "serviceType": "地域密着型通所介護",
    "capacity": null,
    "openDays": [
      "平日",
      "土曜日",
      "祝日"
    ],
    "openDaysNote": ""
  },
  {
    "id": "4470600752",
    "name": "デイサービスセンターはれやかパートⅡ",
    "kana": "デイサービスセンターハレヤカパートⅡ",
    "address": "大分県臼杵市大字市浜字下市989番地の3",
    "lat": 33.1214115,
    "lng": 131.7936978,
    "tel": "０９７２－６３－７５９５",
    "url": "http://www4.ocn.ne.jp/~hareyaka/",
    "pref": "大分県",
    "city": "臼杵市",
    "category": "community_day_service",
    "serviceType": "地域密着型通所介護",
    "capacity": null,
    "openDays": [
      "平日",
      "土曜日",
      "祝日"
    ],
    "openDaysNote": "特になし"
  },
  {
    "id": "4470600992",
    "name": "デイサービス花の詩",
    "kana": "デイサービスハナノウタ",
    "address": "大分県臼杵市野津町大字野津市１５０番地の2",
    "lat": 33.0431131,
    "lng": 131.6911941,
    "tel": "0974-24-3111",
    "url": "manyounahana.com",
    "pref": "大分県",
    "city": "臼杵市",
    "category": "community_day_service",
    "serviceType": "地域密着型通所介護",
    "capacity": 10,
    "openDays": [
      "平日",
      "土曜日",
      "祝日"
    ],
    "openDaysNote": ""
  },
  {
    "id": "4470600927",
    "name": "佐志生黒島デイサービス",
    "kana": "サシュウクロシマデイサービス",
    "address": "大分県臼杵市大字佐志生2045番地の1",
    "lat": 33.1764596,
    "lng": 131.8270484,
    "tel": "0972-68-3127",
    "url": "",
    "pref": "大分県",
    "city": "臼杵市",
    "category": "community_day_service",
    "serviceType": "地域密着型通所介護",
    "capacity": 0,
    "openDays": [
      "平日",
      "土曜日"
    ],
    "openDaysNote": ""
  },
  {
    "id": "4472600933",
    "name": "小規模デイサービス　だん・だん",
    "kana": "ショウキボデイサービス　ダン・ダン",
    "address": "大分県臼杵市野津町大字亀甲3745番地の3",
    "lat": 33.046905,
    "lng": 131.7088817,
    "tel": "0974-32-7760",
    "url": "",
    "pref": "大分県",
    "city": "臼杵市",
    "category": "community_day_service",
    "serviceType": "地域密着型通所介護",
    "capacity": 15,
    "openDays": [
      "平日",
      "土曜日",
      "祝日"
    ],
    "openDaysNote": ""
  },
  {
    "id": "4470600984",
    "name": "早稲田イーライフ臼杵",
    "kana": "ワセダイーライフウスキ",
    "address": "大分県臼杵市臼杵字洲崎72-254大分県臼杵土木事務所　別館2階 大分県臼杵土木事務所　別館2階",
    "lat": 33.1257613586914,
    "lng": 131.806361099138,
    "tel": "0972-83-5306",
    "url": "",
    "pref": "大分県",
    "city": "臼杵市",
    "category": "community_day_service",
    "serviceType": "地域密着型通所介護",
    "capacity": 0,
    "openDays": [
      "平日",
      "祝日"
    ],
    "openDaysNote": ""
  },
  {
    "id": "4470600851",
    "name": "緑の園デイサービスセンターほのぼの",
    "kana": "ミドリノソノデイサービスセンターホノボノ",
    "address": "大分県臼杵市大字大泊220番地",
    "lat": 33.118069,
    "lng": 131.8349497,
    "tel": "0972-63-2762",
    "url": "http://fuku-doushinkai.or.jp/midori.html",
    "pref": "大分県",
    "city": "臼杵市",
    "category": "community_day_service",
    "serviceType": "地域密着型通所介護",
    "capacity": 0,
    "openDays": [
      "平日",
      "土曜日",
      "祝日"
    ],
    "openDaysNote": "定休日に関しては、個人のサービス計画（入浴等のサービス）の必要性に応じて調整を行う。"
  },
  {
    "id": "4470600950",
    "name": "緑の園デイサービスセンターやすらぎ",
    "kana": "ミドリノソノデイサービスセンターヤスラギ",
    "address": "大分県臼杵市大字諏訪２８９番地の１",
    "lat": 33.134355,
    "lng": 131.8039521,
    "tel": "0972-63-2682",
    "url": "http://fuku-doushinkai.or.jp",
    "pref": "大分県",
    "city": "臼杵市",
    "category": "community_day_service",
    "serviceType": "地域密着型通所介護",
    "capacity": 0,
    "openDays": [
      "平日",
      "土曜日",
      "祝日"
    ],
    "openDaysNote": "特になし"
  },
  {
    "id": "4470600612",
    "name": "榮やデイサービスセンター",
    "kana": "サカエヤデイサービスセンター",
    "address": "大分県臼杵市野津町大字野津市１６２番地",
    "lat": 33.0438215,
    "lng": 131.6925523,
    "tel": "0974-32-3050",
    "url": "ｓａｋａｅｙａ．１６２＠ｃｒｅａｍ．ｐｌａｌａ．ｏｒ．ｊｐ",
    "pref": "大分県",
    "city": "臼杵市",
    "category": "community_day_service",
    "serviceType": "地域密着型通所介護",
    "capacity": 10,
    "openDays": [
      "平日",
      "祝日"
    ],
    "openDaysNote": "特になし"
  },
  {
    "id": "4471000481",
    "name": "ハートフルケア笑顔",
    "kana": "ハートフルケアエガオ",
    "address": "大分県杵築市山香町大字野原1682番地1",
    "lat": 33.4467663,
    "lng": 131.5064491,
    "tel": "0977-75-1733",
    "url": "https://npoegao.web.fc2.com/",
    "pref": "大分県",
    "city": "杵築市",
    "category": "community_day_service",
    "serviceType": "地域密着型通所介護",
    "capacity": 0,
    "openDays": [
      "平日",
      "土曜日",
      "祝日"
    ],
    "openDaysNote": ""
  },
  {
    "id": "4492800042",
    "name": "地域密着型通所介護八満",
    "kana": "チイキミッチャクガタツウショカイゴハチミツ",
    "address": "大分県玖珠郡九重町大字田野1624-79",
    "lat": 33.157261,
    "lng": 131.2218669,
    "tel": "0973-79-3883",
    "url": "https://s-a-narrative.com/",
    "pref": "大分県",
    "city": "九重町",
    "category": "community_day_service",
    "serviceType": "地域密着型通所介護",
    "capacity": null,
    "openDays": [
      "平日",
      "土曜日",
      "祝日"
    ],
    "openDaysNote": ""
  },
  {
    "id": "4472800327",
    "name": "飯田高原福祉サービスセンター「プラトー」",
    "kana": "ハンダコウゲンフクシサービスセンター「プラトー」",
    "address": "大分県玖珠郡九重町大字田野1624－79",
    "lat": 33.1572779,
    "lng": 131.2218564,
    "tel": "0973－73－3888",
    "url": "http://www.careport-keiwa.jp",
    "pref": "大分県",
    "city": "九重町",
    "category": "community_day_service",
    "serviceType": "地域密着型通所介護",
    "capacity": 0,
    "openDays": [
      "平日",
      "祝日"
    ],
    "openDaysNote": ""
  },
  {
    "id": "4472100025",
    "name": "くにさきケアセンターたんぽぽ",
    "kana": "クニサキケアセンタータンポポ",
    "address": "大分県国東市国見町伊美2225番地1",
    "lat": 33.6771659,
    "lng": 131.59123,
    "tel": "0978-82-1107",
    "url": "",
    "pref": "大分県",
    "city": "国東市",
    "category": "community_day_service",
    "serviceType": "地域密着型通所介護",
    "capacity": null,
    "openDays": [
      "平日",
      "祝日"
    ],
    "openDaysNote": "特になし"
  },
  {
    "id": "4472100306",
    "name": "デイサービスセンター　鈴鳴荘",
    "kana": "デイサービスセンター　レイメイソウ",
    "address": "大分県国東市安岐町下山口58番地",
    "lat": 33.4607761,
    "lng": 131.6911959,
    "tel": "0978-67-2526",
    "url": "http://www.akinosato.com/",
    "pref": "大分県",
    "city": "国東市",
    "category": "community_day_service",
    "serviceType": "地域密着型通所介護",
    "capacity": 0,
    "openDays": [
      "平日",
      "土曜日",
      "祝日"
    ],
    "openDaysNote": ""
  },
  {
    "id": "4472100389",
    "name": "健康堂デイサービスセンター",
    "kana": "ケンコウドウデイサービスセンター",
    "address": "大分県国東市国東町田深1001",
    "lat": 33.5717630725311,
    "lng": 131.731272511529,
    "tel": "0978-72-4506",
    "url": "http://ksiseikotu.web.fc2.com/dei.html",
    "pref": "大分県",
    "city": "国東市",
    "category": "community_day_service",
    "serviceType": "地域密着型通所介護",
    "capacity": 15,
    "openDays": [
      "平日",
      "土曜日"
    ],
    "openDaysNote": "土曜日は祝日の振り替えとする。また、一次介護予防事業を第2・第4土曜日に実施している為、該当日は17時まで対応可。（改行）また8/13～15、12/29～1/3までは休みとする。"
  },
  {
    "id": "4470501661",
    "name": "デイサービス　おとなの学校",
    "kana": "デイサービスオトナノガッコウ",
    "address": "佐伯市戸穴７３３番地1有料老人ホーム愛夢フェニックス内 有料老人ホーム愛夢フェニックス内",
    "lat": 33.0015905,
    "lng": 131.8895211,
    "tel": "0972-27-7655",
    "url": "",
    "pref": "大分県",
    "city": "佐伯市",
    "category": "community_day_service",
    "serviceType": "地域密着型通所介護",
    "capacity": 10,
    "openDays": [
      "平日",
      "祝日"
    ],
    "openDaysNote": ""
  },
  {
    "id": "4470501711",
    "name": "デイサービス　花の里",
    "kana": "デイサービス　ハナノサト",
    "address": "大分県佐伯市弥生大字江良１４５１－１",
    "lat": 32.9434171,
    "lng": 131.8308524,
    "tel": "0972-28-6537",
    "url": "",
    "pref": "大分県",
    "city": "佐伯市",
    "category": "community_day_service",
    "serviceType": "地域密着型通所介護",
    "capacity": 0,
    "openDays": [
      "平日",
      "土曜日",
      "日曜日",
      "祝日"
    ],
    "openDaysNote": ""
  },
  {
    "id": "4470500697",
    "name": "デイサービスコスモなおかわ",
    "kana": "デイサービスコスモナオカワ",
    "address": "大分県佐伯市直川大字横川５０８番地",
    "lat": 32.8905429,
    "lng": 131.7540588,
    "tel": "0972-58-5888",
    "url": "http://www.caretsukasa.jp",
    "pref": "大分県",
    "city": "佐伯市",
    "category": "community_day_service",
    "serviceType": "地域密着型通所介護",
    "capacity": 0,
    "openDays": [
      "平日",
      "祝日"
    ],
    "openDaysNote": ""
  },
  {
    "id": "4490500412",
    "name": "デイサービスセンター　彦岳の太陽",
    "kana": "デイサービスセンター　ヒコダケノタイヨウ",
    "address": "大分県佐伯市大字狩生418番地2",
    "lat": 33.0162824,
    "lng": 131.9018252,
    "tel": "0972-27-8622",
    "url": "http://www.hikodake.net",
    "pref": "大分県",
    "city": "佐伯市",
    "category": "community_day_service",
    "serviceType": "地域密着型通所介護",
    "capacity": null,
    "openDays": [
      "平日",
      "祝日"
    ],
    "openDaysNote": "12/31～1/2はお休みすることがあります。（改行）（年末年始は状況に応じて、日曜日に振り替えて営業することがあります）"
  },
  {
    "id": "4490500347",
    "name": "デイサービスセンターうめの里",
    "kana": "デイサービスセンターウメノサト",
    "address": "大分県佐伯市宇目大字小野市字井ノ上3754番1",
    "lat": 32.8726941,
    "lng": 131.6311166,
    "tel": "0972-54-3577",
    "url": "ｈｔｔｐ://ｒ.ｇｏｏｐｅ.ｊｐ/ｃｈｏｙｏｋａｉ",
    "pref": "大分県",
    "city": "佐伯市",
    "category": "community_day_service",
    "serviceType": "地域密着型通所介護",
    "capacity": null,
    "openDays": [
      "平日",
      "土曜日",
      "日曜日",
      "祝日"
    ],
    "openDaysNote": ""
  },
  {
    "id": "4490500479",
    "name": "デイサービスセンターはたのうら",
    "kana": "デイサービスセンターハタノウラ",
    "address": "大分県佐伯市蒲江大字畑野浦596-32",
    "lat": 32.8563467,
    "lng": 131.9500232,
    "tel": "0972-45-5820",
    "url": "http://r.goope.jp/choyokai",
    "pref": "大分県",
    "city": "佐伯市",
    "category": "community_day_service",
    "serviceType": "地域密着型通所介護",
    "capacity": null,
    "openDays": [
      "平日",
      "土曜日",
      "祝日"
    ],
    "openDaysNote": ""
  },
  {
    "id": "4490500321",
    "name": "デイサービスセンターほんじょう",
    "kana": "デイサービスセンターホンジョウ",
    "address": "本匠大字堂ノ間283番地１本匠高齢者生活生活福祉センター 本匠高齢者生活生活福祉センター",
    "lat": 32.9298931923478,
    "lng": 131.712516572353,
    "tel": "（0972）57-3625",
    "url": "www.nagato.or.jp/",
    "pref": "大分県",
    "city": "佐伯市",
    "category": "community_day_service",
    "serviceType": "地域密着型通所介護",
    "capacity": 0,
    "openDays": [
      "平日",
      "祝日"
    ],
    "openDaysNote": "日曜日は休み。土曜日は、自治体委託の「お元気広場」を行っている。"
  },
  {
    "id": "4490500453",
    "name": "デイサービスセンター愛情苑鶴見",
    "kana": "デイサービスセンターアイジョウエンツルミ",
    "address": "大分県佐伯市鶴見大字沖松浦５０８−２",
    "lat": 32.9422955,
    "lng": 131.9627282,
    "tel": "0972-28-6337",
    "url": "http://r.goope.jp/choyokai",
    "pref": "大分県",
    "city": "佐伯市",
    "category": "community_day_service",
    "serviceType": "地域密着型通所介護",
    "capacity": null,
    "openDays": [
      "平日",
      "土曜日",
      "日曜日",
      "祝日"
    ],
    "openDaysNote": ""
  },
  {
    "id": "4490500461",
    "name": "デイサービスセンター愛情苑八幡",
    "kana": "デイサービスセンターアイジョウエンヤハタ",
    "address": "大分県佐伯市大字戸穴619-9",
    "lat": 32.999602,
    "lng": 131.888896,
    "tel": "0972-27-5533",
    "url": "http://r.goope.jp/choyokai",
    "pref": "大分県",
    "city": "佐伯市",
    "category": "community_day_service",
    "serviceType": "地域密着型通所介護",
    "capacity": null,
    "openDays": [
      "平日",
      "土曜日",
      "日曜日",
      "祝日"
    ],
    "openDaysNote": ""
  },
  {
    "id": "4470500234",
    "name": "デイサービスセンター海悠園",
    "kana": "デイサービスセンターカイユウエン",
    "address": "大分県佐伯市大字久保浦1059番地の13",
    "lat": 32.9988862,
    "lng": 131.9231765,
    "tel": "0972-24-8836",
    "url": "http://r.goopejp/choyokai",
    "pref": "大分県",
    "city": "佐伯市",
    "category": "community_day_service",
    "serviceType": "地域密着型通所介護",
    "capacity": 0,
    "openDays": [
      "平日",
      "土曜日",
      "日曜日",
      "祝日"
    ],
    "openDaysNote": ""
  },
  {
    "id": "4470501042",
    "name": "蒲江やすらぎデイサービスセンター",
    "kana": "カマエヤスラギデイサービスセンター",
    "address": "蒲江大字蒲江浦４４９１番地５",
    "lat": 32.8020745751071,
    "lng": 131.921349238233,
    "tel": "0972-42-0137",
    "url": "https://care-net.biz/44/yasuragi3951/",
    "pref": "大分県",
    "city": "佐伯市",
    "category": "community_day_service",
    "serviceType": "地域密着型通所介護",
    "capacity": 18,
    "openDays": [
      "平日",
      "土曜日",
      "祝日"
    ],
    "openDaysNote": "年末年始の休日（12月29日より1月3日）"
  },
  {
    "id": "4472500364",
    "name": "佐伯市社協デイサ－ビスセンタ－「よのうづ」",
    "kana": "サイキシャキョウデイサ-ビスセンタ-「ヨノウヅ」",
    "address": "大分県佐伯市米水津大字色利浦1728番地1佐伯市米水津高齢者生活福祉センタ－ 佐伯市米水津高齢者生活福祉センタ－",
    "lat": 32.8860864,
    "lng": 131.9891189,
    "tel": "0972-36-7910",
    "url": "http://sashakyo.or.jp/",
    "pref": "大分県",
    "city": "佐伯市",
    "category": "community_day_service",
    "serviceType": "地域密着型通所介護",
    "capacity": 0,
    "openDays": [
      "平日",
      "土曜日",
      "祝日"
    ],
    "openDaysNote": "営業時間外及び休日であっても連絡体制がとれるようにしています。"
  },
  {
    "id": "4490500388",
    "name": "佐伯市社協デイサービスセンター「なおかわ」",
    "kana": "サイキシシャキョウデイサービスセンター「ナオカワ」",
    "address": "大分県佐伯市直川大字赤木1235番地",
    "lat": 32.8730513,
    "lng": 131.7847102,
    "tel": "0972-58-2041",
    "url": "http://www.sashakyo/or/jp",
    "pref": "大分県",
    "city": "佐伯市",
    "category": "community_day_service",
    "serviceType": "地域密着型通所介護",
    "capacity": 0,
    "openDays": [
      "平日",
      "土曜日",
      "祝日"
    ],
    "openDaysNote": "自然災害等で送迎等危険が予想される場合は、臨時休業や時間変更を行う場合がある。"
  },
  {
    "id": "4490500370",
    "name": "佐伯市社協デイサービスセンター「やよい」",
    "kana": "サイキシシャキョウ　デイサービスセンター　ヤヨイ",
    "address": "大分県佐伯市弥生大字上小倉1208番地",
    "lat": 32.9692081796922,
    "lng": 131.840791354631,
    "tel": "0972-46-1616",
    "url": "http://sashakyo.or.jp/",
    "pref": "大分県",
    "city": "佐伯市",
    "category": "community_day_service",
    "serviceType": "地域密着型通所介護",
    "capacity": null,
    "openDays": [
      "平日",
      "土曜日",
      "祝日"
    ],
    "openDaysNote": "休日や営業時間外であっても、転送電話により連絡が取れる体制を整えています。"
  },
  {
    "id": "4472500091",
    "name": "直川苑指定通所介護事業所",
    "kana": "ナオカワエンシテイツウショカイゴジギョウショ",
    "address": "大分県佐伯市直川大字仁田原1962-1",
    "lat": 32.8786413,
    "lng": 131.7573256,
    "tel": "0972-25-5010",
    "url": "http://www.naokawaen.com/",
    "pref": "大分県",
    "city": "佐伯市",
    "category": "community_day_service",
    "serviceType": "地域密着型通所介護",
    "capacity": 0,
    "openDays": [
      "平日",
      "土曜日",
      "祝日"
    ],
    "openDaysNote": ""
  },
  {
    "id": "4490101229",
    "name": "Let’ｓリハ！　桃園店",
    "kana": "レッツ　リハ　モモゾノテン",
    "address": "山津町2丁目6番3号",
    "lat": 33.2421521648559,
    "lng": 131.670183737434,
    "tel": "975357418",
    "url": "https://www.lets-reha.jp/shop/momozono/",
    "pref": "大分県",
    "city": "大分市",
    "category": "community_day_service",
    "serviceType": "地域密着型通所介護",
    "capacity": null,
    "openDays": [
      "平日"
    ],
    "openDaysNote": ""
  },
  {
    "id": "4490101310",
    "name": "Let’sリハ！トキハ医大前店",
    "kana": "レッツリハトキハイダイマエテン",
    "address": "大分県大分市東野台2丁目1番トキハインダストリーアテオ学園台センター　1階 トキハインダストリーアテオ学園台センター　1階",
    "lat": 33.2086068,
    "lng": 131.5397006,
    "tel": "097-535-7305",
    "url": "https://www.lets-reha.jp/",
    "pref": "大分県",
    "city": "大分市",
    "category": "community_day_service",
    "serviceType": "地域密着型通所介護",
    "capacity": null,
    "openDays": [
      "平日"
    ],
    "openDaysNote": ""
  },
  {
    "id": "4490101286",
    "name": "Let’sリハ！わさだ店",
    "kana": "レッツリハワサダテン",
    "address": "大分県大分市玉沢696－1",
    "lat": 33.1864369,
    "lng": 131.5794797,
    "tel": "097-547-7715",
    "url": "https://www.lets-reha.jp/",
    "pref": "大分県",
    "city": "大分市",
    "category": "community_day_service",
    "serviceType": "地域密着型通所介護",
    "capacity": 0,
    "openDays": [
      "平日"
    ],
    "openDaysNote": ""
  },
  {
    "id": "4490101153",
    "name": "あおばデイルーム",
    "kana": "アオバデイルーム",
    "address": "畑中三丁目９番２号",
    "lat": 33.2073583242672,
    "lng": 131.593277771025,
    "tel": "097－545－8998",
    "url": "",
    "pref": "大分県",
    "city": "大分市",
    "category": "community_day_service",
    "serviceType": "地域密着型通所介護",
    "capacity": null,
    "openDays": [
      "平日"
    ],
    "openDaysNote": ""
  },
  {
    "id": "4470105810",
    "name": "おひさまデイサービスセンター",
    "kana": "オヒサマデイサービスセンター",
    "address": "大分県大分市大字佐賀関3ノ3338番7",
    "lat": 33.2503474585131,
    "lng": 131.876612830689,
    "tel": "097-575-3838",
    "url": "",
    "pref": "大分県",
    "city": "大分市",
    "category": "community_day_service",
    "serviceType": "地域密着型通所介護",
    "capacity": 18,
    "openDays": [
      "平日",
      "土曜日",
      "祝日"
    ],
    "openDaysNote": ""
  },
  {
    "id": "4470109333",
    "name": "ガーデン",
    "kana": "ガーデン",
    "address": "大字鴛野1339番地",
    "lat": 33.1840915,
    "lng": 131.617178,
    "tel": "097-569-5300",
    "url": "",
    "pref": "大分県",
    "city": "大分市",
    "category": "community_day_service",
    "serviceType": "地域密着型通所介護",
    "capacity": 10,
    "openDays": [
      "平日",
      "祝日"
    ],
    "openDaysNote": "年末は12/31～1/4までお休み"
  },
  {
    "id": "4470110208",
    "name": "ガーデン",
    "kana": "ガーデン",
    "address": "大分県大分市大字鴛野1339番地の1",
    "lat": 33.1840915,
    "lng": 131.617178,
    "tel": "975695300",
    "url": "",
    "pref": "大分県",
    "city": "大分市",
    "category": "community_day_service",
    "serviceType": "地域密着型通所介護",
    "capacity": 0,
    "openDays": [
      "平日",
      "土曜日",
      "日曜日",
      "祝日"
    ],
    "openDaysNote": "祝日であっても営業"
  },
  {
    "id": "4490100940",
    "name": "けいわデイサービスいきいきみなはる",
    "kana": "ケイワデイサービスイキイキミナハル",
    "address": "大分県大分市大字皆春1521番地の13階 3階",
    "lat": 33.2357412,
    "lng": 131.6845629,
    "tel": "097-500-0442",
    "url": "https://keiwakai.oita.jp/hojuen",
    "pref": "大分県",
    "city": "大分市",
    "category": "community_day_service",
    "serviceType": "地域密着型通所介護",
    "capacity": 0,
    "openDays": [
      "平日",
      "土曜日",
      "祝日"
    ],
    "openDaysNote": "祝日は営業しています（改行）利用時間の延長も可能です（7：30～8：30、17：00～19：00）"
  },
  {
    "id": "4490100643",
    "name": "コープおおいたデイサービスセンターにじいろ二目川",
    "kana": "コープオオイタデイサービスセンターニジイロフタメガワ",
    "address": "大分県　大分市　大字横尾　字猪野原３６１３－１",
    "lat": 33.214372740016,
    "lng": 131.663734421951,
    "tel": "０９７－５２０－２２１０",
    "url": "ｈｔｔｐ：//www.oita.coop",
    "pref": "大分県",
    "city": "大分市",
    "category": "community_day_service",
    "serviceType": "地域密着型通所介護",
    "capacity": 18,
    "openDays": [
      "平日",
      "土曜日",
      "祝日"
    ],
    "openDaysNote": "営業日は祝日を含む月曜日～土曜日となっています。"
  },
  {
    "id": "4490100635",
    "name": "コミュニケーションデイサービス言の葉",
    "kana": "コミュニケーションデイサービスコトノハ",
    "address": "大分県大分市富士見が丘東2丁目23-13",
    "lat": 33.1835605,
    "lng": 131.5478003,
    "tel": "097-509-1320",
    "url": "https://habisapo.jp",
    "pref": "大分県",
    "city": "大分市",
    "category": "community_day_service",
    "serviceType": "地域密着型通所介護",
    "capacity": 50,
    "openDays": [
      "平日",
      "祝日"
    ],
    "openDaysNote": ""
  },
  {
    "id": "4470105869",
    "name": "さくら親児会デイサービスセンター",
    "kana": "サクラオヤジカイデイサービスセンター",
    "address": "大分市大字城原1954番地の2",
    "lat": 33.2361544470536,
    "lng": 131.731816827678,
    "tel": "097-592-5535",
    "url": "www.sakuraoyajikai.com",
    "pref": "大分県",
    "city": "大分市",
    "category": "community_day_service",
    "serviceType": "地域密着型通所介護",
    "capacity": 0,
    "openDays": [
      "平日",
      "土曜日",
      "祝日"
    ],
    "openDaysNote": ""
  },
  {
    "id": "4470106503",
    "name": "つうしょかいごじぎょうしょデイサ－ビスセンタ―くるみ",
    "kana": "通所介護事業所デイサ－ビスセンタ－クルミ",
    "address": "大分県大分市大字馬場908番地の1介護施設くるみ 介護施設くるみ",
    "lat": 33.2362635,
    "lng": 131.7919534,
    "tel": "097-529-7166",
    "url": "",
    "pref": "大分県",
    "city": "大分市",
    "category": "community_day_service",
    "serviceType": "地域密着型通所介護",
    "capacity": 15,
    "openDays": [
      "平日",
      "土曜日",
      "祝日"
    ],
    "openDaysNote": ""
  },
  {
    "id": "4490101062",
    "name": "デイサービス　Family",
    "kana": "デイサービス　ファミリー",
    "address": "羽田256-1タンネンバウム　１階 タンネンバウム　１階",
    "lat": null,
    "lng": null,
    "tel": "097-507-8442",
    "url": "",
    "pref": "大分県",
    "city": "大分市",
    "category": "community_day_service",
    "serviceType": "地域密着型通所介護",
    "capacity": 0,
    "openDays": [
      "平日",
      "土曜日",
      "祝日"
    ],
    "openDaysNote": ""
  },
  {
    "id": "4490101203",
    "name": "デイサービス　よっちょくれ",
    "kana": "デイサービス　ヨッチョクレ",
    "address": "大字横尾3074番地4",
    "lat": 33.2063768,
    "lng": 131.6671251,
    "tel": "097-578-9123",
    "url": "https://www.big-advance.site/s/207/1556",
    "pref": "大分県",
    "city": "大分市",
    "category": "community_day_service",
    "serviceType": "地域密着型通所介護",
    "capacity": null,
    "openDays": [
      "平日",
      "土曜日",
      "祝日"
    ],
    "openDaysNote": ""
  },
  {
    "id": "4490100817",
    "name": "デイサービス　心笑花",
    "kana": "デイサービス　シンショウカ",
    "address": "大分県大分市野津原字久保1505-13",
    "lat": 33.1606373125639,
    "lng": 131.52705454605,
    "tel": "097-574-6500",
    "url": "",
    "pref": "大分県",
    "city": "大分市",
    "category": "community_day_service",
    "serviceType": "地域密着型通所介護",
    "capacity": null,
    "openDays": [
      "平日",
      "土曜日",
      "祝日"
    ],
    "openDaysNote": "元旦はお休みとなっております。"
  },
  {
    "id": "4490100866",
    "name": "デイサービスBASARA",
    "kana": "デイサービスバサラ",
    "address": "大分県大分市大字三芳1305番地の1",
    "lat": 33.2264295312198,
    "lng": 131.57641126696,
    "tel": "097-547-8273",
    "url": "https://sanfukai.jp",
    "pref": "大分県",
    "city": "大分市",
    "category": "community_day_service",
    "serviceType": "地域密着型通所介護",
    "capacity": 15,
    "openDays": [
      "平日",
      "土曜日",
      "祝日"
    ],
    "openDaysNote": "祝日は営業しております。"
  },
  {
    "id": "4470109143",
    "name": "デイサービスセンター　イゴコチ",
    "kana": "デイサービスセンター　イゴコチ",
    "address": "大分県大分市横塚一丁目３１１番",
    "lat": 33.2394117,
    "lng": 131.7406496,
    "tel": "097-507-2325",
    "url": "",
    "pref": "大分県",
    "city": "大分市",
    "category": "community_day_service",
    "serviceType": "地域密着型通所介護",
    "capacity": 13,
    "openDays": [
      "平日",
      "祝日"
    ],
    "openDaysNote": ""
  },
  {
    "id": "4470103211",
    "name": "デイサービスセンターななせの里",
    "kana": "デイサービスセンター　ナナセノサト",
    "address": "大分県大分市大字光吉1843番地３８",
    "lat": 33.1890344,
    "lng": 131.5979404,
    "tel": "097-568-7482",
    "url": "",
    "pref": "大分県",
    "city": "大分市",
    "category": "community_day_service",
    "serviceType": "地域密着型通所介護",
    "capacity": 0,
    "openDays": [
      "平日",
      "土曜日",
      "祝日"
    ],
    "openDaysNote": "特になし"
  },
  {
    "id": "4470106883",
    "name": "デイサービスセンターホタルの家",
    "kana": "デイサービスセンターホタルノイエ",
    "address": "大分県大分市大字野津原1371番地",
    "lat": 33.158935,
    "lng": 131.5267415,
    "tel": "097-588-1211",
    "url": "http:www.huji-miyu.com/",
    "pref": "大分県",
    "city": "大分市",
    "category": "community_day_service",
    "serviceType": "地域密着型通所介護",
    "capacity": null,
    "openDays": [
      "平日",
      "土曜日",
      "日曜日",
      "祝日"
    ],
    "openDaysNote": "なし"
  },
  {
    "id": "4490100932",
    "name": "デイサービスセンターホタルの家",
    "kana": "デイサービスセンターホタルノイエ",
    "address": "大分県大分市大字野津原１３７１番地",
    "lat": 33.1589840542787,
    "lng": 131.5267257,
    "tel": "975881211",
    "url": "",
    "pref": "大分県",
    "city": "大分市",
    "category": "community_day_service",
    "serviceType": "地域密着型通所介護",
    "capacity": 10,
    "openDays": [
      "平日",
      "土曜日",
      "日曜日",
      "祝日"
    ],
    "openDaysNote": "なし"
  },
  {
    "id": "4490101328",
    "name": "デイサービスセンターレンゲ",
    "kana": "デイサービスセンター蓮華",
    "address": "大分市野津原二ノ瀬原655番",
    "lat": 33.1606607,
    "lng": 131.5262184,
    "tel": "080-5213-1118",
    "url": "",
    "pref": "大分県",
    "city": "大分市",
    "category": "community_day_service",
    "serviceType": "地域密着型通所介護",
    "capacity": 0,
    "openDays": [
      "平日",
      "祝日"
    ],
    "openDaysNote": ""
  },
  {
    "id": "4470104623",
    "name": "デイサービスセンター茜",
    "kana": "デイサービスセンターアカネ",
    "address": "大分県大分市三川上二丁目6番36号",
    "lat": 33.2448623,
    "lng": 131.6733444,
    "tel": "097-503-0302",
    "url": "",
    "pref": "大分県",
    "city": "大分市",
    "category": "community_day_service",
    "serviceType": "地域密着型通所介護",
    "capacity": 0,
    "openDays": [
      "平日",
      "土曜日",
      "祝日"
    ],
    "openDaysNote": ""
  },
  {
    "id": "4470107147",
    "name": "デイサービスセンター幸せの家",
    "kana": "シアワセノイエ",
    "address": "大分県大分市猪野1354番地の1",
    "lat": 33.2220782,
    "lng": 131.6646931,
    "tel": "097-521-1559",
    "url": "",
    "pref": "大分県",
    "city": "大分市",
    "category": "community_day_service",
    "serviceType": "地域密着型通所介護",
    "capacity": 0,
    "openDays": [
      "平日",
      "土曜日",
      "日曜日",
      "祝日"
    ],
    "openDaysNote": ""
  },
  {
    "id": "4470105083",
    "name": "デイサービスセンター赤とんぼ",
    "kana": "デイサービスセンターアカトンボ",
    "address": "東鶴崎1-7-16",
    "lat": 33.2393721,
    "lng": 131.6964119,
    "tel": "097-521-8625",
    "url": "http://.akatombo-oita.jp",
    "pref": "大分県",
    "city": "大分市",
    "category": "community_day_service",
    "serviceType": "地域密着型通所介護",
    "capacity": 0,
    "openDays": [
      "平日",
      "土曜日",
      "祝日"
    ],
    "openDaysNote": ""
  },
  {
    "id": "4470106354",
    "name": "デイサービスセンター赤とんぼ三佐",
    "kana": "デイサービスセンターアカトンボミサ",
    "address": "大分県大分市三佐１－６－２３",
    "lat": 33.2520923,
    "lng": 131.6780604,
    "tel": "０９７－５７４－５４０８",
    "url": "http://www.akatombo-oita.jp",
    "pref": "大分県",
    "city": "大分市",
    "category": "community_day_service",
    "serviceType": "地域密着型通所介護",
    "capacity": null,
    "openDays": [
      "平日",
      "土曜日",
      "祝日"
    ],
    "openDaysNote": ""
  },
  {
    "id": "4470106842",
    "name": "デイサービスセンター白いはと",
    "kana": "デイサービスセンターシロイハト",
    "address": "大分県大分市久原中央1丁目1番地43号",
    "lat": 33.2356291,
    "lng": 131.7556289,
    "tel": "097-574-4681",
    "url": "http://www.shiroihato.com",
    "pref": "大分県",
    "city": "大分市",
    "category": "community_day_service",
    "serviceType": "地域密着型通所介護",
    "capacity": 0,
    "openDays": [
      "平日",
      "土曜日",
      "祝日"
    ],
    "openDaysNote": "事業所内は禁酒・禁煙（改行）その他従業者の指示に従っていただきます。"
  },
  {
    "id": "4472400227",
    "name": "デイサービスセンター母家",
    "kana": "デイサービスセンターオモヤ",
    "address": "大分県大分市大字志生木2466-1",
    "lat": 33.2434452,
    "lng": 131.8451374,
    "tel": "097-524-4600",
    "url": "",
    "pref": "大分県",
    "city": "大分市",
    "category": "community_day_service",
    "serviceType": "地域密着型通所介護",
    "capacity": null,
    "openDays": [
      "平日",
      "土曜日",
      "日曜日",
      "祝日"
    ],
    "openDaysNote": ""
  },
  {
    "id": "4470106255",
    "name": "デイサービスちひろ",
    "kana": "デイサービスチヒロ",
    "address": "大分県大分市徳島1丁目2番22号",
    "lat": 33.2427967,
    "lng": 131.6939593,
    "tel": "097-503-5750",
    "url": "",
    "pref": "大分県",
    "city": "大分市",
    "category": "community_day_service",
    "serviceType": "地域密着型通所介護",
    "capacity": 14,
    "openDays": [
      "平日",
      "祝日"
    ],
    "openDaysNote": ""
  },
  {
    "id": "4490100957",
    "name": "デイサービスつむぎ",
    "kana": "デイサービスツムギ",
    "address": "大在中央1丁目4番7号",
    "lat": 33.246882,
    "lng": 131.7180232,
    "tel": "097-560-4460",
    "url": "",
    "pref": "大分県",
    "city": "大分市",
    "category": "community_day_service",
    "serviceType": "地域密着型通所介護",
    "capacity": 0,
    "openDays": [
      "平日"
    ],
    "openDaysNote": ""
  },
  {
    "id": "4470107956",
    "name": "デイサービスなごみ",
    "kana": "デイサービスナゴミ",
    "address": "加納１５組３",
    "lat": 33.2337520855623,
    "lng": 131.637223011115,
    "tel": "097-507-8553",
    "url": "",
    "pref": "大分県",
    "city": "大分市",
    "category": "community_day_service",
    "serviceType": "地域密着型通所介護",
    "capacity": 15,
    "openDays": [
      "平日",
      "土曜日",
      "祝日"
    ],
    "openDaysNote": ""
  },
  {
    "id": "4470108525",
    "name": "デイサービスひなた",
    "kana": "デイサービスヒナタ",
    "address": "大分県大分市大字中戸次1461番地の1",
    "lat": 33.1513487,
    "lng": 131.661114,
    "tel": "097-598-0005",
    "url": "",
    "pref": "大分県",
    "city": "大分市",
    "category": "community_day_service",
    "serviceType": "地域密着型通所介護",
    "capacity": 0,
    "openDays": [
      "平日",
      "土曜日",
      "祝日"
    ],
    "openDaysNote": ""
  },
  {
    "id": "4470107865",
    "name": "デイサービスほほえみ",
    "kana": "デイサービスホホエミ",
    "address": "大分市大字野津原1504-1",
    "lat": 33.1607209,
    "lng": 131.5267637,
    "tel": "097-588-1881",
    "url": "",
    "pref": "大分県",
    "city": "大分市",
    "category": "community_day_service",
    "serviceType": "地域密着型通所介護",
    "capacity": 14,
    "openDays": [
      "平日",
      "土曜日",
      "日曜日",
      "祝日"
    ],
    "openDaysNote": ""
  },
  {
    "id": "4470108087",
    "name": "デイサービスみかん色",
    "kana": "デイサービスミカンイロ",
    "address": "大分県大分市横田１－３－２１",
    "lat": 33.2505739,
    "lng": 131.7180652,
    "tel": "０９７－５９２－６０２７",
    "url": "",
    "pref": "大分県",
    "city": "大分市",
    "category": "community_day_service",
    "serviceType": "地域密着型通所介護",
    "capacity": null,
    "openDays": [
      "平日",
      "土曜日",
      "祝日"
    ],
    "openDaysNote": "１２月３０日～１月３日は休業"
  },
  {
    "id": "4470106479",
    "name": "デイサービスゆりかごの家",
    "kana": "デイサービス　ユリカゴノイエ",
    "address": "本神崎74番地1",
    "lat": 33.2405076,
    "lng": 131.791084,
    "tel": "097-524-8088",
    "url": "",
    "pref": "大分県",
    "city": "大分市",
    "category": "community_day_service",
    "serviceType": "地域密着型通所介護",
    "capacity": 0,
    "openDays": [
      "平日",
      "祝日"
    ],
    "openDaysNote": "祝日が土曜、日曜日となった場合もお休みとさせて頂いております。"
  },
  {
    "id": "4490101104",
    "name": "デイサービスわくわくおひさまランド",
    "kana": "デイサービスワクワクオヒサマランド",
    "address": "大分県大分市賀来北１丁目３７５２番地",
    "lat": 33.2150165,
    "lng": 131.5718539,
    "tel": "097-574-6523",
    "url": "wakuwaku-oita.com",
    "pref": "大分県",
    "city": "大分市",
    "category": "community_day_service",
    "serviceType": "地域密着型通所介護",
    "capacity": null,
    "openDays": [
      "平日",
      "祝日"
    ],
    "openDaysNote": "祝日は営業します。なお、年末年始12/30～1/2まではお休みです"
  },
  {
    "id": "4470109549",
    "name": "デイサービス公園通り",
    "kana": "デイサービスコウエンドオリ",
    "address": "大分県大分市公園通り1-5-8",
    "lat": 33.1886566309635,
    "lng": 131.65578606627,
    "tel": "097-520-3350",
    "url": "https://www.local-train.jp/index.html",
    "pref": "大分県",
    "city": "大分市",
    "category": "community_day_service",
    "serviceType": "地域密着型通所介護",
    "capacity": 2,
    "openDays": [
      "平日",
      "祝日"
    ],
    "openDaysNote": ""
  },
  {
    "id": "4470103609",
    "name": "デイサービス四季",
    "kana": "デイサービスシキ",
    "address": "大分県大分市花高松１丁目６番２６号有料老人ホームハーモニー四季 有料老人ホームハーモニー四季",
    "lat": 33.2495752,
    "lng": 131.6636618,
    "tel": "０９７－５５６－８５５５",
    "url": "",
    "pref": "大分県",
    "city": "大分市",
    "category": "community_day_service",
    "serviceType": "地域密着型通所介護",
    "capacity": 18,
    "openDays": [
      "平日",
      "土曜日",
      "祝日"
    ],
    "openDaysNote": "特にありません"
  },
  {
    "id": "4470107022",
    "name": "デイサービス風香",
    "kana": "デイサービスフウカ",
    "address": "賀来西１丁目3番13号",
    "lat": 33.2138314967872,
    "lng": 131.562231893254,
    "tel": "097-529-7200",
    "url": "http://www.fukujyukai.net",
    "pref": "大分県",
    "city": "大分市",
    "category": "community_day_service",
    "serviceType": "地域密着型通所介護",
    "capacity": 0,
    "openDays": [
      "平日",
      "土曜日",
      "日曜日",
      "祝日"
    ],
    "openDaysNote": ""
  },
  {
    "id": "4490100700",
    "name": "デイホームあん",
    "kana": "デイホームアン",
    "address": "大分県大分市大字上宗方544-1グリーンシティ雄城台100号室 グリーンシティ雄城台100号室",
    "lat": 33.1957467,
    "lng": 131.5807141,
    "tel": "975414439",
    "url": "https://www.endear.info/",
    "pref": "大分県",
    "city": "大分市",
    "category": "community_day_service",
    "serviceType": "地域密着型通所介護",
    "capacity": null,
    "openDays": [
      "平日",
      "土曜日",
      "日曜日",
      "祝日"
    ],
    "openDaysNote": ""
  },
  {
    "id": "4490100833",
    "name": "なかしまデイサービスビートルズ",
    "kana": "ナカシマデイサービスビートルズ",
    "address": "大分県大分市中島西1丁目8番8号",
    "lat": 33.2435192,
    "lng": 131.6103625,
    "tel": "097-547-9951",
    "url": "http://smile-lib.com/",
    "pref": "大分県",
    "city": "大分市",
    "category": "community_day_service",
    "serviceType": "地域密着型通所介護",
    "capacity": 18,
    "openDays": [
      "平日",
      "土曜日",
      "祝日"
    ],
    "openDaysNote": ""
  },
  {
    "id": "4470104037",
    "name": "なでしこガーデンデイサービス",
    "kana": "ナデシコガーデンデイサービス",
    "address": "大分市中戸次７９８番地",
    "lat": 33.1446189,
    "lng": 131.664125,
    "tel": "097-548-8125",
    "url": "",
    "pref": "大分県",
    "city": "大分市",
    "category": "community_day_service",
    "serviceType": "地域密着型通所介護",
    "capacity": 15,
    "openDays": [
      "平日",
      "土曜日",
      "日曜日",
      "祝日"
    ],
    "openDaysNote": "時間外対応相談可能"
  },
  {
    "id": "4470102700",
    "name": "のりこえデイサービスセンター",
    "kana": "ノリコエデイサービスセンター",
    "address": "大分県大分市牧1丁目9番24号",
    "lat": 33.2409807,
    "lng": 131.6376611,
    "tel": "097-551-0399",
    "url": "http://shigeishi.o-jita.com/",
    "pref": "大分県",
    "city": "大分市",
    "category": "community_day_service",
    "serviceType": "地域密着型通所介護",
    "capacity": 0,
    "openDays": [
      "平日",
      "土曜日"
    ],
    "openDaysNote": ""
  },
  {
    "id": "4470107410",
    "name": "はなはな南大分デイサービスセンター",
    "kana": "ハナハナミナミオオイタデイサービスセンター",
    "address": "大分県大分市豊饒三丁目９番2号はなはな有料老人ホーム はなはな有料老人ホーム",
    "lat": 33.2073324,
    "lng": 131.593238,
    "tel": "097-545-8875",
    "url": "",
    "pref": "大分県",
    "city": "大分市",
    "category": "community_day_service",
    "serviceType": "地域密着型通所介護",
    "capacity": 0,
    "openDays": [
      "平日",
      "土曜日",
      "祝日"
    ],
    "openDaysNote": ""
  },
  {
    "id": "4470107634",
    "name": "ビーチフル田ノ浦デイサービスセンター",
    "kana": "ビーチフルタノウラデイサービスセンター",
    "address": "大分市田ノ浦３組",
    "lat": 33.2560027947524,
    "lng": 131.543079899089,
    "tel": "097-529-7883",
    "url": "",
    "pref": "大分県",
    "city": "大分市",
    "category": "community_day_service",
    "serviceType": "地域密着型通所介護",
    "capacity": 0,
    "openDays": [
      "平日",
      "祝日"
    ],
    "openDaysNote": "利用者の要望があれば、土曜営業も可能なように指定届け出済み"
  },
  {
    "id": "4470101710",
    "name": "ひまわりデイ・サービスセンター",
    "kana": "ヒマワリデイサービスセンター",
    "address": "大分県大分市東鶴崎3丁目1番7号",
    "lat": 33.2380667,
    "lng": 131.6946344,
    "tel": "097-527-2255",
    "url": "",
    "pref": "大分県",
    "city": "大分市",
    "category": "community_day_service",
    "serviceType": "地域密着型通所介護",
    "capacity": 18,
    "openDays": [
      "平日",
      "土曜日",
      "祝日"
    ],
    "openDaysNote": ""
  },
  {
    "id": "4490100650",
    "name": "フェリス高尾",
    "kana": "フェリスタカオ",
    "address": "大分県大分市大字横尾字高尾4067-1",
    "lat": 33.2094733480051,
    "lng": 131.660409811921,
    "tel": "097-520-5151",
    "url": "",
    "pref": "大分県",
    "city": "大分市",
    "category": "community_day_service",
    "serviceType": "地域密着型通所介護",
    "capacity": null,
    "openDays": [
      "平日",
      "祝日"
    ],
    "openDaysNote": ""
  },
  {
    "id": "4470106446",
    "name": "プラトー大分リハビリデイサービスぷらす南大分",
    "kana": "プラトーオオイタリハビリデイサービスプラスミナミオオイタ",
    "address": "大分市竹の上9番11号",
    "lat": 33.2148798627779,
    "lng": 131.583347194855,
    "tel": "097-573-5581",
    "url": "http://oita-dayservice.jp",
    "pref": "大分県",
    "city": "大分市",
    "category": "community_day_service",
    "serviceType": "地域密着型通所介護",
    "capacity": 18,
    "openDays": [
      "平日",
      "土曜日"
    ],
    "openDaysNote": "お盆休み8/13～15（改行）年末年始休み12/29～1/3"
  },
  {
    "id": "4490100809",
    "name": "ほねつぎデイサービス大分元町",
    "kana": "ホネツギデイサービスオオイタモトマチ",
    "address": "大分県大分市大字大分4705ほねつぎデイサービス大分元町 ほねつぎデイサービス大分元町",
    "lat": 33.2220819750674,
    "lng": 131.618500050597,
    "tel": "097-544-7010",
    "url": "",
    "pref": "大分県",
    "city": "大分市",
    "category": "community_day_service",
    "serviceType": "地域密着型通所介護",
    "capacity": 0,
    "openDays": [
      "平日"
    ],
    "openDaysNote": ""
  },
  {
    "id": "4470107303",
    "name": "メディカル介護センター楽園　大分",
    "kana": "メディカルカイゴセンターラクエン　オオイタ",
    "address": "大分県大分市田室町9-80アーバン田室130 アーバン田室130",
    "lat": 33.2345618712907,
    "lng": 131.599864901327,
    "tel": "097-545-8770",
    "url": "",
    "pref": "大分県",
    "city": "大分市",
    "category": "community_day_service",
    "serviceType": "地域密着型通所介護",
    "capacity": 0,
    "openDays": [
      "平日",
      "土曜日"
    ],
    "openDaysNote": ""
  },
  {
    "id": "4470107337",
    "name": "メディカル介護プラザ「中島」",
    "kana": "メディカルカイゴプラザナカシマ",
    "address": "大分県大分市中島西１丁目５番3号鈴木ビル1階 鈴木ビル1階",
    "lat": 33.2431408,
    "lng": 131.6075306,
    "tel": "097－574－8234",
    "url": "",
    "pref": "大分県",
    "city": "大分市",
    "category": "community_day_service",
    "serviceType": "地域密着型通所介護",
    "capacity": null,
    "openDays": [
      "平日"
    ],
    "openDaysNote": ""
  },
  {
    "id": "4470106180",
    "name": "ゆうりん　パーソナルケア",
    "kana": "ユウリン　パーソナルケア",
    "address": "大分県大分市松原町1丁目3番1号",
    "lat": 33.2477167,
    "lng": 131.6560236,
    "tel": "097-574-4184",
    "url": "http://les-co.main.jp/",
    "pref": "大分県",
    "city": "大分市",
    "category": "community_day_service",
    "serviceType": "地域密着型通所介護",
    "capacity": 17,
    "openDays": [
      "平日",
      "土曜日",
      "祝日"
    ],
    "openDaysNote": ""
  },
  {
    "id": "4470108137",
    "name": "ﾘﾊﾋﾞﾘﾃﾞｲｻｰﾋﾞｽ未来へ",
    "kana": "リハビリデイサービス　ミライヘ",
    "address": "新貝104番地２",
    "lat": 33.2468943,
    "lng": 131.6459938,
    "tel": "097-552-8181",
    "url": "www.karoku-oita.com",
    "pref": "大分県",
    "city": "大分市",
    "category": "community_day_service",
    "serviceType": "地域密着型通所介護",
    "capacity": 18,
    "openDays": [
      "平日",
      "祝日"
    ],
    "openDaysNote": "祝日は営業しております。（改行）お盆の8月13～15日と年末年始の12月30日～1月3日まではお休みとなっております。"
  },
  {
    "id": "4470109275",
    "name": "リハビリデイサービス　スマイル",
    "kana": "リハビリデイサービス　スマイル",
    "address": "大分県大分市賀来北1丁目3752番地",
    "lat": 33.213242117591,
    "lng": 131.571465411284,
    "tel": "097-585-5550",
    "url": "",
    "pref": "大分県",
    "city": "大分市",
    "category": "community_day_service",
    "serviceType": "地域密着型通所介護",
    "capacity": 0,
    "openDays": [
      "平日",
      "土曜日",
      "日曜日",
      "祝日"
    ],
    "openDaysNote": ""
  },
  {
    "id": "4470108756",
    "name": "リハビリ専門デイサービスよくなる",
    "kana": "リハビリセンモンデイサービスヨクナル",
    "address": "大分市中津留2丁目７－２",
    "lat": 33.2457163,
    "lng": 131.6286756,
    "tel": "097-578-8546",
    "url": "https://www.yokunaru4976.com/",
    "pref": "大分県",
    "city": "大分市",
    "category": "community_day_service",
    "serviceType": "地域密着型通所介護",
    "capacity": 15,
    "openDays": [
      "平日",
      "祝日"
    ],
    "openDaysNote": ""
  },
  {
    "id": "4490100791",
    "name": "リハプライド　おおいたわさだ",
    "kana": "リハプライド　オオイタワサダ",
    "address": "上宗方567番地8日生第6マンション102 日生第6マンション102",
    "lat": 33.1949167208582,
    "lng": 131.579135995107,
    "tel": "097-576-8750",
    "url": "https://www.rehapride.co.jp/ooitawasada/",
    "pref": "大分県",
    "city": "大分市",
    "category": "community_day_service",
    "serviceType": "地域密着型通所介護",
    "capacity": 0,
    "openDays": [
      "平日"
    ],
    "openDaysNote": ""
  },
  {
    "id": "4490100981",
    "name": "リハプライドおおいたわさだ",
    "kana": "リハプライドオオイタワサダ",
    "address": "大分県大分市上宗方567番地8日生第６マンション102 日生第６マンション102",
    "lat": 33.1949754,
    "lng": 131.5790702,
    "tel": "097-576-8750",
    "url": "https//www.rehapride.co.jp/ooitawasada/",
    "pref": "大分県",
    "city": "大分市",
    "category": "community_day_service",
    "serviceType": "地域密着型通所介護",
    "capacity": null,
    "openDays": [
      "平日",
      "祝日"
    ],
    "openDaysNote": "年末年始の休日（12/29～1/3）"
  },
  {
    "id": "4490100882",
    "name": "医療法人NOCななせリハデイ",
    "kana": "イリョウホウジンエヌオーシイ",
    "address": "大分県大分市玉沢696番地の1",
    "lat": 33.1863938,
    "lng": 131.5794067,
    "tel": "097-547-7715",
    "url": "",
    "pref": "大分県",
    "city": "大分市",
    "category": "community_day_service",
    "serviceType": "地域密着型通所介護",
    "capacity": 0,
    "openDays": [
      "平日",
      "祝日"
    ],
    "openDaysNote": ""
  },
  {
    "id": "4490100858",
    "name": "介護予防センター　早稲田イーライフ大分",
    "kana": "カイゴヨボウセンター　ワセダイーライフオオイタ",
    "address": "大分県大分市大道町4-3-12ルーセント大道101 ルーセント大道101",
    "lat": 33.228799,
    "lng": 131.5983997,
    "tel": "097-546-6036",
    "url": "http://hp.kaipoke.biz/vtb/index.html",
    "pref": "大分県",
    "city": "大分市",
    "category": "community_day_service",
    "serviceType": "地域密着型通所介護",
    "capacity": 100,
    "openDays": [
      "平日",
      "祝日"
    ],
    "openDaysNote": "８月１３日～８月１５日（お盆）、１２月２９日～１月３日（年末年始）はお休みとさせていただいております。"
  },
  {
    "id": "4470107386",
    "name": "介護予防センター早稲田イーライフ愛の里二番館",
    "kana": "カイゴヨボウセンターワセダイーライフアイノサトニバンカン",
    "address": "大道町4丁目3-12ルーセント大道101 ルーセント大道101",
    "lat": 33.2287987,
    "lng": 131.5984131,
    "tel": "097-546-6036",
    "url": "http://www.ainosato.or.jp/",
    "pref": "大分県",
    "city": "大分市",
    "category": "community_day_service",
    "serviceType": "地域密着型通所介護",
    "capacity": 0,
    "openDays": [
      "平日",
      "祝日"
    ],
    "openDaysNote": ""
  },
  {
    "id": "4470107899",
    "name": "小規模型デイサービス佐尉郷の驛",
    "kana": "ショウキボガタデイサ-ビスサイゴウノエキ",
    "address": "大分県大分市大在中央2丁目8番11号",
    "lat": 33.2444357,
    "lng": 131.7237565,
    "tel": "097-592-6464",
    "url": "",
    "pref": "大分県",
    "city": "大分市",
    "category": "community_day_service",
    "serviceType": "地域密着型通所介護",
    "capacity": 0,
    "openDays": [
      "平日",
      "祝日"
    ],
    "openDaysNote": ""
  },
  {
    "id": "4490100874",
    "name": "大分市大在中央1丁目4番8号",
    "kana": "オオイタシオオザイチュウオウ１チョウメ４バン８ゴウ",
    "address": "大分県大分市大在中央1丁目4番8号",
    "lat": 33.2472484,
    "lng": 131.7176147,
    "tel": "097-560-4460",
    "url": "",
    "pref": "大分県",
    "city": "大分市",
    "category": "community_day_service",
    "serviceType": "地域密着型通所介護",
    "capacity": null,
    "openDays": [
      "平日",
      "祝日"
    ],
    "openDaysNote": ""
  },
  {
    "id": "4490100908",
    "name": "旦の原デイサービスセンターひととき",
    "kana": "ダンノハルデイサービスセンターヒトトキ",
    "address": "旦野原880番地の92",
    "lat": 33.1726149,
    "lng": 131.619962,
    "tel": "975047200",
    "url": "",
    "pref": "大分県",
    "city": "大分市",
    "category": "community_day_service",
    "serviceType": "地域密着型通所介護",
    "capacity": 0,
    "openDays": [
      "平日",
      "土曜日",
      "祝日"
    ],
    "openDaysNote": ""
  },
  {
    "id": "4490101021",
    "name": "地域密着型通所介護　デイサービス迫",
    "kana": "チイキミッチャクガタツウショカイゴ　デイサービスサコ",
    "address": "大分県大分市大字迫1294-1",
    "lat": 33.2290751,
    "lng": 131.6984112,
    "tel": "097-547-7931",
    "url": "https://www.local-train.jp/",
    "pref": "大分県",
    "city": "大分市",
    "category": "community_day_service",
    "serviceType": "地域密着型通所介護",
    "capacity": null,
    "openDays": [
      "平日",
      "祝日"
    ],
    "openDaysNote": ""
  },
  {
    "id": "4470104540",
    "name": "天心堂　デイセンター",
    "kana": "テンシンドウ　デイセンター",
    "address": "大分県大分市中戸次5185番地の2",
    "lat": 33.1547233,
    "lng": 131.6557699,
    "tel": "097-597-7730",
    "url": "",
    "pref": "大分県",
    "city": "大分市",
    "category": "community_day_service",
    "serviceType": "地域密着型通所介護",
    "capacity": 0,
    "openDays": [
      "平日"
    ],
    "openDaysNote": "営業日：火・水・金曜日の週3日実施中（改行）水曜日のみ：8時30分～13時30分(昼食あり)"
  },
  {
    "id": "4490101120",
    "name": "碧",
    "kana": "アオ",
    "address": "大分県大分市松原町１丁目３番１号",
    "lat": 33.247644,
    "lng": 131.6560697,
    "tel": "097-574-4184",
    "url": "",
    "pref": "大分県",
    "city": "大分市",
    "category": "community_day_service",
    "serviceType": "地域密着型通所介護",
    "capacity": null,
    "openDays": [
      "平日",
      "土曜日",
      "祝日"
    ],
    "openDaysNote": ""
  },
  {
    "id": "4490101302",
    "name": "有料老人ホーム・デイサービスセンターむらもと",
    "kana": "ユウリョウロウジンホーム・デイサービスセンタームラモト",
    "address": "大字白木1166-1",
    "lat": 33.2328928,
    "lng": 131.8707138,
    "tel": "097-574-9355",
    "url": "",
    "pref": "大分県",
    "city": "大分市",
    "category": "community_day_service",
    "serviceType": "地域密着型通所介護",
    "capacity": 19,
    "openDays": [
      "平日",
      "祝日"
    ],
    "openDaysNote": ""
  },
  {
    "id": "4490800192",
    "name": "Haru＋",
    "kana": "ハルタス",
    "address": "大分県竹田市荻町恵良原２０２１番地２",
    "lat": 32.9237296,
    "lng": 131.313475,
    "tel": "0974-70-5987",
    "url": "",
    "pref": "大分県",
    "city": "竹田市",
    "category": "community_day_service",
    "serviceType": "地域密着型通所介護",
    "capacity": 0,
    "openDays": [
      "平日",
      "土曜日"
    ],
    "openDaysNote": "お盆休み（８月１３～１５日）、年末年始休み（１２月２８日～１月３日）あり"
  },
  {
    "id": "4470800469",
    "name": "デイサービス　五つの実",
    "kana": "デイサービスイツツノミ",
    "address": "大分県竹田市大字会々2576番地1",
    "lat": 32.9704393,
    "lng": 131.3867865,
    "tel": "0974-63-9611",
    "url": "",
    "pref": "大分県",
    "city": "竹田市",
    "category": "community_day_service",
    "serviceType": "地域密着型通所介護",
    "capacity": 0,
    "openDays": [
      "平日",
      "土曜日"
    ],
    "openDaysNote": ""
  },
  {
    "id": "4490800150",
    "name": "荻町デイサービスセンター",
    "kana": "オギマチデイサービスセンター",
    "address": "竹田市荻町恵良原1772-7竹田市荻福祉健康エリア 竹田市荻福祉健康エリア",
    "lat": 32.9215344,
    "lng": 131.3027485,
    "tel": "0974-68-3047",
    "url": "https://www.taketa-shakyo.jp/",
    "pref": "大分県",
    "city": "竹田市",
    "category": "community_day_service",
    "serviceType": "地域密着型通所介護",
    "capacity": 0,
    "openDays": [
      "平日",
      "土曜日",
      "祝日"
    ],
    "openDaysNote": "地震・洪水・台風・雪等の災害時は休止"
  },
  {
    "id": "4470300452",
    "name": "デイサービスセンター　”ふれあいハウス”",
    "kana": "デイサービスセンター　”フレアイハウス”",
    "address": "大分県中津市豊田町1丁目12番地26中里ビル1階 中里ビル1階",
    "lat": 33.6000293,
    "lng": 131.187201689549,
    "tel": "0979-26-1515",
    "url": "http://fureai-house.com/",
    "pref": "大分県",
    "city": "中津市",
    "category": "community_day_service",
    "serviceType": "地域密着型通所介護",
    "capacity": 18,
    "openDays": [
      "平日",
      "祝日"
    ],
    "openDaysNote": "お盆、お正月休みに関しては軽微の変更あり。"
  },
  {
    "id": "4470301047",
    "name": "デイサービスセンター箭海荘",
    "kana": "デイサービスセンターセンカイソウ",
    "address": "大分県中津市三光森山８１０番地１",
    "lat": 33.5480197,
    "lng": 131.2186422,
    "tel": "0979-43-6570",
    "url": "http://www.chokusin.jp/",
    "pref": "大分県",
    "city": "中津市",
    "category": "community_day_service",
    "serviceType": "地域密着型通所介護",
    "capacity": 0,
    "openDays": [
      "平日",
      "土曜日",
      "祝日"
    ],
    "openDaysNote": "特になし"
  },
  {
    "id": "4470300932",
    "name": "デイサービスはじめ",
    "kana": "デイサービスハジメ",
    "address": "大分県中津市大字宮夫２４５番地１",
    "lat": 33.5870729,
    "lng": 131.2074594,
    "tel": "0979-53-9081",
    "url": "",
    "pref": "大分県",
    "city": "中津市",
    "category": "community_day_service",
    "serviceType": "地域密着型通所介護",
    "capacity": 0,
    "openDays": [
      "平日",
      "土曜日"
    ],
    "openDaysNote": "午前と午後の２単位（改行）土曜日は午前のみ"
  },
  {
    "id": "4470700206",
    "name": "しおさいデイサービスセンター",
    "kana": "シオサイデイサービスセンター",
    "address": "大分県津久見市大字長目2715番地の5",
    "lat": 33.1110795,
    "lng": 131.8861293,
    "tel": "0972-85-0539",
    "url": "http://fuku-doushinkai.or.jp",
    "pref": "大分県",
    "city": "津久見市",
    "category": "community_day_service",
    "serviceType": "地域密着型通所介護",
    "capacity": 0,
    "openDays": [
      "平日",
      "土曜日",
      "祝日"
    ],
    "openDaysNote": ""
  },
  {
    "id": "4470700388",
    "name": "デイサービスセンターみなみ",
    "kana": "デイサービスセンターミナミ",
    "address": "大分県津久見市大字四浦字久保泊2944番地",
    "lat": 33.0648166,
    "lng": 131.964568,
    "tel": "0972-88-2011",
    "url": "https://tsukumikan.jp",
    "pref": "大分県",
    "city": "津久見市",
    "category": "community_day_service",
    "serviceType": "地域密着型通所介護",
    "capacity": 0,
    "openDays": [
      "平日",
      "祝日"
    ],
    "openDaysNote": "特になし"
  },
  {
    "id": "4470700271",
    "name": "デイサービスセンター喫茶去津久見",
    "kana": "デイサービスセンターキッサコツクミ",
    "address": "大分県津久見市大字千怒６２０１番地",
    "lat": 33.0733534,
    "lng": 131.8898134,
    "tel": "０９７２－８２－８２０６",
    "url": "",
    "pref": "大分県",
    "city": "津久見市",
    "category": "community_day_service",
    "serviceType": "地域密着型通所介護",
    "capacity": 0,
    "openDays": [
      "平日",
      "土曜日",
      "祝日"
    ],
    "openDaysNote": ""
  },
  {
    "id": "4470105976",
    "name": "保戸島デイサービスセンター",
    "kana": "ホトジマデイサービスセンター",
    "address": "大分県津久見市大字保戸島1132番地",
    "lat": 33.1052693,
    "lng": 132.0064682,
    "tel": "０９７２－８７－２８７７",
    "url": "",
    "pref": "大分県",
    "city": "津久見市",
    "category": "community_day_service",
    "serviceType": "地域密着型通所介護",
    "capacity": null,
    "openDays": [
      "平日"
    ],
    "openDaysNote": ""
  },
  {
    "id": "4470700339",
    "name": "保戸島デイサービスセンター",
    "kana": "ホトジマデイサービスセンター",
    "address": "大分県津久見市大字保戸島1132番地保戸島コミュニティセンター（保戸島デイサービスセンター） 保戸島コミュニティセンター（保戸島デイサービスセンター）",
    "lat": 33.1052693,
    "lng": 132.0064682,
    "tel": "０９７２－８７－２８７７",
    "url": "",
    "pref": "大分県",
    "city": "津久見市",
    "category": "community_day_service",
    "serviceType": "地域密着型通所介護",
    "capacity": 0,
    "openDays": [
      "平日"
    ],
    "openDaysNote": ""
  },
  {
    "id": "4490700087",
    "name": "保戸島デイサービスセンター",
    "kana": "ホトジマデイサービスセンター",
    "address": "大分県津久見市大字保戸島1132番地",
    "lat": 33.1051575,
    "lng": 132.0066509,
    "tel": "0972-87-2877",
    "url": "",
    "pref": "大分県",
    "city": "津久見市",
    "category": "community_day_service",
    "serviceType": "地域密着型通所介護",
    "capacity": null,
    "openDays": [
      "平日"
    ],
    "openDaysNote": ""
  },
  {
    "id": "4472200676",
    "name": "デイサービスきらきら",
    "kana": "デイサービスキラキラ",
    "address": "4619-5",
    "lat": 33.3552905010374,
    "lng": 131.58054625029,
    "tel": "0977-51-4271",
    "url": "",
    "pref": "大分県",
    "city": "日出町",
    "category": "community_day_service",
    "serviceType": "地域密着型通所介護",
    "capacity": null,
    "openDays": [
      "平日",
      "土曜日"
    ],
    "openDaysNote": ""
  },
  {
    "id": "4492200060",
    "name": "デイサービスセンターいちょう",
    "kana": "デイサービスセンターイチョウ",
    "address": "大分県速見郡日出町川崎5953番地23",
    "lat": 33.3560528,
    "lng": 131.5448916,
    "tel": "0977-85-7003",
    "url": "",
    "pref": "大分県",
    "city": "日出町",
    "category": "community_day_service",
    "serviceType": "地域密着型通所介護",
    "capacity": 0,
    "openDays": [
      "平日",
      "土曜日"
    ],
    "openDaysNote": ""
  },
  {
    "id": "4472200312",
    "name": "デイサービスセンターぷらすわん",
    "kana": "デイサービスセンター　プラスワン",
    "address": "大分県速見郡日出町豊岡6069-22",
    "lat": 33.3731029,
    "lng": 131.5153162,
    "tel": "0977-28-1818",
    "url": "http://www.scnws.jp/",
    "pref": "大分県",
    "city": "日出町",
    "category": "community_day_service",
    "serviceType": "地域密着型通所介護",
    "capacity": 15,
    "openDays": [
      "平日",
      "土曜日",
      "祝日"
    ],
    "openDaysNote": "特になし"
  },
  {
    "id": "4472200536",
    "name": "デイサービスセンター笑みの杜おおが",
    "kana": "デイサービスセンターエミノモリオオガ",
    "address": "大分県速見郡日出町大神5891-35",
    "lat": 33.3537181,
    "lng": 131.5933198,
    "tel": "0977-28-0151",
    "url": "",
    "pref": "大分県",
    "city": "日出町",
    "category": "community_day_service",
    "serviceType": "地域密着型通所介護",
    "capacity": 0,
    "openDays": [
      "平日",
      "土曜日"
    ],
    "openDaysNote": ""
  },
  {
    "id": "4472200643",
    "name": "デイサービス暘谷苑・豊岡",
    "kana": "デイサービスヨウコクエン　トヨオカ",
    "address": "大分県速見郡日出町豊岡749番地12",
    "lat": 33.3660451,
    "lng": 131.5071421,
    "tel": "0977-72-8775",
    "url": "http://www.youkoku.or.jp/",
    "pref": "大分県",
    "city": "日出町",
    "category": "community_day_service",
    "serviceType": "地域密着型通所介護",
    "capacity": 0,
    "openDays": [
      "平日",
      "祝日"
    ],
    "openDaysNote": ""
  },
  {
    "id": "4472200577",
    "name": "リハビリ特化型デイサービスフィットネス暘谷苑",
    "kana": "リハビリトッカガタデイサービスフィットネスヨウコクエン",
    "address": "大分県速見郡日出町3879-9ブルームビル1階 ブルームビル1階",
    "lat": 33.3732668167878,
    "lng": 131.534219991892,
    "tel": "0977-73-0033",
    "url": "http://www.youkoku.or.jp",
    "pref": "大分県",
    "city": "日出町",
    "category": "community_day_service",
    "serviceType": "地域密着型通所介護",
    "capacity": 0,
    "openDays": [
      "平日",
      "祝日"
    ],
    "openDaysNote": "機能訓練指導員と連携をとりつつ、ご利用者様一人一人に対応した機能訓練を行っています。"
  },
  {
    "id": "4472200528",
    "name": "通所介護おおがの郷株式会社",
    "kana": "ツウショカイゴ　オオガノサト　カブシキガイシャ",
    "address": "大分県速見郡日出町大字真那井2486番地",
    "lat": 33.3764269,
    "lng": 131.5967357,
    "tel": "0977-84-7400",
    "url": "http://www.ooganosato.com",
    "pref": "大分県",
    "city": "日出町",
    "category": "community_day_service",
    "serviceType": "地域密着型通所介護",
    "capacity": 0,
    "openDays": [
      "平日",
      "土曜日",
      "祝日"
    ],
    "openDaysNote": "なし"
  },
  {
    "id": "4470400815",
    "name": "デイサービス　元気になる　虹の家",
    "kana": "デイサービス　ゲンキニナル　ニジノイエ",
    "address": "大分県日田市玉川3丁目1479-3",
    "lat": 33.3255339821376,
    "lng": 130.925280898855,
    "tel": "0973-28-7777",
    "url": "",
    "pref": "大分県",
    "city": "日田市",
    "category": "community_day_service",
    "serviceType": "地域密着型通所介護",
    "capacity": 10,
    "openDays": [
      "平日",
      "土曜日",
      "祝日"
    ],
    "openDaysNote": ""
  },
  {
    "id": "4470401078",
    "name": "デイサービス　暖",
    "kana": "デイサービス　ダン",
    "address": "大分県日田市求町844番地",
    "lat": 33.3097677586551,
    "lng": 130.967589931996,
    "tel": "0973-28-5105",
    "url": "",
    "pref": "大分県",
    "city": "日田市",
    "category": "community_day_service",
    "serviceType": "地域密着型通所介護",
    "capacity": 15,
    "openDays": [
      "平日",
      "土曜日",
      "祝日"
    ],
    "openDaysNote": ""
  },
  {
    "id": "4470401359",
    "name": "デイサービス　木の音",
    "kana": "デイサービス　キノネ",
    "address": "大分県日田市清岸寺町1034番地1",
    "lat": 33.3361894,
    "lng": 130.9299528,
    "tel": "0973-28-5103",
    "url": "",
    "pref": "大分県",
    "city": "日田市",
    "category": "community_day_service",
    "serviceType": "地域密着型通所介護",
    "capacity": 18,
    "openDays": [
      "平日",
      "祝日"
    ],
    "openDaysNote": ""
  },
  {
    "id": "4470401003",
    "name": "デイサービスセンター　ケアビレッジしろまち",
    "kana": "デイサービスセンター　ケアビレッジシロマチ",
    "address": "大分県日田市城町2丁目7-12",
    "lat": 33.3303653,
    "lng": 130.9433656,
    "tel": "0973-27-6322",
    "url": "",
    "pref": "大分県",
    "city": "日田市",
    "category": "community_day_service",
    "serviceType": "地域密着型通所介護",
    "capacity": 0,
    "openDays": [
      "平日",
      "祝日"
    ],
    "openDaysNote": ""
  },
  {
    "id": "4470401268",
    "name": "デイサービスセンター森の棲家",
    "kana": "デイサービスセンターモリノスミカ",
    "address": "大分県日田市大字石井631番地9",
    "lat": 33.3154810502475,
    "lng": 130.909463085914,
    "tel": "0973-28-5570",
    "url": "http://morinosumika.com",
    "pref": "大分県",
    "city": "日田市",
    "category": "community_day_service",
    "serviceType": "地域密着型通所介護",
    "capacity": 18,
    "openDays": [
      "平日",
      "土曜日",
      "祝日"
    ],
    "openDaysNote": "大晦日の12/31のみ9:30～12:35までのサービス提供です。"
  },
  {
    "id": "4470401227",
    "name": "デイサービスゆず",
    "kana": "デイサービスユズ",
    "address": "大分県日田市下井出町1067-1",
    "lat": 33.3072009,
    "lng": 130.9495545,
    "tel": "0973-22-0133",
    "url": "",
    "pref": "大分県",
    "city": "日田市",
    "category": "community_day_service",
    "serviceType": "地域密着型通所介護",
    "capacity": 10,
    "openDays": [
      "平日",
      "土曜日",
      "祝日"
    ],
    "openDaysNote": ""
  },
  {
    "id": "4470401300",
    "name": "介護サービス美和　デイサービス",
    "kana": "カイゴサービスミワ　デイサービス",
    "address": "大分県日田市南友田町12-2",
    "lat": 33.3261009069941,
    "lng": 130.919212376036,
    "tel": "0973-23-7152",
    "url": "www.kaigo-miwa.com",
    "pref": "大分県",
    "city": "日田市",
    "category": "community_day_service",
    "serviceType": "地域密着型通所介護",
    "capacity": null,
    "openDays": [
      "平日",
      "土曜日",
      "祝日"
    ],
    "openDaysNote": ""
  },
  {
    "id": "4490400266",
    "name": "古民家デイサービスuLuの木",
    "kana": "コミンカデイサービスウルノキ",
    "address": "大分県日田市大字花月1914番地1",
    "lat": 33.3668647,
    "lng": 130.9811956,
    "tel": "0973-26-5971",
    "url": "https://dayservice-ulunoki.com",
    "pref": "大分県",
    "city": "日田市",
    "category": "community_day_service",
    "serviceType": "地域密着型通所介護",
    "capacity": 0,
    "openDays": [
      "平日"
    ],
    "openDaysNote": "年末年始：12月30日から1月3まで休み"
  },
  {
    "id": "4490400233",
    "name": "若宮病院　シニアトレーニングセンター",
    "kana": "ワカミヤビョウイン　シニアトレーニングセンター",
    "address": "大分県日田市南元町24-10",
    "lat": 33.3119873352944,
    "lng": 130.940762409154,
    "tel": "0973-24-7050",
    "url": "https://med-corp.shusuido.or.jp",
    "pref": "大分県",
    "city": "日田市",
    "category": "community_day_service",
    "serviceType": "地域密着型通所介護",
    "capacity": 0,
    "openDays": [
      "平日",
      "祝日"
    ],
    "openDaysNote": "祝日は営業"
  },
  {
    "id": "4470400674",
    "name": "聖陵ストリーム通所介護サービスセンター",
    "kana": "セイリョウストリームツウショカイゴサービスセンター",
    "address": "大分県日田市中釣町485番地の3",
    "lat": 33.3151449795706,
    "lng": 130.91977306655,
    "tel": "0973-23-6005",
    "url": "http://www.seiryou.or.jp/",
    "pref": "大分県",
    "city": "日田市",
    "category": "community_day_service",
    "serviceType": "地域密着型通所介護",
    "capacity": 18,
    "openDays": [
      "平日",
      "土曜日",
      "祝日"
    ],
    "openDaysNote": ""
  },
  {
    "id": "4470401110",
    "name": "早稲田イーライフ日田",
    "kana": "ワセダイーライフヒタ",
    "address": "大分県日田市日高町1434－1",
    "lat": 33.3070094,
    "lng": 130.9554014,
    "tel": "973285511",
    "url": "hita@waseda-e-life.co.jp",
    "pref": "大分県",
    "city": "日田市",
    "category": "community_day_service",
    "serviceType": "地域密着型通所介護",
    "capacity": 0,
    "openDays": [
      "平日",
      "祝日"
    ],
    "openDaysNote": ""
  },
  {
    "id": "4490400258",
    "name": "地域密着型デイサービス　凪",
    "kana": "チイキミッチャクガタデイサービス　ナギ",
    "address": "大分県日田市亀山町5番30号",
    "lat": 33.3178142,
    "lng": 130.9306593,
    "tel": "0973-29-8255",
    "url": "",
    "pref": "大分県",
    "city": "日田市",
    "category": "community_day_service",
    "serviceType": "地域密着型通所介護",
    "capacity": 10,
    "openDays": [
      "平日",
      "祝日"
    ],
    "openDaysNote": ""
  },
  {
    "id": "4472900176",
    "name": "日田市社協　デイサービスセンター「まえつえ」",
    "kana": "ヒタシシャキョウ　デイサービスセンター「マエツエ」",
    "address": "大分県日田市前津江町大野２１７７番地２",
    "lat": 33.2097596,
    "lng": 130.9188503,
    "tel": "0973-53-2948",
    "url": "http.//www.hitashakyo.jp",
    "pref": "大分県",
    "city": "日田市",
    "category": "community_day_service",
    "serviceType": "地域密着型通所介護",
    "capacity": 0,
    "openDays": [
      "平日",
      "祝日"
    ],
    "openDaysNote": ""
  },
  {
    "id": "4472900200",
    "name": "日田市社協デイサービスセンター「あまがせ」",
    "kana": "ヒタシシャキョウデイサービスセンター「アマガセ」",
    "address": "大分県日田市天瀬町合田1986-2日田市天瀬複合施設 日田市天瀬複合施設",
    "lat": 33.2838163,
    "lng": 131.0071071,
    "tel": "0973-57-3157",
    "url": "https://hitashakyo.lp",
    "pref": "大分県",
    "city": "日田市",
    "category": "community_day_service",
    "serviceType": "地域密着型通所介護",
    "capacity": 0,
    "openDays": [
      "平日",
      "祝日"
    ],
    "openDaysNote": "年末年始　12/29～1/3"
  },
  {
    "id": "4472900127",
    "name": "日田市社協デイサービスセンター「かみつえ」",
    "kana": "ヒタシシャキョウデイサービスセンターカミツエ",
    "address": "大分県日田市上津江町川原3938番地",
    "lat": 33.1190998,
    "lng": 130.9686298,
    "tel": "0973-54-3126",
    "url": "https://hitashakyo.jp/",
    "pref": "大分県",
    "city": "日田市",
    "category": "community_day_service",
    "serviceType": "地域密着型通所介護",
    "capacity": 0,
    "openDays": [
      "平日",
      "土曜日",
      "祝日"
    ],
    "openDaysNote": ""
  },
  {
    "id": "4472900143",
    "name": "日田市社協デイサービスセンター「なかつえ」",
    "kana": "ヒタシシャキョウ　デイサービスセンター　ナカツエ",
    "address": "大分県日田市中津江村栃野２６２０番地２日田市中津江高齢者生活福祉センター 日田市中津江高齢者生活福祉センター",
    "lat": 33.1331124,
    "lng": 130.963249,
    "tel": "０９７３－５４－３８３８",
    "url": "http://hitashakyo.jp/",
    "pref": "大分県",
    "city": "日田市",
    "category": "community_day_service",
    "serviceType": "地域密着型通所介護",
    "capacity": 0,
    "openDays": [
      "平日",
      "土曜日",
      "祝日"
    ],
    "openDaysNote": ""
  },
  {
    "id": "4470400187",
    "name": "鳩友園デイサービスセンター",
    "kana": "キュウユウエンデイサービスセンター",
    "address": "大分県日田市鶴城町1898",
    "lat": 33.4072625649563,
    "lng": 130.898227024745,
    "tel": "0973-28-2225",
    "url": "",
    "pref": "大分県",
    "city": "日田市",
    "category": "community_day_service",
    "serviceType": "地域密着型通所介護",
    "capacity": 0,
    "openDays": [
      "平日",
      "土曜日",
      "祝日"
    ],
    "openDaysNote": ""
  },
  {
    "id": "4470201213",
    "name": "ＮＰＯ法人たすけあい組織鼓楼デイサービス",
    "kana": "エヌピイオウホウジンタスケアイソシキコロウデイサービス",
    "address": "大分県別府市鶴見園町4-2",
    "lat": 33.2874306,
    "lng": 131.4757039,
    "tel": "0977-22-8838",
    "url": "http://koroh.x0.com/",
    "pref": "大分県",
    "city": "別府市",
    "category": "community_day_service",
    "serviceType": "地域密着型通所介護",
    "capacity": null,
    "openDays": [
      "平日",
      "土曜日",
      "日曜日",
      "祝日"
    ],
    "openDaysNote": "ただし緊急時にはこの限りではない"
  },
  {
    "id": "4470202070",
    "name": "ケアー・ホープ荘園",
    "kana": "ケアー・ホープ　ソウエン",
    "address": "大分県　別府市　南荘園町8組",
    "lat": 33.2896915,
    "lng": 131.4787843,
    "tel": "977235501",
    "url": "http://carehope-souen.com",
    "pref": "大分県",
    "city": "別府市",
    "category": "community_day_service",
    "serviceType": "地域密着型通所介護",
    "capacity": 0,
    "openDays": [
      "平日",
      "土曜日",
      "祝日"
    ],
    "openDaysNote": ""
  },
  {
    "id": "4470201767",
    "name": "ケアライフおおいた　デイサービス　花・花",
    "kana": "ケアライフオオイタ　デイサービス　ハナ・ハナ",
    "address": "大分県別府市亀川四の湯町2区1-5",
    "lat": 33.3200858,
    "lng": 131.4920888,
    "tel": "0977-66-7753",
    "url": "http://nihon-caretec.com/",
    "pref": "大分県",
    "city": "別府市",
    "category": "community_day_service",
    "serviceType": "地域密着型通所介護",
    "capacity": 18,
    "openDays": [
      "平日",
      "土曜日",
      "祝日"
    ],
    "openDaysNote": ""
  },
  {
    "id": "4470202831",
    "name": "デイサービスおぐら山荘",
    "kana": "デイサービスオグラサンソウ",
    "address": "別府市大字鶴見字岡1561番地の2有料老人ホームおぐら山荘 有料老人ホームおぐら山荘",
    "lat": 33.3090211639186,
    "lng": 131.459733750635,
    "tel": "0977-85-8307",
    "url": "http://ogura.link/",
    "pref": "大分県",
    "city": "別府市",
    "category": "community_day_service",
    "serviceType": "地域密着型通所介護",
    "capacity": 18,
    "openDays": [
      "平日",
      "祝日"
    ],
    "openDaysNote": "一月に３１日まである場合のに第５週に水曜日がある場合はその月の第５水曜日（基本的）を定休日とする。"
  },
  {
    "id": "4470203011",
    "name": "デイサービスかんなわ",
    "kana": "デイサービスカンナワ",
    "address": "大分県別府市大字平道1002-4　（小坂7組）",
    "lat": 33.3480142338849,
    "lng": 131.494956076615,
    "tel": "0977-75-9156",
    "url": "",
    "pref": "大分県",
    "city": "別府市",
    "category": "community_day_service",
    "serviceType": "地域密着型通所介護",
    "capacity": 18,
    "openDays": [
      "平日",
      "土曜日",
      "祝日"
    ],
    "openDaysNote": "災害・気象時等（地震・台風、積雪）の場合はお休みする場合があります。"
  },
  {
    "id": "4470202914",
    "name": "デイサービスさんさんの荘　東荘園",
    "kana": "デイサービスサンサンノショウヒガシソウエン",
    "address": "別府市大字鶴見4546番地の279",
    "lat": 33.2935827,
    "lng": 131.4801842,
    "tel": "0977-27-1331",
    "url": "http://www.jobpark33.com/",
    "pref": "大分県",
    "city": "別府市",
    "category": "community_day_service",
    "serviceType": "地域密着型通所介護",
    "capacity": 18,
    "openDays": [
      "平日",
      "土曜日",
      "日曜日",
      "祝日"
    ],
    "openDaysNote": ""
  },
  {
    "id": "4470202906",
    "name": "デイサービスステップアップ",
    "kana": "デイサービスステップアップ",
    "address": "大分県別府市南立石本町４組",
    "lat": 33.2855085,
    "lng": 131.4695877,
    "tel": "0977‐51‐5007",
    "url": "",
    "pref": "大分県",
    "city": "別府市",
    "category": "community_day_service",
    "serviceType": "地域密着型通所介護",
    "capacity": 10,
    "openDays": [
      "平日",
      "祝日"
    ],
    "openDaysNote": "ただし、年末年始１２月３０日から１月３日までは休日となる。"
  },
  {
    "id": "4470202237",
    "name": "デイサービスセンター　さくら草",
    "kana": "デイサービスセンター　サクラソウ",
    "address": "大分県別府市鶴見字サ1520番21",
    "lat": 33.3094552223922,
    "lng": 131.457971077124,
    "tel": "0977-85-8564",
    "url": "",
    "pref": "大分県",
    "city": "別府市",
    "category": "community_day_service",
    "serviceType": "地域密着型通所介護",
    "capacity": 15,
    "openDays": [
      "平日",
      "土曜日",
      "日曜日",
      "祝日"
    ],
    "openDaysNote": ""
  },
  {
    "id": "4470202203",
    "name": "デイサービスセンターきずな",
    "kana": "デイサービスセンターキズナ",
    "address": "大分県別府市浜町17番15号",
    "lat": 33.2713827,
    "lng": 131.5095455,
    "tel": "0977-75-9720",
    "url": "http://www.respitecc.co.jp",
    "pref": "大分県",
    "city": "別府市",
    "category": "community_day_service",
    "serviceType": "地域密着型通所介護",
    "capacity": 0,
    "openDays": [
      "平日",
      "土曜日",
      "祝日"
    ],
    "openDaysNote": ""
  },
  {
    "id": "4470201700",
    "name": "デイサービスセンター亀川一燈園",
    "kana": "デイサービスセンター　カメガワイットウエン",
    "address": "大分県別府市亀川中央町１９－１３",
    "lat": 33.3269992783268,
    "lng": 131.493827813527,
    "tel": "０９７７－２７－７４４８",
    "url": "http://www.ittouen.or.jp/",
    "pref": "大分県",
    "city": "別府市",
    "category": "community_day_service",
    "serviceType": "地域密着型通所介護",
    "capacity": 0,
    "openDays": [
      "平日",
      "祝日"
    ],
    "openDaysNote": "年末年始は別途取り決め告知する。"
  },
  {
    "id": "4470202690",
    "name": "はがくれデイサービス",
    "kana": "ハガクレデイサービス",
    "address": "大分県別府市鶴見園町4ー2",
    "lat": 33.287514,
    "lng": 131.4779565,
    "tel": "977275122",
    "url": "http://koroh.x0.com",
    "pref": "大分県",
    "city": "別府市",
    "category": "community_day_service",
    "serviceType": "地域密着型通所介護",
    "capacity": 0,
    "openDays": [
      "平日",
      "土曜日",
      "祝日"
    ],
    "openDaysNote": ""
  },
  {
    "id": "4470202633",
    "name": "リハビリ特化型デイサービスつるりん通り一燈園",
    "kana": "リバビリトッカガタデイサービスツルリンドオリイットウエン",
    "address": "大分県別府市馬場１組－６",
    "lat": 33.3055703,
    "lng": 131.4755486,
    "tel": "０９７７－２４－６６３３",
    "url": "http://www.ittouen.or.jp/",
    "pref": "大分県",
    "city": "別府市",
    "category": "community_day_service",
    "serviceType": "地域密着型通所介護",
    "capacity": 0,
    "openDays": [
      "平日",
      "祝日"
    ],
    "openDaysNote": "年末年始休み"
  },
  {
    "id": "4470202351",
    "name": "静雲荘指定地域密着型通所介護事業所",
    "kana": "セイウンソウシテチイキミッチャクガタツウショカイゴジギョウショ",
    "address": "大分県別府市大字野田字サッショウ原１２９３番地の１",
    "lat": 33.3231549956007,
    "lng": 131.453823806332,
    "tel": "0977-67-2311",
    "url": "http:/seiunso.com/",
    "pref": "大分県",
    "city": "別府市",
    "category": "community_day_service",
    "serviceType": "地域密着型通所介護",
    "capacity": null,
    "openDays": [
      "平日",
      "土曜日",
      "祝日"
    ],
    "openDaysNote": ""
  },
  {
    "id": "4470200454",
    "name": "泰生の里デイサービスセンター「ルプリーズ別府」",
    "kana": "タイセイノサトデイサービスセンター「ルプリーズベップ」",
    "address": "大分県別府市大字鶴見字中山田1068番地の1",
    "lat": 33.3128810760547,
    "lng": 131.462651994043,
    "tel": "0977-66-9988",
    "url": "http://www.wellb.or.jp/",
    "pref": "大分県",
    "city": "別府市",
    "category": "community_day_service",
    "serviceType": "地域密着型通所介護",
    "capacity": 18,
    "openDays": [
      "平日",
      "土曜日",
      "祝日"
    ],
    "openDaysNote": "8月13日～8月15日の3日間・12月29日～翌年1月3日の6日間を休業することがある。"
  },
  {
    "id": "4470200637",
    "name": "茶寿苑通所介護サービス事業",
    "kana": "サジュエンツウショカイゴサービスジギョウ",
    "address": "大分県別府市大字鉄輪1050番地",
    "lat": 33.3190051662832,
    "lng": 131.476588342599,
    "tel": "0977-66-3307",
    "url": "http://sajuen.nejp/",
    "pref": "大分県",
    "city": "別府市",
    "category": "community_day_service",
    "serviceType": "地域密着型通所介護",
    "capacity": 18,
    "openDays": [
      "平日",
      "土曜日",
      "祝日"
    ],
    "openDaysNote": ""
  },
  {
    "id": "4470202419",
    "name": "湯けむりの郷",
    "kana": "ユケムリノサト",
    "address": "大分県別府市大字鶴見3275番地の５",
    "lat": 33.309615526764,
    "lng": 131.486417345911,
    "tel": "0977-22-3222",
    "url": "yukemurinosato.net",
    "pref": "大分県",
    "city": "別府市",
    "category": "community_day_service",
    "serviceType": "地域密着型通所介護",
    "capacity": 0,
    "openDays": [
      "平日",
      "土曜日",
      "日曜日",
      "祝日"
    ],
    "openDaysNote": "台風、地震など自然災害の危険が有る時は休業します"
  },
  {
    "id": "4470202716",
    "name": "湯けむりの郷　南荘園",
    "kana": "ユケムリノサト　ミナミソウエン",
    "address": "大分県別府市大字南立石板地中須賀1926‐46",
    "lat": 33.2878464065967,
    "lng": 131.474856509053,
    "tel": "0977‐84‐7107",
    "url": "yukemurinosato.net",
    "pref": "大分県",
    "city": "別府市",
    "category": "community_day_service",
    "serviceType": "地域密着型通所介護",
    "capacity": 0,
    "openDays": [
      "平日",
      "土曜日"
    ],
    "openDaysNote": "地震、台風などの自然災害時休業することがあります。12月29日～1月3日は休業します"
  },
  {
    "id": "4470200322",
    "name": "和幸苑指定通所介護事業所",
    "kana": "ワコウエンシテイツウショカイゴジギョウショ",
    "address": "大分県別府市大字野田１４９０番地",
    "lat": 33.3252628,
    "lng": 131.4767012,
    "tel": "0977-67-0988",
    "url": "",
    "pref": "大分県",
    "city": "別府市",
    "category": "community_day_service",
    "serviceType": "地域密着型通所介護",
    "capacity": 0,
    "openDays": [
      "平日",
      "土曜日",
      "祝日"
    ],
    "openDaysNote": "特になし"
  },
  {
    "id": "4470900392",
    "name": "デイサービス玄々堂・高田",
    "kana": "デイサービスゲンゲンドウ・タカダ",
    "address": "大分県豊後高田市新町２００８番地２",
    "lat": 33.5592569,
    "lng": 131.4365521,
    "tel": "0978-25-5255",
    "url": "https://ag-holdings.jp/actcare/takada/",
    "pref": "大分県",
    "city": "豊後高田市",
    "category": "community_day_service",
    "serviceType": "地域密着型通所介護",
    "capacity": 0,
    "openDays": [
      "平日",
      "祝日"
    ],
    "openDaysNote": ""
  },
  {
    "id": "4472600875",
    "name": "アクリス",
    "kana": "アクリス",
    "address": "大分県豊後大野市緒方町馬場21番地1豊後大野市民病院内 豊後大野市民病院内",
    "lat": 32.9699666,
    "lng": 131.4749564,
    "tel": "0974-42-2349",
    "url": "http://bungo-fukushi.jimdo.com/",
    "pref": "大分県",
    "city": "豊後大野市",
    "category": "community_day_service",
    "serviceType": "地域密着型通所介護",
    "capacity": null,
    "openDays": [
      "平日",
      "土曜日",
      "祝日"
    ],
    "openDaysNote": "24時間、常時連絡可能な体制（担当者への電話転送）を敷き、いつでも担当者に連絡が取れる体制を整備しています。"
  },
  {
    "id": "4472600727",
    "name": "くつろぎ園",
    "kana": "クツロギエン",
    "address": "大分県豊後大野市犬飼町犬飼86",
    "lat": 33.0737805255503,
    "lng": 131.635676217335,
    "tel": "097-578-1001",
    "url": "",
    "pref": "大分県",
    "city": "豊後大野市",
    "category": "community_day_service",
    "serviceType": "地域密着型通所介護",
    "capacity": 0,
    "openDays": [
      "平日",
      "土曜日"
    ],
    "openDaysNote": "ご相談によっては、大型連休など祝日に開所する場合もあり。"
  },
  {
    "id": "4471200412",
    "name": "デイサービス　あさがお",
    "kana": "デイサービスアサガオ",
    "address": "大分県豊後大野市三重町内田2540番地",
    "lat": 32.9800027,
    "lng": 131.5923021,
    "tel": "0974-22-7670",
    "url": "",
    "pref": "大分県",
    "city": "豊後大野市",
    "category": "community_day_service",
    "serviceType": "地域密着型通所介護",
    "capacity": 0,
    "openDays": [
      "平日",
      "土曜日",
      "祝日"
    ],
    "openDaysNote": ""
  },
  {
    "id": "4472600883",
    "name": "デイサービスセンターあけぼの",
    "kana": "デイサービスセンターアケボノ",
    "address": "大分県豊後大野市犬飼町田原1513番地1",
    "lat": 33.0646675328343,
    "lng": 131.631453844215,
    "tel": "097-578-0006",
    "url": "https://www.bghohnosw.com/",
    "pref": "大分県",
    "city": "豊後大野市",
    "category": "community_day_service",
    "serviceType": "地域密着型通所介護",
    "capacity": null,
    "openDays": [
      "平日",
      "土曜日",
      "祝日"
    ],
    "openDaysNote": ""
  },
  {
    "id": "4471200065",
    "name": "デイサービスセンターまごの手",
    "kana": "デイサービスセンターマゴノテ",
    "address": "大分県豊後大野市朝地町下野442番地2",
    "lat": 33.004293,
    "lng": 131.4592161,
    "tel": "0974-72-0505",
    "url": "",
    "pref": "大分県",
    "city": "豊後大野市",
    "category": "community_day_service",
    "serviceType": "地域密着型通所介護",
    "capacity": 0,
    "openDays": [
      "平日",
      "土曜日",
      "祝日"
    ],
    "openDaysNote": ""
  },
  {
    "id": "4472600495",
    "name": "デイサービスセンターみつば苑",
    "kana": "デイサービスセンターミツバエン",
    "address": "大分県豊後大野市清川町砂田1844番地",
    "lat": 32.9678897399068,
    "lng": 131.512700066934,
    "tel": "0974-24-6772",
    "url": "https://www.bghohnosw.com/",
    "pref": "大分県",
    "city": "豊後大野市",
    "category": "community_day_service",
    "serviceType": "地域密着型通所介護",
    "capacity": null,
    "openDays": [
      "平日",
      "土曜日",
      "祝日"
    ],
    "openDaysNote": "緊急時は、豊後大野市社会福祉協議会清川支部へご連絡下さい。電話0974-24-6770"
  },
  {
    "id": "4491200103",
    "name": "デイサービスセンター憩いの村",
    "kana": "デイサービスセンターイコイノムラ",
    "address": "大分県豊後大野市朝地町朝地906番地7",
    "lat": 33.0062031,
    "lng": 131.4312519,
    "tel": "0974-72-1002",
    "url": "https://www.bghohnosw.com/",
    "pref": "大分県",
    "city": "豊後大野市",
    "category": "community_day_service",
    "serviceType": "地域密着型通所介護",
    "capacity": null,
    "openDays": [
      "平日",
      "土曜日",
      "祝日"
    ],
    "openDaysNote": "緊急時は豊後大野市社会福祉協議会朝地支部へご連絡下さい。２４時間連絡可能な体制としています。（改行）電話0974-72-1011"
  },
  {
    "id": "4472600669",
    "name": "デイサービスセンター創寿苑",
    "kana": "デイサービスセンターソウジュエン",
    "address": "大分県豊後大野市千歳町新殿314番地1",
    "lat": 33.0450738648363,
    "lng": 131.596369505557,
    "tel": "0974-37-2600",
    "url": "http://bungo-fukushi.jimdo.com/",
    "pref": "大分県",
    "city": "豊後大野市",
    "category": "community_day_service",
    "serviceType": "地域密着型通所介護",
    "capacity": null,
    "openDays": [
      "平日",
      "土曜日",
      "祝日"
    ],
    "openDaysNote": "緊急時は豊後大野市社会福祉協議会千歳支部へご連絡下さい。２４時間連絡可能な体制としています。電話0974-37-3110"
  },
  {
    "id": "4472600537",
    "name": "デイサービスセンター悠々",
    "kana": "デイサービスセンターユウユウ",
    "address": "大分県豊後大野市緒方町上冬原493番地2",
    "lat": 32.915588833689,
    "lng": 131.440433915344,
    "tel": "0974-45-2500",
    "url": "http://bungo-fukushi.jimdo.com/",
    "pref": "大分県",
    "city": "豊後大野市",
    "category": "community_day_service",
    "serviceType": "地域密着型通所介護",
    "capacity": null,
    "openDays": [
      "平日",
      "祝日"
    ],
    "openDaysNote": ""
  },
  {
    "id": "4491200129",
    "name": "デイサービス丸山",
    "kana": "デイサービスマルヤマ",
    "address": "大分県豊後大野市千歳町新殿７７１番地１",
    "lat": 33.0391094969843,
    "lng": 131.597356847885,
    "tel": "0974-37-3737",
    "url": "",
    "pref": "大分県",
    "city": "豊後大野市",
    "category": "community_day_service",
    "serviceType": "地域密着型通所介護",
    "capacity": 0,
    "openDays": [
      "平日",
      "土曜日",
      "祝日"
    ],
    "openDaysNote": "天候、災害等の状況により、営業を休止する場合があります。"
  },
  {
    "id": "4471200701",
    "name": "わくわくデイサービスセンター",
    "kana": "ワクワクデイサービスセンター",
    "address": "大分県豊後大野市三重町市場1163番地",
    "lat": 32.9779136886632,
    "lng": 131.582747691124,
    "tel": "0974-22-0018",
    "url": "http://www.kigankai.or.jp/",
    "pref": "大分県",
    "city": "豊後大野市",
    "category": "community_day_service",
    "serviceType": "地域密着型通所介護",
    "capacity": 0,
    "openDays": [
      "平日",
      "土曜日",
      "祝日"
    ],
    "openDaysNote": ""
  },
  {
    "id": "4471200545",
    "name": "優緩倶楽部フェリス",
    "kana": "ユウカンクラブフェリス",
    "address": "千歳町前田1157",
    "lat": 33.0198094,
    "lng": 131.58366,
    "tel": "0974-37-3070",
    "url": "http://www.citydo.com/prf/oita/guide/sg/520002912.html",
    "pref": "大分県",
    "city": "豊後大野市",
    "category": "community_day_service",
    "serviceType": "地域密着型通所介護",
    "capacity": 0,
    "openDays": [
      "平日",
      "土曜日",
      "日曜日",
      "祝日"
    ],
    "openDaysNote": ""
  },
  {
    "id": "4491300150",
    "name": "デイサービスせきじょうあん",
    "kana": "デイサービスセキジョウアン",
    "address": "大分県由布市挾間町来鉢６１番地",
    "lat": 33.2225714791079,
    "lng": 131.522383265993,
    "tel": "097-547-8915",
    "url": "https://sekijyonakayosi.wixsite.com/community-space-an",
    "pref": "大分県",
    "city": "由布市",
    "category": "community_day_service",
    "serviceType": "地域密着型通所介護",
    "capacity": 15,
    "openDays": [
      "平日",
      "土曜日",
      "祝日"
    ],
    "openDaysNote": "8/14～15、12/31～1/2　休業日"
  },
  {
    "id": "4491300168",
    "name": "地域密着型デイサービス明日葉",
    "kana": "チイキミッチャクガタデイサービスアシタバ",
    "address": "大分県由布市挾間町下市503番地",
    "lat": 33.2008483427701,
    "lng": 131.52316519256,
    "tel": "097-511-2889",
    "url": "ashitaba.gloomy.jp",
    "pref": "大分県",
    "city": "由布市",
    "category": "community_day_service",
    "serviceType": "地域密着型通所介護",
    "capacity": 0,
    "openDays": [
      "平日",
      "土曜日",
      "日曜日",
      "祝日"
    ],
    "openDaysNote": "正月休み（1/1～1/3)はご利用者の希望によって変動あり。"
  },
  {
    "id": "4472300187",
    "name": "白心荘デイサービスセンター",
    "kana": "ハクシンソウデイサービスセンター",
    "address": "大分県由布市湯布院町川北１３４８番地３",
    "lat": 33.2599955,
    "lng": 131.3360455,
    "tel": "0977-85-3697",
    "url": "http://hakushinsou.com/",
    "pref": "大分県",
    "city": "由布市",
    "category": "community_day_service",
    "serviceType": "地域密着型通所介護",
    "capacity": null,
    "openDays": [
      "平日",
      "土曜日",
      "祝日"
    ],
    "openDaysNote": ""
  },
  {
    "id": "4491300143",
    "name": "富山型デイサービス　あした天気になあれ",
    "kana": "トヤマガタデイサービス　アシタテンキニナアレ",
    "address": "大分県由布市湯布院町川上３５７１番地",
    "lat": 33.2647485497161,
    "lng": 131.352111104894,
    "tel": "0977-84-2208",
    "url": "https://ashitatenki.net/staff.php",
    "pref": "大分県",
    "city": "由布市",
    "category": "community_day_service",
    "serviceType": "地域密着型通所介護",
    "capacity": 0,
    "openDays": [
      "平日",
      "土曜日",
      "祝日"
    ],
    "openDaysNote": "＊延長対応あり"
  },
  {
    "id": "4472300765",
    "name": "有限会社　すぎた福祉サービスセンター",
    "kana": "ユウゲンガイシャ　スギタフクシサービスセンター",
    "address": "大分県由布市湯布院町川上３７２０－１",
    "lat": 33.2650284,
    "lng": 131.3558269,
    "tel": "０９７７－８４－２８０４",
    "url": "",
    "pref": "大分県",
    "city": "由布市",
    "category": "community_day_service",
    "serviceType": "地域密着型通所介護",
    "capacity": 10,
    "openDays": [
      "平日"
    ],
    "openDaysNote": ""
  }
]