[
  {
    "id": "2971700154",
    "name": "でいさーびすあんどえん",
    "kana": "デイサービス安堵園",
    "address": "奈良県生駒郡安堵町西安堵570-1",
    "lat": 34.6057319731616,
    "lng": 135.753098500934,
    "tel": "0743-23-0041",
    "url": "http://dayserviceandoen.okoshi-yasu.com/",
    "pref": "奈良県",
    "city": "安堵町",
    "category": "community_day_service",
    "serviceType": "地域密着型通所介護",
    "capacity": 10,
    "openDays": [
      "平日",
      "土曜日",
      "祝日"
    ],
    "openDaysNote": ""
  },
  {
    "id": "2971700105",
    "name": "デイサービスどんどこ",
    "kana": "デイサービスドンドコ",
    "address": "奈良県生駒郡安堵町東安堵７番地の３０",
    "lat": 34.6180788,
    "lng": 135.7601386,
    "tel": "0743-57-9120",
    "url": "",
    "pref": "奈良県",
    "city": "安堵町",
    "category": "community_day_service",
    "serviceType": "地域密着型通所介護",
    "capacity": 0,
    "openDays": [
      "平日",
      "祝日"
    ],
    "openDaysNote": ""
  },
  {
    "id": "2974900355",
    "name": "デイサービス　ベルライフ榛原",
    "kana": "デイサービス　ベルライフハイバラ",
    "address": "奈良県宇陀市榛原萩原2431-2-101ベラージュ榛原駅前101号室 ベラージュ榛原駅前101号室",
    "lat": 34.5299902617236,
    "lng": 135.956104563229,
    "tel": "0745-85-1313",
    "url": "www.bellage.co.jp",
    "pref": "奈良県",
    "city": "宇陀市",
    "category": "community_day_service",
    "serviceType": "地域密着型通所介護",
    "capacity": 0,
    "openDays": [
      "平日",
      "土曜日",
      "祝日"
    ],
    "openDaysNote": "8/13～8/15（盆休み）　12/30～1/3（年末年始）は営業なし。"
  },
  {
    "id": "2974900116",
    "name": "デイサービスセンターにこにこ",
    "kana": "デイサービスセンターニコニコ",
    "address": "奈良県宇陀市菟田野岩崎238-6",
    "lat": 34.4759327,
    "lng": 135.9619555,
    "tel": "0745-84-3799",
    "url": "http://yagifukushikai.sitemix.jp",
    "pref": "奈良県",
    "city": "宇陀市",
    "category": "community_day_service",
    "serviceType": "地域密着型通所介護",
    "capacity": 0,
    "openDays": [
      "平日",
      "土曜日",
      "祝日"
    ],
    "openDaysNote": "夏期８／１３～８／１５　年末年始１２／２９～１／３は休業"
  },
  {
    "id": "2974900363",
    "name": "デイサービスちくま",
    "kana": "デイサービスチクマ",
    "address": "榛原下井足8",
    "lat": 34.5289955,
    "lng": 135.954169,
    "tel": "0745-85-1186",
    "url": "",
    "pref": "奈良県",
    "city": "宇陀市",
    "category": "community_day_service",
    "serviceType": "地域密着型通所介護",
    "capacity": 10,
    "openDays": [
      "平日",
      "土曜日"
    ],
    "openDaysNote": ""
  },
  {
    "id": "2974900280",
    "name": "デイサービスひだまり",
    "kana": "デイサービスヒダマリ",
    "address": "奈良県宇陀市榛原ひのき坂２丁目１番地の１０",
    "lat": 34.5381863,
    "lng": 135.9613019,
    "tel": "0745-88-9354",
    "url": "",
    "pref": "奈良県",
    "city": "宇陀市",
    "category": "community_day_service",
    "serviceType": "地域密着型通所介護",
    "capacity": 0,
    "openDays": [
      "平日",
      "土曜日",
      "祝日"
    ],
    "openDaysNote": "自然環境（雪や台風等）や感染症により危険であると判断した場合には休業の可能性あり。"
  },
  {
    "id": "2974900405",
    "name": "ディサービス四つ葉のクローバー　榛原",
    "kana": "ディサービス　ヨツバノクローバー　ハイバラ",
    "address": "奈良県宇陀市榛原下井足1933番17",
    "lat": 34.5293262029957,
    "lng": 135.953726247746,
    "tel": "0745-85-5505",
    "url": "http://www.grandsoul.co.jp/clover",
    "pref": "奈良県",
    "city": "宇陀市",
    "category": "community_day_service",
    "serviceType": "地域密着型通所介護",
    "capacity": 10,
    "openDays": [
      "平日",
      "土曜日",
      "日曜日",
      "祝日"
    ],
    "openDaysNote": ""
  },
  {
    "id": "2974900264",
    "name": "特定非営利活動法人サポートセンターきずな",
    "kana": "トクテイヒエイリカツドウホウジンサポートセンターキズナ",
    "address": "宇陀市榛原萩原１７３番地の３",
    "lat": 34.5286456,
    "lng": 135.9551467,
    "tel": "0745-85-5500",
    "url": "",
    "pref": "奈良県",
    "city": "宇陀市",
    "category": "community_day_service",
    "serviceType": "地域密着型通所介護",
    "capacity": 0,
    "openDays": [
      "平日",
      "土曜日",
      "日曜日",
      "祝日"
    ],
    "openDaysNote": ""
  },
  {
    "id": "2972100032",
    "name": "有限会社うだ介護サービス",
    "kana": "ユウゲンガイシャウダカイゴサービス",
    "address": "奈良県宇陀市大宇陀春日330番医6",
    "lat": 34.4853670786819,
    "lng": 135.93225782751,
    "tel": "0745-83-0080",
    "url": "",
    "pref": "奈良県",
    "city": "宇陀市",
    "category": "community_day_service",
    "serviceType": "地域密着型通所介護",
    "capacity": 0,
    "openDays": [
      "平日",
      "土曜日",
      "祝日"
    ],
    "openDaysNote": ""
  },
  {
    "id": "2973200336",
    "name": "デイサービスセンターてるてる",
    "kana": "デイサービスセンターテルテル",
    "address": "奈良県北葛城郡王寺町太子３－１－１２",
    "lat": 34.5783097,
    "lng": 135.6918144,
    "tel": "0745-32-5077",
    "url": "",
    "pref": "奈良県",
    "city": "王寺町",
    "category": "community_day_service",
    "serviceType": "地域密着型通所介護",
    "capacity": 10,
    "openDays": [
      "平日",
      "土曜日",
      "祝日"
    ],
    "openDaysNote": "年末年始休業日１２/３１～１/３です。"
  },
  {
    "id": "2973200427",
    "name": "デイサービスセンターなないろ",
    "kana": "デイサービスセンターナナイロ",
    "address": "奈良県北葛城郡王寺町明神４－２３－１３",
    "lat": 34.5763794,
    "lng": 135.6871065,
    "tel": "0745-73-7373",
    "url": "",
    "pref": "奈良県",
    "city": "王寺町",
    "category": "community_day_service",
    "serviceType": "地域密着型通所介護",
    "capacity": 0,
    "openDays": [
      "平日",
      "土曜日",
      "日曜日",
      "祝日"
    ],
    "openDaysNote": "提供時間は基本8:00-17:00ですが、時間の延長もしております。また、電話は24時間つながります。"
  },
  {
    "id": "2973200435",
    "name": "茶話本舗デイサービス笑陽畠田の家",
    "kana": "サワホンポデイサービスショウヨウハタケダノイエ",
    "address": "奈良県北葛城郡王寺町畠田3-4-8",
    "lat": 34.5795044,
    "lng": 135.7052687,
    "tel": "0745-33-2020",
    "url": "",
    "pref": "奈良県",
    "city": "王寺町",
    "category": "community_day_service",
    "serviceType": "地域密着型通所介護",
    "capacity": 0,
    "openDays": [
      "平日",
      "土曜日",
      "日曜日",
      "祝日"
    ],
    "openDaysNote": "24時間365日"
  },
  {
    "id": "2973700095",
    "name": "デイサービスセンターかいんど",
    "kana": "デイサービスセンターカインド",
    "address": "奈良県吉野郡下市町よ邑29-5",
    "lat": 34.3543489,
    "lng": 135.8040431,
    "tel": "0747-52-7285",
    "url": "",
    "pref": "奈良県",
    "city": "下市町",
    "category": "community_day_service",
    "serviceType": "地域密着型通所介護",
    "capacity": null,
    "openDays": [
      "平日",
      "土曜日",
      "祝日"
    ],
    "openDaysNote": "特になし"
  },
  {
    "id": "2973400282",
    "name": "クレシェンドデイサービス",
    "kana": "クレシェンドデイサービス",
    "address": "奈良県北葛城郡河合町星和台１－１０－１１",
    "lat": 34.5869344,
    "lng": 135.7146398,
    "tel": "0745-43-5831",
    "url": "",
    "pref": "奈良県",
    "city": "河合町",
    "category": "community_day_service",
    "serviceType": "地域密着型通所介護",
    "capacity": 10,
    "openDays": [
      "平日",
      "土曜日",
      "日曜日",
      "祝日"
    ],
    "openDaysNote": "但し、天候の悪化・災害時等については事前に利用者・家族に連絡するものとします。"
  },
  {
    "id": "2970501256",
    "name": "かぐやまの里",
    "kana": "カグヤマノサト",
    "address": "奈良県橿原市出垣内町５７－９",
    "lat": 34.5108819,
    "lng": 135.8239091,
    "tel": "0744-35-5316",
    "url": "",
    "pref": "奈良県",
    "city": "橿原市",
    "category": "community_day_service",
    "serviceType": "地域密着型通所介護",
    "capacity": 0,
    "openDays": [
      "平日",
      "土曜日",
      "日曜日",
      "祝日"
    ],
    "openDaysNote": ""
  },
  {
    "id": "2970501934",
    "name": "かみふうせん　ホープ",
    "kana": "カミフウセン　ホープ",
    "address": "奈良県橿原市中曽司町106-6",
    "lat": 34.5235289576831,
    "lng": 135.771566082632,
    "tel": "0744-48-3663",
    "url": "http://www.kami-riha.com",
    "pref": "奈良県",
    "city": "橿原市",
    "category": "community_day_service",
    "serviceType": "地域密着型通所介護",
    "capacity": null,
    "openDays": [
      "平日"
    ],
    "openDaysNote": ""
  },
  {
    "id": "2970500506",
    "name": "ケアクラフト弥生",
    "kana": "ケアクラフトヤヨイ",
    "address": "奈良県橿原市上品寺町１９３番地の１",
    "lat": 34.5190070533554,
    "lng": 135.792359581723,
    "tel": "0744-29-5006",
    "url": "http://www",
    "pref": "奈良県",
    "city": "橿原市",
    "category": "community_day_service",
    "serviceType": "地域密着型通所介護",
    "capacity": 18,
    "openDays": [
      "平日",
      "土曜日",
      "祝日"
    ],
    "openDaysNote": ""
  },
  {
    "id": "2970501413",
    "name": "ケアセンター華の木",
    "kana": "ケアセンターハナノキ",
    "address": "橿原市南八木町3-43-1",
    "lat": 34.5067094741068,
    "lng": 135.799019345786,
    "tel": "0744-24-8739",
    "url": "http://www.hananoki-care.jp",
    "pref": "奈良県",
    "city": "橿原市",
    "category": "community_day_service",
    "serviceType": "地域密着型通所介護",
    "capacity": 0,
    "openDays": [
      "平日",
      "祝日"
    ],
    "openDaysNote": ""
  },
  {
    "id": "2970501348",
    "name": "デイサービス　絆",
    "kana": "デイサービス　キズナ",
    "address": "奈良県橿原市上品寺町234-1",
    "lat": 34.5189945,
    "lng": 135.795421,
    "tel": "0744-21-0808",
    "url": "",
    "pref": "奈良県",
    "city": "橿原市",
    "category": "community_day_service",
    "serviceType": "地域密着型通所介護",
    "capacity": 0,
    "openDays": [
      "平日",
      "土曜日",
      "祝日"
    ],
    "openDaysNote": "営業時間外での利用も相談に乗ります（延長は19時まで）。"
  },
  {
    "id": "2990500122",
    "name": "デイサービスこころ日和",
    "kana": "デイサービス　ココロビヨリ",
    "address": "奈良県橿原市中曽司町62-1",
    "lat": 34.5251651,
    "lng": 135.7707226,
    "tel": "0744-25-3911",
    "url": "",
    "pref": "奈良県",
    "city": "橿原市",
    "category": "community_day_service",
    "serviceType": "地域密着型通所介護",
    "capacity": 0,
    "openDays": [
      "平日",
      "土曜日",
      "祝日"
    ],
    "openDaysNote": "その他の休日は12月29日から1月3日まで"
  },
  {
    "id": "2970501660",
    "name": "デイサービスセンター　季楽里ゆずりは",
    "kana": "デイサービスセンター　キラリユズリハ",
    "address": "奈良県橿原市新賀町２７５－１５",
    "lat": 34.5144585,
    "lng": 135.7978393,
    "tel": "0744-24-7270",
    "url": "",
    "pref": "奈良県",
    "city": "橿原市",
    "category": "community_day_service",
    "serviceType": "地域密着型通所介護",
    "capacity": 10,
    "openDays": [
      "平日",
      "土曜日",
      "祝日"
    ],
    "openDaysNote": ""
  },
  {
    "id": "2970500852",
    "name": "デイサービス花の家",
    "kana": "デイサービスハナノイエ",
    "address": "橿原市久米町５２８－１",
    "lat": 34.4826486625002,
    "lng": 135.791538374869,
    "tel": "0744-51-1512",
    "url": "http://hp.kaipoke.biz/n25",
    "pref": "奈良県",
    "city": "橿原市",
    "category": "community_day_service",
    "serviceType": "地域密着型通所介護",
    "capacity": 0,
    "openDays": [
      "平日",
      "土曜日",
      "祝日"
    ],
    "openDaysNote": ""
  },
  {
    "id": "2970501108",
    "name": "デイホーム弥生",
    "kana": "デイホームヤヨイ",
    "address": "奈良県橿原市上品寺町３７０番地の２０",
    "lat": 34.5213738612406,
    "lng": 135.79445859259,
    "tel": "0744-23-1009",
    "url": "https://www.caretayoi.com/",
    "pref": "奈良県",
    "city": "橿原市",
    "category": "community_day_service",
    "serviceType": "地域密着型通所介護",
    "capacity": 10,
    "openDays": [
      "平日",
      "土曜日",
      "祝日"
    ],
    "openDaysNote": ""
  },
  {
    "id": "2970500613",
    "name": "ぽれぽれ中和",
    "kana": "ポレポレチュウワ",
    "address": "橿原市大久保町３３２－２",
    "lat": 34.494258,
    "lng": 135.7940067,
    "tel": "0744-28-6560",
    "url": "http://www.porepore.co.jp/",
    "pref": "奈良県",
    "city": "橿原市",
    "category": "community_day_service",
    "serviceType": "地域密着型通所介護",
    "capacity": 12,
    "openDays": [
      "平日",
      "土曜日",
      "祝日"
    ],
    "openDaysNote": "年末年始12/31～1/2は休業とする"
  },
  {
    "id": "2970501629",
    "name": "リハビリデイサービス　橿原の郷",
    "kana": "リハビリデイサービス　カシハラノサト",
    "address": "奈良県橿原市飯高町７－１",
    "lat": 34.5311449,
    "lng": 135.7798577,
    "tel": "0744-21-1111",
    "url": "http://www.sanyofukushikai.com/",
    "pref": "奈良県",
    "city": "橿原市",
    "category": "community_day_service",
    "serviceType": "地域密着型通所介護",
    "capacity": 0,
    "openDays": [
      "平日",
      "祝日"
    ],
    "openDaysNote": "祝日関係なく平日営業"
  },
  {
    "id": "2970501868",
    "name": "リハビリデイサービスハロー",
    "kana": "リハビリデイサービスハロー",
    "address": "奈良県橿原市上品寺町207-1",
    "lat": 34.5192383,
    "lng": 135.7942146,
    "tel": "744247382",
    "url": "",
    "pref": "奈良県",
    "city": "橿原市",
    "category": "community_day_service",
    "serviceType": "地域密着型通所介護",
    "capacity": 10,
    "openDays": [
      "平日",
      "祝日"
    ],
    "openDaysNote": ""
  },
  {
    "id": "2970501942",
    "name": "茶話本舗デイサービス南妙法寺亭",
    "kana": "サワホンポデイサービスミナミミョウホウジテイ",
    "address": "奈良県橿原市南妙法寺町3-8茶話本舗デイサービス南妙法寺亭 茶話本舗デイサービス南妙法寺亭",
    "lat": 34.4726327,
    "lng": 135.7856831,
    "tel": "0744-47-4587",
    "url": "http://www.837.co.jp",
    "pref": "奈良県",
    "city": "橿原市",
    "category": "community_day_service",
    "serviceType": "地域密着型通所介護",
    "capacity": 310,
    "openDays": [
      "平日",
      "土曜日",
      "日曜日",
      "祝日"
    ],
    "openDaysNote": "元日のみ休み。それ以外は営業しております。"
  },
  {
    "id": "2970500910",
    "name": "通所デイサービスセンター「季楽里ひだまり」",
    "kana": "ツウショデイサービスセンター　キラリヒダマリ",
    "address": "奈良県橿原市南山町３１８番地",
    "lat": 34.4899788,
    "lng": 135.8275205,
    "tel": "0744-29-5822",
    "url": "",
    "pref": "奈良県",
    "city": "橿原市",
    "category": "community_day_service",
    "serviceType": "地域密着型通所介護",
    "capacity": 15,
    "openDays": [
      "平日",
      "土曜日",
      "祝日"
    ],
    "openDaysNote": ""
  },
  {
    "id": "2970502155",
    "name": "癒し空間フロッグス",
    "kana": "イヤシクウカンフロッグス",
    "address": "奈良県橿原市久米町７３４－１ハイツ竹上１Ｆ ハイツ竹上１Ｆ",
    "lat": 34.4858479,
    "lng": 135.7948707,
    "tel": "０７４４－３７－０８０４",
    "url": "",
    "pref": "奈良県",
    "city": "橿原市",
    "category": "community_day_service",
    "serviceType": "地域密着型通所介護",
    "capacity": 15,
    "openDays": [
      "平日"
    ],
    "openDaysNote": ""
  },
  {
    "id": "2974800159",
    "name": "デイサービス「和の里」",
    "kana": "デイサービス　「ナゴミノサト」",
    "address": "奈良県葛城市山田318-3",
    "lat": 34.476681,
    "lng": 135.7134783,
    "tel": "0745-69-0441",
    "url": "",
    "pref": "奈良県",
    "city": "葛城市",
    "category": "community_day_service",
    "serviceType": "地域密着型通所介護",
    "capacity": 0,
    "openDays": [
      "平日",
      "祝日"
    ],
    "openDaysNote": ""
  },
  {
    "id": "2974800407",
    "name": "デイサービスぐりーん",
    "kana": "デイサービスグリーン",
    "address": "葛城市林堂404-1",
    "lat": 34.4776223010129,
    "lng": 135.719374735551,
    "tel": "0745-43-8773",
    "url": "https://n-caring.jp/",
    "pref": "奈良県",
    "city": "葛城市",
    "category": "community_day_service",
    "serviceType": "地域密着型通所介護",
    "capacity": 10,
    "openDays": [
      "平日",
      "土曜日",
      "祝日"
    ],
    "openDaysNote": ""
  },
  {
    "id": "2974800399",
    "name": "デイサービスセンター笛吹",
    "kana": "デイサービスセンターフエフキ",
    "address": "奈良県葛城市笛吹546-1",
    "lat": 34.4709263,
    "lng": 135.7128104,
    "tel": "0745-43-5076",
    "url": "http://hp.kaipoke.biz/7nd/",
    "pref": "奈良県",
    "city": "葛城市",
    "category": "community_day_service",
    "serviceType": "地域密着型通所介護",
    "capacity": 18,
    "openDays": [
      "平日",
      "土曜日",
      "祝日"
    ],
    "openDaysNote": ""
  },
  {
    "id": "2974800506",
    "name": "デイサービスベルライフ葛城",
    "kana": "デイサービスベルライフカツラギ",
    "address": "奈良県葛城市北花内",
    "lat": 34.4855183,
    "lng": 135.7319645,
    "tel": "0745-69-8068",
    "url": "https://www.bellage.co.jp/",
    "pref": "奈良県",
    "city": "葛城市",
    "category": "community_day_service",
    "serviceType": "地域密着型通所介護",
    "capacity": 0,
    "openDays": [
      "平日",
      "土曜日",
      "祝日"
    ],
    "openDaysNote": "但し、8/13～8/15、12/30～1/3は休館日とする。"
  },
  {
    "id": "2994800031",
    "name": "デイサービス悠花",
    "kana": "デイサービスハルカ",
    "address": "奈良県葛城市染野205-3",
    "lat": 34.5218188,
    "lng": 135.6989969,
    "tel": "0745-43-6610",
    "url": "",
    "pref": "奈良県",
    "city": "葛城市",
    "category": "community_day_service",
    "serviceType": "地域密着型通所介護",
    "capacity": null,
    "openDays": [
      "平日",
      "祝日"
    ],
    "openDaysNote": "年末年始（12/30～1/3）を除く。"
  },
  {
    "id": "2974800019",
    "name": "社会福祉法人葛城市社会福祉協議会",
    "kana": "カツラギシシャカイフクシキョウギカイ",
    "address": "葛城市染野７８９番地１",
    "lat": 34.5203672,
    "lng": 135.6938403,
    "tel": "0745-48-6636",
    "url": "http://katsuragi-shakyo.jp/",
    "pref": "奈良県",
    "city": "葛城市",
    "category": "community_day_service",
    "serviceType": "地域密着型通所介護",
    "capacity": 0,
    "openDays": [
      "平日",
      "土曜日",
      "祝日"
    ],
    "openDaysNote": "その他年間の休日：１月１日"
  },
  {
    "id": "2994800023",
    "name": "満天",
    "kana": "マンテン",
    "address": "奈良県葛城市新在家286-1",
    "lat": 34.5249699882573,
    "lng": 135.696507625058,
    "tel": "0745-47-2121",
    "url": "http://manten.katsuragi-care.com/",
    "pref": "奈良県",
    "city": "葛城市",
    "category": "community_day_service",
    "serviceType": "地域密着型通所介護",
    "capacity": 0,
    "openDays": [
      "平日",
      "祝日"
    ],
    "openDaysNote": "年末年始　１２月２９日～１月３日は休業"
  },
  {
    "id": "2970700379",
    "name": "Careステーション雅",
    "kana": "ケア　ステーション　ミヤビ",
    "address": "奈良県五條市岡町1748",
    "lat": 34.3613033,
    "lng": 135.6900831,
    "tel": "0747-22-8358",
    "url": "",
    "pref": "奈良県",
    "city": "五條市",
    "category": "community_day_service",
    "serviceType": "地域密着型通所介護",
    "capacity": 0,
    "openDays": [
      "平日",
      "土曜日",
      "祝日"
    ],
    "openDaysNote": "状態に応じて短時間　延長あり"
  },
  {
    "id": "2990700102",
    "name": "デイサービスかがやき",
    "kana": "デイサービスカガヤキ",
    "address": "奈良県五條市大津町226-1",
    "lat": 34.3304146489951,
    "lng": 135.6725744,
    "tel": "0747-32-8878",
    "url": "https://quankukou5.wixsite.com/-site-2",
    "pref": "奈良県",
    "city": "五條市",
    "category": "community_day_service",
    "serviceType": "地域密着型通所介護",
    "capacity": 0,
    "openDays": [
      "平日",
      "祝日"
    ],
    "openDaysNote": ""
  },
  {
    "id": "2970700593",
    "name": "デイサービスほほえみ五條",
    "kana": "デイサービスホホエミゴジョウ",
    "address": "奈良県五條市今井１丁目2-32",
    "lat": 34.3552747,
    "lng": 135.7020788,
    "tel": "0747-23-1055",
    "url": "",
    "pref": "奈良県",
    "city": "五條市",
    "category": "community_day_service",
    "serviceType": "地域密着型通所介護",
    "capacity": 0,
    "openDays": [
      "平日"
    ],
    "openDaysNote": ""
  },
  {
    "id": "2970700510",
    "name": "隅田クラブ（五條）",
    "kana": "スダクラブゴジョウ",
    "address": "奈良県五條市今井４丁目1-1",
    "lat": 34.3557609,
    "lng": 135.7055479,
    "tel": "0747-26-2800",
    "url": "https://actcare-system.com/",
    "pref": "奈良県",
    "city": "五條市",
    "category": "community_day_service",
    "serviceType": "地域密着型通所介護",
    "capacity": 0,
    "openDays": [
      "平日",
      "祝日"
    ],
    "openDaysNote": ""
  },
  {
    "id": "2990700086",
    "name": "社会福祉法人五條市社会福祉事業団大塔ライフハウス",
    "kana": "シャカイフクシホウジンゴジョウシシャカイフクシジギョウダンオオトウライフハウス",
    "address": "奈良県五條市大塔町宇井183番地",
    "lat": 34.1568753744625,
    "lng": 135.746353123278,
    "tel": "747360001",
    "url": "https://www.otogojo.com/",
    "pref": "奈良県",
    "city": "五條市",
    "category": "community_day_service",
    "serviceType": "地域密着型通所介護",
    "capacity": 0,
    "openDays": [
      "平日",
      "祝日"
    ],
    "openDaysNote": "営業日：月・金（改行）サービス提供時間9:30～16:00　（改行）12/29～1/3休日（改行）キャンセルは前日午後5時までにお願いします。キャンセルの内容によりキャンセル料を徴収させて頂く場合があります。"
  },
  {
    "id": "2970700585",
    "name": "通所介護事業所　音和舎善",
    "kana": "ツウショカイゴジギョウショ　オトワヤゼン",
    "address": "奈良県五條市五條3丁目1-4",
    "lat": 34.3529194,
    "lng": 135.6993902,
    "tel": "0747-32-8600",
    "url": "http://www.seiwakai-gojo.or.jp/",
    "pref": "奈良県",
    "city": "五條市",
    "category": "community_day_service",
    "serviceType": "地域密着型通所介護",
    "capacity": 0,
    "openDays": [
      "平日",
      "祝日"
    ],
    "openDaysNote": ""
  },
  {
    "id": "2970800492",
    "name": "デイサービスさらぎ野",
    "kana": "デイサービスサラギノ",
    "address": "蛇穴５２１番地１",
    "lat": 34.4563618,
    "lng": 135.7344215,
    "tel": "0745-43-7811",
    "url": "",
    "pref": "奈良県",
    "city": "御所市",
    "category": "community_day_service",
    "serviceType": "地域密着型通所介護",
    "capacity": 18,
    "openDays": [
      "平日",
      "土曜日",
      "祝日"
    ],
    "openDaysNote": "休日、夜間でも電話を転送していますので随時連絡をお受けできます。"
  },
  {
    "id": "2993300066",
    "name": "エリシオン真美ヶ丘",
    "kana": "エリシオンマミガオカ",
    "address": "奈良県北葛城郡広陵町馬見南4丁目1－19",
    "lat": 34.5380415,
    "lng": 135.72859,
    "tel": "0745-54-3540",
    "url": "https://elysion.jp/",
    "pref": "奈良県",
    "city": "広陵町",
    "category": "community_day_service",
    "serviceType": "地域密着型通所介護",
    "capacity": null,
    "openDays": [
      "平日"
    ],
    "openDaysNote": "年末年始（12/31～1/3）休"
  },
  {
    "id": "2993300033",
    "name": "デイサービスセンター一真寺",
    "kana": "デイサービスセンターイッシンジ",
    "address": "奈良県北葛城郡広陵町古寺３７５",
    "lat": 34.5520078,
    "lng": 135.7514507,
    "tel": "0745-56-5555",
    "url": "",
    "pref": "奈良県",
    "city": "広陵町",
    "category": "community_day_service",
    "serviceType": "地域密着型通所介護",
    "capacity": 5,
    "openDays": [
      "平日",
      "土曜日"
    ],
    "openDaysNote": ""
  },
  {
    "id": "2973300094",
    "name": "デイサービス真美ヶ丘",
    "kana": "デイサービスマミガオカ",
    "address": "奈良県北葛城郡広陵町馬見北3丁目12-11",
    "lat": 34.5327606,
    "lng": 135.7286449,
    "tel": "0745-55-7411",
    "url": "",
    "pref": "奈良県",
    "city": "広陵町",
    "category": "community_day_service",
    "serviceType": "地域密着型通所介護",
    "capacity": 0,
    "openDays": [
      "平日"
    ],
    "openDaysNote": ""
  },
  {
    "id": "2993300058",
    "name": "大和園　ちあふる",
    "kana": "ヤマトエン　チアフル",
    "address": "奈良県北葛城郡広陵町大字安部450-1",
    "lat": 34.5337316,
    "lng": 135.7452875,
    "tel": "0745-55-0350",
    "url": "www.yamatoen.or.jp",
    "pref": "奈良県",
    "city": "広陵町",
    "category": "community_day_service",
    "serviceType": "地域密着型通所介護",
    "capacity": 0,
    "openDays": [
      "平日",
      "土曜日",
      "祝日"
    ],
    "openDaysNote": ""
  },
  {
    "id": "2991000098",
    "name": "デイサービスセンターきらぼし",
    "kana": "デイサービスセンターキラボシ",
    "address": "奈良県香芝市高163-1",
    "lat": 34.5532190269384,
    "lng": 135.70283805582,
    "tel": "0745-71-3713",
    "url": "https://kiraboshi.katsuragi-care.com/",
    "pref": "奈良県",
    "city": "香芝市",
    "category": "community_day_service",
    "serviceType": "地域密着型通所介護",
    "capacity": 10,
    "openDays": [
      "平日",
      "土曜日",
      "祝日"
    ],
    "openDaysNote": ""
  },
  {
    "id": "2971000936",
    "name": "デイサービスほぅむ",
    "kana": "デイサービスホゥム",
    "address": "奈良県香芝市白鳳台2-21-1",
    "lat": 34.5703358,
    "lng": 135.6950921,
    "tel": "0745-71-1165",
    "url": "http://irtp-home.com",
    "pref": "奈良県",
    "city": "香芝市",
    "category": "community_day_service",
    "serviceType": "地域密着型通所介護",
    "capacity": 17,
    "openDays": [
      "平日",
      "土曜日",
      "祝日"
    ],
    "openDaysNote": ""
  },
  {
    "id": "2971000712",
    "name": "よいしょデイサービスセンター",
    "kana": "ヨイショデイサービスセンター",
    "address": "奈良県香芝市良福寺263-1",
    "lat": 34.5291802,
    "lng": 135.7099052,
    "tel": "0745-78-0339",
    "url": "",
    "pref": "奈良県",
    "city": "香芝市",
    "category": "community_day_service",
    "serviceType": "地域密着型通所介護",
    "capacity": 0,
    "openDays": [
      "平日",
      "土曜日",
      "祝日"
    ],
    "openDaysNote": ""
  },
  {
    "id": "2971001181",
    "name": "リハビリデイサービス　つながり",
    "kana": "リハビリデイサービス　ツナガリ",
    "address": "五位堂2-582-1ブランドール壱番館1F　101 ブランドール壱番館1F　101",
    "lat": 34.535537858546,
    "lng": 135.714944880658,
    "tel": "0745-71-5757",
    "url": "",
    "pref": "奈良県",
    "city": "香芝市",
    "category": "community_day_service",
    "serviceType": "地域密着型通所介護",
    "capacity": 156,
    "openDays": [
      "平日",
      "土曜日",
      "祝日"
    ],
    "openDaysNote": "年末年始はお休み"
  },
  {
    "id": "2973800044",
    "name": "黒滝村ディサービスセンター",
    "kana": "クロタキムラディサービスセンター",
    "address": "奈良県吉野郡黒滝村大字寺戸１８７番地の２（黒滝村デイサービスセンター内）",
    "lat": 34.3093069,
    "lng": 135.8521422,
    "tel": "0747-62-2850",
    "url": "http://kurotakisyakyo.com/",
    "pref": "奈良県",
    "city": "黒滝村",
    "category": "community_day_service",
    "serviceType": "地域密着型通所介護",
    "capacity": 0,
    "openDays": [
      "平日"
    ],
    "openDaysNote": ""
  },
  {
    "id": "2970600728",
    "name": "オリーブの里",
    "kana": "オリーブノサト",
    "address": "奈良県桜井市橋本４６９－１",
    "lat": 34.4989027,
    "lng": 135.8388469,
    "tel": "0744-49-2200",
    "url": "",
    "pref": "奈良県",
    "city": "桜井市",
    "category": "community_day_service",
    "serviceType": "地域密着型通所介護",
    "capacity": 0,
    "openDays": [
      "平日",
      "土曜日"
    ],
    "openDaysNote": ""
  },
  {
    "id": "2970600686",
    "name": "デイサービス　小春日和",
    "kana": "デイサービス　コハルビヨリ",
    "address": "奈良県桜井市大字桜井924-1",
    "lat": 34.5125811073256,
    "lng": 135.849045805032,
    "tel": "0744-42-5411",
    "url": "mymt-oil@nifty.com",
    "pref": "奈良県",
    "city": "桜井市",
    "category": "community_day_service",
    "serviceType": "地域密着型通所介護",
    "capacity": 0,
    "openDays": [
      "平日",
      "土曜日",
      "祝日"
    ],
    "openDaysNote": ""
  },
  {
    "id": "2970600983",
    "name": "デイサービスいこいのもり",
    "kana": "デイサービスイコイノモリ",
    "address": "奈良県桜井市粟原６２－３",
    "lat": 34.5018607,
    "lng": 135.8779662,
    "tel": "0744-43-8607",
    "url": "",
    "pref": "奈良県",
    "city": "桜井市",
    "category": "community_day_service",
    "serviceType": "地域密着型通所介護",
    "capacity": 0,
    "openDays": [
      "平日",
      "土曜日",
      "祝日"
    ],
    "openDaysNote": ""
  },
  {
    "id": "2970600785",
    "name": "デイサービスかしの木",
    "kana": "デイサービス　カシノキ",
    "address": "大福702-1",
    "lat": 34.5176644,
    "lng": 135.8292946,
    "tel": "0744-49-0909",
    "url": "",
    "pref": "奈良県",
    "city": "桜井市",
    "category": "community_day_service",
    "serviceType": "地域密着型通所介護",
    "capacity": 15,
    "openDays": [
      "平日",
      "土曜日",
      "祝日"
    ],
    "openDaysNote": ""
  },
  {
    "id": "2990600179",
    "name": "デイサービスことりの里",
    "kana": "デイサービスコトリノサト",
    "address": "奈良県桜井市初瀬2425-1デイサービスことりの里 デイサービスことりの里",
    "lat": 34.5283363,
    "lng": 135.9033561,
    "tel": "744478605",
    "url": "",
    "pref": "奈良県",
    "city": "桜井市",
    "category": "community_day_service",
    "serviceType": "地域密着型通所介護",
    "capacity": null,
    "openDays": [
      "平日",
      "土曜日",
      "祝日"
    ],
    "openDaysNote": ""
  },
  {
    "id": "2970600454",
    "name": "デイサービスセンター　エル",
    "kana": "デイサービスセンター　エル",
    "address": "奈良県桜井市上之宮9-1",
    "lat": 34.5019524,
    "lng": 135.849932,
    "tel": "0744-46-0510",
    "url": "",
    "pref": "奈良県",
    "city": "桜井市",
    "category": "community_day_service",
    "serviceType": "地域密着型通所介護",
    "capacity": 0,
    "openDays": [
      "平日",
      "土曜日",
      "祝日"
    ],
    "openDaysNote": "祝日は通常通り営業"
  },
  {
    "id": "2990600203",
    "name": "デイサービスセンター　グランビレッジ倉橋",
    "kana": "デイサービスセンター　グランビレッジクラハシ",
    "address": "奈良県桜井市大字倉橋1088番1",
    "lat": 34.491234,
    "lng": 135.859951,
    "tel": "0744-46-1005",
    "url": "https://www.taiyounomura.org/",
    "pref": "奈良県",
    "city": "桜井市",
    "category": "community_day_service",
    "serviceType": "地域密着型通所介護",
    "capacity": 0,
    "openDays": [
      "平日",
      "土曜日",
      "祝日"
    ],
    "openDaysNote": ""
  },
  {
    "id": "2990600294",
    "name": "デイサービス向日葵",
    "kana": "デイサービス　ヒマワリ",
    "address": "奈良県桜井市大字池之内997番地",
    "lat": 34.4985898,
    "lng": 135.8315886,
    "tel": "0744-43-2387",
    "url": "",
    "pref": "奈良県",
    "city": "桜井市",
    "category": "community_day_service",
    "serviceType": "地域密着型通所介護",
    "capacity": 0,
    "openDays": [
      "平日",
      "日曜日",
      "祝日"
    ],
    "openDaysNote": "営業時間外・定休日は、電話転送にて対応しています。（改行）ご利用者様、ご家族様の要望により、営業時間外も対応します。"
  },
  {
    "id": "2990600211",
    "name": "デイサービス四つ葉のクローバーサンテ",
    "kana": "デイサービスヨツバノクロバーサンテ",
    "address": "奈良県桜井市吉備572-1",
    "lat": 34.5081753026219,
    "lng": 135.837203772353,
    "tel": "0744-43-5576",
    "url": "http://yotsuba-ckover.co.jp",
    "pref": "奈良県",
    "city": "桜井市",
    "category": "community_day_service",
    "serviceType": "地域密着型通所介護",
    "capacity": 0,
    "openDays": [
      "平日"
    ],
    "openDaysNote": ""
  },
  {
    "id": "2970600637",
    "name": "フリースペースみのり",
    "kana": "フリースペースミノリ",
    "address": "奈良県桜井市大字外山402-3コモドヴィラⅢ102,101号 コモドヴィラⅢ102,101号",
    "lat": 34.514285277631,
    "lng": 135.854776020854,
    "tel": "0744-46-5356",
    "url": "",
    "pref": "奈良県",
    "city": "桜井市",
    "category": "community_day_service",
    "serviceType": "地域密着型通所介護",
    "capacity": 17,
    "openDays": [
      "平日",
      "日曜日",
      "祝日"
    ],
    "openDaysNote": ""
  },
  {
    "id": "2990600237",
    "name": "リハビリテーションデイサービスよろこび広場",
    "kana": "リハビリテーションデイサービスヨロコビヒロバ",
    "address": "奈良県桜井市芝24-5",
    "lat": 34.5304979,
    "lng": 135.8420514,
    "tel": "0744-55-4333",
    "url": "https://yorokobi-hiroba.net",
    "pref": "奈良県",
    "city": "桜井市",
    "category": "community_day_service",
    "serviceType": "地域密着型通所介護",
    "capacity": 0,
    "openDays": [
      "平日",
      "祝日"
    ],
    "openDaysNote": ""
  },
  {
    "id": "2970600801",
    "name": "合同会社　わかば",
    "kana": "ゴウドウガイシャワカバ",
    "address": "桜井市東新堂663-1",
    "lat": 34.5252746,
    "lng": 135.832072,
    "tel": "0744-35-5974",
    "url": "",
    "pref": "奈良県",
    "city": "桜井市",
    "category": "community_day_service",
    "serviceType": "地域密着型通所介護",
    "capacity": 0,
    "openDays": [
      "平日",
      "祝日"
    ],
    "openDaysNote": ""
  },
  {
    "id": "2971500422",
    "name": "ＳＡＹＡＫＡデイサービスセンター",
    "kana": "サヤカデイサービスセンター",
    "address": "奈良県生駒郡三郷町勢野東２丁目４番２２号",
    "lat": 34.6038125,
    "lng": 135.6998129,
    "tel": "0745-32-0343",
    "url": "http://www.sangocho.com",
    "pref": "奈良県",
    "city": "三郷町",
    "category": "community_day_service",
    "serviceType": "地域密着型通所介護",
    "capacity": 18,
    "openDays": [
      "平日",
      "土曜日",
      "祝日"
    ],
    "openDaysNote": ""
  },
  {
    "id": "2971500133",
    "name": "デイサービスあゆみの家",
    "kana": "デイサービス　アユミノイエ",
    "address": "奈良県生駒郡三郷町立野北1-27-32",
    "lat": 34.5955077,
    "lng": 135.6929832,
    "tel": "0745-72-7436",
    "url": "http://www.grandhill.jp",
    "pref": "奈良県",
    "city": "三郷町",
    "category": "community_day_service",
    "serviceType": "地域密着型通所介護",
    "capacity": 0,
    "openDays": [
      "平日",
      "土曜日"
    ],
    "openDaysNote": ""
  },
  {
    "id": "2971500471",
    "name": "デイサービスセンター　くるみ",
    "kana": "デイサービスセンター　クルミ",
    "address": "生駒郡三郷町東信貴ヶ丘　１-2-27",
    "lat": 34.6067012,
    "lng": 135.7029042,
    "tel": "0745-32-3535",
    "url": "www.3533house.com",
    "pref": "奈良県",
    "city": "三郷町",
    "category": "community_day_service",
    "serviceType": "地域密着型通所介護",
    "capacity": 10,
    "openDays": [
      "平日"
    ],
    "openDaysNote": "午前のみ（改行）（改行）年末年始(１２月３０日から１月３日）は休みです"
  },
  {
    "id": "2971500414",
    "name": "デイサービスセンターあおぞら",
    "kana": "デイサービスセンターアオゾラ",
    "address": "奈良県生駒郡三郷町立野南2-19-24",
    "lat": 34.5928942,
    "lng": 135.6833952,
    "tel": "0745-33-0001",
    "url": "",
    "pref": "奈良県",
    "city": "三郷町",
    "category": "community_day_service",
    "serviceType": "地域密着型通所介護",
    "capacity": 10,
    "openDays": [
      "平日",
      "土曜日",
      "祝日"
    ],
    "openDaysNote": ""
  },
  {
    "id": "2971900051",
    "name": "デイサービスセンー　うちの家",
    "kana": "デイサービスセンター　ウチノイエ",
    "address": "奈良県磯城郡三宅町石見５２３－６９",
    "lat": 34.570521,
    "lng": 135.7892957,
    "tel": "0745-60-3903",
    "url": "",
    "pref": "奈良県",
    "city": "三宅町",
    "category": "community_day_service",
    "serviceType": "地域密着型通所介護",
    "capacity": 0,
    "openDays": [
      "平日",
      "祝日"
    ],
    "openDaysNote": ""
  },
  {
    "id": "2974300101",
    "name": "あきの里　デイサービスセンター",
    "kana": "アキノサト　デイサービスセンター",
    "address": "奈良県吉野郡十津川村大字平谷459番地の1",
    "lat": 33.9406060173997,
    "lng": 135.768655230092,
    "tel": "0746-64-0507",
    "url": "",
    "pref": "奈良県",
    "city": "十津川村",
    "category": "community_day_service",
    "serviceType": "地域密着型通所介護",
    "capacity": null,
    "openDays": [
      "平日",
      "祝日"
    ],
    "openDaysNote": ""
  },
  {
    "id": "2994300032",
    "name": "ふれあいサロン　太陽わらびお",
    "kana": "フレアイサロン　タイヨウワラビオ",
    "address": "奈良県吉野郡十津川平谷６９３番地",
    "lat": 33.9386781,
    "lng": 135.7625123,
    "tel": "0746-64-0564",
    "url": "http://www5.kcn.ne.jp/~ace-101/gaiyo.htm",
    "pref": "奈良県",
    "city": "十津川村",
    "category": "community_day_service",
    "serviceType": "地域密着型通所介護",
    "capacity": null,
    "openDays": [
      "平日"
    ],
    "openDaysNote": ""
  },
  {
    "id": "2973100536",
    "name": "ライズ",
    "kana": "ライズ",
    "address": "奈良県北葛城郡上牧町米山台一丁目2-5-1",
    "lat": 34.5602517224143,
    "lng": 135.714221135582,
    "tel": "0745-71-3268",
    "url": "",
    "pref": "奈良県",
    "city": "上牧町",
    "category": "community_day_service",
    "serviceType": "地域密着型通所介護",
    "capacity": 0,
    "openDays": [
      "平日",
      "土曜日",
      "日曜日"
    ],
    "openDaysNote": ""
  },
  {
    "id": "2973100528",
    "name": "リハビリデイサービス春の樹",
    "kana": "リハビリデイサービスハルノキ",
    "address": "奈良県北葛城郡上牧町大字上牧3388番地2",
    "lat": 34.5643622,
    "lng": 135.7169846,
    "tel": "0745-44-9531",
    "url": "http://www.rehabili-harunoki.com",
    "pref": "奈良県",
    "city": "上牧町",
    "category": "community_day_service",
    "serviceType": "地域密着型通所介護",
    "capacity": 10,
    "openDays": [
      "平日",
      "土曜日",
      "祝日"
    ],
    "openDaysNote": ""
  },
  {
    "id": "2973100239",
    "name": "介護のみき　西大和デイサービスセンター",
    "kana": "カイゴノミキ　ニシヤマトデイサービスセンター",
    "address": "奈良県北葛城郡上牧町桜ヶ丘3丁目35-11",
    "lat": 34.5756082,
    "lng": 135.7214479,
    "tel": "0745-31-0858",
    "url": "http://www.jcare.co.jp/",
    "pref": "奈良県",
    "city": "上牧町",
    "category": "community_day_service",
    "serviceType": "地域密着型通所介護",
    "capacity": 0,
    "openDays": [
      "平日",
      "土曜日",
      "祝日"
    ],
    "openDaysNote": "月曜日～土曜日営業"
  },
  {
    "id": "2990900116",
    "name": "デイサービス　きずな",
    "kana": "デイサービス　キズナ",
    "address": "緑ヶ丘1426-92",
    "lat": 34.6838661,
    "lng": 135.7003866,
    "tel": "0743-61-5161",
    "url": "",
    "pref": "奈良県",
    "city": "生駒市",
    "category": "community_day_service",
    "serviceType": "地域密着型通所介護",
    "capacity": 250,
    "openDays": [
      "平日",
      "土曜日",
      "日曜日",
      "祝日"
    ],
    "openDaysNote": "お盆休みと年末年始の臨時休業あり　　２０２５年１月より日曜日も営業"
  },
  {
    "id": "2990900108",
    "name": "デイサービス　ロハスの春",
    "kana": "デイサービス　ロハスノハル",
    "address": "奈良県生駒市東菜畑1-298-1メゾン東生駒106号 メゾン東生駒106号",
    "lat": 34.6862131,
    "lng": 135.714691,
    "tel": "0743-73-1203",
    "url": "",
    "pref": "奈良県",
    "city": "生駒市",
    "category": "community_day_service",
    "serviceType": "地域密着型通所介護",
    "capacity": 10,
    "openDays": [
      "平日"
    ],
    "openDaysNote": "月曜日～金曜日の祝日は、営業しております。"
  },
  {
    "id": "2990900165",
    "name": "デイサービスくつろぎの里壱分店",
    "kana": "デイサービスクツロギノサトイチブテン",
    "address": "奈良県生駒市壱分町１１３０",
    "lat": 34.6786973,
    "lng": 135.7058635,
    "tel": "0743-86-4337",
    "url": "https://adult-day-care-center-1644.business.site/",
    "pref": "奈良県",
    "city": "生駒市",
    "category": "community_day_service",
    "serviceType": "地域密着型通所介護",
    "capacity": 5,
    "openDays": [
      "平日",
      "祝日"
    ],
    "openDaysNote": ""
  },
  {
    "id": "2970901175",
    "name": "デイサービスセンターそうせい",
    "kana": "デイサービスセンターソウセイ",
    "address": "奈良県生駒市萩の台４－４－１",
    "lat": 34.6547881,
    "lng": 135.7149884,
    "tel": "0743-76-2050",
    "url": "http://www.sousei-ikoma.com",
    "pref": "奈良県",
    "city": "生駒市",
    "category": "community_day_service",
    "serviceType": "地域密着型通所介護",
    "capacity": 15,
    "openDays": [
      "平日",
      "土曜日",
      "祝日"
    ],
    "openDaysNote": ""
  },
  {
    "id": "2970901308",
    "name": "デイサービスセンター萩の台ちどり",
    "kana": "デイサービスセンターハギノダイチドリ",
    "address": "生駒市萩の台3丁目1-8",
    "lat": 34.6545104,
    "lng": 135.7101083,
    "tel": "0743-76-2211",
    "url": "http://www.chidori.or.jp",
    "pref": "奈良県",
    "city": "生駒市",
    "category": "community_day_service",
    "serviceType": "地域密着型通所介護",
    "capacity": 15,
    "openDays": [
      "平日",
      "祝日"
    ],
    "openDaysNote": "年末年始休（12/30～1/3）（改行）行事等により臨時営業の場合、土、日を営業日とする"
  },
  {
    "id": "2970900847",
    "name": "ゆりの会デイサービスセンター",
    "kana": "ユリノカイデイサービスセンター",
    "address": "生駒市高山町８０７５番地",
    "lat": 34.7289981,
    "lng": 135.7236145,
    "tel": "0743-70-1014",
    "url": "http://yurino-kai.jp/",
    "pref": "奈良県",
    "city": "生駒市",
    "category": "community_day_service",
    "serviceType": "地域密着型通所介護",
    "capacity": 10,
    "openDays": [
      "平日",
      "土曜日",
      "祝日"
    ],
    "openDaysNote": "時間延長にも対応可能です。"
  },
  {
    "id": "2970901530",
    "name": "リハビリデイサービスいおり",
    "kana": "リハビリデイサービスイオリ",
    "address": "奈良県生駒市壱分町83-55",
    "lat": 34.6694063,
    "lng": 135.7154522,
    "tel": "0743-20-0245",
    "url": "",
    "pref": "奈良県",
    "city": "生駒市",
    "category": "community_day_service",
    "serviceType": "地域密着型通所介護",
    "capacity": 10,
    "openDays": [
      "平日"
    ],
    "openDaysNote": "土曜日、日曜日、GW5月3日～5月5日、夏期、年末年始は休業とする。GW以外の国民の祝日については、当社規定により休業日とする場合がある。また、休業日であっても営業を行う場合がある。"
  },
  {
    "id": "2970901522",
    "name": "リライズ生駒",
    "kana": "リライズイコマ",
    "address": "奈良県生駒市北田原町1132-37",
    "lat": 34.7389329,
    "lng": 135.7100627,
    "tel": "0743-79-5767",
    "url": "https://rerize.jp/",
    "pref": "奈良県",
    "city": "生駒市",
    "category": "community_day_service",
    "serviceType": "地域密着型通所介護",
    "capacity": 18,
    "openDays": [
      "平日",
      "祝日"
    ],
    "openDaysNote": ""
  },
  {
    "id": "2970901498",
    "name": "愛友ケアデイサービス　かがやき",
    "kana": "アイユウケアデイサービスカガヤキ",
    "address": "奈良県生駒市小明町1057-4かがやき かがやき",
    "lat": 34.704167,
    "lng": 135.706608,
    "tel": "0743-85-6143",
    "url": "",
    "pref": "奈良県",
    "city": "生駒市",
    "category": "community_day_service",
    "serviceType": "地域密着型通所介護",
    "capacity": 0,
    "openDays": [
      "平日"
    ],
    "openDaysNote": ""
  },
  {
    "id": "2970901340",
    "name": "愛友ケアデイサービス　さわらび",
    "kana": "アイユウケアデイサービス　サワラビ",
    "address": "辻町373-1",
    "lat": 35.2081523,
    "lng": 136.9265063,
    "tel": "0743-71-6002",
    "url": "http：//iyou-care.net/",
    "pref": "奈良県",
    "city": "生駒市",
    "category": "community_day_service",
    "serviceType": "地域密着型通所介護",
    "capacity": 0,
    "openDays": [
      "平日",
      "土曜日",
      "日曜日",
      "祝日"
    ],
    "openDaysNote": ""
  },
  {
    "id": "2970901282",
    "name": "医療法人和幸会　阪奈中央ｻﾝﾐｯﾄデイサービスセンター",
    "kana": "イリョウホウジンワコウカイ　ハンナチュウオウサンミット　デイサービスセンター",
    "address": "奈良県生駒市山崎新町2-18-101",
    "lat": 34.690921,
    "lng": 135.6970311,
    "tel": "0743-85-5526",
    "url": "http://www.wakoucai.or.jp",
    "pref": "奈良県",
    "city": "生駒市",
    "category": "community_day_service",
    "serviceType": "地域密着型通所介護",
    "capacity": 0,
    "openDays": [
      "平日"
    ],
    "openDaysNote": ""
  },
  {
    "id": "2970900409",
    "name": "菜の花デイサービス",
    "kana": "ナノハナデイサービス",
    "address": "生駒市中菜畑2丁目１１１７",
    "lat": 34.6818051,
    "lng": 135.7058945,
    "tel": "0743-71-7221",
    "url": "http://www.wellconsul.co.jp",
    "pref": "奈良県",
    "city": "生駒市",
    "category": "community_day_service",
    "serviceType": "地域密着型通所介護",
    "capacity": 18,
    "openDays": [
      "平日",
      "土曜日",
      "日曜日",
      "祝日"
    ],
    "openDaysNote": "正月元旦のみ休業"
  },
  {
    "id": "2974600013",
    "name": "社会福祉法人　川上村社会福祉協議会",
    "kana": "カワカミムラシャカイフクシキョウギカイ",
    "address": "奈良県吉野郡川上村大字迫1374番地の2",
    "lat": 34.3337274,
    "lng": 135.9584357,
    "tel": "0746-52-0294",
    "url": "",
    "pref": "奈良県",
    "city": "川上村",
    "category": "community_day_service",
    "serviceType": "地域密着型通所介護",
    "capacity": 0,
    "openDays": [
      "平日"
    ],
    "openDaysNote": ""
  },
  {
    "id": "2971800087",
    "name": "リハビリデイ結",
    "kana": "リハビリデイユウ",
    "address": "奈良県磯城郡川西町結崎452-56",
    "lat": 34.5853597969369,
    "lng": 135.781952597657,
    "tel": "0745-43-9096",
    "url": "https://casadelsole.jp",
    "pref": "奈良県",
    "city": "川西町",
    "category": "community_day_service",
    "serviceType": "地域密着型通所介護",
    "capacity": 10,
    "openDays": [
      "平日",
      "祝日"
    ],
    "openDaysNote": "①　サービス内容の変更（改行）　　利用時に、ご利用者の体調等の理由により通所リハビリテーション計画で予定されていたサービスの実施ができない場合には、ご利用者の同意を得て、サービス内容を変更します。（改行）②　他の利用者や当事業所の職員に対し、迷惑を及ぼすような宗教活動、政治活動、営利活動を行うことは出来ません。（改行）③　事業所内の喫煙はできません。（改行）④　事業所内で盗難等が発生した場合、責任を持ちかねますので貴重品等はお持ちにならないよう、お願いします。（改行）⑤　悪天候で送迎に危険を伴う場合は、やむを得ず休業することもあります。その際は前もってご連絡いたします。（改行）　※　台風の際は、午前７時・午後１２時の時点で大雨・暴風警報が出ていれば休業とする場合があります。厳しい積雪による車の運行に危険がある場合も同様です。（改行）⑥　設利用時のリハビリのために上履きのご利用をお願いします。その際の上履きはご持参するようお願いします。"
  },
  {
    "id": "2972500025",
    "name": "社会福祉法人曽爾村社会福祉協議会",
    "kana": "シャカイフクシホウジンソニムラシャカイフクシキョウギカイ",
    "address": "奈良県宇陀郡曽爾村伊賀見２３－１曽爾村蘇いの森 曽爾村蘇いの森",
    "lat": 34.5276616,
    "lng": 136.1426089,
    "tel": "0745－96－2144",
    "url": "",
    "pref": "奈良県",
    "city": "曽爾村",
    "category": "community_day_service",
    "serviceType": "地域密着型通所介護",
    "capacity": 0,
    "openDays": [
      "平日"
    ],
    "openDaysNote": ""
  },
  {
    "id": "2973600337",
    "name": "デイサービスみなみやまと",
    "kana": "デイサービスミナミヤマト",
    "address": "奈良県吉野郡大淀町土田507-469",
    "lat": 34.3985637,
    "lng": 135.8020338,
    "tel": "0747-64-8180",
    "url": "",
    "pref": "奈良県",
    "city": "大淀町",
    "category": "community_day_service",
    "serviceType": "地域密着型通所介護",
    "capacity": 0,
    "openDays": [
      "平日",
      "土曜日",
      "祝日"
    ],
    "openDaysNote": "特例もあり"
  },
  {
    "id": "2973600279",
    "name": "南和病院デイサービスセンター",
    "kana": "ナンワビョウイン　デイサービスセンター",
    "address": "奈良県吉野郡大淀町福神１－１８１",
    "lat": 34.3935406135139,
    "lng": 135.754547716733,
    "tel": "0747-54-2345",
    "url": "https://www.koujin.jp",
    "pref": "奈良県",
    "city": "大淀町",
    "category": "community_day_service",
    "serviceType": "地域密着型通所介護",
    "capacity": 0,
    "openDays": [
      "平日",
      "土曜日",
      "祝日"
    ],
    "openDaysNote": ""
  },
  {
    "id": "2990300176",
    "name": "Dayworkおたがいさん",
    "kana": "デイワークオタガイサン",
    "address": "大和郡山市美濃庄町２９７－３６",
    "lat": 34.6392542,
    "lng": 135.8016359,
    "tel": "0743－53－2250",
    "url": "https://ookinigroup.com/",
    "pref": "奈良県",
    "city": "大和郡山市",
    "category": "community_day_service",
    "serviceType": "地域密着型通所介護",
    "capacity": null,
    "openDays": [
      "平日",
      "土曜日",
      "祝日"
    ],
    "openDaysNote": ""
  },
  {
    "id": "2990300184",
    "name": "LIFEGYMリハデイFitnessCure",
    "kana": "ライフジム　リハデイ　フィットネス　キュア",
    "address": "奈良県大和郡山市小泉町１６０４－１－１－２",
    "lat": 34.6305205,
    "lng": 135.7574582,
    "tel": "0743-54-4976",
    "url": "https://spinallink.wixsite.com/fitnesscure",
    "pref": "奈良県",
    "city": "大和郡山市",
    "category": "community_day_service",
    "serviceType": "地域密着型通所介護",
    "capacity": 0,
    "openDays": [
      "平日"
    ],
    "openDaysNote": ""
  },
  {
    "id": "2970300766",
    "name": "デイサービス　フレンド倶楽部",
    "kana": "デイサービス　フレンドクラブ",
    "address": "奈良県大和郡山市田中町763",
    "lat": 34.6446654,
    "lng": 135.7681149,
    "tel": "0743-55-0580",
    "url": "http://www.wellconsul.co.jp",
    "pref": "奈良県",
    "city": "大和郡山市",
    "category": "community_day_service",
    "serviceType": "地域密着型通所介護",
    "capacity": 0,
    "openDays": [
      "平日",
      "土曜日",
      "祝日"
    ],
    "openDaysNote": "1月1日は休業"
  },
  {
    "id": "2990300267",
    "name": "デイサービスNico",
    "kana": "デイサービスニコ",
    "address": "筒井町943-1グランシャリオ102",
    "lat": 34.6175995,
    "lng": 135.7858215,
    "tel": "0743-84-5119",
    "url": "",
    "pref": "奈良県",
    "city": "大和郡山市",
    "category": "community_day_service",
    "serviceType": "地域密着型通所介護",
    "capacity": null,
    "openDays": [
      "平日"
    ],
    "openDaysNote": ""
  },
  {
    "id": "2970301087",
    "name": "デイサービスセンター　アン",
    "kana": "デイサービスセンターアン",
    "address": "奈良県大和郡山市城見町２－６",
    "lat": 34.6482377,
    "lng": 135.7809111,
    "tel": "０７４３－５３－４９３７",
    "url": "なし",
    "pref": "奈良県",
    "city": "大和郡山市",
    "category": "community_day_service",
    "serviceType": "地域密着型通所介護",
    "capacity": 15,
    "openDays": [
      "平日",
      "土曜日",
      "祝日"
    ],
    "openDaysNote": "特にありません。"
  },
  {
    "id": "2970301020",
    "name": "デイサービスリハビリ館よろこび",
    "kana": "デイサービスリハビリカンヨロコビ",
    "address": "大和郡山市九条平野町１-４０",
    "lat": 34.658184,
    "lng": 135.7807221,
    "tel": "0743-54-3030",
    "url": "",
    "pref": "奈良県",
    "city": "大和郡山市",
    "category": "community_day_service",
    "serviceType": "地域密着型通所介護",
    "capacity": 0,
    "openDays": [
      "平日",
      "祝日"
    ],
    "openDaysNote": ""
  },
  {
    "id": "2970301350",
    "name": "デイサービス白馬",
    "kana": "デイサービスシロウマ",
    "address": "柳町235-1",
    "lat": 34.6425848423193,
    "lng": 135.781575782942,
    "tel": "０７４３-８５-４７１０",
    "url": "",
    "pref": "奈良県",
    "city": "大和郡山市",
    "category": "community_day_service",
    "serviceType": "地域密着型通所介護",
    "capacity": 120,
    "openDays": [
      "平日",
      "土曜日",
      "祝日"
    ],
    "openDaysNote": "１２/３０　～　１/３　　休み"
  },
  {
    "id": "2990300192",
    "name": "リハビリサポートだるま",
    "kana": "リハビリサポートダルマ",
    "address": "奈良県大和郡山市南郡山町363-23梅花ハイツ103 梅花ハイツ103",
    "lat": 34.6464776,
    "lng": 135.7732965,
    "tel": "0743-99-2181",
    "url": "",
    "pref": "奈良県",
    "city": "大和郡山市",
    "category": "community_day_service",
    "serviceType": "地域密着型通所介護",
    "capacity": null,
    "openDays": [
      "平日",
      "土曜日",
      "祝日"
    ],
    "openDaysNote": "年末年始、お盆休みあり"
  },
  {
    "id": "2990300226",
    "name": "レコードブック大和郡山",
    "kana": "レコードブックヤマトコオリヤマ",
    "address": "奈良県大和郡山市小泉町東2-9-1",
    "lat": 34.6207541876129,
    "lng": 135.764744847905,
    "tel": "0743-85-6530",
    "url": "https://www.recordbook.jp/facility/yamatokooriyama/",
    "pref": "奈良県",
    "city": "大和郡山市",
    "category": "community_day_service",
    "serviceType": "地域密着型通所介護",
    "capacity": 0,
    "openDays": [
      "平日",
      "祝日"
    ],
    "openDaysNote": ""
  },
  {
    "id": "2990300218",
    "name": "医療法人岡谷会小泉診療所",
    "kana": "イリョウホウジン　オカタニカイ　コイズミシンリョウショ",
    "address": "奈良県大和郡山市小泉町552",
    "lat": 34.6234605,
    "lng": 135.7614837,
    "tel": "0743-52-3035",
    "url": "https://okatani.or.jp/koizumi",
    "pref": "奈良県",
    "city": "大和郡山市",
    "category": "community_day_service",
    "serviceType": "地域密着型通所介護",
    "capacity": null,
    "openDays": [
      "平日"
    ],
    "openDaysNote": "サービスの提供時間は、9:00～12:15と13:00～16:15となります"
  },
  {
    "id": "2970201048",
    "name": "デイサービス　ミオの家",
    "kana": "デイサービス　ミオノイエ",
    "address": "奈良県大和高田市東中８２",
    "lat": 34.5025729,
    "lng": 135.7337646,
    "tel": "0745-25-7880",
    "url": "",
    "pref": "奈良県",
    "city": "大和高田市",
    "category": "community_day_service",
    "serviceType": "地域密着型通所介護",
    "capacity": 0,
    "openDays": [
      "平日",
      "土曜日",
      "祝日"
    ],
    "openDaysNote": ""
  },
  {
    "id": "2990200137",
    "name": "デイサービスほほえみ",
    "kana": "デイサービスホホエミ",
    "address": "奈良県大和高田市市場264-1",
    "lat": 34.5183964,
    "lng": 135.724509,
    "tel": "0745-51-5111",
    "url": "",
    "pref": "奈良県",
    "city": "大和高田市",
    "category": "community_day_service",
    "serviceType": "地域密着型通所介護",
    "capacity": 18,
    "openDays": [
      "平日",
      "土曜日",
      "日曜日",
      "祝日"
    ],
    "openDaysNote": ""
  },
  {
    "id": "2970201360",
    "name": "デイサービス大寿",
    "kana": "デイサービスダイジュ",
    "address": "奈良県大和高田市大谷598番地1",
    "lat": 34.5251502,
    "lng": 135.7290683,
    "tel": "745222877",
    "url": "",
    "pref": "奈良県",
    "city": "大和高田市",
    "category": "community_day_service",
    "serviceType": "地域密着型通所介護",
    "capacity": 0,
    "openDays": [
      "平日",
      "土曜日",
      "祝日"
    ],
    "openDaysNote": ""
  },
  {
    "id": "2970201410",
    "name": "ふくしのなら",
    "kana": "フクシノナラ",
    "address": "奈良県大和高田市三和町2-3",
    "lat": 34.5150298,
    "lng": 135.7461578,
    "tel": "0745-22-3200",
    "url": "http://www.hukushinonara.com",
    "pref": "奈良県",
    "city": "大和高田市",
    "category": "community_day_service",
    "serviceType": "地域密着型通所介護",
    "capacity": 0,
    "openDays": [
      "平日",
      "祝日"
    ],
    "openDaysNote": "お盆、年末年始は休日になる。"
  },
  {
    "id": "2970201428",
    "name": "ミオの苑デイサービス",
    "kana": "ミオノソノデイサービス",
    "address": "吉井18-1",
    "lat": 33.3426359,
    "lng": 130.7602253,
    "tel": "0745-43-6853",
    "url": "http://mionoie.co.jp",
    "pref": "奈良県",
    "city": "大和高田市",
    "category": "community_day_service",
    "serviceType": "地域密着型通所介護",
    "capacity": null,
    "openDays": [
      "平日"
    ],
    "openDaysNote": "12/30-1/4は休日とします。"
  },
  {
    "id": "2970201303",
    "name": "リハビリデイサービス　ZERO",
    "kana": "リハビリデイサービス　ゼロ",
    "address": "田井６５－１",
    "lat": 34.4991912940269,
    "lng": 135.753833008598,
    "tel": "０７４５－２５－３０２３",
    "url": "http://hp.kaipoke.biz/z9n/",
    "pref": "奈良県",
    "city": "大和高田市",
    "category": "community_day_service",
    "serviceType": "地域密着型通所介護",
    "capacity": 10,
    "openDays": [
      "平日",
      "土曜日",
      "祝日"
    ],
    "openDaysNote": "土曜日不定休"
  },
  {
    "id": "2970200495",
    "name": "花たばデイサービスセンター",
    "kana": "ハナタバデイサービスセンター",
    "address": "奈良県大和高田市本郷町７番１６号",
    "lat": 34.5128495,
    "lng": 135.744883,
    "tel": "0745-24-5771",
    "url": "http://www.k2.dion.ne.jp/~hanataba/",
    "pref": "奈良県",
    "city": "大和高田市",
    "category": "community_day_service",
    "serviceType": "地域密着型通所介護",
    "capacity": 14,
    "openDays": [
      "平日",
      "土曜日",
      "祝日"
    ],
    "openDaysNote": ""
  },
  {
    "id": "2970200982",
    "name": "介護のみき　大和高田デイサービスセンター",
    "kana": "カイゴノミキ　ヤマトタカダデイサービスセンター",
    "address": "奈良県大和高田市三和町17-30",
    "lat": 34.5130774,
    "lng": 135.749552,
    "tel": "0745-22-0859",
    "url": "http://www.jcare.co.jp/kaigo/",
    "pref": "奈良県",
    "city": "大和高田市",
    "category": "community_day_service",
    "serviceType": "地域密着型通所介護",
    "capacity": 0,
    "openDays": [
      "平日",
      "土曜日",
      "祝日"
    ],
    "openDaysNote": "月曜日～土曜日営業"
  },
  {
    "id": "2990200145",
    "name": "社会福祉法人甘樫会あまがし苑高田",
    "kana": "シャカイフクシホウジンアマガシカイアマガシエンタカダ",
    "address": "奈良県大和高田市神楽3丁目11番13号",
    "lat": 34.5240057,
    "lng": 135.7453116,
    "tel": "0745-21-1666",
    "url": "http://amagashi-t.com/",
    "pref": "奈良県",
    "city": "大和高田市",
    "category": "community_day_service",
    "serviceType": "地域密着型通所介護",
    "capacity": 0,
    "openDays": [
      "平日",
      "土曜日",
      "祝日"
    ],
    "openDaysNote": "年末年始の休業日　12月30日～1月3日"
  },
  {
    "id": "2970201394",
    "name": "茶話本舗デイサービス片塩庵",
    "kana": "サワホンポデイサービスカタシオアン",
    "address": "奈良県大和高田市片塩町10-26",
    "lat": 34.5093278,
    "lng": 135.7442997,
    "tel": "0745-44-8114",
    "url": "",
    "pref": "奈良県",
    "city": "大和高田市",
    "category": "community_day_service",
    "serviceType": "地域密着型通所介護",
    "capacity": 10,
    "openDays": [
      "平日",
      "土曜日",
      "祝日"
    ],
    "openDaysNote": ""
  },
  {
    "id": "2994000012",
    "name": "社会福祉法人天川村社会福祉協議会",
    "kana": "シャカイフクシホウジンテンカワムラシャカイフクシキョウギカイ",
    "address": "奈良県吉野郡天川村南日裏200番地ほほえみポート天川内 ほほえみポート天川内",
    "lat": 34.227732492359,
    "lng": 135.840980318385,
    "tel": "0747-63-9112",
    "url": "https://tenkawasyakyou.jindo.com/",
    "pref": "奈良県",
    "city": "天川村",
    "category": "community_day_service",
    "serviceType": "地域密着型通所介護",
    "capacity": 18,
    "openDays": [
      "平日",
      "土曜日",
      "祝日"
    ],
    "openDaysNote": ""
  },
  {
    "id": "2990400174",
    "name": "サンテラスデイサービス",
    "kana": "サンテラスデイサービス",
    "address": "前栽町70-1",
    "lat": 34.604164,
    "lng": 135.8222441,
    "tel": "0743-69-5757",
    "url": "http://meibi-mt.co.jp/",
    "pref": "奈良県",
    "city": "天理市",
    "category": "community_day_service",
    "serviceType": "地域密着型通所介護",
    "capacity": 0,
    "openDays": [
      "平日",
      "土曜日",
      "祝日"
    ],
    "openDaysNote": ""
  },
  {
    "id": "2970400756",
    "name": "デイサービス　幸福",
    "kana": "デイサービス　シアワセ",
    "address": "奈良県天理市富堂町２１９－６",
    "lat": 34.5949995,
    "lng": 135.8171555,
    "tel": "0743-69-6630",
    "url": "",
    "pref": "奈良県",
    "city": "天理市",
    "category": "community_day_service",
    "serviceType": "地域密着型通所介護",
    "capacity": 0,
    "openDays": [
      "平日",
      "土曜日",
      "祝日"
    ],
    "openDaysNote": ""
  },
  {
    "id": "2970400889",
    "name": "デイサービスセンター前栽の家",
    "kana": "デイサービスセンターセンザイノイエ",
    "address": "天理市平等坊町20-1",
    "lat": 34.6023459,
    "lng": 135.8120059,
    "tel": "0743-69-5737",
    "url": "https://kamuchikara.or.jp/",
    "pref": "奈良県",
    "city": "天理市",
    "category": "community_day_service",
    "serviceType": "地域密着型通所介護",
    "capacity": 18,
    "openDays": [
      "平日",
      "土曜日",
      "祝日"
    ],
    "openDaysNote": ""
  },
  {
    "id": "2990400182",
    "name": "デイサービスはばたき天理",
    "kana": "デイサービスハバタキテンリ",
    "address": "守目堂町59",
    "lat": 34.594035,
    "lng": 135.836086,
    "tel": "0743-68-1015",
    "url": "http://meibi-mt.co.jp",
    "pref": "奈良県",
    "city": "天理市",
    "category": "community_day_service",
    "serviceType": "地域密着型通所介護",
    "capacity": 0,
    "openDays": [
      "平日",
      "土曜日",
      "祝日"
    ],
    "openDaysNote": ""
  },
  {
    "id": "2970400442",
    "name": "デイサービスゆんたく",
    "kana": "デイサービスユンタク",
    "address": "奈良県天理市川原城町545番地",
    "lat": 34.5986649,
    "lng": 135.8399989,
    "tel": "0743-62-1371",
    "url": "http://www.care-miyagi.net/yuntaku/",
    "pref": "奈良県",
    "city": "天理市",
    "category": "community_day_service",
    "serviceType": "地域密着型通所介護",
    "capacity": 0,
    "openDays": [
      "平日",
      "土曜日",
      "祝日"
    ],
    "openDaysNote": ""
  },
  {
    "id": "2990400190",
    "name": "デイサービスりあん天理",
    "kana": "デイサービスリアンテンリ",
    "address": "櫟本町2098-1",
    "lat": 34.6233400847569,
    "lng": 135.833130960713,
    "tel": "0743-61-0080",
    "url": "",
    "pref": "奈良県",
    "city": "天理市",
    "category": "community_day_service",
    "serviceType": "地域密着型通所介護",
    "capacity": 0,
    "openDays": [
      "平日"
    ],
    "openDaysNote": "土日休み、年末年始休暇"
  },
  {
    "id": "2970400798",
    "name": "デイサービス介護みつ葉",
    "kana": "デイサービスカイゴミツバ",
    "address": "奈良県天理市石上町435-5",
    "lat": 34.6161004,
    "lng": 135.8301789,
    "tel": "0743-65-0875",
    "url": "",
    "pref": "奈良県",
    "city": "天理市",
    "category": "community_day_service",
    "serviceType": "地域密着型通所介護",
    "capacity": 0,
    "openDays": [
      "平日",
      "土曜日",
      "祝日"
    ],
    "openDaysNote": "年末年始は基本的に１２月２９日から１月３日まで休み"
  },
  {
    "id": "2970401226",
    "name": "リハビリデイサービス　ステップ",
    "kana": "リハビリデイサービス　ステップ",
    "address": "奈良県天理市三昧田町107-1",
    "lat": 34.5836764,
    "lng": 135.8388676,
    "tel": "0743-66-1000",
    "url": "http://www.miyagikai.or.jp/",
    "pref": "奈良県",
    "city": "天理市",
    "category": "community_day_service",
    "serviceType": "地域密着型通所介護",
    "capacity": 0,
    "openDays": [
      "平日",
      "土曜日"
    ],
    "openDaysNote": "午前の部、午後の二部制"
  },
  {
    "id": "2990400125",
    "name": "リハプライド天理",
    "kana": "リハプライドテンリ",
    "address": "奈良県天理市丹波市町295番地",
    "lat": 34.5969386,
    "lng": 135.8345065,
    "tel": "743636123",
    "url": "tenri@rehapride.co.jp",
    "pref": "奈良県",
    "city": "天理市",
    "category": "community_day_service",
    "serviceType": "地域密着型通所介護",
    "capacity": 0,
    "openDays": [
      "平日",
      "祝日"
    ],
    "openDaysNote": ""
  },
  {
    "id": "2970400194",
    "name": "社会福祉法人天寿会ひびきデイサービスセンター",
    "kana": "シャカイフクシホウジンテンジュカイヒビキデイサービスセンター",
    "address": "天理市岸田町１１９９",
    "lat": 34.5662086,
    "lng": 135.8243138,
    "tel": "0743-66-1188",
    "url": "http://www.tenjukai.jp",
    "pref": "奈良県",
    "city": "天理市",
    "category": "community_day_service",
    "serviceType": "地域密着型通所介護",
    "capacity": 0,
    "openDays": [
      "平日",
      "土曜日",
      "祝日"
    ],
    "openDaysNote": ""
  },
  {
    "id": "2970401267",
    "name": "天理吉祥寺デイサービス",
    "kana": "テンリキチジョウジデイサービス",
    "address": "奈良県天理市指柳町301-3",
    "lat": 34.6042563,
    "lng": 135.8246736,
    "tel": "0743-62-2288",
    "url": "",
    "pref": "奈良県",
    "city": "天理市",
    "category": "community_day_service",
    "serviceType": "地域密着型通所介護",
    "capacity": null,
    "openDays": [
      "平日",
      "土曜日"
    ],
    "openDaysNote": ""
  },
  {
    "id": "2970400699",
    "name": "福住光明苑デイサービスセンター",
    "kana": "フクスミコウミョウエンデイサービスセンター",
    "address": "奈良県天理市福住町６３２８番地",
    "lat": 34.6050198,
    "lng": 135.9180922,
    "tel": "0743-68-6500",
    "url": "http://fukusumikai.jp/",
    "pref": "奈良県",
    "city": "天理市",
    "category": "community_day_service",
    "serviceType": "地域密着型通所介護",
    "capacity": 0,
    "openDays": [
      "平日",
      "土曜日",
      "祝日"
    ],
    "openDaysNote": "併設の特養窓口は９時から１８時まで"
  },
  {
    "id": "2970401176",
    "name": "療養通所介護夢未来Ⅱ",
    "kana": "リョウヨウツウショカイゴユメミライツウ",
    "address": "奈良県天理市西長柄町453-2",
    "lat": 34.5724337,
    "lng": 135.8218004,
    "tel": "0743-67-8525",
    "url": "",
    "pref": "奈良県",
    "city": "天理市",
    "category": "community_day_service",
    "serviceType": "地域密着型通所介護",
    "capacity": null,
    "openDays": [
      "平日",
      "日曜日",
      "祝日"
    ],
    "openDaysNote": ""
  },
  {
    "id": "2972000620",
    "name": "デイサービスしきの郷",
    "kana": "デイサービスシキノサト",
    "address": "奈良県磯城郡田原本町西竹田27-1",
    "lat": 34.5559722,
    "lng": 135.7722581,
    "tel": "0744-33-8880",
    "url": "http://sikinosato.org/",
    "pref": "奈良県",
    "city": "田原本町",
    "category": "community_day_service",
    "serviceType": "地域密着型通所介護",
    "capacity": 15,
    "openDays": [
      "平日",
      "祝日"
    ],
    "openDaysNote": "サービス提供時間9:30～16:40（改行）延長サービス可能時間8:30～9:30および16:40～18:30"
  },
  {
    "id": "2972000422",
    "name": "デイホーム　たんぽぽ",
    "kana": "デイホーム　タンポポ",
    "address": "奈良県磯城郡田原本町黒田479－3",
    "lat": 34.5693924518237,
    "lng": 135.78110362209,
    "tel": "0744-34-6266",
    "url": "https://www.tanpopo.nara.jp",
    "pref": "奈良県",
    "city": "田原本町",
    "category": "community_day_service",
    "serviceType": "地域密着型通所介護",
    "capacity": null,
    "openDays": [
      "平日",
      "土曜日",
      "祝日"
    ],
    "openDaysNote": ""
  },
  {
    "id": "2990190130",
    "name": "アイリハンニチデイサービス",
    "kana": "愛怜半日デイサービス",
    "address": "奈良県奈良市北永井町384番地の1",
    "lat": 34.6553114,
    "lng": 135.8213819,
    "tel": "0742-63-2225",
    "url": "",
    "pref": "奈良県",
    "city": "奈良市",
    "category": "community_day_service",
    "serviceType": "地域密着型通所介護",
    "capacity": null,
    "openDays": [
      "平日",
      "祝日"
    ],
    "openDaysNote": ""
  },
  {
    "id": "2990100592",
    "name": "あすならハイツあやめ池　デイサービス",
    "kana": "アスナラハイツアヤメイケデイサービス",
    "address": "奈良県奈良市あやめ池南2丁目2-16",
    "lat": 34.6976629,
    "lng": 135.762613,
    "tel": "0742-45-1165",
    "url": "http://www.asunaraen.com",
    "pref": "奈良県",
    "city": "奈良市",
    "category": "community_day_service",
    "serviceType": "地域密着型通所介護",
    "capacity": null,
    "openDays": [
      "平日",
      "土曜日",
      "日曜日",
      "祝日"
    ],
    "openDaysNote": "年中無休"
  },
  {
    "id": "2990100626",
    "name": "あすならハイツ恋の窪　デイサービス",
    "kana": "アスナラハイツコイノクボ　デイサービス",
    "address": "奈良県奈良市恋の窪1-2-2",
    "lat": 34.6767068,
    "lng": 135.8080901,
    "tel": "0742-32-4165",
    "url": "https://asunaraen.or.jp/",
    "pref": "奈良県",
    "city": "奈良市",
    "category": "community_day_service",
    "serviceType": "地域密着型通所介護",
    "capacity": 0,
    "openDays": [
      "平日",
      "土曜日",
      "日曜日",
      "祝日"
    ],
    "openDaysNote": ""
  },
  {
    "id": "2970105967",
    "name": "おうとくケアセンター",
    "kana": "オウトクケアセンター",
    "address": "奈良県奈良市神殿町西谷691-3",
    "lat": 34.6606454345951,
    "lng": 135.819909642892,
    "tel": "0742-50-5515",
    "url": "//www.outoku.com/",
    "pref": "奈良県",
    "city": "奈良市",
    "category": "community_day_service",
    "serviceType": "地域密着型通所介護",
    "capacity": 15,
    "openDays": [
      "平日",
      "土曜日",
      "祝日"
    ],
    "openDaysNote": ""
  },
  {
    "id": "2990190031",
    "name": "ぐっどデイサービス",
    "kana": "グッドデイサービス",
    "address": "奈良県奈良市富雄元町3丁目1－13ききょう富雄ビル3階 ききょう富雄ビル3階",
    "lat": 34.6929729,
    "lng": 135.7336446,
    "tel": "742455005",
    "url": "",
    "pref": "奈良県",
    "city": "奈良市",
    "category": "community_day_service",
    "serviceType": "地域密着型通所介護",
    "capacity": 0,
    "openDays": [
      "平日"
    ],
    "openDaysNote": ""
  },
  {
    "id": "2990100451",
    "name": "サンタ・マリア　デイサービスセンター”ゆり”",
    "kana": "サンタ・マリア　デイサービスセンター”ユリ”",
    "address": "奈良市朱雀4丁目3-1",
    "lat": 34.7206495,
    "lng": 135.7992108,
    "tel": "0742-71-7733",
    "url": "http://www.yozefu-home.or.jp/",
    "pref": "奈良県",
    "city": "奈良市",
    "category": "community_day_service",
    "serviceType": "地域密着型通所介護",
    "capacity": 0,
    "openDays": [
      "平日",
      "土曜日",
      "祝日"
    ],
    "openDaysNote": "１月１日～３日は、年末年始休業"
  },
  {
    "id": "2970103053",
    "name": "シニアクラブハウス　まいん",
    "kana": "シニアクラブハウスマイン",
    "address": "奈良市あやめ池南1-5-25",
    "lat": 34.6973096,
    "lng": 135.7587122,
    "tel": "0742-46-0267",
    "url": "",
    "pref": "奈良県",
    "city": "奈良市",
    "category": "community_day_service",
    "serviceType": "地域密着型通所介護",
    "capacity": 14,
    "openDays": [
      "平日",
      "土曜日",
      "祝日"
    ],
    "openDaysNote": ""
  },
  {
    "id": "2970105744",
    "name": "ジョイーレ奈良機能訓練デイサービス",
    "kana": "ジョイーレナラキノウクンレンデイサービス",
    "address": "奈良県奈良市法華寺町303-1るねみぎわ　１Ｆ るねみぎわ　１Ｆ",
    "lat": 34.6890303,
    "lng": 135.8055626,
    "tel": "0742-31-7044",
    "url": "",
    "pref": "奈良県",
    "city": "奈良市",
    "category": "community_day_service",
    "serviceType": "地域密着型通所介護",
    "capacity": 0,
    "openDays": [
      "平日",
      "土曜日",
      "祝日"
    ],
    "openDaysNote": ""
  },
  {
    "id": "2970107005",
    "name": "ジョイーレ法華寺機能訓練デイサービス",
    "kana": "ジョイーレホッケジキノウクンレンデイサービス",
    "address": "奈良県奈良市法華寺町１２１０TMビル105号室 TMビル105号室",
    "lat": 34.6935161310669,
    "lng": 135.80634435749,
    "tel": "0742-32-1520",
    "url": "",
    "pref": "奈良県",
    "city": "奈良市",
    "category": "community_day_service",
    "serviceType": "地域密着型通所介護",
    "capacity": 0,
    "openDays": [
      "平日",
      "祝日"
    ],
    "openDaysNote": "年末年始約1週間"
  },
  {
    "id": "2990100535",
    "name": "だんらんの家　京終",
    "kana": "ダンランノイエ　キョウバテ",
    "address": "奈良県奈良市南京終町7丁目522番2号サンプラザ南京終　１階 サンプラザ南京終　１階",
    "lat": 34.6667725,
    "lng": 135.8244489,
    "tel": "0742-62-8770",
    "url": "https://danrannoie.com/",
    "pref": "奈良県",
    "city": "奈良市",
    "category": "community_day_service",
    "serviceType": "地域密着型通所介護",
    "capacity": 10,
    "openDays": [
      "平日",
      "土曜日",
      "祝日"
    ],
    "openDaysNote": "8：00～9：00・17：15～19：00は時間延長サービス時間帯"
  },
  {
    "id": "2970106890",
    "name": "デイ・サンライフ西大寺",
    "kana": "デイ・サンライフサイダイジ",
    "address": "奈良県奈良市西大寺南町1-28",
    "lat": 34.6939304442473,
    "lng": 135.78171711786,
    "tel": "0742-52-1177",
    "url": "http://www.seiwakai-group.or.jp/",
    "pref": "奈良県",
    "city": "奈良市",
    "category": "community_day_service",
    "serviceType": "地域密着型通所介護",
    "capacity": 0,
    "openDays": [
      "平日",
      "土曜日",
      "祝日"
    ],
    "openDaysNote": ""
  },
  {
    "id": "2970103426",
    "name": "ていくていく",
    "kana": "テイクテイク",
    "address": "奈良市鳥見町２丁目１９番地の２",
    "lat": 34.6898961,
    "lng": 135.7256068,
    "tel": "0742-41-2955",
    "url": "teikuai.grupo.jp/",
    "pref": "奈良県",
    "city": "奈良市",
    "category": "community_day_service",
    "serviceType": "地域密着型通所介護",
    "capacity": 0,
    "openDays": [
      "平日",
      "祝日"
    ],
    "openDaysNote": ""
  },
  {
    "id": "2970104549",
    "name": "デイサービス　ゆうか",
    "kana": "デイサービス　ユウカ",
    "address": "奈良市今市町361-6",
    "lat": 34.6448446,
    "lng": 135.82486,
    "tel": "0742-93-7652",
    "url": "",
    "pref": "奈良県",
    "city": "奈良市",
    "category": "community_day_service",
    "serviceType": "地域密着型通所介護",
    "capacity": 10,
    "openDays": [
      "平日",
      "土曜日",
      "祝日"
    ],
    "openDaysNote": ""
  },
  {
    "id": "2990190106",
    "name": "デイサービス　楓～かえで～",
    "kana": "デイサービス　カエデ",
    "address": "奈良市神殿町178-9",
    "lat": 34.6620344,
    "lng": 135.8267123,
    "tel": "0742-95-9702",
    "url": "",
    "pref": "奈良県",
    "city": "奈良市",
    "category": "community_day_service",
    "serviceType": "地域密着型通所介護",
    "capacity": 20,
    "openDays": [
      "平日",
      "土曜日",
      "日曜日",
      "祝日"
    ],
    "openDaysNote": "年末年始12月31日・1月1日・2日・3日"
  },
  {
    "id": "2990100659",
    "name": "デイサービス・青い鳥大宮",
    "kana": "デイサービス・アオイトリオオミヤ",
    "address": "大宮町2-3-4-103東急ドエル奈良パークビレジ4棟 東急ドエル奈良パークビレジ4棟",
    "lat": 35.1222507,
    "lng": 138.9207551,
    "tel": "0742ｰ32ｰ1838",
    "url": "amenitylife-assist.org",
    "pref": "奈良県",
    "city": "奈良市",
    "category": "community_day_service",
    "serviceType": "地域密着型通所介護",
    "capacity": 10,
    "openDays": [
      "平日",
      "土曜日",
      "祝日"
    ],
    "openDaysNote": "年末年始は12/31、1/1,2,3お休みいただいています。"
  },
  {
    "id": "2970106114",
    "name": "デイサービス「桜和」",
    "kana": "デイサービス「サワ」",
    "address": "奈良県奈良市中山町１３２４番地ー１",
    "lat": 34.7116083,
    "lng": 135.7692387,
    "tel": "0742-52-6399",
    "url": "sakura@nicecare-support.com",
    "pref": "奈良県",
    "city": "奈良市",
    "category": "community_day_service",
    "serviceType": "地域密着型通所介護",
    "capacity": 10,
    "openDays": [
      "平日",
      "祝日"
    ],
    "openDaysNote": "定休日以外の祝祭日の営業は行う。年末・年始（１２月３０日～１月３日）は定休日とする。"
  },
  {
    "id": "2970104978",
    "name": "デイサービスかなで家",
    "kana": "デイサービスカナデヤ",
    "address": "奈良県奈良市六条西３丁目１４－５",
    "lat": 34.6681412,
    "lng": 135.7705727,
    "tel": "0742-45-7150",
    "url": "https://kanade-nara.jp/",
    "pref": "奈良県",
    "city": "奈良市",
    "category": "community_day_service",
    "serviceType": "地域密着型通所介護",
    "capacity": null,
    "openDays": [
      "平日",
      "土曜日",
      "祝日"
    ],
    "openDaysNote": ""
  },
  {
    "id": "2970107039",
    "name": "デイサービスセンターらくじ苑学園前",
    "kana": "デイサービスセンターラクジエンガクエンマエ",
    "address": "学園北一丁目3番2号在宅介護相談センターらくじ苑学園前 在宅介護相談センターらくじ苑学園前",
    "lat": 34.6970595,
    "lng": 135.7480242,
    "tel": "0742-40-4165",
    "url": "http://www.s-rakuji.com/",
    "pref": "奈良県",
    "city": "奈良市",
    "category": "community_day_service",
    "serviceType": "地域密着型通所介護",
    "capacity": 0,
    "openDays": [
      "平日",
      "土曜日",
      "日曜日",
      "祝日"
    ],
    "openDaysNote": ""
  },
  {
    "id": "2970105280",
    "name": "デイサービスセンター奈良桃寿園",
    "kana": "デイサービスセンターナラトウジュエン",
    "address": "奈良市芝辻町4-12-4",
    "lat": 34.6859777,
    "lng": 135.8086598,
    "tel": "0742-34-1122",
    "url": "http:www.nara-toujuen.jp",
    "pref": "奈良県",
    "city": "奈良市",
    "category": "community_day_service",
    "serviceType": "地域密着型通所介護",
    "capacity": 0,
    "openDays": [
      "平日",
      "土曜日",
      "祝日"
    ],
    "openDaysNote": "年始は1/1～1/3まで休み"
  },
  {
    "id": "2990100709",
    "name": "ディサービスフォルテ",
    "kana": "ディサービスフォルテ",
    "address": "奈良県奈良市法蓮町528-1",
    "lat": 34.6938565106519,
    "lng": 135.812699015344,
    "tel": "0742-93-7041",
    "url": "",
    "pref": "奈良県",
    "city": "奈良市",
    "category": "community_day_service",
    "serviceType": "地域密着型通所介護",
    "capacity": null,
    "openDays": [
      "平日",
      "土曜日",
      "祝日"
    ],
    "openDaysNote": ""
  },
  {
    "id": "2970106791",
    "name": "デイサービスやすらぎ空間",
    "kana": "デイサービス　ヤスラギクウカン",
    "address": "奈良県奈良市北永井町344番地の45",
    "lat": 34.6546823,
    "lng": 135.8221935,
    "tel": "0742-63-1234",
    "url": "",
    "pref": "奈良県",
    "city": "奈良市",
    "category": "community_day_service",
    "serviceType": "地域密着型通所介護",
    "capacity": 6,
    "openDays": [
      "平日",
      "土曜日",
      "日曜日",
      "祝日"
    ],
    "openDaysNote": ""
  },
  {
    "id": "2990100675",
    "name": "デイサービスゆずの木　大安寺",
    "kana": "デイサービスユズノキ　ダイアンジ",
    "address": "奈良県奈良市八条４丁目６４６－１",
    "lat": 34.6693718,
    "lng": 135.8055281,
    "tel": "0742-93-9346",
    "url": "https://daycare-facilities-yuzunoki.com",
    "pref": "奈良県",
    "city": "奈良市",
    "category": "community_day_service",
    "serviceType": "地域密着型通所介護",
    "capacity": null,
    "openDays": [
      "平日",
      "土曜日",
      "祝日"
    ],
    "openDaysNote": "お盆休み・お正月休みを頂いております。"
  },
  {
    "id": "2970102931",
    "name": "デイサービス登美の森",
    "kana": "デイサービストミノモリ",
    "address": "奈良市西登美ヶ丘７丁目13-31",
    "lat": 34.7084777,
    "lng": 135.7384444,
    "tel": "0742-53-0880",
    "url": "http:///www.wellconsul.co.jp",
    "pref": "奈良県",
    "city": "奈良市",
    "category": "community_day_service",
    "serviceType": "地域密着型通所介護",
    "capacity": 0,
    "openDays": [
      "平日",
      "土曜日",
      "祝日"
    ],
    "openDaysNote": "12/31.1/1.2はお休みさせていただいております。"
  },
  {
    "id": "2970103103",
    "name": "デイサービス東九条　ひかり",
    "kana": "デイサービストウクジョウ　ヒカリ",
    "address": "奈良市東九条町720番地の1",
    "lat": 34.6608704,
    "lng": 135.8176967,
    "tel": "0742-63-0763",
    "url": "",
    "pref": "奈良県",
    "city": "奈良市",
    "category": "community_day_service",
    "serviceType": "地域密着型通所介護",
    "capacity": 10,
    "openDays": [
      "平日",
      "土曜日",
      "祝日"
    ],
    "openDaysNote": "お盆休み8/15・正月休み12/31～1/2"
  },
  {
    "id": "2970102964",
    "name": "デイホームかなで六条",
    "kana": "デイホームカナデロクジョウ",
    "address": "奈良県奈良市六条西三丁目１４－４",
    "lat": 34.6683467,
    "lng": 135.7705782,
    "tel": "0742-45-7150",
    "url": "https://kanade-nara.jp/",
    "pref": "奈良県",
    "city": "奈良市",
    "category": "community_day_service",
    "serviceType": "地域密着型通所介護",
    "capacity": null,
    "openDays": [
      "平日",
      "土曜日",
      "祝日"
    ],
    "openDaysNote": ""
  },
  {
    "id": "2990190049",
    "name": "ないすデイサービス",
    "kana": "ナイスデイサービス",
    "address": "奈良県奈良市富雄元町3丁目１－１３",
    "lat": 34.6929729,
    "lng": 135.7336446,
    "tel": "742455005",
    "url": "",
    "pref": "奈良県",
    "city": "奈良市",
    "category": "community_day_service",
    "serviceType": "地域密着型通所介護",
    "capacity": 0,
    "openDays": [
      "平日"
    ],
    "openDaysNote": ""
  },
  {
    "id": "2970106247",
    "name": "ハッピーデイリハビリ館大安寺",
    "kana": "ハッピーデイリハビリカンダイアンジ",
    "address": "奈良県奈良市東九条町1448-1",
    "lat": 34.6674894440371,
    "lng": 135.817045602447,
    "tel": "0742-63-8864",
    "url": "http://www.happy-service.co.jp",
    "pref": "奈良県",
    "city": "奈良市",
    "category": "community_day_service",
    "serviceType": "地域密着型通所介護",
    "capacity": 18,
    "openDays": [
      "平日",
      "土曜日",
      "祝日"
    ],
    "openDaysNote": "※その他避難訓練や施設メンテナンス日は臨時休業とする。"
  },
  {
    "id": "2970107187",
    "name": "ハナミズキ",
    "kana": "ハナミズキ",
    "address": "奈良県奈良市宝来３丁目１６－５",
    "lat": 34.6814981,
    "lng": 135.7750555,
    "tel": "0742-53-8550",
    "url": "",
    "pref": "奈良県",
    "city": "奈良市",
    "category": "community_day_service",
    "serviceType": "地域密着型通所介護",
    "capacity": 0,
    "openDays": [
      "平日",
      "土曜日",
      "祝日"
    ],
    "openDaysNote": "夏季（8/13-8/16)・年末年始(12/30-1/3)・ゴールデンウイーク３日間　休業"
  },
  {
    "id": "2990190197",
    "name": "ひなたデイサービス",
    "kana": "ヒナタデイサービス",
    "address": "奈良市恋の窪３丁目8-2-1恋の窪テナントＤ室 恋の窪テナントＤ室",
    "lat": 34.6731616,
    "lng": 135.8074945,
    "tel": "0742-93-8938",
    "url": "",
    "pref": "奈良県",
    "city": "奈良市",
    "category": "community_day_service",
    "serviceType": "地域密着型通所介護",
    "capacity": 0,
    "openDays": [
      "平日"
    ],
    "openDaysNote": ""
  },
  {
    "id": "2990100618",
    "name": "ペルメールケア奈良六条",
    "kana": "ペルメールケアナラロクジョウ",
    "address": "奈良市六条2-4-8",
    "lat": 34.6692788239227,
    "lng": 135.77692742209,
    "tel": "0742-93-5710",
    "url": "https://carenation.jp",
    "pref": "奈良県",
    "city": "奈良市",
    "category": "community_day_service",
    "serviceType": "地域密着型通所介護",
    "capacity": 10,
    "openDays": [
      "平日",
      "土曜日",
      "日曜日",
      "祝日"
    ],
    "openDaysNote": "無休"
  },
  {
    "id": "2970100141",
    "name": "ぽれぽれ四条大路",
    "kana": "ポレポレシジョウオオジ",
    "address": "奈良県奈良市四条大路二丁目８６０番地１",
    "lat": 34.6804986,
    "lng": 135.7990425,
    "tel": "0742-30-5318",
    "url": "ｈｔｐｐ：//www.porepore.co.jp",
    "pref": "奈良県",
    "city": "奈良市",
    "category": "community_day_service",
    "serviceType": "地域密着型通所介護",
    "capacity": 10,
    "openDays": [
      "平日",
      "土曜日",
      "祝日"
    ],
    "openDaysNote": ""
  },
  {
    "id": "2970104432",
    "name": "ぽれぽれ秋篠　II",
    "kana": "ポレポレアキシノ　ツウ",
    "address": "奈良市秋篠三和町１－388-11",
    "lat": 34.6999015,
    "lng": 135.7771494,
    "tel": "0742-30-5421",
    "url": "http://www.porepore.co.jp",
    "pref": "奈良県",
    "city": "奈良市",
    "category": "community_day_service",
    "serviceType": "地域密着型通所介護",
    "capacity": 12,
    "openDays": [
      "平日",
      "土曜日",
      "日曜日",
      "祝日"
    ],
    "openDaysNote": ""
  },
  {
    "id": "2970106858",
    "name": "よりあい処れん",
    "kana": "ヨリアイドコロレン",
    "address": "奈良県奈良市法蓮町973-1",
    "lat": 34.6913944,
    "lng": 135.8217676,
    "tel": "0742-31-5661",
    "url": "https://buririan.littlestar.jp/",
    "pref": "奈良県",
    "city": "奈良市",
    "category": "community_day_service",
    "serviceType": "地域密着型通所介護",
    "capacity": 10,
    "openDays": [
      "平日",
      "土曜日",
      "祝日"
    ],
    "openDaysNote": ""
  },
  {
    "id": "2970104564",
    "name": "リッスンデイサービスセンター",
    "kana": "リッスンデイサービスセンター",
    "address": "奈良県奈良市法蓮町１３４８",
    "lat": 34.6930028,
    "lng": 135.8276951,
    "tel": "0742-24-5466",
    "url": "http://listen33.jp",
    "pref": "奈良県",
    "city": "奈良市",
    "category": "community_day_service",
    "serviceType": "地域密着型通所介護",
    "capacity": 10,
    "openDays": [
      "平日",
      "土曜日",
      "日曜日",
      "祝日"
    ],
    "openDaysNote": ""
  },
  {
    "id": "2990190221",
    "name": "リハビリデイサービスアイリス大宮",
    "kana": "リハビリデイサービスアイリスオオミヤ",
    "address": "奈良市大宮町2丁目4-43",
    "lat": 34.6835805,
    "lng": 135.8158825,
    "tel": "0742-95-9785",
    "url": "https://www.rehabili-iris.com/",
    "pref": "奈良県",
    "city": "奈良市",
    "category": "community_day_service",
    "serviceType": "地域密着型通所介護",
    "capacity": null,
    "openDays": [
      "平日",
      "土曜日",
      "祝日"
    ],
    "openDaysNote": ""
  },
  {
    "id": "2990100691",
    "name": "リハビリデイサービス彦庵",
    "kana": "リハビリデイサービスヒコアン",
    "address": "奈良県奈良市学園南三丁目4-21",
    "lat": 34.6927069,
    "lng": 135.7507844,
    "tel": "0742-93-4072",
    "url": "",
    "pref": "奈良県",
    "city": "奈良市",
    "category": "community_day_service",
    "serviceType": "地域密着型通所介護",
    "capacity": 10,
    "openDays": [
      "平日"
    ],
    "openDaysNote": ""
  },
  {
    "id": "2990190247",
    "name": "リハビリデイびび",
    "kana": "リハビリデイビビ",
    "address": "奈良県奈良市朱雀5丁目3-10",
    "lat": 34.7198215,
    "lng": 135.7966487,
    "tel": "0742-93-9912",
    "url": "",
    "pref": "奈良県",
    "city": "奈良市",
    "category": "community_day_service",
    "serviceType": "地域密着型通所介護",
    "capacity": null,
    "openDays": [
      "平日",
      "祝日"
    ],
    "openDaysNote": ""
  },
  {
    "id": "2990100568",
    "name": "リハビリライフつむぎ",
    "kana": "リハビリライフツムギ",
    "address": "奈良県奈良市中山町７－１",
    "lat": 34.7111961778274,
    "lng": 135.771797428836,
    "tel": "０７４２－９３－６６９２",
    "url": "https://nara-firstinnovation.com/",
    "pref": "奈良県",
    "city": "奈良市",
    "category": "community_day_service",
    "serviceType": "地域密着型通所介護",
    "capacity": null,
    "openDays": [
      "平日",
      "土曜日",
      "祝日"
    ],
    "openDaysNote": ""
  },
  {
    "id": "2990190114",
    "name": "リハプライドまほろば",
    "kana": "リハプライドマホロバ",
    "address": "奈良県奈良市杉ヶ町51-7杉ヶ町北ビル1階 杉ヶ町北ビル1階",
    "lat": 34.6786462,
    "lng": 135.8222906,
    "tel": "0742-93-6224",
    "url": "https://www.rehapride.co.jp/mahoroba/",
    "pref": "奈良県",
    "city": "奈良市",
    "category": "community_day_service",
    "serviceType": "地域密着型通所介護",
    "capacity": 18,
    "openDays": [
      "平日",
      "土曜日"
    ],
    "openDaysNote": "１２月３１日から１月３日までお休み（改行）※３月より営業曜日の変更（月曜日から金曜日）"
  },
  {
    "id": "2990190155",
    "name": "レコードブック奈良学園前",
    "kana": "レコードブックナラガクエンマエ",
    "address": "奈良県奈良市登美ヶ丘4-4-4　イヌイビル1Fイヌイビル1F イヌイビル1F",
    "lat": 34.7143676,
    "lng": 135.7504478,
    "tel": "0742-53-8350",
    "url": "http://www.recordbook.jp/facility/naragakuennmae/",
    "pref": "奈良県",
    "city": "奈良市",
    "category": "community_day_service",
    "serviceType": "地域密着型通所介護",
    "capacity": 0,
    "openDays": [
      "平日",
      "祝日"
    ],
    "openDaysNote": ""
  },
  {
    "id": "2970105579",
    "name": "愛音デイサービスセンター",
    "kana": "アイネデイサービスセンター",
    "address": "奈良県奈良市南京終町1-21-6",
    "lat": 34.6708638,
    "lng": 135.8267987,
    "tel": "0742-63-5880",
    "url": "https://kisoudai1.hp.peraichi.com/asahi/",
    "pref": "奈良県",
    "city": "奈良市",
    "category": "community_day_service",
    "serviceType": "地域密着型通所介護",
    "capacity": 0,
    "openDays": [
      "平日",
      "土曜日",
      "日曜日",
      "祝日"
    ],
    "openDaysNote": ""
  },
  {
    "id": "2990190007",
    "name": "永都QOLAct",
    "kana": "エイト　キューオーエル　アクト",
    "address": "奈良県奈良市佐保台西町47番地2アッレグロミック1階 アッレグロミック1階",
    "lat": 34.7087951,
    "lng": 135.8076777,
    "tel": "0742-81-8490",
    "url": "",
    "pref": "奈良県",
    "city": "奈良市",
    "category": "community_day_service",
    "serviceType": "地域密着型通所介護",
    "capacity": 0,
    "openDays": [
      "平日",
      "土曜日",
      "祝日"
    ],
    "openDaysNote": "夏季、年末年始、事業所が定めた日は休みとなる"
  },
  {
    "id": "2970106007",
    "name": "温浴サプリ・機能訓練ハーフデイ奈良日和",
    "kana": "オンヨクサプリ・キノウクンレンハーフデイナラビヨリ",
    "address": "奈良県奈良市三条大路１－８－８",
    "lat": 34.6821456,
    "lng": 135.8012812,
    "tel": "0742-35-7130",
    "url": "www.narabiyori.com",
    "pref": "奈良県",
    "city": "奈良市",
    "category": "community_day_service",
    "serviceType": "地域密着型通所介護",
    "capacity": null,
    "openDays": [
      "平日",
      "祝日"
    ],
    "openDaysNote": "祝日は不定休"
  },
  {
    "id": "2990100493",
    "name": "温浴サプリ・機能訓練ハーフデイ奈良日和２nd",
    "kana": "オンヨクサプリ・キノウクンレンハーフデイナラビヨリセカンド",
    "address": "奈良県奈良市石木町９２番地イオンタウン富雄南内 イオンタウン富雄南内",
    "lat": 34.6673965,
    "lng": 135.7616982,
    "tel": "0742-53-7750",
    "url": "www.narabiyori.com",
    "pref": "奈良県",
    "city": "奈良市",
    "category": "community_day_service",
    "serviceType": "地域密着型通所介護",
    "capacity": null,
    "openDays": [
      "平日",
      "祝日"
    ],
    "openDaysNote": "祝日は不定休"
  },
  {
    "id": "2990100527",
    "name": "華舞デイサービスセンター",
    "kana": "ハナノマイデイサービスセンター",
    "address": "奈良県奈良市敷島町2-543-25",
    "lat": 34.7022444,
    "lng": 135.7672728,
    "tel": "0742-48-4079",
    "url": "http://youka-nara.com/",
    "pref": "奈良県",
    "city": "奈良市",
    "category": "community_day_service",
    "serviceType": "地域密着型通所介護",
    "capacity": 5,
    "openDays": [
      "平日",
      "土曜日",
      "祝日"
    ],
    "openDaysNote": ""
  },
  {
    "id": "2990100733",
    "name": "楽",
    "kana": "ラク",
    "address": "奈良県奈良市古市町1400-3",
    "lat": 34.6635393,
    "lng": 135.8307234,
    "tel": "0742-20-1400",
    "url": "",
    "pref": "奈良県",
    "city": "奈良市",
    "category": "community_day_service",
    "serviceType": "地域密着型通所介護",
    "capacity": 0,
    "openDays": [
      "平日"
    ],
    "openDaysNote": ""
  },
  {
    "id": "2990190023",
    "name": "機能訓練デイサービス　壮寿リハトレ広場　Ⅱ番館",
    "kana": "キノウクンレンデイサービス　ソウジュリハトレヒロバ　ニバンカン",
    "address": "奈良県奈良市南京終町1丁目154-6",
    "lat": 34.6698464,
    "lng": 135.8216785,
    "tel": "0742-61-5578",
    "url": "",
    "pref": "奈良県",
    "city": "奈良市",
    "category": "community_day_service",
    "serviceType": "地域密着型通所介護",
    "capacity": 0,
    "openDays": [
      "平日"
    ],
    "openDaysNote": ""
  },
  {
    "id": "2970105835",
    "name": "機能訓練デイサービス壮寿リハトレ広場",
    "kana": "キノウクンレンデイサービスソウジュリハトレヒロバ",
    "address": "奈良県奈良市南京終町1丁目154-6",
    "lat": 34.6698439,
    "lng": 135.8216902,
    "tel": "0742-61-5889",
    "url": "",
    "pref": "奈良県",
    "city": "奈良市",
    "category": "community_day_service",
    "serviceType": "地域密着型通所介護",
    "capacity": null,
    "openDays": [
      "平日",
      "土曜日"
    ],
    "openDaysNote": ""
  },
  {
    "id": "2990190205",
    "name": "機能訓練専門デイサービス　きたえるーむ奈良西ノ京",
    "kana": "キノウクンレンセンモンデイサービス　キタエルームナラニシノキョウ",
    "address": "奈良県奈良市西ノ京町146-1",
    "lat": 34.6687236,
    "lng": 135.7889627,
    "tel": "0742-32-2288",
    "url": "https://kitaeroom.com/shop/post-159.shtml",
    "pref": "奈良県",
    "city": "奈良市",
    "category": "community_day_service",
    "serviceType": "地域密着型通所介護",
    "capacity": 35,
    "openDays": [
      "平日",
      "祝日"
    ],
    "openDaysNote": ""
  },
  {
    "id": "2970106544",
    "name": "元気サポート　和ごころ",
    "kana": "ゲンキサポート　ワゴコロ",
    "address": "奈良県奈良市南永井町４０５番地",
    "lat": 34.6559452323947,
    "lng": 135.819545520238,
    "tel": "0742-62-1960",
    "url": "",
    "pref": "奈良県",
    "city": "奈良市",
    "category": "community_day_service",
    "serviceType": "地域密着型通所介護",
    "capacity": 0,
    "openDays": [
      "平日",
      "祝日"
    ],
    "openDaysNote": ""
  },
  {
    "id": "2970102519",
    "name": "高の原デイサービス",
    "kana": "タカノハラデイサービス",
    "address": "奈良県奈良市朱雀6丁目2-15",
    "lat": 34.7148223,
    "lng": 135.7966473,
    "tel": "0742-70-5032",
    "url": "http://www.wellconsul.co.jp",
    "pref": "奈良県",
    "city": "奈良市",
    "category": "community_day_service",
    "serviceType": "地域密着型通所介護",
    "capacity": 0,
    "openDays": [
      "平日",
      "土曜日",
      "祝日"
    ],
    "openDaysNote": "１月１日のみ休業"
  },
  {
    "id": "2970103541",
    "name": "社会福祉法人　奈良市社会福祉協議会　月ヶ瀬事業所",
    "kana": "シャカイフクシホウジンナラシシャカイフクシキョウギカイツキガセジギョウショ",
    "address": "奈良県奈良市月ヶ瀬尾山１１２４番地",
    "lat": 34.7147429440693,
    "lng": 136.048092536246,
    "tel": "0743-92-0204",
    "url": "http://www.narashi-syakyo.com",
    "pref": "奈良県",
    "city": "奈良市",
    "category": "community_day_service",
    "serviceType": "地域密着型通所介護",
    "capacity": 18,
    "openDays": [
      "平日",
      "土曜日",
      "祝日"
    ],
    "openDaysNote": "祝日の翌日が水曜日から土曜日に当たるの場合及び12月29日から翌年の1月3日は除く。"
  },
  {
    "id": "2970105595",
    "name": "社会福祉法人奈良市社会福祉協議会鳥見デイサービスセンター“ふらっと”",
    "kana": "シャカイフクシホウジンナラシシャカイフクシキョウギカイトリミデイサービスセンター“フラット”",
    "address": "奈良市三碓町2204番地",
    "lat": 34.6933124,
    "lng": 135.7226459,
    "tel": "0742-93-3731",
    "url": "http://www.narashi-shakyo.com/",
    "pref": "奈良県",
    "city": "奈良市",
    "category": "community_day_service",
    "serviceType": "地域密着型通所介護",
    "capacity": 0,
    "openDays": [
      "平日",
      "土曜日",
      "祝日"
    ],
    "openDaysNote": "祝日は、月曜日にあたる場合のみ休業。火曜日～土曜日の場合は営業。"
  },
  {
    "id": "2970103038",
    "name": "社会福祉法人奈良市社会福祉協議会都祁事業所",
    "kana": "シャカイフクシホウジンナラシシャカイフクシキョウギカイツゲジギョウショ",
    "address": "奈良県奈良市藺生町1922-8",
    "lat": 34.5915523,
    "lng": 135.9424131,
    "tel": "0743-82-2624",
    "url": "http://www.narashi-shakyo.com",
    "pref": "奈良県",
    "city": "奈良市",
    "category": "community_day_service",
    "serviceType": "地域密着型通所介護",
    "capacity": 18,
    "openDays": [
      "平日",
      "土曜日",
      "日曜日",
      "祝日"
    ],
    "openDaysNote": "サービス提供時間帯は10時00分～15時30分です。"
  },
  {
    "id": "2990100600",
    "name": "樹楽　富雄",
    "kana": "キラク　トミオ",
    "address": "奈良県奈良市富雄川西1-18-31",
    "lat": 34.6943723507282,
    "lng": 135.729783084656,
    "tel": "0742-93-4673",
    "url": "http://www.kiraku-ac.com/shisetsu/home/nara/tomio.php?staff=",
    "pref": "奈良県",
    "city": "奈良市",
    "category": "community_day_service",
    "serviceType": "地域密着型通所介護",
    "capacity": 0,
    "openDays": [
      "平日",
      "土曜日",
      "日曜日",
      "祝日"
    ],
    "openDaysNote": ""
  },
  {
    "id": "2970106783",
    "name": "特別養護老人ホーム　こまどりと丘　デイサービスセンター",
    "kana": "トクベツヨウゴロウジンホーム　コマドリトオカ　デイサービスセンター",
    "address": "奈良県奈良市二名1丁目2356-1",
    "lat": 34.7069501,
    "lng": 135.7366085,
    "tel": "0742-51-7351",
    "url": "htt://www.komadoritooka.jp",
    "pref": "奈良県",
    "city": "奈良市",
    "category": "community_day_service",
    "serviceType": "地域密着型通所介護",
    "capacity": 18,
    "openDays": [
      "平日",
      "土曜日",
      "祝日"
    ],
    "openDaysNote": ""
  },
  {
    "id": "2970101289",
    "name": "特別養護老人ホームこがねの里",
    "kana": "トクベツヨウゴロウジンホームコガネノサト",
    "address": "奈良県奈良市西大寺赤田町1丁目7番1-2号",
    "lat": 34.6986963055567,
    "lng": 135.772074863754,
    "tel": "0742-52-4315",
    "url": "https://akishino-akane.com/",
    "pref": "奈良県",
    "city": "奈良市",
    "category": "community_day_service",
    "serviceType": "地域密着型通所介護",
    "capacity": 18,
    "openDays": [
      "平日",
      "土曜日",
      "祝日"
    ],
    "openDaysNote": "午前7時に暴風警報が発令されている場合には原則的に休業しますが、状況により実施する場合もあるため、その都度連絡します。"
  },
  {
    "id": "2970104200",
    "name": "特別養護老人ホーム梅花苑",
    "kana": "トクベツヨウゴロウジンホームバイカエン",
    "address": "奈良市大和田町2226番地",
    "lat": 34.6673793,
    "lng": 135.7437108,
    "tel": "0742-52-0221",
    "url": "http://www.wellconsul.co.jp/main/shisetu/tokubetuyougo.html",
    "pref": "奈良県",
    "city": "奈良市",
    "category": "community_day_service",
    "serviceType": "地域密着型通所介護",
    "capacity": 15,
    "openDays": [
      "平日",
      "土曜日",
      "祝日"
    ],
    "openDaysNote": "年末年始休日（通常１２月３１日～１月２日）"
  },
  {
    "id": "2970104556",
    "name": "平城山デイハウスよつば",
    "kana": "ナラヤマデイハウスヨツバ",
    "address": "奈良県奈良市佐保台西町62",
    "lat": 34.7098236607993,
    "lng": 135.80839206627,
    "tel": "0742-70-4855",
    "url": "よつばの福祉",
    "pref": "奈良県",
    "city": "奈良市",
    "category": "community_day_service",
    "serviceType": "地域密着型通所介護",
    "capacity": null,
    "openDays": [
      "平日",
      "土曜日",
      "祝日"
    ],
    "openDaysNote": "夏季休業　8/13.14.15（改行）年末・年始休業　12/29～１/3（改行）現在、利用者数が少ないため、暫定的に金曜日は営業しておりません。"
  },
  {
    "id": "2970101644",
    "name": "有限会社ふぁみり-えいど",
    "kana": "ユウゲンカイシャ　ファミリーエイド",
    "address": "奈良市五条西１-２９-１７",
    "lat": 34.6745171,
    "lng": 135.7685354,
    "tel": "0742-93-3310",
    "url": "http://www4.plala.or.jp/family-aid/",
    "pref": "奈良県",
    "city": "奈良市",
    "category": "community_day_service",
    "serviceType": "地域密着型通所介護",
    "capacity": 10,
    "openDays": [
      "平日",
      "祝日"
    ],
    "openDaysNote": "夏季休暇8/12～16　　　年末年始12/28～1/3"
  },
  {
    "id": "2971200049",
    "name": "老人デイサービスセンター都祁すずらん苑",
    "kana": "ロウジンデイサービスセンターツゲスズランエン",
    "address": "奈良県奈良市都祁友田町１４３７番地",
    "lat": 34.6017347,
    "lng": 135.9456151,
    "tel": "0743-82-2822",
    "url": "https://www.yamatokai-suzuran.com",
    "pref": "奈良県",
    "city": "奈良市",
    "category": "community_day_service",
    "serviceType": "地域密着型通所介護",
    "capacity": 0,
    "openDays": [
      "平日",
      "土曜日",
      "祝日"
    ],
    "openDaysNote": ""
  },
  {
    "id": "2991400058",
    "name": "デイサービスセンターつくしの里",
    "kana": "デイサービスセンターツクシノサト",
    "address": "奈良県生駒郡平群町大字三里65番地",
    "lat": 34.6255611,
    "lng": 135.7086213,
    "tel": "0745-46-1108",
    "url": "https://www.instagram.com/tukusinosato.heguri/",
    "pref": "奈良県",
    "city": "平群町",
    "category": "community_day_service",
    "serviceType": "地域密着型通所介護",
    "capacity": 18,
    "openDays": [
      "平日",
      "祝日"
    ],
    "openDaysNote": ""
  },
  {
    "id": "2971400383",
    "name": "デイサービスセンターゆうき",
    "kana": "デイサービスセンターユウキ",
    "address": "奈良県生駒郡平群町椹原496番地",
    "lat": 34.6171746,
    "lng": 135.6912137,
    "tel": "0745-45-8670",
    "url": "",
    "pref": "奈良県",
    "city": "平群町",
    "category": "community_day_service",
    "serviceType": "地域密着型通所介護",
    "capacity": 0,
    "openDays": [
      "平日",
      "土曜日",
      "祝日"
    ],
    "openDaysNote": ""
  },
  {
    "id": "2971400359",
    "name": "れぷす",
    "kana": "レプス",
    "address": "奈良県生駒郡平群町初香台１－１－１３",
    "lat": 34.6280354409777,
    "lng": 135.700181036029,
    "tel": "0745-43-5834",
    "url": "",
    "pref": "奈良県",
    "city": "平群町",
    "category": "community_day_service",
    "serviceType": "地域密着型通所介護",
    "capacity": 0,
    "openDays": [
      "平日",
      "土曜日",
      "祝日"
    ],
    "openDaysNote": "祝日も通常通り営業。"
  },
  {
    "id": "2972800029",
    "name": "社会福祉法人　明日香村社会福祉協議会",
    "kana": "シャカイフクシホウジン　アスカムラシャカイフクシキョウギカイ",
    "address": "奈良県高市郡明日香村大字立部７４５番地",
    "lat": 34.4679562,
    "lng": 135.8142556,
    "tel": "０７４４－５４－２７４０",
    "url": "http://web1.kcn.jp/asuka-shakyo",
    "pref": "奈良県",
    "city": "明日香村",
    "category": "community_day_service",
    "serviceType": "地域密着型通所介護",
    "capacity": 10,
    "openDays": [
      "平日",
      "祝日"
    ],
    "openDaysNote": ""
  }
]