[
  {
    "id": "4570900466",
    "name": "デイサービスセンターげんきゆのはな館",
    "kana": "デイサービスセンターゲンキユノハナカン",
    "address": "宮崎県えびの市大字亀沢392番地5",
    "lat": 32.0375484559466,
    "lng": 130.751541649074,
    "tel": "0984-37-0200",
    "url": "",
    "pref": "宮崎県",
    "city": "えびの市",
    "category": "community_day_service",
    "serviceType": "地域密着型通所介護",
    "capacity": null,
    "openDays": [
      "平日",
      "土曜日",
      "祝日"
    ],
    "openDaysNote": ""
  },
  {
    "id": "4570900383",
    "name": "デイサービス活きがい発電所えびの",
    "kana": "デイサービスイキガイハツデンショエビノ",
    "address": "宮崎県えびの市大字大明司50-7",
    "lat": 32.048615,
    "lng": 130.8522797,
    "tel": "0984-48-0808",
    "url": "www.ot-road.co.jp",
    "pref": "宮崎県",
    "city": "えびの市",
    "category": "community_day_service",
    "serviceType": "地域密着型通所介護",
    "capacity": 0,
    "openDays": [
      "平日",
      "祝日"
    ],
    "openDaysNote": ""
  },
  {
    "id": "4570900490",
    "name": "活発えびの短時間道場",
    "kana": "カッパツエビノタンジカンドウジョウ",
    "address": "宮崎県えびの市原田2734番地90",
    "lat": 32.0359728025745,
    "lng": 130.867260901189,
    "tel": "0984-48-1011",
    "url": "www.ot-road.co.jp",
    "pref": "宮崎県",
    "city": "えびの市",
    "category": "community_day_service",
    "serviceType": "地域密着型通所介護",
    "capacity": 0,
    "openDays": [
      "平日",
      "祝日"
    ],
    "openDaysNote": ""
  },
  {
    "id": "4590900033",
    "name": "社会福祉法人　えびの市社会福祉協議会",
    "kana": "シャカイフクシホウジン　エビノシシャカイフクシキョウギカイ",
    "address": "宮崎県えびの市大字栗下68番地ふれあい館 ふれあい館",
    "lat": 32.04491,
    "lng": 130.8135635,
    "tel": "0984-35-0066",
    "url": "http:/www.ebino-shakyo.jp",
    "pref": "宮崎県",
    "city": "えびの市",
    "category": "community_day_service",
    "serviceType": "地域密着型通所介護",
    "capacity": null,
    "openDays": [
      "平日",
      "祝日"
    ],
    "openDaysNote": ""
  },
  {
    "id": "4570900391",
    "name": "小ｌ規模デイサービス　より処ゆるり",
    "kana": "ショウキボデイサービス　ヨリドコロユルリ",
    "address": "大字向江７７６番地1",
    "lat": 32.0477952,
    "lng": 130.7647196,
    "tel": "0984-37-0062",
    "url": "",
    "pref": "宮崎県",
    "city": "えびの市",
    "category": "community_day_service",
    "serviceType": "地域密着型通所介護",
    "capacity": 0,
    "openDays": [
      "平日",
      "土曜日",
      "日曜日",
      "祝日"
    ],
    "openDaysNote": "台風などの災害等が予測される日は、事前に関係者または家族へ連絡を行い、休みとする。"
  },
  {
    "id": "4590300382",
    "name": "CARE　SPIRIT　けあすぴ",
    "kana": "ケアスピリット　ケアスピ",
    "address": "幸町1丁目58番地中村マンション1F 中村マンション1F",
    "lat": 32.588635,
    "lng": 131.6716279,
    "tel": "0982-40-3022",
    "url": "",
    "pref": "宮崎県",
    "city": "延岡市",
    "category": "community_day_service",
    "serviceType": "地域密着型通所介護",
    "capacity": 0,
    "openDays": [
      "平日",
      "土曜日"
    ],
    "openDaysNote": ""
  },
  {
    "id": "4570302283",
    "name": "あい愛デイサービス",
    "kana": "アイアイデイサービス",
    "address": "宮崎県延岡市出北３丁目11-14",
    "lat": 32.5735988,
    "lng": 131.6824144,
    "tel": "0982-21-1777",
    "url": "",
    "pref": "宮崎県",
    "city": "延岡市",
    "category": "community_day_service",
    "serviceType": "地域密着型通所介護",
    "capacity": 13,
    "openDays": [
      "平日",
      "土曜日",
      "祝日"
    ],
    "openDaysNote": "自然災害等で利用者及び職員の安全が確保できない場合は臨時休業を行う場合があります。"
  },
  {
    "id": "4570301855",
    "name": "あおぞらデイサービスセンター",
    "kana": "アオゾラデイサービスセンター",
    "address": "宮崎県延岡市旭ヶ丘6丁目2-1",
    "lat": 32.5286557,
    "lng": 131.6803717,
    "tel": "0982-37-0788",
    "url": "http://www.rakino812.com/",
    "pref": "宮崎県",
    "city": "延岡市",
    "category": "community_day_service",
    "serviceType": "地域密着型通所介護",
    "capacity": 10,
    "openDays": [
      "平日",
      "土曜日",
      "祝日"
    ],
    "openDaysNote": ""
  },
  {
    "id": "4570300980",
    "name": "あさがおの家",
    "kana": "アサガオノイエ",
    "address": "宮崎県延岡市古城町2-10-4",
    "lat": 32.568884,
    "lng": 131.6595327,
    "tel": "0982-33-2320",
    "url": "https://www.big-advance.site/c/184/1692/profile",
    "pref": "宮崎県",
    "city": "延岡市",
    "category": "community_day_service",
    "serviceType": "地域密着型通所介護",
    "capacity": 0,
    "openDays": [
      "平日",
      "土曜日",
      "祝日"
    ],
    "openDaysNote": ""
  },
  {
    "id": "4570302135",
    "name": "あらひらデイサービス",
    "kana": "アラヒラデイサービス",
    "address": "宮崎県延岡市川島町899番地12",
    "lat": 32.619832,
    "lng": 131.7011437,
    "tel": "0982-36-0455",
    "url": "",
    "pref": "宮崎県",
    "city": "延岡市",
    "category": "community_day_service",
    "serviceType": "地域密着型通所介護",
    "capacity": 0,
    "openDays": [
      "平日",
      "土曜日",
      "祝日"
    ],
    "openDaysNote": ""
  },
  {
    "id": "4570302093",
    "name": "いきいきデイサービス茶屋",
    "kana": "イキイキデイサービスチャヤ",
    "address": "宮崎県延岡市北一ヶ岡４丁目１０番４号",
    "lat": 32.5243782,
    "lng": 131.6776665,
    "tel": "0982-37-5885",
    "url": "",
    "pref": "宮崎県",
    "city": "延岡市",
    "category": "community_day_service",
    "serviceType": "地域密着型通所介護",
    "capacity": 0,
    "openDays": [
      "平日",
      "土曜日",
      "祝日"
    ],
    "openDaysNote": ""
  },
  {
    "id": "4570300436",
    "name": "さくらんぼデイサービスセンター",
    "kana": "サクランボデイサービスセンター",
    "address": "宮崎県延岡市夏田町418-1",
    "lat": 32.6076125,
    "lng": 131.6720186,
    "tel": "0982-32-8365",
    "url": "",
    "pref": "宮崎県",
    "city": "延岡市",
    "category": "community_day_service",
    "serviceType": "地域密着型通所介護",
    "capacity": 0,
    "openDays": [
      "平日",
      "土曜日",
      "祝日"
    ],
    "openDaysNote": ""
  },
  {
    "id": "4570301343",
    "name": "つわぶきの家",
    "kana": "ツワブキノイエ",
    "address": "宮崎県延岡市石田町４１７４番地２",
    "lat": 32.5365045,
    "lng": 131.6626482,
    "tel": "0982-37-1602",
    "url": "https://www.big-advance.site/c/184/1692",
    "pref": "宮崎県",
    "city": "延岡市",
    "category": "community_day_service",
    "serviceType": "地域密着型通所介護",
    "capacity": 0,
    "openDays": [
      "平日",
      "土曜日",
      "祝日"
    ],
    "openDaysNote": ""
  },
  {
    "id": "4570302481",
    "name": "デイ・イキル",
    "kana": "デイ・イキル",
    "address": "宮崎県延岡市北川町川内名７０５５番地１３",
    "lat": 32.6864166,
    "lng": 131.6938833,
    "tel": "0982-46-3249",
    "url": "",
    "pref": "宮崎県",
    "city": "延岡市",
    "category": "community_day_service",
    "serviceType": "地域密着型通所介護",
    "capacity": 0,
    "openDays": [
      "平日",
      "土曜日",
      "祝日"
    ],
    "openDaysNote": ""
  },
  {
    "id": "4570301863",
    "name": "デイサービス　エクセル",
    "kana": "デイサービス　エクセル",
    "address": "宮崎県延岡市大貫町1丁目2850番地1",
    "lat": 32.5796358,
    "lng": 131.655274,
    "tel": "0982-32-1550",
    "url": "http://www.excel-life.jp/",
    "pref": "宮崎県",
    "city": "延岡市",
    "category": "community_day_service",
    "serviceType": "地域密着型通所介護",
    "capacity": 0,
    "openDays": [
      "平日",
      "土曜日",
      "祝日"
    ],
    "openDaysNote": "上記に加え、お盆時期の２営業日と年末年始時期の３営業日も休業となります。"
  },
  {
    "id": "4570301756",
    "name": "デイサービス　すこやか",
    "kana": "デイサービス　スコヤカ",
    "address": "宮崎県延岡市博労町3-4",
    "lat": 32.5863222,
    "lng": 131.6698116,
    "tel": "0982-22-0777",
    "url": "http://yuryukai.or.jp/",
    "pref": "宮崎県",
    "city": "延岡市",
    "category": "community_day_service",
    "serviceType": "地域密着型通所介護",
    "capacity": 0,
    "openDays": [
      "平日",
      "土曜日",
      "祝日"
    ],
    "openDaysNote": "盆休み　年末年始"
  },
  {
    "id": "4570302259",
    "name": "デイサービス　なつだ",
    "kana": "デイサービス　ナツダ",
    "address": "夏田町450番地1",
    "lat": 32.6085862668864,
    "lng": 131.671828685844,
    "tel": "0982-29-4800",
    "url": "http://yuryukai.jp/",
    "pref": "宮崎県",
    "city": "延岡市",
    "category": "community_day_service",
    "serviceType": "地域密着型通所介護",
    "capacity": 0,
    "openDays": [
      "平日",
      "土曜日",
      "祝日"
    ],
    "openDaysNote": "8月13日～15日の間の2日間及び12月31日～1月3日は休業"
  },
  {
    "id": "4590300465",
    "name": "デイサービス　ポテトの家",
    "kana": "デイサービス　ポテトノイエ",
    "address": "緑ヶ丘４丁目５－２３",
    "lat": 39.7367594,
    "lng": 141.1417142,
    "tel": "0982－27－6580",
    "url": "",
    "pref": "宮崎県",
    "city": "延岡市",
    "category": "community_day_service",
    "serviceType": "地域密着型通所介護",
    "capacity": null,
    "openDays": [
      "平日"
    ],
    "openDaysNote": ""
  },
  {
    "id": "4590300390",
    "name": "デイサービス　青葉ずく",
    "kana": "デイサービス　アオバズク",
    "address": "宮崎県延岡市平原町3丁目1233-7",
    "lat": 32.5496053,
    "lng": 131.6743428,
    "tel": "0982-21-0570",
    "url": "",
    "pref": "宮崎県",
    "city": "延岡市",
    "category": "community_day_service",
    "serviceType": "地域密着型通所介護",
    "capacity": 0,
    "openDays": [
      "平日",
      "土曜日",
      "祝日"
    ],
    "openDaysNote": "日曜日が祝日の場合休み"
  },
  {
    "id": "4590300366",
    "name": "デイサービスくりの樹",
    "kana": "デイサービスクリノキ",
    "address": "恒富町三丁目5-6",
    "lat": 32.5683425870895,
    "lng": 131.662490042922,
    "tel": "0982-27-4940",
    "url": "http://www.kurinoki.co.jp",
    "pref": "宮崎県",
    "city": "延岡市",
    "category": "community_day_service",
    "serviceType": "地域密着型通所介護",
    "capacity": 0,
    "openDays": [
      "平日",
      "土曜日",
      "祝日"
    ],
    "openDaysNote": ""
  },
  {
    "id": "4570302317",
    "name": "デイサービスげんき",
    "kana": "デイサービスゲンキ",
    "address": "宮崎県延岡市旭ヶ丘５丁目１番８号",
    "lat": 32.5300561,
    "lng": 131.6801036,
    "tel": "0982-29-2662",
    "url": "",
    "pref": "宮崎県",
    "city": "延岡市",
    "category": "community_day_service",
    "serviceType": "地域密着型通所介護",
    "capacity": 0,
    "openDays": [
      "平日",
      "土曜日",
      "祝日"
    ],
    "openDaysNote": ""
  },
  {
    "id": "4570301905",
    "name": "デイサービスセンター　おはな",
    "kana": "デイサービスセンター　オハナ",
    "address": "片田町３１３９番地７",
    "lat": 32.5478087,
    "lng": 131.6596617,
    "tel": "0982-29-2151",
    "url": "",
    "pref": "宮崎県",
    "city": "延岡市",
    "category": "community_day_service",
    "serviceType": "地域密着型通所介護",
    "capacity": 5,
    "openDays": [
      "平日",
      "土曜日",
      "祝日"
    ],
    "openDaysNote": ""
  },
  {
    "id": "4590300523",
    "name": "デイサービスセンター　カンナ",
    "kana": "デイサービスセンター　カンナ",
    "address": "宮崎県延岡市博労町３番地4",
    "lat": 32.5863666,
    "lng": 131.6698251,
    "tel": "0982-22-0777",
    "url": "",
    "pref": "宮崎県",
    "city": "延岡市",
    "category": "community_day_service",
    "serviceType": "地域密着型通所介護",
    "capacity": 0,
    "openDays": [
      "平日",
      "土曜日"
    ],
    "openDaysNote": ""
  },
  {
    "id": "4590300499",
    "name": "デイサービスセンターたたらの郷",
    "kana": "デイサービスセンタータタラノサト",
    "address": "宮崎県延岡市岡富町８１番地",
    "lat": 32.5903328,
    "lng": 131.6586598,
    "tel": "0982-35-4626",
    "url": "https://www.adoniskaigo.com/",
    "pref": "宮崎県",
    "city": "延岡市",
    "category": "community_day_service",
    "serviceType": "地域密着型通所介護",
    "capacity": 0,
    "openDays": [
      "平日",
      "土曜日",
      "祝日"
    ],
    "openDaysNote": ""
  },
  {
    "id": "4570302309",
    "name": "デイサービスナラティブ",
    "kana": "デイサービスナラティブ",
    "address": "宮崎県延岡市大貫町5丁目2082デイサービスナラティブ デイサービスナラティブ",
    "lat": 32.5722118343372,
    "lng": 131.649051672075,
    "tel": "0982-29-4571",
    "url": "http://narrative-nbok.jp/",
    "pref": "宮崎県",
    "city": "延岡市",
    "category": "community_day_service",
    "serviceType": "地域密着型通所介護",
    "capacity": 45,
    "openDays": [
      "平日",
      "土曜日",
      "祝日"
    ],
    "openDaysNote": ""
  },
  {
    "id": "4570300790",
    "name": "デイサービスよりみち",
    "kana": "デイサービスヨリミチ",
    "address": "宮崎県延岡市古川町58－8",
    "lat": 32.5868434,
    "lng": 131.6439746,
    "tel": "0982-35-1277",
    "url": "",
    "pref": "宮崎県",
    "city": "延岡市",
    "category": "community_day_service",
    "serviceType": "地域密着型通所介護",
    "capacity": 12,
    "openDays": [
      "平日",
      "土曜日",
      "祝日"
    ],
    "openDaysNote": ""
  },
  {
    "id": "4590300358",
    "name": "ナチュラルテラスネクスト",
    "kana": "ナチュラルテラスナクスト",
    "address": "宮崎県延岡市伊形町４７４２番地３",
    "lat": 32.5300078,
    "lng": 131.6703624,
    "tel": "0982-27-5467",
    "url": "",
    "pref": "宮崎県",
    "city": "延岡市",
    "category": "community_day_service",
    "serviceType": "地域密着型通所介護",
    "capacity": 0,
    "openDays": [
      "平日",
      "祝日"
    ],
    "openDaysNote": ""
  },
  {
    "id": "4590300333",
    "name": "ふくろうデイサービス",
    "kana": "フクロウデイサービス",
    "address": "宮崎県延岡市別府町4421番地",
    "lat": 32.5662602,
    "lng": 131.6822182,
    "tel": "0982-20-2960",
    "url": "http://www.haradagr-dp.co.jp/",
    "pref": "宮崎県",
    "city": "延岡市",
    "category": "community_day_service",
    "serviceType": "地域密着型通所介護",
    "capacity": 18,
    "openDays": [
      "平日",
      "土曜日",
      "祝日"
    ],
    "openDaysNote": "年末年始休み（1/1～1/3）"
  },
  {
    "id": "4590300416",
    "name": "リハ健康の森",
    "kana": "リハケンコウノモリ",
    "address": "宮崎県延岡市稲葉崎町１－２５７１－１",
    "lat": 32.6086495,
    "lng": 131.6789284,
    "tel": "0982-29-3317",
    "url": "",
    "pref": "宮崎県",
    "city": "延岡市",
    "category": "community_day_service",
    "serviceType": "地域密着型通所介護",
    "capacity": 0,
    "openDays": [
      "平日",
      "祝日"
    ],
    "openDaysNote": ""
  },
  {
    "id": "4590300424",
    "name": "医療法人　明石会　デイサービス　ひなた",
    "kana": "イリョウホウジン　アカシカイ　デイサービス　ヒナタ",
    "address": "宮崎県延岡市古川町260番地1",
    "lat": 32.587815,
    "lng": 131.6498361,
    "tel": "0982-27-0229",
    "url": "",
    "pref": "宮崎県",
    "city": "延岡市",
    "category": "community_day_service",
    "serviceType": "地域密着型通所介護",
    "capacity": null,
    "openDays": [
      "平日",
      "土曜日",
      "祝日"
    ],
    "openDaysNote": ""
  },
  {
    "id": "4570300477",
    "name": "恒富東デイサービスセンター",
    "kana": "ツネトミヒガシデイサービスセンター",
    "address": "宮崎県延岡市長浜町１丁目１７６５番地１",
    "lat": 32.5758602,
    "lng": 131.6913193,
    "tel": "0982-26-9380",
    "url": "shinryuukai.or.jp",
    "pref": "宮崎県",
    "city": "延岡市",
    "category": "community_day_service",
    "serviceType": "地域密着型通所介護",
    "capacity": 0,
    "openDays": [
      "平日",
      "土曜日",
      "祝日"
    ],
    "openDaysNote": ""
  },
  {
    "id": "4590300507",
    "name": "自立支援歩行クラブ　ワンウォーク",
    "kana": "ジリツシエンホコウクラブ　ワンウォーク",
    "address": "宮崎県延岡市伊形町5216-13",
    "lat": 32.5311093,
    "lng": 131.6749792,
    "tel": "0982-20-5520",
    "url": "https://onewalk-ds.com",
    "pref": "宮崎県",
    "city": "延岡市",
    "category": "community_day_service",
    "serviceType": "地域密着型通所介護",
    "capacity": null,
    "openDays": [
      "平日"
    ],
    "openDaysNote": ""
  },
  {
    "id": "4590300341",
    "name": "社会福祉法人愛育福祉会　地域密着型通所介護事業所　いこい",
    "kana": "シャカイフクシホウジンアイイクフクシカイ　チイキミッチャクガタツウショカイゴジギョウショ　イコイ",
    "address": "宮崎県延岡市大武町4615-2",
    "lat": 32.5982983323405,
    "lng": 131.688228731877,
    "tel": "0982-20-2712",
    "url": "http://www.aiiku.in/yawaraginosato.html",
    "pref": "宮崎県",
    "city": "延岡市",
    "category": "community_day_service",
    "serviceType": "地域密着型通所介護",
    "capacity": 0,
    "openDays": [
      "平日",
      "土曜日",
      "祝日"
    ],
    "openDaysNote": "※コロナウィルスの関係により土曜日の利用を休止している。"
  },
  {
    "id": "4572100438",
    "name": "社会福祉法人千寿会北浦町デイサービスセンター",
    "kana": "シャカイフクシホウジンセンジュカイキタウラチョウデイサービスセンター",
    "address": "宮崎県延岡市北浦町古江２６９３番地",
    "lat": 32.7092214,
    "lng": 131.8165922,
    "tel": "0982-45-3737",
    "url": "",
    "pref": "宮崎県",
    "city": "延岡市",
    "category": "community_day_service",
    "serviceType": "地域密着型通所介護",
    "capacity": 0,
    "openDays": [
      "平日",
      "土曜日",
      "祝日"
    ],
    "openDaysNote": ""
  },
  {
    "id": "4590300473",
    "name": "真南風",
    "kana": "マハエ",
    "address": "宮崎県延岡市北川町川内名７０５５番地１",
    "lat": 32.686953791012,
    "lng": 131.694225242328,
    "tel": "0982-24-6011",
    "url": "",
    "pref": "宮崎県",
    "city": "延岡市",
    "category": "community_day_service",
    "serviceType": "地域密着型通所介護",
    "capacity": 10,
    "openDays": [
      "平日",
      "土曜日",
      "祝日"
    ],
    "openDaysNote": ""
  },
  {
    "id": "4570301467",
    "name": "生協クリニックのべおか　ディサービスそれいゆ",
    "kana": "セイキョウクリニックノベオカ　ディサービスソレイユ",
    "address": "宮崎県延岡市浜砂1丁目5-17",
    "lat": 32.5799316,
    "lng": 131.6807641,
    "tel": "0982-33-1714",
    "url": "https://www.miyazaki-iryou.coop/",
    "pref": "宮崎県",
    "city": "延岡市",
    "category": "community_day_service",
    "serviceType": "地域密着型通所介護",
    "capacity": 0,
    "openDays": [
      "平日",
      "土曜日",
      "祝日"
    ],
    "openDaysNote": "年末年始の12/30から1/3までは休み。"
  },
  {
    "id": "4590300325",
    "name": "地域密着型通所介護事業所暖の家",
    "kana": "チイキミッチャクガタツウショカイゴジギョウショダンノイエ",
    "address": "宮崎県延岡市北一ヶ岡2丁目8-8",
    "lat": 32.5260471157855,
    "lng": 131.67677709892,
    "tel": "0982-29⁻2135",
    "url": "",
    "pref": "宮崎県",
    "city": "延岡市",
    "category": "community_day_service",
    "serviceType": "地域密着型通所介護",
    "capacity": null,
    "openDays": [
      "平日",
      "祝日"
    ],
    "openDaysNote": "営業時間は月曜から金曜までの09：00～17:00"
  },
  {
    "id": "4570301269",
    "name": "鶴ヶ丘デイサービスセンター",
    "kana": "ツルガオカデイサービスセンター",
    "address": "宮崎県延岡市鶴ヶ丘１丁目１９８８番地３１",
    "lat": 32.5460944,
    "lng": 131.6728739,
    "tel": "０９８２－２１－００１９",
    "url": "",
    "pref": "宮崎県",
    "city": "延岡市",
    "category": "community_day_service",
    "serviceType": "地域密着型通所介護",
    "capacity": null,
    "openDays": [
      "平日",
      "土曜日",
      "祝日"
    ],
    "openDaysNote": ""
  },
  {
    "id": "4570300444",
    "name": "島浦デイサービスセンター",
    "kana": "シマウラデイサービスセンター",
    "address": "宮崎県延岡市島浦町４６８番地68",
    "lat": 32.6659861,
    "lng": 131.8088079,
    "tel": "0982-23-6505",
    "url": "https://www.senjuen.jp/",
    "pref": "宮崎県",
    "city": "延岡市",
    "category": "community_day_service",
    "serviceType": "地域密着型通所介護",
    "capacity": 0,
    "openDays": [
      "平日",
      "祝日"
    ],
    "openDaysNote": ""
  },
  {
    "id": "4570301749",
    "name": "湧く沸くデイサービス",
    "kana": "ワクワクデイサービス",
    "address": "宮崎県延岡市中ノ瀬1丁目5935番地1",
    "lat": 32.5981061901978,
    "lng": 131.679091314527,
    "tel": "080-4435-3400",
    "url": "",
    "pref": "宮崎県",
    "city": "延岡市",
    "category": "community_day_service",
    "serviceType": "地域密着型通所介護",
    "capacity": 18,
    "openDays": [
      "平日",
      "土曜日",
      "祝日"
    ],
    "openDaysNote": ""
  },
  {
    "id": "4570109209",
    "name": "Blue",
    "kana": "ブルー",
    "address": "宮崎県宮崎市大字恒久1963番地1　1F",
    "lat": 31.8875111,
    "lng": 131.4240239,
    "tel": "0985-63-5691",
    "url": "",
    "pref": "宮崎県",
    "city": "宮崎市",
    "category": "community_day_service",
    "serviceType": "地域密着型通所介護",
    "capacity": 0,
    "openDays": [
      "平日"
    ],
    "openDaysNote": ""
  },
  {
    "id": "4570107963",
    "name": "Re+move",
    "kana": "リムーブ",
    "address": "宮崎市阿波岐原町前浜4276-673",
    "lat": 31.9440513041168,
    "lng": 131.463397184656,
    "tel": "0985-20-2729",
    "url": "http://miyazaki.human-loop.com/",
    "pref": "宮崎県",
    "city": "宮崎市",
    "category": "community_day_service",
    "serviceType": "地域密着型通所介護",
    "capacity": 150,
    "openDays": [
      "平日",
      "祝日"
    ],
    "openDaysNote": "祝日は営業"
  },
  {
    "id": "4570108094",
    "name": "TMリハサービス",
    "kana": "テイエムリハサービス",
    "address": "宮崎県宮崎市大字瓜生野3684番地1",
    "lat": 31.9620481,
    "lng": 131.385933,
    "tel": "985360733",
    "url": "http://www.tm-reha.co.jp",
    "pref": "宮崎県",
    "city": "宮崎市",
    "category": "community_day_service",
    "serviceType": "地域密着型通所介護",
    "capacity": 100,
    "openDays": [
      "平日",
      "土曜日"
    ],
    "openDaysNote": ""
  },
  {
    "id": "4570106916",
    "name": "アットホームデイサービスようこそ",
    "kana": "アットホームデイサービスヨウコソ",
    "address": "宮崎県宮崎市恒久3丁目5番19",
    "lat": 31.8956084,
    "lng": 131.4294102,
    "tel": "0985-64-9084",
    "url": "https://www.np-k.co.jp/day3/",
    "pref": "宮崎県",
    "city": "宮崎市",
    "category": "community_day_service",
    "serviceType": "地域密着型通所介護",
    "capacity": 0,
    "openDays": [
      "平日",
      "土曜日",
      "祝日"
    ],
    "openDaysNote": "年末年始については、日程の変動あり。"
  },
  {
    "id": "4590100899",
    "name": "お家deデイサービスリハビリLab小松台",
    "kana": "オ家デデイサービスリハビリラボコマツダイ",
    "address": "宮崎市小松台東３丁目２番地２１",
    "lat": 31.928273,
    "lng": 131.39434,
    "tel": "0985-86-6211",
    "url": "http://www.rehabili-lab.co.jp",
    "pref": "宮崎県",
    "city": "宮崎市",
    "category": "community_day_service",
    "serviceType": "地域密着型通所介護",
    "capacity": 18,
    "openDays": [
      "平日",
      "祝日"
    ],
    "openDaysNote": ""
  },
  {
    "id": "4590101087",
    "name": "コモン広瀬",
    "kana": "コモンヒロセ",
    "address": "宮崎県宮崎市佐土原町下田島20031-1グレートロック104号 グレートロック104号",
    "lat": 32.019698,
    "lng": 131.4767964,
    "tel": "0985-71-2713",
    "url": "https://commons-company.jimdofree.com",
    "pref": "宮崎県",
    "city": "宮崎市",
    "category": "community_day_service",
    "serviceType": "地域密着型通所介護",
    "capacity": 0,
    "openDays": [
      "平日"
    ],
    "openDaysNote": ""
  },
  {
    "id": "4590101046",
    "name": "コンパスウォーク宮崎恒久",
    "kana": "コンパスウォークミヤザキツネヒサ",
    "address": "宮崎県宮崎市恒久5丁目12番地21",
    "lat": 31.8906139,
    "lng": 131.4360602,
    "tel": "0985-55-0288",
    "url": "kinoukaifuku.com",
    "pref": "宮崎県",
    "city": "宮崎市",
    "category": "community_day_service",
    "serviceType": "地域密着型通所介護",
    "capacity": 0,
    "openDays": [
      "平日",
      "祝日"
    ],
    "openDaysNote": ""
  },
  {
    "id": "4570102873",
    "name": "サザンクロスデイサービスセンター",
    "kana": "サザンクロスデイサービスセンター",
    "address": "宮崎県宮崎市本郷北方2717番地15",
    "lat": 31.8747732,
    "lng": 131.4094352,
    "tel": "(0985) 50-170",
    "url": "http://villa-southern.jp/",
    "pref": "宮崎県",
    "city": "宮崎市",
    "category": "community_day_service",
    "serviceType": "地域密着型通所介護",
    "capacity": 0,
    "openDays": [
      "平日",
      "土曜日",
      "祝日"
    ],
    "openDaysNote": ""
  },
  {
    "id": "4590101079",
    "name": "デイ＆ジム歩",
    "kana": "デイアンドジムアユム",
    "address": "宮崎県宮崎市大字島之内1615",
    "lat": 31.9927020793703,
    "lng": 131.45840237473,
    "tel": "0985-72-3667",
    "url": "",
    "pref": "宮崎県",
    "city": "宮崎市",
    "category": "community_day_service",
    "serviceType": "地域密着型通所介護",
    "capacity": 18,
    "openDays": [
      "平日",
      "祝日"
    ],
    "openDaysNote": ""
  },
  {
    "id": "4590101327",
    "name": "デイサービス　アーモンド",
    "kana": "デイサービス　アーモンド",
    "address": "宮崎県宮崎市高岡町五町278番地3",
    "lat": 31.9559163,
    "lng": 131.2995493,
    "tel": "0985－82－7950",
    "url": "https://www．blendhill.jp",
    "pref": "宮崎県",
    "city": "宮崎市",
    "category": "community_day_service",
    "serviceType": "地域密着型通所介護",
    "capacity": 25,
    "openDays": [
      "平日",
      "祝日"
    ],
    "openDaysNote": ""
  },
  {
    "id": "4570107633",
    "name": "デイサービス　ひばり",
    "kana": "デイサービス　ヒバリ",
    "address": "宮崎県宮崎市清武町今泉甲3674-2",
    "lat": 31.8467263,
    "lng": 131.3480461,
    "tel": "88-1965",
    "url": "",
    "pref": "宮崎県",
    "city": "宮崎市",
    "category": "community_day_service",
    "serviceType": "地域密着型通所介護",
    "capacity": 0,
    "openDays": [
      "平日",
      "祝日"
    ],
    "openDaysNote": ""
  },
  {
    "id": "4570106817",
    "name": "デイサービス　ゆうしん",
    "kana": "デイサービス　ユウシン",
    "address": "大塚町八所3633-1",
    "lat": 31.9133568,
    "lng": 131.389458,
    "tel": "0985-88-1838",
    "url": "https://yushin-wd.co.jp/company/",
    "pref": "宮崎県",
    "city": "宮崎市",
    "category": "community_day_service",
    "serviceType": "地域密着型通所介護",
    "capacity": 10,
    "openDays": [
      "平日",
      "土曜日",
      "祝日"
    ],
    "openDaysNote": ""
  },
  {
    "id": "4570108151",
    "name": "デイサービス　ゆずり葉",
    "kana": "デイサービス　ユズリハ",
    "address": "宮崎県宮崎市大字新名爪4452-1",
    "lat": 31.9729257,
    "lng": 131.4376296,
    "tel": "0985-86-8212",
    "url": "http://www.yuzuriha-n.jp/",
    "pref": "宮崎県",
    "city": "宮崎市",
    "category": "community_day_service",
    "serviceType": "地域密着型通所介護",
    "capacity": 18,
    "openDays": [
      "平日",
      "土曜日",
      "祝日"
    ],
    "openDaysNote": "12月31日から1月2日までの三日間は休業。"
  },
  {
    "id": "4590101293",
    "name": "デイサービスLIFESPACEつづく",
    "kana": "デイサービスライフスペースツヅク",
    "address": "佐土原町上田島1885",
    "lat": 32.0509248,
    "lng": 131.4340753,
    "tel": "985416560",
    "url": "",
    "pref": "宮崎県",
    "city": "宮崎市",
    "category": "community_day_service",
    "serviceType": "地域密着型通所介護",
    "capacity": 0,
    "openDays": [
      "平日"
    ],
    "openDaysNote": ""
  },
  {
    "id": "4590101228",
    "name": "デイサービスあくた生目店",
    "kana": "デイサービスアクタイキメテン",
    "address": "宮崎県宮崎市大字跡江字城平1973-1デイサービスあくた生目店 デイサービスあくた生目店",
    "lat": 31.9473739,
    "lng": 131.3925421,
    "tel": "985894818",
    "url": "https://kaihou-g.jp",
    "pref": "宮崎県",
    "city": "宮崎市",
    "category": "community_day_service",
    "serviceType": "地域密着型通所介護",
    "capacity": 0,
    "openDays": [
      "平日",
      "土曜日",
      "祝日"
    ],
    "openDaysNote": ""
  },
  {
    "id": "4570105207",
    "name": "デイサービスアットホーム",
    "kana": "デイサービスアットホーム",
    "address": "宮崎県宮崎市大塚町宮田２８９１番地",
    "lat": 31.914991,
    "lng": 131.396893,
    "tel": "0985-73-9889",
    "url": "",
    "pref": "宮崎県",
    "city": "宮崎市",
    "category": "community_day_service",
    "serviceType": "地域密着型通所介護",
    "capacity": 1,
    "openDays": [
      "平日"
    ],
    "openDaysNote": ""
  },
  {
    "id": "4570107765",
    "name": "デイサービスオアシスケア宮崎",
    "kana": "デイサービスオアシスケアミヤザキ",
    "address": "宮崎県宮崎市末広1丁目4番35号",
    "lat": 31.9116592,
    "lng": 131.4191438,
    "tel": "0985-78-0836",
    "url": "http://oasiscare.jp",
    "pref": "宮崎県",
    "city": "宮崎市",
    "category": "community_day_service",
    "serviceType": "地域密着型通所介護",
    "capacity": 22,
    "openDays": [
      "平日",
      "土曜日",
      "祝日"
    ],
    "openDaysNote": ""
  },
  {
    "id": "4590101426",
    "name": "デイサービスゲスト・ハウス",
    "kana": "デイサービスゲスト・ハウス",
    "address": "宮崎市佐土原町下田島１２２３３番地３",
    "lat": 32.0367645170538,
    "lng": 131.46965958329,
    "tel": "0985-41-5631",
    "url": "",
    "pref": "宮崎県",
    "city": "宮崎市",
    "category": "community_day_service",
    "serviceType": "地域密着型通所介護",
    "capacity": 15,
    "openDays": [
      "平日"
    ],
    "openDaysNote": ""
  },
  {
    "id": "4570103582",
    "name": "デイサービスこのはな",
    "kana": "デイサービスコノハナ",
    "address": "宮崎県宮崎市熊野１６１３",
    "lat": 31.8321103,
    "lng": 131.4397759,
    "tel": "0985-58-1222",
    "url": "https://www.miyazaki-iryou.coop/",
    "pref": "宮崎県",
    "city": "宮崎市",
    "category": "community_day_service",
    "serviceType": "地域密着型通所介護",
    "capacity": 0,
    "openDays": [
      "平日",
      "土曜日",
      "祝日"
    ],
    "openDaysNote": "祝日・祭日営業"
  },
  {
    "id": "4590100915",
    "name": "デイサービスせせらぎ",
    "kana": "デイサービスセセラギ",
    "address": "宮崎県宮崎市田野町甲2019",
    "lat": 31.8348547,
    "lng": 131.3069409,
    "tel": "0985-65-8878",
    "url": "",
    "pref": "宮崎県",
    "city": "宮崎市",
    "category": "community_day_service",
    "serviceType": "地域密着型通所介護",
    "capacity": 0,
    "openDays": [
      "平日",
      "土曜日",
      "祝日"
    ],
    "openDaysNote": "自然災害により送迎時に危険を及ぼす影響が想定される場合、提供の中止する場合があります。"
  },
  {
    "id": "4590100980",
    "name": "デイサービスセンタ－ひだまり柳丸館",
    "kana": "デイサ－ビスセンタ－ヒダマリヤナギマルカン",
    "address": "宮崎市柳丸町32番地ひだまり柳丸館 ひだまり柳丸館",
    "lat": 31.9285157,
    "lng": 131.4339895,
    "tel": "0985-74-5000",
    "url": "E-mail:hidamari-y@meisyo-wa.jp",
    "pref": "宮崎県",
    "city": "宮崎市",
    "category": "community_day_service",
    "serviceType": "地域密着型通所介護",
    "capacity": 0,
    "openDays": [
      "平日",
      "土曜日",
      "日曜日",
      "祝日"
    ],
    "openDaysNote": ""
  },
  {
    "id": "4590101244",
    "name": "デイサービスセンターFine宮崎",
    "kana": "デイサービスセンターファインミヤザキ",
    "address": "宮崎県宮崎市大字本郷南方3884-1",
    "lat": 31.8698168,
    "lng": 131.4315219,
    "tel": "0985-34-9170",
    "url": "https://fine-miyazaki.jimdofree.com",
    "pref": "宮崎県",
    "city": "宮崎市",
    "category": "community_day_service",
    "serviceType": "地域密着型通所介護",
    "capacity": 0,
    "openDays": [
      "平日",
      "土曜日",
      "祝日"
    ],
    "openDaysNote": ""
  },
  {
    "id": "4570107542",
    "name": "デイサービスセンターOLDWAYS",
    "kana": "デイサービスセンターオールウェイズ",
    "address": "宮崎市吉村町西田甲667番地32デイサービスセンターOLDWAYS デイサービスセンターOLDWAYS",
    "lat": 31.9229416,
    "lng": 131.4411474,
    "tel": "0985-89-5387",
    "url": "",
    "pref": "宮崎県",
    "city": "宮崎市",
    "category": "community_day_service",
    "serviceType": "地域密着型通所介護",
    "capacity": 0,
    "openDays": [
      "平日",
      "祝日"
    ],
    "openDaysNote": "お盆、年末年始は休業。　　　＊土曜日稼働については人員体制が整備でき次第で稼働予定。"
  },
  {
    "id": "4570103491",
    "name": "デイサービスセンターグジブランド",
    "kana": "デイサービスセンターグジブランド",
    "address": "宮崎県宮崎市大字郡司分乙799-1",
    "lat": 31.8550387,
    "lng": 131.410561,
    "tel": "0985-84-3635",
    "url": "tatsumoto@brown.plala.or.jp",
    "pref": "宮崎県",
    "city": "宮崎市",
    "category": "community_day_service",
    "serviceType": "地域密着型通所介護",
    "capacity": 15,
    "openDays": [
      "平日",
      "土曜日",
      "祝日"
    ],
    "openDaysNote": "サービス提供時間は可能な限り、ご家庭の状況、利用者本人・家族等のご希望に添うよう、ご相談により送迎時間など柔軟に対応しています。"
  },
  {
    "id": "4570108318",
    "name": "デイサービスセンターこのはなガーデン2号館",
    "kana": "デイサービスセンターコノハナガーデン2ゴウカン",
    "address": "学園木花台桜1丁目23番地7オーパーツ オーパーツ",
    "lat": 31.8247544,
    "lng": 131.4189193,
    "tel": "0985-58-0856",
    "url": "http://konohana-garden.com/",
    "pref": "宮崎県",
    "city": "宮崎市",
    "category": "community_day_service",
    "serviceType": "地域密着型通所介護",
    "capacity": 0,
    "openDays": [
      "平日",
      "土曜日",
      "祝日"
    ],
    "openDaysNote": ""
  },
  {
    "id": "4590100931",
    "name": "デイサービスセンターみどり",
    "kana": "デイサービスセンターミドリ",
    "address": "宮崎県　宮崎市　高岡町　五町　358-2",
    "lat": 31.9561583698972,
    "lng": 131.297490311045,
    "tel": "0985-67-6001",
    "url": "",
    "pref": "宮崎県",
    "city": "宮崎市",
    "category": "community_day_service",
    "serviceType": "地域密着型通所介護",
    "capacity": 0,
    "openDays": [
      "平日",
      "祝日"
    ],
    "openDaysNote": "その他の留意事項（改行）1.従業者等は業務上知り得た利用者又はその家族の秘密を保持する。（改行）2.事業所は、従業者等であった者に、業務上知り得た利用者又はその家族の秘密を保持させるため、従業者等でなくなった後においてもこれらの秘密を保持するべき旨を、従業者等との雇用契約の内容に含むものとする。（改行）3.サービスを提供した際は、その提供日、内容、利用者負担額その他必要な事項を記録し、その完結の日から5年間保存するものとする。"
  },
  {
    "id": "4570106072",
    "name": "デイサービスセンター太平洋",
    "kana": "デイサービスセンタータイヘイヨウ",
    "address": "青島6丁目14番33号",
    "lat": 31.7925323,
    "lng": 131.4731929,
    "tel": "985650282",
    "url": "http://www.miyazaki-catv.ne.jp/~taiheiyo-1433/index.html",
    "pref": "宮崎県",
    "city": "宮崎市",
    "category": "community_day_service",
    "serviceType": "地域密着型通所介護",
    "capacity": 18,
    "openDays": [
      "平日",
      "祝日"
    ],
    "openDaysNote": "12月31日～1月2日"
  },
  {
    "id": "4590101202",
    "name": "デイサービスセンター竜のおんがえし",
    "kana": "デイサービスセンターリュウノオンガエシ",
    "address": "宮崎県宮崎市大字恒久字働馬寄6634番地2",
    "lat": 31.893838,
    "lng": 131.413087,
    "tel": "0985-74-5851",
    "url": "",
    "pref": "宮崎県",
    "city": "宮崎市",
    "category": "community_day_service",
    "serviceType": "地域密着型通所介護",
    "capacity": 0,
    "openDays": [
      "平日",
      "土曜日",
      "祝日"
    ],
    "openDaysNote": ""
  },
  {
    "id": "4590101467",
    "name": "デイサービスセンター竜のおんがえし赤江店",
    "kana": "デイサービスセンターリュウノオンガエシアカエテン",
    "address": "宮崎市恒久777番地6",
    "lat": 31.8912351,
    "lng": 131.4087086,
    "tel": "985778344",
    "url": "",
    "pref": "宮崎県",
    "city": "宮崎市",
    "category": "community_day_service",
    "serviceType": "地域密着型通所介護",
    "capacity": null,
    "openDays": [
      "平日",
      "祝日"
    ],
    "openDaysNote": "年末年始（12月30日から1月3日まで休み）"
  },
  {
    "id": "4590101533",
    "name": "デイサービスそう・けん・びあお",
    "kana": "デイサービスソウ・ケン・ビアオ",
    "address": "大字恒久1969-1",
    "lat": 31.8875889,
    "lng": 131.4239289,
    "tel": "0985-63-5691",
    "url": "",
    "pref": "宮崎県",
    "city": "宮崎市",
    "category": "community_day_service",
    "serviceType": "地域密着型通所介護",
    "capacity": 0,
    "openDays": [
      "平日"
    ],
    "openDaysNote": ""
  },
  {
    "id": "4590101061",
    "name": "デイサービスそう･けん･びハナ",
    "kana": "デイサービスソウ・ケン・ビハナ",
    "address": "宮崎県宮崎市花山手東2-9-1デイサービスそう･けん･びハナ デイサービスそう･けん･びハナ",
    "lat": 31.904910408454,
    "lng": 131.403001399257,
    "tel": "0985-64-8155",
    "url": "http://sou-ken-bi.com/",
    "pref": "宮崎県",
    "city": "宮崎市",
    "category": "community_day_service",
    "serviceType": "地域密着型通所介護",
    "capacity": 0,
    "openDays": [
      "平日",
      "祝日"
    ],
    "openDaysNote": "営業時間について：半日型となります→午前（9:00-12:00）午後（13:00-16:00）"
  },
  {
    "id": "4570102832",
    "name": "デイサービスなな草",
    "kana": "デイサービスナナクサ",
    "address": "宮崎県宮崎市大字赤江字飛江田1357-1",
    "lat": 31.8846626781536,
    "lng": 131.44820408327,
    "tel": "0985-55-1882",
    "url": "http://www",
    "pref": "宮崎県",
    "city": "宮崎市",
    "category": "community_day_service",
    "serviceType": "地域密着型通所介護",
    "capacity": 13,
    "openDays": [
      "平日",
      "土曜日",
      "祝日"
    ],
    "openDaysNote": ""
  },
  {
    "id": "4590101053",
    "name": "デイサービスひいらぎ",
    "kana": "デイサービスヒイラギ",
    "address": "宮崎県宮崎市高洲町137-7",
    "lat": 31.9002029,
    "lng": 131.4459822,
    "tel": "0985-78-2657",
    "url": "https://www.np-k.co.jp/day3/hiiragi/",
    "pref": "宮崎県",
    "city": "宮崎市",
    "category": "community_day_service",
    "serviceType": "地域密着型通所介護",
    "capacity": null,
    "openDays": [
      "平日",
      "土曜日",
      "日曜日",
      "祝日"
    ],
    "openDaysNote": ""
  },
  {
    "id": "4590101368",
    "name": "デイサービスひいらぎ",
    "kana": "デイサービスヒイラギ",
    "address": "宮崎県宮崎市高洲町137-7",
    "lat": 31.9002062,
    "lng": 131.4459813,
    "tel": "0985-78-2657",
    "url": "",
    "pref": "宮崎県",
    "city": "宮崎市",
    "category": "community_day_service",
    "serviceType": "地域密着型通所介護",
    "capacity": null,
    "openDays": [
      "平日",
      "土曜日",
      "日曜日",
      "祝日"
    ],
    "openDaysNote": ""
  },
  {
    "id": "4570103558",
    "name": "デイサービスひとつば",
    "kana": "デイサービスヒトツバ",
    "address": "宮崎県宮崎市吉村町今村甲4119番地１",
    "lat": 31.9118222489265,
    "lng": 131.448164058783,
    "tel": "0985-20-2588・",
    "url": "http://hitotuba1280.wixsite.com/dayservice-hitotuba",
    "pref": "宮崎県",
    "city": "宮崎市",
    "category": "community_day_service",
    "serviceType": "地域密着型通所介護",
    "capacity": 18,
    "openDays": [
      "平日",
      "土曜日"
    ],
    "openDaysNote": "諸事情により他の日を休業日とする場合がある。"
  },
  {
    "id": "4570102600",
    "name": "デイサービスひまわりの杜",
    "kana": "デイサービスヒマワリノモリ",
    "address": "宮崎県宮崎市潮見町50番地１",
    "lat": 31.9060382,
    "lng": 131.4378896,
    "tel": "0985-61-0320",
    "url": "",
    "pref": "宮崎県",
    "city": "宮崎市",
    "category": "community_day_service",
    "serviceType": "地域密着型通所介護",
    "capacity": 18,
    "openDays": [
      "平日",
      "祝日"
    ],
    "openDaysNote": ""
  },
  {
    "id": "4570103384",
    "name": "デイサービスほんごう",
    "kana": "デイサービスホンゴウ",
    "address": "宮崎県宮崎市大字本郷南方4016番地ほんごうマンション１F ほんごうマンション１F",
    "lat": 31.8644803,
    "lng": 131.4311977,
    "tel": "0985-56-1057",
    "url": "",
    "pref": "宮崎県",
    "city": "宮崎市",
    "category": "community_day_service",
    "serviceType": "地域密着型通所介護",
    "capacity": 18,
    "openDays": [
      "平日",
      "土曜日",
      "祝日"
    ],
    "openDaysNote": ""
  },
  {
    "id": "4590100949",
    "name": "デイサービスみやこや",
    "kana": "デイサービスミヤコヤ",
    "address": "宮崎県宮崎市曽師町111番地3",
    "lat": 31.9123359,
    "lng": 131.4406523,
    "tel": "0985-24-9579",
    "url": "https://naturalb.net/",
    "pref": "宮崎県",
    "city": "宮崎市",
    "category": "community_day_service",
    "serviceType": "地域密着型通所介護",
    "capacity": null,
    "openDays": [
      "平日"
    ],
    "openDaysNote": ""
  },
  {
    "id": "4570101834",
    "name": "デイサービス雁ケ音",
    "kana": "デイサービスカリガネ",
    "address": "宮崎県宮崎市東大宮4丁目20-15",
    "lat": 31.9455168,
    "lng": 131.4391776,
    "tel": "0985-61-8525",
    "url": "http://syunkoukai.com",
    "pref": "宮崎県",
    "city": "宮崎市",
    "category": "community_day_service",
    "serviceType": "地域密着型通所介護",
    "capacity": 0,
    "openDays": [
      "平日",
      "祝日"
    ],
    "openDaysNote": ""
  },
  {
    "id": "4590101004",
    "name": "デイサービス暖家",
    "kana": "デイサービスダンケ",
    "address": "宮崎県宮崎市清武町今泉乙2866-2",
    "lat": 31.8395298,
    "lng": 131.3744092,
    "tel": "0985-34-9117",
    "url": "",
    "pref": "宮崎県",
    "city": "宮崎市",
    "category": "community_day_service",
    "serviceType": "地域密着型通所介護",
    "capacity": 0,
    "openDays": [
      "平日"
    ],
    "openDaysNote": ""
  },
  {
    "id": "4570107856",
    "name": "デイサービス未来図神宮店",
    "kana": "デイサービスミライズジングウテン",
    "address": "宮崎市大島町山田ケ窪1926－1東鋼ビル1階 東鋼ビル1階",
    "lat": 31.938600072908,
    "lng": 131.432754940445,
    "tel": "0985-88-3486",
    "url": "http://www.me-rise-labo.com/",
    "pref": "宮崎県",
    "city": "宮崎市",
    "category": "community_day_service",
    "serviceType": "地域密着型通所介護",
    "capacity": 0,
    "openDays": [
      "平日",
      "祝日"
    ],
    "openDaysNote": ""
  },
  {
    "id": "4590100907",
    "name": "デイサービス未来図東大宮店",
    "kana": "デイサービスミライズヒガシオオミヤテン",
    "address": "宮崎市大島町前田３２３－７",
    "lat": 31.9431013699074,
    "lng": 131.442142634146,
    "tel": "0985-71-2411",
    "url": "https://www.me-rise-labo.com/",
    "pref": "宮崎県",
    "city": "宮崎市",
    "category": "community_day_service",
    "serviceType": "地域密着型通所介護",
    "capacity": 0,
    "openDays": [
      "平日"
    ],
    "openDaysNote": "平日にある祝日は営業（※但し、GWや年末年始等については別途会社規定により休日を定めている）"
  },
  {
    "id": "4570108219",
    "name": "デイハウスみずたま",
    "kana": "デイハウスミズタマ",
    "address": "宮崎県宮崎市大字有田３１７番地１",
    "lat": 31.9521508,
    "lng": 131.3772456,
    "tel": "0985-47-8011",
    "url": "https://www.mizutama/link",
    "pref": "宮崎県",
    "city": "宮崎市",
    "category": "community_day_service",
    "serviceType": "地域密着型通所介護",
    "capacity": 6,
    "openDays": [
      "平日",
      "土曜日"
    ],
    "openDaysNote": ""
  },
  {
    "id": "4570104416",
    "name": "デイホーム　なかしま",
    "kana": "デイホーム　ナカシマ",
    "address": "生目台東１丁目２２番地２号",
    "lat": 31.9043402,
    "lng": 131.3823793,
    "tel": "0985-50-6750",
    "url": "",
    "pref": "宮崎県",
    "city": "宮崎市",
    "category": "community_day_service",
    "serviceType": "地域密着型通所介護",
    "capacity": 0,
    "openDays": [
      "平日",
      "土曜日",
      "日曜日",
      "祝日"
    ],
    "openDaysNote": "サービス提供の延長体制有"
  },
  {
    "id": "4570102857",
    "name": "デイホームすずの木",
    "kana": "デイホーム　スズノキ",
    "address": "宮崎県宮崎市大字島之内9293番地1デイホームすずの木 デイホームすずの木",
    "lat": 31.9818576,
    "lng": 131.453645,
    "tel": "0985-39-3307",
    "url": "",
    "pref": "宮崎県",
    "city": "宮崎市",
    "category": "community_day_service",
    "serviceType": "地域密着型通所介護",
    "capacity": 15,
    "openDays": [
      "平日",
      "土曜日",
      "祝日"
    ],
    "openDaysNote": ""
  },
  {
    "id": "4590101434",
    "name": "トラストデイサービス",
    "kana": "トラストデイサービス",
    "address": "宮崎県宮崎市大王町75−３",
    "lat": 31.9070488001343,
    "lng": 131.440817086377,
    "tel": "0985ー71ー1493",
    "url": "trustdays1551@gmail.com",
    "pref": "宮崎県",
    "city": "宮崎市",
    "category": "community_day_service",
    "serviceType": "地域密着型通所介護",
    "capacity": 0,
    "openDays": [
      "平日",
      "土曜日"
    ],
    "openDaysNote": ""
  },
  {
    "id": "4570107724",
    "name": "にこっとディ",
    "kana": "ニコットディ",
    "address": "宮崎県宮崎市清武町加納甲３００４番地１６６",
    "lat": 31.8668812,
    "lng": 131.3922033,
    "tel": "0985-55-6003",
    "url": "https://www.nicottoday.co.jp/",
    "pref": "宮崎県",
    "city": "宮崎市",
    "category": "community_day_service",
    "serviceType": "地域密着型通所介護",
    "capacity": 0,
    "openDays": [
      "平日",
      "土曜日",
      "祝日"
    ],
    "openDaysNote": "５月　　３日４日５日（改行）１２月　３０日３１日（改行）１月　　１日２日　３日（改行）は毎年休業"
  },
  {
    "id": "4570106403",
    "name": "はまゆう大塚ステーション",
    "kana": "ハマユウオオツカステーション",
    "address": "宮崎市大塚町八所3657番地1",
    "lat": 31.9134059486957,
    "lng": 131.387341152457,
    "tel": "0985-55-0114",
    "url": "",
    "pref": "宮崎県",
    "city": "宮崎市",
    "category": "community_day_service",
    "serviceType": "地域密着型通所介護",
    "capacity": null,
    "openDays": [
      "平日",
      "土曜日",
      "祝日"
    ],
    "openDaysNote": ""
  },
  {
    "id": "4570103343",
    "name": "ひだまりデイサービスセンター",
    "kana": "ヒダマリデイサービスセンター",
    "address": "宮崎県宮崎市佐土原町下田島7823番地22",
    "lat": 32.0376044,
    "lng": 131.4656043,
    "tel": "0985-72-2375",
    "url": "http://www.meisyo-wa.jp/index.html",
    "pref": "宮崎県",
    "city": "宮崎市",
    "category": "community_day_service",
    "serviceType": "地域密着型通所介護",
    "capacity": 18,
    "openDays": [
      "平日",
      "土曜日",
      "祝日"
    ],
    "openDaysNote": "年末年始の定休日については、日程の変動があります。"
  },
  {
    "id": "4590101152",
    "name": "フィットネス未来図　加納店",
    "kana": "フィットネスミライズカノウテン",
    "address": "宮崎県宮崎市清武町大字加納甲2677-1",
    "lat": 31.87153,
    "lng": 131.3935455,
    "tel": "0985-88-3486",
    "url": "",
    "pref": "宮崎県",
    "city": "宮崎市",
    "category": "community_day_service",
    "serviceType": "地域密着型通所介護",
    "capacity": 0,
    "openDays": [
      "平日"
    ],
    "openDaysNote": ""
  },
  {
    "id": "4570106858",
    "name": "ホームケアセンターめぐみ",
    "kana": "ホームケアセンターメグミ",
    "address": "宮崎県宮崎市城ケ崎４丁目２－１１",
    "lat": 31.8968307,
    "lng": 131.4348374,
    "tel": "０９８５－７８－０８２２",
    "url": "http://www.ymmd-hcc.jp/location/%E3%82%81%E3%81%90%E3%81%BF/",
    "pref": "宮崎県",
    "city": "宮崎市",
    "category": "community_day_service",
    "serviceType": "地域密着型通所介護",
    "capacity": 60,
    "openDays": [
      "平日",
      "土曜日",
      "祝日"
    ],
    "openDaysNote": ""
  },
  {
    "id": "4570106767",
    "name": "ほっとすてーしょん　翼　通所介護事業所",
    "kana": "ホットステーション　ツバサ　ツウショカイゴジギョウショ",
    "address": "宮崎県宮崎市大字跡江528番地ハ号BeFine１階 BeFine１階",
    "lat": 31.9523975743701,
    "lng": 131.386825074977,
    "tel": "0985-48-2244",
    "url": "",
    "pref": "宮崎県",
    "city": "宮崎市",
    "category": "community_day_service",
    "serviceType": "地域密着型通所介護",
    "capacity": 0,
    "openDays": [
      "平日",
      "土曜日"
    ],
    "openDaysNote": ""
  },
  {
    "id": "4570105025",
    "name": "ほんわかデイサービス・恒久南",
    "kana": "ホンワカデイサービスツネヒサミナミ",
    "address": "宮崎県宮崎市恒久南4-172-27",
    "lat": 31.8909811,
    "lng": 131.4325713,
    "tel": "0985-64-1088",
    "url": "",
    "pref": "宮崎県",
    "city": "宮崎市",
    "category": "community_day_service",
    "serviceType": "地域密着型通所介護",
    "capacity": 10,
    "openDays": [
      "平日",
      "土曜日",
      "日曜日",
      "祝日"
    ],
    "openDaysNote": ""
  },
  {
    "id": "4570106395",
    "name": "ほんわかデイサービス楽生",
    "kana": "ホンワカデイサービスラクショウ",
    "address": "宮崎県宮崎市月見ケ丘1丁目21-29",
    "lat": 31.8809234,
    "lng": 131.4208869,
    "tel": "0985-64-8142",
    "url": "",
    "pref": "宮崎県",
    "city": "宮崎市",
    "category": "community_day_service",
    "serviceType": "地域密着型通所介護",
    "capacity": 2,
    "openDays": [
      "平日",
      "土曜日",
      "日曜日",
      "祝日"
    ],
    "openDaysNote": ""
  },
  {
    "id": "4590100998",
    "name": "まちなかデイサービスくじら",
    "kana": "マチナカデイサービスクジラ",
    "address": "宮崎県宮崎市霧島2丁目125番地住宅型有料老人ホーム霧島 住宅型有料老人ホーム霧島",
    "lat": 31.9289784657872,
    "lng": 131.416004929123,
    "tel": "0985-24-1165",
    "url": "",
    "pref": "宮崎県",
    "city": "宮崎市",
    "category": "community_day_service",
    "serviceType": "地域密着型通所介護",
    "capacity": 0,
    "openDays": [
      "平日",
      "土曜日",
      "祝日"
    ],
    "openDaysNote": ""
  },
  {
    "id": "4570103889",
    "name": "まなび野デイサービスセンター",
    "kana": "マナビノデイサービスセンター",
    "address": "宮崎県宮崎市まなび野2-39-1",
    "lat": 31.8597083,
    "lng": 131.4200824,
    "tel": "0985-71-0987",
    "url": "",
    "pref": "宮崎県",
    "city": "宮崎市",
    "category": "community_day_service",
    "serviceType": "地域密着型通所介護",
    "capacity": 15,
    "openDays": [
      "平日",
      "土曜日",
      "祝日"
    ],
    "openDaysNote": ""
  },
  {
    "id": "4590101376",
    "name": "ミック健康の森宮崎",
    "kana": "ミックケンコウノモリミヤザキ",
    "address": "宮崎県宮崎市清武町加納甲1357-5ミック健康の森宮崎 ミック健康の森宮崎",
    "lat": 31.8723407221965,
    "lng": 131.393162262027,
    "tel": "0985-86-8550",
    "url": "https://best-care-group.co.jp",
    "pref": "宮崎県",
    "city": "宮崎市",
    "category": "community_day_service",
    "serviceType": "地域密着型通所介護",
    "capacity": 0,
    "openDays": [
      "平日",
      "祝日"
    ],
    "openDaysNote": ""
  },
  {
    "id": "4570107369",
    "name": "ミューズの星新別府町デイサービスセンター",
    "kana": "ミューズノホシシンベップチョウデイサービスセンター",
    "address": "宮崎県宮崎市新別府町薦藁1955－1",
    "lat": 31.9264412,
    "lng": 131.4585879,
    "tel": "0985－28－3988",
    "url": "http://hoshakai.com",
    "pref": "宮崎県",
    "city": "宮崎市",
    "category": "community_day_service",
    "serviceType": "地域密着型通所介護",
    "capacity": 0,
    "openDays": [
      "平日",
      "祝日"
    ],
    "openDaysNote": "利用者から相談、希望等があり、それに対応可能な場合は、営業時間外であっても対応します。"
  },
  {
    "id": "4570106569",
    "name": "リハビリデイサービスLocomo",
    "kana": "リハビリデイサービスロコモ",
    "address": "宮崎県宮崎市恒久953-1",
    "lat": 31.8802414791339,
    "lng": 131.426730562566,
    "tel": "0985-71-0402",
    "url": "https://www.locomo-cs.com/",
    "pref": "宮崎県",
    "city": "宮崎市",
    "category": "community_day_service",
    "serviceType": "地域密着型通所介護",
    "capacity": 15,
    "openDays": [
      "平日",
      "祝日"
    ],
    "openDaysNote": "年末年始はお休みとなります。"
  },
  {
    "id": "4570100760",
    "name": "学園木花デイサービスセンター",
    "kana": "ガクエンキバナデイサービスセンター",
    "address": "宮崎県宮崎市鏡洲560番地",
    "lat": 31.8263961,
    "lng": 131.3992797,
    "tel": "0985-55-3211",
    "url": "http://www.riverside-gk.jp/",
    "pref": "宮崎県",
    "city": "宮崎市",
    "category": "community_day_service",
    "serviceType": "地域密着型通所介護",
    "capacity": 0,
    "openDays": [
      "平日",
      "土曜日",
      "祝日"
    ],
    "openDaysNote": ""
  },
  {
    "id": "4570106494",
    "name": "株式会社　介護サポート宮崎",
    "kana": "カブシキガイシャ　カイゴサポートミヤザキ",
    "address": "宮崎県宮崎市大字新名爪３２３-２",
    "lat": 31.9743591,
    "lng": 131.4427736,
    "tel": "0985-39-7006",
    "url": "",
    "pref": "宮崎県",
    "city": "宮崎市",
    "category": "community_day_service",
    "serviceType": "地域密着型通所介護",
    "capacity": 0,
    "openDays": [
      "平日",
      "祝日"
    ],
    "openDaysNote": ""
  },
  {
    "id": "4570108268",
    "name": "希望ヶ丘リハデイサービス",
    "kana": "キボウガオカリハデイサービス",
    "address": "宮崎県宮崎市希望ヶ丘3丁目18-1",
    "lat": 31.8599662318868,
    "lng": 131.426221308598,
    "tel": "0985-69-7460",
    "url": "https://resocie.com/",
    "pref": "宮崎県",
    "city": "宮崎市",
    "category": "community_day_service",
    "serviceType": "地域密着型通所介護",
    "capacity": 0,
    "openDays": [
      "平日",
      "土曜日",
      "祝日"
    ],
    "openDaysNote": ""
  },
  {
    "id": "4570100711",
    "name": "橘デイサービスセンター",
    "kana": "タチバナデイサービスセンター",
    "address": "宮崎県宮崎市橘通東1丁目７番１８号",
    "lat": 31.909043,
    "lng": 131.422713,
    "tel": "0985-22-1665",
    "url": "http://www.tachibana-korin.com/day/index.html",
    "pref": "宮崎県",
    "city": "宮崎市",
    "category": "community_day_service",
    "serviceType": "地域密着型通所介護",
    "capacity": 18,
    "openDays": [
      "平日",
      "祝日"
    ],
    "openDaysNote": "祝日は営業。年末年始、営業時間は要相談。"
  },
  {
    "id": "4571500703",
    "name": "宮崎保健福祉専門学校附属デイサービスセンター健康",
    "kana": "ミヤザキホケンフクシセンモンガッコウフゾクデイサービスセンターケンコウ",
    "address": "宮崎県宮崎市清武町木原5705番地",
    "lat": 31.8373867,
    "lng": 131.3943132,
    "tel": "0985-72-3088",
    "url": "",
    "pref": "宮崎県",
    "city": "宮崎市",
    "category": "community_day_service",
    "serviceType": "地域密着型通所介護",
    "capacity": 15,
    "openDays": [
      "平日",
      "祝日"
    ],
    "openDaysNote": ""
  },
  {
    "id": "4590101129",
    "name": "健康支援ハウス　デイサービスゆう",
    "kana": "ケンコウシエンハウス　デイサービスユウ",
    "address": "宮崎県宮崎市大塚町乱橋4549番地",
    "lat": 31.9067718,
    "lng": 131.39289,
    "tel": "0985-69-6723",
    "url": "",
    "pref": "宮崎県",
    "city": "宮崎市",
    "category": "community_day_service",
    "serviceType": "地域密着型通所介護",
    "capacity": 10,
    "openDays": [
      "平日",
      "祝日"
    ],
    "openDaysNote": ""
  },
  {
    "id": "4570102063",
    "name": "江南よしみデイサービスセンター",
    "kana": "コウナンヨシミデイサービスセンター",
    "address": "宮崎県宮崎市古城町南川内676",
    "lat": 31.8855941,
    "lng": 131.4022048,
    "tel": "0985-64-1618",
    "url": "http://www.kounanyoshimi.com/",
    "pref": "宮崎県",
    "city": "宮崎市",
    "category": "community_day_service",
    "serviceType": "地域密着型通所介護",
    "capacity": 18,
    "openDays": [
      "平日",
      "祝日"
    ],
    "openDaysNote": "令和０７年０１月より、定休日変更。"
  },
  {
    "id": "4570101230",
    "name": "高松ケアセンター",
    "kana": "タカマツケアセンター",
    "address": "宮崎県宮崎市高松町１番３３号",
    "lat": 31.9134396,
    "lng": 131.4203437,
    "tel": "0985-62-1189",
    "url": "",
    "pref": "宮崎県",
    "city": "宮崎市",
    "category": "community_day_service",
    "serviceType": "地域密着型通所介護",
    "capacity": 10,
    "openDays": [
      "平日",
      "祝日"
    ],
    "openDaysNote": ""
  },
  {
    "id": "4590101400",
    "name": "三ツ星の家　江南",
    "kana": "ミツボシノイエ　コウナン",
    "address": "江南1丁目19-6",
    "lat": 31.9062084,
    "lng": 131.4024342,
    "tel": "0985-88-3451",
    "url": "http://vivid-homehelp.com/",
    "pref": "宮崎県",
    "city": "宮崎市",
    "category": "community_day_service",
    "serviceType": "地域密着型通所介護",
    "capacity": null,
    "openDays": [
      "平日",
      "祝日"
    ],
    "openDaysNote": ""
  },
  {
    "id": "4570101776",
    "name": "春生倶楽部",
    "kana": "シュンセイクラブ",
    "address": "宮崎県宮崎市希望ヶ丘4丁目83",
    "lat": 31.8562426882551,
    "lng": 131.42045498107,
    "tel": "0985-55-2001",
    "url": "http://www.kudomi.com",
    "pref": "宮崎県",
    "city": "宮崎市",
    "category": "community_day_service",
    "serviceType": "地域密着型通所介護",
    "capacity": 0,
    "openDays": [
      "平日",
      "土曜日",
      "日曜日",
      "祝日"
    ],
    "openDaysNote": ""
  },
  {
    "id": "4590101459",
    "name": "小規模デイサービスcatlife",
    "kana": "ショウキボデイサービス　キャットライフ",
    "address": "宮崎県宮崎市大字糸原3487番地",
    "lat": 31.9549346,
    "lng": 131.3583733,
    "tel": "0985-72-6306",
    "url": "https://www.catlife-miyazaki.com/",
    "pref": "宮崎県",
    "city": "宮崎市",
    "category": "community_day_service",
    "serviceType": "地域密着型通所介護",
    "capacity": 10,
    "openDays": [
      "平日"
    ],
    "openDaysNote": ""
  },
  {
    "id": "4590101269",
    "name": "新城デイサービス",
    "kana": "シンジョウデイサービス",
    "address": "新城町23番3サンジェルマンⅡ1階 サンジェルマンⅡ1階",
    "lat": 31.9256662,
    "lng": 131.4410279,
    "tel": "0985-86-9077",
    "url": "",
    "pref": "宮崎県",
    "city": "宮崎市",
    "category": "community_day_service",
    "serviceType": "地域密着型通所介護",
    "capacity": 10,
    "openDays": [
      "平日",
      "土曜日"
    ],
    "openDaysNote": "８月13～15日を夏季休暇　12月31日～1月3日を冬季休暇とする"
  },
  {
    "id": "4590101442",
    "name": "星空の都デイサービスセンターさどわら",
    "kana": "ホシゾラノミヤコデイサービスセンターサドワラ",
    "address": "宮崎県宮崎市佐土原町下那珂3165-1",
    "lat": 32.0288873,
    "lng": 131.4299607,
    "tel": "070-7665-1538",
    "url": "sadowara.info@fujimoto.or.jp",
    "pref": "宮崎県",
    "city": "宮崎市",
    "category": "community_day_service",
    "serviceType": "地域密着型通所介護",
    "capacity": 0,
    "openDays": [
      "平日",
      "土曜日",
      "祝日"
    ],
    "openDaysNote": ""
  },
  {
    "id": "4570107120",
    "name": "地域密着型通所介護事業所　　　二ツ山安寿",
    "kana": "チイキミッチャクガタツウショカイゴジギョウショ　フタツヤマアンジュ",
    "address": "宮崎県宮崎市田野町甲5740番地",
    "lat": 31.8359273,
    "lng": 131.3284868,
    "tel": "0985-88-8230",
    "url": "https://www.minnanokaigo.com/facility/000-2079642163/",
    "pref": "宮崎県",
    "city": "宮崎市",
    "category": "community_day_service",
    "serviceType": "地域密着型通所介護",
    "capacity": 15,
    "openDays": [
      "平日",
      "祝日"
    ],
    "openDaysNote": "その他年間休日　12/29～1/3"
  },
  {
    "id": "4570107351",
    "name": "巴スクール",
    "kana": "トモエスクール",
    "address": "大字恒久寺ノ前５９９６番地１",
    "lat": 31.8907531,
    "lng": 131.4219335,
    "tel": "０９８５－５１－２２８０",
    "url": "",
    "pref": "宮崎県",
    "city": "宮崎市",
    "category": "community_day_service",
    "serviceType": "地域密着型通所介護",
    "capacity": 0,
    "openDays": [
      "平日",
      "土曜日"
    ],
    "openDaysNote": ""
  },
  {
    "id": "4570105850",
    "name": "民家型デイサービス夢家",
    "kana": "ミンカガタデイサービスユメヤ",
    "address": "宮崎県宮崎市田野町乙５６４２－１",
    "lat": 31.8260212,
    "lng": 131.2752438,
    "tel": "0985-86-5029",
    "url": "",
    "pref": "宮崎県",
    "city": "宮崎市",
    "category": "community_day_service",
    "serviceType": "地域密着型通所介護",
    "capacity": 10,
    "openDays": [
      "平日",
      "土曜日",
      "祝日"
    ],
    "openDaysNote": "お盆休み13～15日㊡（改行）年末年始29日～3日㊡"
  },
  {
    "id": "4570103632",
    "name": "有限会社ケアセンター彩",
    "kana": "ユウゲンガイシャケアセンターアヤ",
    "address": "宮崎県宮崎市大字糸原2６１１番地３",
    "lat": 31.9563556,
    "lng": 131.3656127,
    "tel": "0985-36-0503",
    "url": "",
    "pref": "宮崎県",
    "city": "宮崎市",
    "category": "community_day_service",
    "serviceType": "地域密着型通所介護",
    "capacity": 15,
    "openDays": [
      "平日",
      "土曜日",
      "日曜日",
      "祝日"
    ],
    "openDaysNote": ""
  },
  {
    "id": "4570102568",
    "name": "有限会社デイ・サービス誠心",
    "kana": "ユウゲンガイシャデイ・サービスセイシン",
    "address": "宮崎県宮崎市青葉町11番地1",
    "lat": 31.9207887169753,
    "lng": 131.43241932209,
    "tel": "0985-60-7572",
    "url": "",
    "pref": "宮崎県",
    "city": "宮崎市",
    "category": "community_day_service",
    "serviceType": "地域密着型通所介護",
    "capacity": 10,
    "openDays": [
      "平日",
      "土曜日"
    ],
    "openDaysNote": "自然災害等発生時は緊急の休みあり。"
  },
  {
    "id": "4571500414",
    "name": "有限会社デイサービスセンター前田家",
    "kana": "ユウゲンガイシャデイサービスセンターマエダヤ",
    "address": "宮崎県宮崎市田野町甲６１７８番地イ号",
    "lat": 31.8405797,
    "lng": 131.3393025,
    "tel": "0985-86-1536",
    "url": "",
    "pref": "宮崎県",
    "city": "宮崎市",
    "category": "community_day_service",
    "serviceType": "地域密着型通所介護",
    "capacity": null,
    "openDays": [
      "平日",
      "祝日"
    ],
    "openDaysNote": ""
  },
  {
    "id": "4570102253",
    "name": "有限会社介護支援ホームれんげ荘",
    "kana": "ユウゲンガイシャカイゴシエンホームレンゲソウ",
    "address": "宮崎県宮崎市大字金崎2537番地1",
    "lat": 31.9740927,
    "lng": 131.3583788,
    "tel": "0985-36-0671",
    "url": "so-renge@miyazaki-catv.ne.jp",
    "pref": "宮崎県",
    "city": "宮崎市",
    "category": "community_day_service",
    "serviceType": "地域密着型通所介護",
    "capacity": 15,
    "openDays": [
      "平日",
      "土曜日",
      "祝日"
    ],
    "openDaysNote": "※通所介護定休日及び、時間外であっても、連絡可能な体制とします。"
  },
  {
    "id": "4570700346",
    "name": "サポートハウス稲の穂",
    "kana": "サポートハウスイネノホ",
    "address": "宮崎県串間市大字西方6785-2",
    "lat": 31.4567692060614,
    "lng": 131.221742536015,
    "tel": "0987-72-4533",
    "url": "http://hp.kaipoke.biz/6wf/",
    "pref": "宮崎県",
    "city": "串間市",
    "category": "community_day_service",
    "serviceType": "地域密着型通所介護",
    "capacity": 10,
    "openDays": [
      "平日",
      "土曜日",
      "祝日"
    ],
    "openDaysNote": "12/31は入浴希望者は、午前中利用可能"
  },
  {
    "id": "4570700486",
    "name": "デイサービスセンタークラシヤスむつみ",
    "kana": "デイサービスセンタークラシヤスムツミ",
    "address": "宮崎県串間市大字西方８９６４－１２",
    "lat": 31.465127499635,
    "lng": 131.220417538098,
    "tel": "０９８７－５５－０５２１",
    "url": "http://www.kosodate-web.com/mutumikai/",
    "pref": "宮崎県",
    "city": "串間市",
    "category": "community_day_service",
    "serviceType": "地域密着型通所介護",
    "capacity": 0,
    "openDays": [
      "平日",
      "土曜日",
      "祝日"
    ],
    "openDaysNote": ""
  },
  {
    "id": "4550780003",
    "name": "医療法人秀英会長寿の里デイサービスセンター",
    "kana": "イリョウホウジンシュウエイカイチョウジュノサト",
    "address": "宮崎県串間市大字奈留５２９８番地３",
    "lat": 31.5133006,
    "lng": 131.246595,
    "tel": "0987-71-2722",
    "url": "http://www.shueikai.or.jp",
    "pref": "宮崎県",
    "city": "串間市",
    "category": "community_day_service",
    "serviceType": "地域密着型通所介護",
    "capacity": 7,
    "openDays": [
      "平日",
      "土曜日"
    ],
    "openDaysNote": ""
  },
  {
    "id": "4570700155",
    "name": "串間市社会福祉協議会市木デイサービスセンター",
    "kana": "クシマシシャカイフクシキョウギカイイチキデイサービスセンター",
    "address": "宮崎県串間市大字市木2028番地市木デイサービスセンター 市木デイサービスセンター",
    "lat": 31.4634323,
    "lng": 131.3414865,
    "tel": "0987-77-0860",
    "url": "",
    "pref": "宮崎県",
    "city": "串間市",
    "category": "community_day_service",
    "serviceType": "地域密着型通所介護",
    "capacity": 0,
    "openDays": [
      "平日",
      "祝日"
    ],
    "openDaysNote": "年末年始（１２/２９～１／３）は営業しない。"
  },
  {
    "id": "4570700189",
    "name": "串間保育園デイサービスセンター",
    "kana": "クシマホイクエンデイサービスセンター",
    "address": "宮崎県串間市大字西方8253番地",
    "lat": 31.461617,
    "lng": 131.2228394,
    "tel": "0987-72-2141",
    "url": "",
    "pref": "宮崎県",
    "city": "串間市",
    "category": "community_day_service",
    "serviceType": "地域密着型通所介護",
    "capacity": 18,
    "openDays": [
      "平日",
      "土曜日",
      "祝日"
    ],
    "openDaysNote": ""
  },
  {
    "id": "4570700171",
    "name": "社会福祉法人　むつみデイサービスセンター",
    "kana": "シャカイフクシホウジン　ムツミデイサービスセンター",
    "address": "宮崎県串間市大字西方15153-3",
    "lat": 31.4580811,
    "lng": 131.2032856,
    "tel": "0987-72-4166",
    "url": "http://www.kosodate-web.com/mutumikai/index.html",
    "pref": "宮崎県",
    "city": "串間市",
    "category": "community_day_service",
    "serviceType": "地域密着型通所介護",
    "capacity": 15,
    "openDays": [
      "平日",
      "土曜日",
      "祝日"
    ],
    "openDaysNote": ""
  },
  {
    "id": "4572200287",
    "name": "デイサービスこもれび",
    "kana": "デイサービスコモレビ",
    "address": "宮崎県西臼杵郡五ヶ瀬町大字鞍岡５８３０番地１",
    "lat": 32.6409481756765,
    "lng": 131.158480684795,
    "tel": "0982-83-2343",
    "url": "",
    "pref": "宮崎県",
    "city": "五ヶ瀬町",
    "category": "community_day_service",
    "serviceType": "地域密着型通所介護",
    "capacity": 9,
    "openDays": [
      "平日",
      "土曜日",
      "祝日"
    ],
    "openDaysNote": "定休日にご利用の希望の方にについては事前にお問い合わせください"
  },
  {
    "id": "4572200303",
    "name": "デイサービスあくた　高千穂店",
    "kana": "デイサービスアクタ　タカチホテン",
    "address": "宮崎県西臼杵郡高千穂町大字三田井6314番地5",
    "lat": 32.7039864552331,
    "lng": 131.319726056653,
    "tel": "（0982）72-9800",
    "url": "",
    "pref": "宮崎県",
    "city": "高千穂町",
    "category": "community_day_service",
    "serviceType": "地域密着型通所介護",
    "capacity": 0,
    "openDays": [
      "平日",
      "祝日"
    ],
    "openDaysNote": "正月　12/30～1/3はお休み。お盆　8/14～/15はお休み。祝日は通常どおり営業するものとする。"
  },
  {
    "id": "4572200162",
    "name": "株式会社サン・ルームデイサービスふきのとう",
    "kana": "カブシキガイシャサン・ルームデイサービスフキノトウ",
    "address": "宮崎県西臼杵郡高千穂町大字上野3383-4",
    "lat": 32.7642009,
    "lng": 131.2995477,
    "tel": "0982-73-4611",
    "url": "http://care-net.biz/45/sr-4611/index.php",
    "pref": "宮崎県",
    "city": "高千穂町",
    "category": "community_day_service",
    "serviceType": "地域密着型通所介護",
    "capacity": 15,
    "openDays": [
      "平日",
      "土曜日",
      "日曜日",
      "祝日"
    ],
    "openDaysNote": "月曜から日曜まで営業。年末年始は留守番電話にて対応している。"
  },
  {
    "id": "4572000851",
    "name": "じゅうじの家デイサービスセンター",
    "kana": "ジュウジノイエデイサービスセンター",
    "address": "宮崎県児湯郡高鍋町大字北高鍋1262-1",
    "lat": 32.1277042,
    "lng": 131.512726,
    "tel": "0983-22-5187",
    "url": "www.yuuaisya.jp",
    "pref": "宮崎県",
    "city": "高鍋町",
    "category": "community_day_service",
    "serviceType": "地域密着型通所介護",
    "capacity": 18,
    "openDays": [
      "平日",
      "土曜日"
    ],
    "openDaysNote": ""
  },
  {
    "id": "4592000147",
    "name": "デイサービスはーとふる",
    "kana": "デイサービスハートフル",
    "address": "宮崎県児湯郡高鍋町大字高鍋町５９８番地３",
    "lat": 32.1245779618411,
    "lng": 131.508103104893,
    "tel": "0983-23-0404",
    "url": "",
    "pref": "宮崎県",
    "city": "高鍋町",
    "category": "community_day_service",
    "serviceType": "地域密着型通所介護",
    "capacity": 0,
    "openDays": [
      "平日",
      "土曜日"
    ],
    "openDaysNote": ""
  },
  {
    "id": "4572001032",
    "name": "デイサービスほおのき",
    "kana": "デイサービスホオノキ",
    "address": "宮崎県児湯郡高鍋町大字北高鍋７６３－１",
    "lat": 32.129654,
    "lng": 131.5072015,
    "tel": "0983-35-3465",
    "url": "",
    "pref": "宮崎県",
    "city": "高鍋町",
    "category": "community_day_service",
    "serviceType": "地域密着型通所介護",
    "capacity": 0,
    "openDays": [
      "平日",
      "土曜日",
      "日曜日",
      "祝日"
    ],
    "openDaysNote": ""
  },
  {
    "id": "4592000196",
    "name": "デイサービスルアナ",
    "kana": "デイサービスルアナ",
    "address": "宮崎県児湯郡高鍋町大字蚊口浦5125番地1",
    "lat": 32.1251651,
    "lng": 131.5264475,
    "tel": "0983-35-3207",
    "url": "",
    "pref": "宮崎県",
    "city": "高鍋町",
    "category": "community_day_service",
    "serviceType": "地域密着型通所介護",
    "capacity": 0,
    "openDays": [
      "平日"
    ],
    "openDaysNote": ""
  },
  {
    "id": "4572001164",
    "name": "まちのなか　おとんおかんの家",
    "kana": "マチノナカ　オトンオカンノイエ",
    "address": "宮崎県児湯郡高鍋町大字北高鍋１０８９番地",
    "lat": 32.1309011,
    "lng": 131.5098345,
    "tel": "0983-35-3531",
    "url": "https://www.otonokannoie.jp/",
    "pref": "宮崎県",
    "city": "高鍋町",
    "category": "community_day_service",
    "serviceType": "地域密着型通所介護",
    "capacity": 0,
    "openDays": [
      "平日",
      "土曜日",
      "祝日"
    ],
    "openDaysNote": "※年末年始の12月31日～1月2日は除く"
  },
  {
    "id": "4572001990",
    "name": "ラキーノ高鍋",
    "kana": "ラキーノタカナベ",
    "address": "宮崎県児湯郡高鍋町北高鍋3186番地3",
    "lat": 32.1240448,
    "lng": 131.5212546,
    "tel": "0983-32-1281",
    "url": "https://www.rakino812.com/",
    "pref": "宮崎県",
    "city": "高鍋町",
    "category": "community_day_service",
    "serviceType": "地域密着型通所介護",
    "capacity": 0,
    "openDays": [
      "平日",
      "土曜日",
      "祝日"
    ],
    "openDaysNote": ""
  },
  {
    "id": "4591900073",
    "name": "デイサービスセンターねむの里",
    "kana": "デイサービスセンターネムノサト",
    "address": "宮崎県東諸県郡国富町大字木脇1462",
    "lat": 31.9925925,
    "lng": 131.3594675,
    "tel": "0985-77-5711",
    "url": "https://www.m-sj.or.jp/",
    "pref": "宮崎県",
    "city": "国富町",
    "category": "community_day_service",
    "serviceType": "地域密着型通所介護",
    "capacity": 0,
    "openDays": [
      "平日",
      "土曜日",
      "祝日"
    ],
    "openDaysNote": ""
  },
  {
    "id": "4571900929",
    "name": "デイサービスひだまりの家",
    "kana": "デイサービスヒダマリノイエ",
    "address": "宮崎県東諸県郡国富町大字本庄5523-2",
    "lat": 31.9950393,
    "lng": 131.3061209,
    "tel": "0985-75-1383",
    "url": "",
    "pref": "宮崎県",
    "city": "国富町",
    "category": "community_day_service",
    "serviceType": "地域密着型通所介護",
    "capacity": 10,
    "openDays": [
      "平日",
      "土曜日",
      "祝日"
    ],
    "openDaysNote": "12/31～1/3　休み"
  },
  {
    "id": "4591900065",
    "name": "リハビリデイサービス　はぴリハ",
    "kana": "リハビリデイサービス　ハピリハ",
    "address": "宮崎県東諸県郡国富町大字本庄4313番地1",
    "lat": 31.9880166,
    "lng": 131.3335965,
    "tel": "0985-75-3914",
    "url": "",
    "pref": "宮崎県",
    "city": "国富町",
    "category": "community_day_service",
    "serviceType": "地域密着型通所介護",
    "capacity": 15,
    "openDays": [
      "平日",
      "土曜日",
      "祝日"
    ],
    "openDaysNote": "年末年始休み…12月31日、1月1日、2日、3日"
  },
  {
    "id": "4571700972",
    "name": "デイサービス　はっぴー",
    "kana": "デイサービスハッピー",
    "address": "宮崎県北諸県郡三股町新馬場39番地8",
    "lat": 31.7370069,
    "lng": 131.1131178,
    "tel": "0986-52-1205",
    "url": "",
    "pref": "宮崎県",
    "city": "三股町",
    "category": "community_day_service",
    "serviceType": "地域密着型通所介護",
    "capacity": 0,
    "openDays": [
      "平日",
      "土曜日",
      "祝日"
    ],
    "openDaysNote": ""
  },
  {
    "id": "4591700036",
    "name": "デイサービス茶茶",
    "kana": "デイサービスチャチャ",
    "address": "宮崎県北諸県郡三股町大字樺山4370番地15",
    "lat": 31.7355158,
    "lng": 131.1166009,
    "tel": "0986-57-0170",
    "url": "",
    "pref": "宮崎県",
    "city": "三股町",
    "category": "community_day_service",
    "serviceType": "地域密着型通所介護",
    "capacity": 0,
    "openDays": [
      "平日",
      "土曜日",
      "祝日"
    ],
    "openDaysNote": ""
  },
  {
    "id": "4592100103",
    "name": "もろつかせせらぎの里",
    "kana": "モロツカセセラギノサト",
    "address": "宮崎県東臼杵郡諸塚村大字七ツ山54番地",
    "lat": 32.4932703,
    "lng": 131.3265244,
    "tel": "0982-65-1229",
    "url": "http://care-net.biz/45/seseragi/index.php",
    "pref": "宮崎県",
    "city": "諸塚村",
    "category": "community_day_service",
    "serviceType": "地域密着型通所介護",
    "capacity": null,
    "openDays": [
      "平日",
      "祝日"
    ],
    "openDaysNote": ""
  },
  {
    "id": "4570500761",
    "name": "デイサービス　恵",
    "kana": "デイサービス　メグミ",
    "address": "宮崎県小林市南西方2054番地1",
    "lat": 32.0036940526976,
    "lng": 130.954236371164,
    "tel": "0984-27-3917",
    "url": "",
    "pref": "宮崎県",
    "city": "小林市",
    "category": "community_day_service",
    "serviceType": "地域密着型通所介護",
    "capacity": 0,
    "openDays": [
      "平日",
      "土曜日"
    ],
    "openDaysNote": ""
  },
  {
    "id": "4590500130",
    "name": "デイサービスセンター　笑和",
    "kana": "デイサービスセンター　ショウワ",
    "address": "宮崎県小林市真方528番地3",
    "lat": 53.41291,
    "lng": -8.24388999999997,
    "tel": "0984-27-3225",
    "url": "https://www.showa.space",
    "pref": "宮崎県",
    "city": "小林市",
    "category": "community_day_service",
    "serviceType": "地域密着型通所介護",
    "capacity": 0,
    "openDays": [
      "平日",
      "祝日"
    ],
    "openDaysNote": ""
  },
  {
    "id": "4570500431",
    "name": "デイサービスセンターパワーリハ倶楽部",
    "kana": "デイサービスセンターパワーリハクラブ",
    "address": "宮崎県小林市須木中原1741番地1須木総合ふるさとセンター 須木総合ふるさとセンター",
    "lat": 32.0755927,
    "lng": 131.0727863,
    "tel": "0984-48-2073",
    "url": "https://kobayashi-syakyo.jimdofree.com/事-業-所/須木支所/デイサービスセンター-パワーリハ倶楽部/",
    "pref": "宮崎県",
    "city": "小林市",
    "category": "community_day_service",
    "serviceType": "地域密着型通所介護",
    "capacity": 15,
    "openDays": [
      "平日",
      "祝日"
    ],
    "openDaysNote": "年末年始(12月29日から1月3日まで)を除く"
  },
  {
    "id": "4590500122",
    "name": "デイサービスセンターぶんぶん",
    "kana": "デイサービスセンターブンブン",
    "address": "宮崎県小林市東方３０５２番地１６",
    "lat": 32.0144048324186,
    "lng": 131.010351376651,
    "tel": "０９８４－２７－３８９１",
    "url": "",
    "pref": "宮崎県",
    "city": "小林市",
    "category": "community_day_service",
    "serviceType": "地域密着型通所介護",
    "capacity": null,
    "openDays": [
      "平日",
      "祝日"
    ],
    "openDaysNote": ""
  },
  {
    "id": "4570500662",
    "name": "デイサービスセンターゆるり",
    "kana": "デイサービスセンターユルリ",
    "address": "宮崎県小林市細野3268番地1",
    "lat": 31.9841934,
    "lng": 130.9587474,
    "tel": "0984-27-3858",
    "url": "",
    "pref": "宮崎県",
    "city": "小林市",
    "category": "community_day_service",
    "serviceType": "地域密着型通所介護",
    "capacity": 13,
    "openDays": [
      "平日",
      "祝日"
    ],
    "openDaysNote": ""
  },
  {
    "id": "4570500290",
    "name": "デイサービスセンター花みずき",
    "kana": "デイサービスセンターハナミズキ",
    "address": "宮崎県小林市大字真方242番地",
    "lat": 31.9972619,
    "lng": 130.9801757,
    "tel": "0984-25-0655",
    "url": "",
    "pref": "宮崎県",
    "city": "小林市",
    "category": "community_day_service",
    "serviceType": "地域密着型通所介護",
    "capacity": 0,
    "openDays": [
      "平日",
      "祝日"
    ],
    "openDaysNote": "体育の日⇒スポーツの日へ（改行）上記の祝日以外は12:45　半日利用"
  },
  {
    "id": "4570500498",
    "name": "デイサービスセンター悠",
    "kana": "デイサービスセンターハルカ",
    "address": "宮崎県小林市東方1407番地1",
    "lat": 31.9970993,
    "lng": 131.0190453,
    "tel": "0984-48-7555",
    "url": "https://www.haruka-fukushi.com",
    "pref": "宮崎県",
    "city": "小林市",
    "category": "community_day_service",
    "serviceType": "地域密着型通所介護",
    "capacity": 18,
    "openDays": [
      "平日",
      "土曜日",
      "祝日"
    ],
    "openDaysNote": ""
  },
  {
    "id": "4570500605",
    "name": "デイサービスセンター和",
    "kana": "デイサービスセンターナゴミ",
    "address": "宮崎県小林市南西方6257番地33",
    "lat": 32.0110084,
    "lng": 130.9061364,
    "tel": "0984-27-2820",
    "url": "nagomiwelfare@vanilla.ocn.ne.jp",
    "pref": "宮崎県",
    "city": "小林市",
    "category": "community_day_service",
    "serviceType": "地域密着型通所介護",
    "capacity": 18,
    "openDays": [
      "平日",
      "土曜日",
      "祝日"
    ],
    "openDaysNote": ""
  },
  {
    "id": "4590500213",
    "name": "デイサービス幸ちゃんの家　りんどう",
    "kana": "デイサービスユキチャンノイエ　リンドウ",
    "address": "宮崎県小林市野尻町東麓2658-86",
    "lat": 31.9573058,
    "lng": 131.0830656,
    "tel": "0984-25-7711",
    "url": "https://yukichannoie.info",
    "pref": "宮崎県",
    "city": "小林市",
    "category": "community_day_service",
    "serviceType": "地域密着型通所介護",
    "capacity": null,
    "openDays": [
      "平日",
      "土曜日",
      "日曜日",
      "祝日"
    ],
    "openDaysNote": ""
  },
  {
    "id": "4570500571",
    "name": "上町デイサービスセンター",
    "kana": "カンマチデイサービスセンター",
    "address": "宮崎県小林市堤２９１６番地５",
    "lat": 31.9838356,
    "lng": 130.9903284,
    "tel": "0984-25-0506",
    "url": "",
    "pref": "宮崎県",
    "city": "小林市",
    "category": "community_day_service",
    "serviceType": "地域密着型通所介護",
    "capacity": 0,
    "openDays": [
      "平日",
      "土曜日",
      "日曜日",
      "祝日"
    ],
    "openDaysNote": ""
  },
  {
    "id": "4571800178",
    "name": "内山デイサービスセンター",
    "kana": "ウチヤマデイサービスセンター",
    "address": "須木内山5203-41",
    "lat": 32.0027754983739,
    "lng": 131.115900882803,
    "tel": "0984-44-3058",
    "url": "http://www.souai-kobayashi.or.jp",
    "pref": "宮崎県",
    "city": "小林市",
    "category": "community_day_service",
    "serviceType": "地域密着型通所介護",
    "capacity": null,
    "openDays": [
      "平日",
      "祝日"
    ],
    "openDaysNote": ""
  },
  {
    "id": "4570500902",
    "name": "野尻湖の里デイサービス",
    "kana": "ノジリコノサトデイサービス",
    "address": "小林市野尻町三ケ野山２１８０－１１",
    "lat": 31.9788203,
    "lng": 131.0526824,
    "tel": "０９８４－２５－７０４０",
    "url": "",
    "pref": "宮崎県",
    "city": "小林市",
    "category": "community_day_service",
    "serviceType": "地域密着型通所介護",
    "capacity": 0,
    "openDays": [
      "平日",
      "土曜日",
      "祝日"
    ],
    "openDaysNote": ""
  },
  {
    "id": "4572001008",
    "name": "デイサービス　おとなり",
    "kana": "デイサービス　オトナリ",
    "address": "児湯郡新富町大字新田4638番地１",
    "lat": 32.0639173,
    "lng": 131.4515123,
    "tel": "（０９８３）３３－４２８８",
    "url": "",
    "pref": "宮崎県",
    "city": "新富町",
    "category": "community_day_service",
    "serviceType": "地域密着型通所介護",
    "capacity": 0,
    "openDays": [
      "平日",
      "土曜日",
      "祝日"
    ],
    "openDaysNote": "なし"
  },
  {
    "id": "4572001198",
    "name": "デイサービスみんなの家",
    "kana": "デイサービスミンナノイエ",
    "address": "児湯郡新富町大字新田8515-1",
    "lat": 32.0749966,
    "lng": 131.4376157,
    "tel": "0983-33-4655",
    "url": "https://miyazaki-minna.wixsite.com/miyazaki-minna",
    "pref": "宮崎県",
    "city": "新富町",
    "category": "community_day_service",
    "serviceType": "地域密着型通所介護",
    "capacity": 10,
    "openDays": [
      "平日",
      "土曜日",
      "祝日"
    ],
    "openDaysNote": "定休日以外の祝日は営業します。"
  },
  {
    "id": "4572001545",
    "name": "花と緑のデイサービス",
    "kana": "ハナトミドリノデイサービス",
    "address": "宮崎県児湯郡新富町大字上富田3349-1",
    "lat": 32.0616687,
    "lng": 131.4858844,
    "tel": "0983-32-5011",
    "url": "http://hana-midori.jp/genki-info.html",
    "pref": "宮崎県",
    "city": "新富町",
    "category": "community_day_service",
    "serviceType": "地域密着型通所介護",
    "capacity": null,
    "openDays": [
      "平日",
      "土曜日",
      "祝日"
    ],
    "openDaysNote": "12月31日～1月3日は休業"
  },
  {
    "id": "4592000204",
    "name": "歩きと動きの専門デイサービス　ガジュマル",
    "kana": "アルキトウゴキノセンモンデイサービス　ガジュマル",
    "address": "宮崎県児湯郡新富町大字新田8708",
    "lat": 32.074857734364,
    "lng": 131.435984336281,
    "tel": "（0983）35-3205",
    "url": "https://gajumaru.kuttsuku.co.jp",
    "pref": "宮崎県",
    "city": "新富町",
    "category": "community_day_service",
    "serviceType": "地域密着型通所介護",
    "capacity": 15,
    "openDays": [
      "平日"
    ],
    "openDaysNote": "なし"
  },
  {
    "id": "4570800658",
    "name": "デイサービス　クアアルク",
    "kana": "デイサービス　クアアルク",
    "address": "西都市大字妻1647番地",
    "lat": 32.1016009115276,
    "lng": 131.398881374869,
    "tel": "0983-41-0455",
    "url": "",
    "pref": "宮崎県",
    "city": "西都市",
    "category": "community_day_service",
    "serviceType": "地域密着型通所介護",
    "capacity": 0,
    "openDays": [
      "平日"
    ],
    "openDaysNote": "合同社内研修会（年1度開催）あり"
  },
  {
    "id": "4570800617",
    "name": "デイサービス　ここ笑み",
    "kana": "デイサービス　ココエミ",
    "address": "宮崎県西都市旭２丁目４１番地",
    "lat": 32.1082766773952,
    "lng": 131.411766391565,
    "tel": "（０９８３）３５-３２５５",
    "url": "",
    "pref": "宮崎県",
    "city": "西都市",
    "category": "community_day_service",
    "serviceType": "地域密着型通所介護",
    "capacity": 18,
    "openDays": [
      "平日",
      "土曜日",
      "祝日"
    ],
    "openDaysNote": ""
  },
  {
    "id": "4570800583",
    "name": "デイサービス　のどか",
    "kana": "デイサービス　ノドカ",
    "address": "宮崎県西都市大字南方3309番地4",
    "lat": 32.1314545,
    "lng": 131.3944105,
    "tel": "0983-35-4222",
    "url": "",
    "pref": "宮崎県",
    "city": "西都市",
    "category": "community_day_service",
    "serviceType": "地域密着型通所介護",
    "capacity": 0,
    "openDays": [
      "平日",
      "土曜日",
      "祝日"
    ],
    "openDaysNote": ""
  },
  {
    "id": "4570800500",
    "name": "デイサービス　ひなた",
    "kana": "デイサービス　ヒナタ",
    "address": "宮崎県西都市大字下三財1548番地",
    "lat": 32.0780565,
    "lng": 131.363426,
    "tel": "0983-44-4220",
    "url": "",
    "pref": "宮崎県",
    "city": "西都市",
    "category": "community_day_service",
    "serviceType": "地域密着型通所介護",
    "capacity": 0,
    "openDays": [
      "平日",
      "土曜日",
      "祝日"
    ],
    "openDaysNote": "特別な需要のある場合は上記の限りではない。"
  },
  {
    "id": "4570800625",
    "name": "デイサービスセンターまごころ",
    "kana": "デイサービスセンターマゴコロ",
    "address": "宮崎県西都市大字鹿野田6138番地1",
    "lat": 32.0581706019573,
    "lng": 131.378145241791,
    "tel": "0983-41-2007",
    "url": "",
    "pref": "宮崎県",
    "city": "西都市",
    "category": "community_day_service",
    "serviceType": "地域密着型通所介護",
    "capacity": 18,
    "openDays": [
      "平日",
      "土曜日",
      "日曜日",
      "祝日"
    ],
    "openDaysNote": ""
  },
  {
    "id": "4570800732",
    "name": "デイサービス稲穂",
    "kana": "デイサービスイナホ",
    "address": "宮崎県西都市大字南方3372-9",
    "lat": 32.1282846501022,
    "lng": 131.395911721022,
    "tel": "0983-32-1313",
    "url": "https://www.ds-inaho.com",
    "pref": "宮崎県",
    "city": "西都市",
    "category": "community_day_service",
    "serviceType": "地域密着型通所介護",
    "capacity": 90,
    "openDays": [
      "平日",
      "土曜日",
      "祝日"
    ],
    "openDaysNote": ""
  },
  {
    "id": "4570800310",
    "name": "医療法人隆徳会あさひデイサービスセンター",
    "kana": "イリョウホウジンリュウトクカイアサヒデイサービスセンター",
    "address": "宮崎県西都市旭１丁目５５番地",
    "lat": 32.1107397,
    "lng": 131.4099685,
    "tel": "0983-41-1136",
    "url": "http://www.ryutoku.or.jp",
    "pref": "宮崎県",
    "city": "西都市",
    "category": "community_day_service",
    "serviceType": "地域密着型通所介護",
    "capacity": 15,
    "openDays": [
      "平日",
      "土曜日"
    ],
    "openDaysNote": ""
  },
  {
    "id": "4570800039",
    "name": "社会福祉法人西都市社会福祉協議会",
    "kana": "シャカイフクシホウジンサイトシシャカイフクシキョウギカイ",
    "address": "宮崎県西都市大字清水1035番地1",
    "lat": 32.1012627,
    "lng": 131.3793486,
    "tel": "0983-42-4795",
    "url": "https://saito-shakyo.jp/",
    "pref": "宮崎県",
    "city": "西都市",
    "category": "community_day_service",
    "serviceType": "地域密着型通所介護",
    "capacity": null,
    "openDays": [
      "平日",
      "土曜日",
      "祝日"
    ],
    "openDaysNote": ""
  },
  {
    "id": "4570800260",
    "name": "上山医院通所介護",
    "kana": "ウエヤマイインツウショカイゴ",
    "address": "妻町2-89",
    "lat": 32.1098999696561,
    "lng": 131.40843383163,
    "tel": "0983-42-5957",
    "url": "",
    "pref": "宮崎県",
    "city": "西都市",
    "category": "community_day_service",
    "serviceType": "地域密着型通所介護",
    "capacity": 18,
    "openDays": [
      "平日",
      "土曜日"
    ],
    "openDaysNote": ""
  },
  {
    "id": "4570800781",
    "name": "東米良仁の里デイサービスセンター",
    "kana": "ヒガシメラジンノサトデイサービスセンター",
    "address": "宮崎県西都市大字上揚2番地2",
    "lat": 32.2723533,
    "lng": 131.2476853,
    "tel": "0983-46-2852",
    "url": "http://fukushi-zenjinkai.jp",
    "pref": "宮崎県",
    "city": "西都市",
    "category": "community_day_service",
    "serviceType": "地域密着型通所介護",
    "capacity": null,
    "openDays": [
      "平日",
      "祝日"
    ],
    "openDaysNote": ""
  },
  {
    "id": "4572000406",
    "name": "天包荘デイサービス",
    "kana": "テンポウソウデイサービス",
    "address": "宮崎県児湯郡西米良村大字竹原432",
    "lat": 32.2413817,
    "lng": 131.1520161,
    "tel": "983361022",
    "url": "",
    "pref": "宮崎県",
    "city": "西米良村",
    "category": "community_day_service",
    "serviceType": "地域密着型通所介護",
    "capacity": 0,
    "openDays": [
      "平日",
      "土曜日",
      "祝日"
    ],
    "openDaysNote": "村の行事や台風や雪等での臨時閉所があります。"
  },
  {
    "id": "4572001602",
    "name": "デイサービスセンターはぴねす",
    "kana": "デイサービスセンターハピネス",
    "address": "宮崎県児湯郡川南町大字川南27486番地１",
    "lat": 32.1827199,
    "lng": 131.4857128,
    "tel": "0983－27－2990",
    "url": "",
    "pref": "宮崎県",
    "city": "川南町",
    "category": "community_day_service",
    "serviceType": "地域密着型通所介護",
    "capacity": 18,
    "openDays": [
      "平日",
      "土曜日",
      "祝日"
    ],
    "openDaysNote": ""
  },
  {
    "id": "4572001610",
    "name": "リハビリ特化　サニーデイズ",
    "kana": "リハビリトッカ　サニーデイズ",
    "address": "宮崎県児湯郡川南町大字川南13247番地6",
    "lat": 32.2105662,
    "lng": 131.51899,
    "tel": "0983-27-7357",
    "url": "",
    "pref": "宮崎県",
    "city": "川南町",
    "category": "community_day_service",
    "serviceType": "地域密着型通所介護",
    "capacity": 100,
    "openDays": [
      "平日"
    ],
    "openDaysNote": "8/13～8/15（改行）12/29～1/3"
  },
  {
    "id": "4570202509",
    "name": "いきいきわくわく健康増進クラブ",
    "kana": "イキイキワクワクケンコウゾウシンクラブ",
    "address": "宮崎県都城市志比田町４９３０番地３",
    "lat": 31.7340192,
    "lng": 131.0513135,
    "tel": "０９８６－２１－４３０８",
    "url": "",
    "pref": "宮崎県",
    "city": "都城市",
    "category": "community_day_service",
    "serviceType": "地域密着型通所介護",
    "capacity": 0,
    "openDays": [
      "平日",
      "土曜日",
      "日曜日",
      "祝日"
    ],
    "openDaysNote": ""
  },
  {
    "id": "4571700675",
    "name": "くつろぎ",
    "kana": "クツロギ",
    "address": "宮崎県都城市立野町3655-2",
    "lat": 31.7294845477002,
    "lng": 131.103617488361,
    "tel": "0986-26-7777",
    "url": "http://www.fukushitateno.jp",
    "pref": "宮崎県",
    "city": "都城市",
    "category": "community_day_service",
    "serviceType": "地域密着型通所介護",
    "capacity": 0,
    "openDays": [
      "平日",
      "土曜日",
      "祝日"
    ],
    "openDaysNote": "ただし、希望が多く管理者が必要と認めた場合は営業出来ます。"
  },
  {
    "id": "4590200384",
    "name": "コンパスウォーク高城",
    "kana": "コンパスウォークタカジョウ",
    "address": "宮崎県都城市高城町穂満坊3077-1",
    "lat": 31.8089097,
    "lng": 131.1264718,
    "tel": "0986-36-6227",
    "url": "",
    "pref": "宮崎県",
    "city": "都城市",
    "category": "community_day_service",
    "serviceType": "地域密着型通所介護",
    "capacity": null,
    "openDays": [
      "平日",
      "祝日"
    ],
    "openDaysNote": "年末年始12/31～1/3までは事業所の定めた休み"
  },
  {
    "id": "4570202814",
    "name": "さくら咲くデイサービスセンター",
    "kana": "サクラサクデイサービスセンター",
    "address": "宮崎県都城市高城町桜木８５７番地3",
    "lat": 31.7905384,
    "lng": 131.1210379,
    "tel": "0986-58-2213",
    "url": "",
    "pref": "宮崎県",
    "city": "都城市",
    "category": "community_day_service",
    "serviceType": "地域密着型通所介護",
    "capacity": 0,
    "openDays": [
      "平日",
      "土曜日",
      "祝日"
    ],
    "openDaysNote": "台風を含む自然災害が発生し、運営が困難な時には、営業中中止にさせていただく場合があります。"
  },
  {
    "id": "4590200202",
    "name": "ステラ☆リハステーション",
    "kana": "ステラリハステーション",
    "address": "宮崎県都城市早水町4503-142",
    "lat": 31.7376867,
    "lng": 131.0907858,
    "tel": "0986-77-5691",
    "url": "",
    "pref": "宮崎県",
    "city": "都城市",
    "category": "community_day_service",
    "serviceType": "地域密着型通所介護",
    "capacity": 0,
    "openDays": [
      "平日",
      "土曜日",
      "祝日"
    ],
    "openDaysNote": "月～土の祝日は営業してます。"
  },
  {
    "id": "4570203440",
    "name": "デイサービス　あい",
    "kana": "デイサービス　アイ",
    "address": "宮崎県都城市早水町２５号９番1",
    "lat": 31.73434,
    "lng": 131.0972022,
    "tel": "0986-36-5175",
    "url": "",
    "pref": "宮崎県",
    "city": "都城市",
    "category": "community_day_service",
    "serviceType": "地域密着型通所介護",
    "capacity": null,
    "openDays": [
      "平日",
      "祝日"
    ],
    "openDaysNote": ""
  },
  {
    "id": "4590200376",
    "name": "でいさーびす　かなで",
    "kana": "デイサービス　カナデ",
    "address": "宮崎県都城市太郎坊町2065番地2",
    "lat": 31.7816461,
    "lng": 131.0955162,
    "tel": "0986-57-6220",
    "url": "bloominglabinc.0901@gmail.com",
    "pref": "宮崎県",
    "city": "都城市",
    "category": "community_day_service",
    "serviceType": "地域密着型通所介護",
    "capacity": 15,
    "openDays": [
      "平日",
      "土曜日"
    ],
    "openDaysNote": "祝日のある週は土曜日に営業しております。"
  },
  {
    "id": "4570203259",
    "name": "デイサービス　サルビア",
    "kana": "デイサービス　サルビア",
    "address": "宮崎県都城市太郎坊町２００１番地１",
    "lat": 31.7736752,
    "lng": 131.0921846,
    "tel": "０９８６－３８－５３２４",
    "url": "",
    "pref": "宮崎県",
    "city": "都城市",
    "category": "community_day_service",
    "serviceType": "地域密着型通所介護",
    "capacity": 13,
    "openDays": [
      "平日",
      "土曜日",
      "祝日"
    ],
    "openDaysNote": ""
  },
  {
    "id": "4570203556",
    "name": "デイサービス　すずの音",
    "kana": "デイサービス　スズノネ",
    "address": "宮崎県都城市都原町24番地8",
    "lat": 31.7383518,
    "lng": 131.0395259,
    "tel": "0986-36-7160",
    "url": "",
    "pref": "宮崎県",
    "city": "都城市",
    "category": "community_day_service",
    "serviceType": "地域密着型通所介護",
    "capacity": null,
    "openDays": [
      "平日",
      "土曜日",
      "祝日"
    ],
    "openDaysNote": ""
  },
  {
    "id": "4570203648",
    "name": "デイサービス　ひなた",
    "kana": "デイサービス　ヒナタ",
    "address": "志比田町４５３６番地",
    "lat": 31.7414602,
    "lng": 131.0520717,
    "tel": "0986-23-3346",
    "url": "http://www.hidamarinosato.net/",
    "pref": "宮崎県",
    "city": "都城市",
    "category": "community_day_service",
    "serviceType": "地域密着型通所介護",
    "capacity": 18,
    "openDays": [
      "平日",
      "土曜日",
      "祝日"
    ],
    "openDaysNote": ""
  },
  {
    "id": "4570203580",
    "name": "デイサービス　ひなたば",
    "kana": "デイサービス　ヒナタバ",
    "address": "宮崎県都城市高崎町大牟田1999-22デイサービスひなたば デイサービスひなたば",
    "lat": 31.8648033752981,
    "lng": 131.075280209262,
    "tel": "0986-45-8228",
    "url": "",
    "pref": "宮崎県",
    "city": "都城市",
    "category": "community_day_service",
    "serviceType": "地域密着型通所介護",
    "capacity": 9,
    "openDays": [
      "平日",
      "土曜日",
      "祝日"
    ],
    "openDaysNote": "利用者様の1週間の習慣を維持し、心身ともにお健やかに過ごしていただけるように支援いたします。"
  },
  {
    "id": "4570204612",
    "name": "デイサービス　ゆきひら",
    "kana": "デイサービス　ユキヒラ",
    "address": "宮崎県都城市北原町12-14",
    "lat": 31.7329347,
    "lng": 131.0761554,
    "tel": "0986-57-1156",
    "url": "",
    "pref": "宮崎県",
    "city": "都城市",
    "category": "community_day_service",
    "serviceType": "地域密着型通所介護",
    "capacity": 0,
    "openDays": [
      "平日"
    ],
    "openDaysNote": ""
  },
  {
    "id": "4570203200",
    "name": "デイサービス　リハ処　匠",
    "kana": "デイサービス　リハドコロ　タクミ",
    "address": "宮崎県都城市吉尾町6215番地",
    "lat": 31.7587239327144,
    "lng": 131.083979020238,
    "tel": "986364544",
    "url": "http://kotohira.miyakonojo.com/",
    "pref": "宮崎県",
    "city": "都城市",
    "category": "community_day_service",
    "serviceType": "地域密着型通所介護",
    "capacity": 0,
    "openDays": [
      "平日",
      "祝日"
    ],
    "openDaysNote": "天候や災害状況等により営業を休止する場合あり"
  },
  {
    "id": "4570203309",
    "name": "デイサービス　暖かい風",
    "kana": "デイサービス　アタタカイカゼ",
    "address": "宮崎県都城市年見町　17-4-3",
    "lat": 31.7323232,
    "lng": 131.086214,
    "tel": "（0986）77-4617",
    "url": "",
    "pref": "宮崎県",
    "city": "都城市",
    "category": "community_day_service",
    "serviceType": "地域密着型通所介護",
    "capacity": 18,
    "openDays": [
      "平日"
    ],
    "openDaysNote": "12月31日から1月3日までは休業"
  },
  {
    "id": "4570202087",
    "name": "デイサービスＣＡＮ",
    "kana": "デイサービスキヤン",
    "address": "宮崎県都城市南横市町1989番地5",
    "lat": 31.7422258724509,
    "lng": 131.026547736538,
    "tel": "0986-77-2202",
    "url": "",
    "pref": "宮崎県",
    "city": "都城市",
    "category": "community_day_service",
    "serviceType": "地域密着型通所介護",
    "capacity": 12,
    "openDays": [
      "平日",
      "土曜日",
      "祝日"
    ],
    "openDaysNote": ""
  },
  {
    "id": "4570202756",
    "name": "デイサービスあおい羽根",
    "kana": "デイサービスアオイハネ",
    "address": "宮崎県都城市横市町77-2",
    "lat": 31.7498032,
    "lng": 131.0263689,
    "tel": "986772481",
    "url": "",
    "pref": "宮崎県",
    "city": "都城市",
    "category": "community_day_service",
    "serviceType": "地域密着型通所介護",
    "capacity": 10,
    "openDays": [
      "平日",
      "土曜日",
      "日曜日",
      "祝日"
    ],
    "openDaysNote": ""
  },
  {
    "id": "4570203820",
    "name": "デイサービスすずらん",
    "kana": "デイサービススズラン",
    "address": "宮崎県都城市下川東4丁目2-2-1",
    "lat": 31.7469412146145,
    "lng": 131.067284781615,
    "tel": "0986-80-6511",
    "url": "",
    "pref": "宮崎県",
    "city": "都城市",
    "category": "community_day_service",
    "serviceType": "地域密着型通所介護",
    "capacity": 0,
    "openDays": [
      "平日",
      "土曜日",
      "祝日"
    ],
    "openDaysNote": ""
  },
  {
    "id": "4570202590",
    "name": "デイサービスセンター・クレア",
    "kana": "デイサービスセンター・クレア",
    "address": "宮崎県都城市平江町7街区2号",
    "lat": 31.733970744279,
    "lng": 131.065945029259,
    "tel": "0986-36-6958",
    "url": "http://www.Globallight.co.jp",
    "pref": "宮崎県",
    "city": "都城市",
    "category": "community_day_service",
    "serviceType": "地域密着型通所介護",
    "capacity": 18,
    "openDays": [
      "平日",
      "土曜日"
    ],
    "openDaysNote": "上記以外で8月14・15日、12月29日から1月3日までは休みとする。"
  },
  {
    "id": "4570203549",
    "name": "デイサービスセンターあさひ",
    "kana": "デイサービスセンターアサヒ",
    "address": "宮崎県都城市太郎坊町1905-2",
    "lat": 31.779608,
    "lng": 131.0930149,
    "tel": "0986-36-8500",
    "url": "http://asahi.pinoko.jp/index.html",
    "pref": "宮崎県",
    "city": "都城市",
    "category": "community_day_service",
    "serviceType": "地域密着型通所介護",
    "capacity": 0,
    "openDays": [
      "平日",
      "日曜日",
      "祝日"
    ],
    "openDaysNote": "12/31.1/1.2.3はお休み（改行）お盆は通常通り"
  },
  {
    "id": "4590200160",
    "name": "デイサービスセンターきぼう",
    "kana": "デイサービスセンターキボウ",
    "address": "宮崎県都城市山田町中霧島３９４０番地１",
    "lat": 31.7945721,
    "lng": 131.028484,
    "tel": "０９８６－７７－５８９６",
    "url": "",
    "pref": "宮崎県",
    "city": "都城市",
    "category": "community_day_service",
    "serviceType": "地域密着型通所介護",
    "capacity": 0,
    "openDays": [
      "平日",
      "祝日"
    ],
    "openDaysNote": "年末年始休暇（12/30～1/3）、平日の祝日は営業を行う。"
  },
  {
    "id": "4590200400",
    "name": "デイサービスセンターくつろぎ",
    "kana": "デイサービスセンタークツロギ",
    "address": "宮崎県都城市太郎坊町1905-2",
    "lat": 31.7796001,
    "lng": 131.0930162,
    "tel": "0986-77-1552",
    "url": "",
    "pref": "宮崎県",
    "city": "都城市",
    "category": "community_day_service",
    "serviceType": "地域密着型通所介護",
    "capacity": 9,
    "openDays": [
      "平日",
      "土曜日",
      "祝日"
    ],
    "openDaysNote": ""
  },
  {
    "id": "4570202228",
    "name": "デイサービスセンターはづき",
    "kana": "デイサービスセンターハヅキ",
    "address": "宮崎県都城市下長飯町1751番地36",
    "lat": 31.6952519327729,
    "lng": 131.063112969528,
    "tel": "0986-39-6682",
    "url": "",
    "pref": "宮崎県",
    "city": "都城市",
    "category": "community_day_service",
    "serviceType": "地域密着型通所介護",
    "capacity": 0,
    "openDays": [
      "平日",
      "土曜日",
      "祝日"
    ],
    "openDaysNote": ""
  },
  {
    "id": "4570201477",
    "name": "デイサービスセンターわかば",
    "kana": "デイサービスセンターワカバ",
    "address": "宮崎県都城市上長飯町2683番地３",
    "lat": 31.7159479232009,
    "lng": 131.087446314681,
    "tel": "0986-21-1700",
    "url": "http://www.oyd-welfare.jp",
    "pref": "宮崎県",
    "city": "都城市",
    "category": "community_day_service",
    "serviceType": "地域密着型通所介護",
    "capacity": 18,
    "openDays": [
      "平日",
      "祝日"
    ],
    "openDaysNote": ""
  },
  {
    "id": "4570203531",
    "name": "デイサービスセンターわらいの村",
    "kana": "デイサービスセンターワライノムラ",
    "address": "宮崎県都城市豊満町1440番地1",
    "lat": 31.69690384059,
    "lng": 131.101717336771,
    "tel": "（0986）77-6659",
    "url": "https://www.warainomura.com/",
    "pref": "宮崎県",
    "city": "都城市",
    "category": "community_day_service",
    "serviceType": "地域密着型通所介護",
    "capacity": 15,
    "openDays": [
      "平日",
      "土曜日",
      "祝日"
    ],
    "openDaysNote": "月曜日～土曜日（但し、年末年始　12月30日～1月3日を除く）"
  },
  {
    "id": "4570203085",
    "name": "デイサービスセンター円卓",
    "kana": "デイサービスセンターエンタク",
    "address": "宮崎県都城市野々美谷町3505-3",
    "lat": 31.7964790203234,
    "lng": 131.087230775463,
    "tel": "0986-36-2302",
    "url": "",
    "pref": "宮崎県",
    "city": "都城市",
    "category": "community_day_service",
    "serviceType": "地域密着型通所介護",
    "capacity": 8,
    "openDays": [
      "平日",
      "祝日"
    ],
    "openDaysNote": ""
  },
  {
    "id": "4570203937",
    "name": "デイサービスセンター福さんの家",
    "kana": "デイサービスセンターフクサンノイエ",
    "address": "宮崎県都城市郡元町3310番地1",
    "lat": 31.7406864,
    "lng": 131.0895941,
    "tel": "0986-36-4129",
    "url": "http://www.maria-f.jp",
    "pref": "宮崎県",
    "city": "都城市",
    "category": "community_day_service",
    "serviceType": "地域密着型通所介護",
    "capacity": 16,
    "openDays": [
      "平日",
      "土曜日",
      "祝日"
    ],
    "openDaysNote": ""
  },
  {
    "id": "4570201865",
    "name": "デイサービスセンター絆",
    "kana": "デイサービスセンターキズナ",
    "address": "宮崎県都城市平塚町９９６４番地５",
    "lat": 31.7157262,
    "lng": 131.0214815,
    "tel": "0986-21-1370",
    "url": "",
    "pref": "宮崎県",
    "city": "都城市",
    "category": "community_day_service",
    "serviceType": "地域密着型通所介護",
    "capacity": 9,
    "openDays": [
      "平日",
      "土曜日",
      "祝日"
    ],
    "openDaysNote": ""
  },
  {
    "id": "4570203846",
    "name": "デイサービスセンター絆愛",
    "kana": "デイサービスセンターリアン",
    "address": "宮崎県都城市鷹尾３丁目１２街区２２号",
    "lat": 31.7230679295614,
    "lng": 131.043248615991,
    "tel": "0986-77-4491",
    "url": "",
    "pref": "宮崎県",
    "city": "都城市",
    "category": "community_day_service",
    "serviceType": "地域密着型通所介護",
    "capacity": 0,
    "openDays": [
      "平日",
      "土曜日",
      "祝日"
    ],
    "openDaysNote": ""
  },
  {
    "id": "4590200319",
    "name": "デイサービスホーム　ゆいまある",
    "kana": "デイサービスホーム　ユイマアル",
    "address": "一万城町１０６号11番1",
    "lat": 31.7188052,
    "lng": 131.0943197,
    "tel": "0986-70-0855",
    "url": "",
    "pref": "宮崎県",
    "city": "都城市",
    "category": "community_day_service",
    "serviceType": "地域密着型通所介護",
    "capacity": 0,
    "openDays": [
      "平日"
    ],
    "openDaysNote": ""
  },
  {
    "id": "4570202467",
    "name": "デイサービスリオン",
    "kana": "デイサービスリオン",
    "address": "宮崎県都城市鷹尾2丁目3-13リッツハウスTKO1F リッツハウスTKO1F",
    "lat": 31.7210534502485,
    "lng": 131.043531571128,
    "tel": "0986-36-6701",
    "url": "",
    "pref": "宮崎県",
    "city": "都城市",
    "category": "community_day_service",
    "serviceType": "地域密着型通所介護",
    "capacity": 0,
    "openDays": [
      "平日"
    ],
    "openDaysNote": "月曜日から木曜日までは8時30分から12時30分まで金曜日は8時30分から14時30分まで。"
  },
  {
    "id": "4570202632",
    "name": "デイサービスリオン　安久事業所",
    "kana": "デイサービスリオン　ヤスヒサジギョウショ",
    "address": "宮崎県都城市安久町4657番地4",
    "lat": 31.6845081,
    "lng": 131.0856827,
    "tel": "0986-47-4305",
    "url": "",
    "pref": "宮崎県",
    "city": "都城市",
    "category": "community_day_service",
    "serviceType": "地域密着型通所介護",
    "capacity": 0,
    "openDays": [
      "平日",
      "土曜日",
      "日曜日",
      "祝日"
    ],
    "openDaysNote": ""
  },
  {
    "id": "4590200244",
    "name": "デイサービス庄内の杜",
    "kana": "デイサービスショウナイノモリ",
    "address": "宮崎県都城市庄内町8610番地",
    "lat": 31.7695602750846,
    "lng": 131.02097852632,
    "tel": "0986-36-5751",
    "url": "",
    "pref": "宮崎県",
    "city": "都城市",
    "category": "community_day_service",
    "serviceType": "地域密着型通所介護",
    "capacity": 0,
    "openDays": [
      "平日",
      "土曜日",
      "祝日"
    ],
    "openDaysNote": ""
  },
  {
    "id": "4570203721",
    "name": "デイサービス雄大",
    "kana": "デイサービスユウダイ",
    "address": "宮崎県都城市志比田町4816番地1",
    "lat": 31.7563757,
    "lng": 131.0567767,
    "tel": "0986-36-6314",
    "url": "",
    "pref": "宮崎県",
    "city": "都城市",
    "category": "community_day_service",
    "serviceType": "地域密着型通所介護",
    "capacity": 3,
    "openDays": [
      "平日",
      "祝日"
    ],
    "openDaysNote": "ゴールデンウィーク（5/3～5/6　振替休日を含む）、お盆（8/13～8/15　振替休日を含む）、年末年始（12/29～1/3　振替休日を含む）はお休みを頂いています。"
  },
  {
    "id": "4570203481",
    "name": "デイサービス和",
    "kana": "デイサービスワ",
    "address": "宮崎県都城市庄内町12547-1民家 民家",
    "lat": 31.7759589,
    "lng": 131.0200213,
    "tel": "0986-77-8027",
    "url": "",
    "pref": "宮崎県",
    "city": "都城市",
    "category": "community_day_service",
    "serviceType": "地域密着型通所介護",
    "capacity": 10,
    "openDays": [
      "平日",
      "土曜日",
      "祝日"
    ],
    "openDaysNote": "延長時間１５：３０～１７：００の１時間３０分"
  },
  {
    "id": "4590200269",
    "name": "デイストーリー",
    "kana": "デイストーリー",
    "address": "宮崎県都城市吉尾町１９５８番2",
    "lat": 31.758460776242,
    "lng": 131.075526302997,
    "tel": "986514165",
    "url": "",
    "pref": "宮崎県",
    "city": "都城市",
    "category": "community_day_service",
    "serviceType": "地域密着型通所介護",
    "capacity": 18,
    "openDays": [
      "平日",
      "土曜日",
      "祝日"
    ],
    "openDaysNote": "12月31日と1月1日を休日とする。"
  },
  {
    "id": "4570203077",
    "name": "ナーシングデイ志比田",
    "kana": "ナーシングデイシビタ",
    "address": "宮崎県都城市志比田町5264-5",
    "lat": 31.7387593881205,
    "lng": 131.056876914819,
    "tel": "0986.36.7702",
    "url": "boobookayokiki@yahoo.co.jp",
    "pref": "宮崎県",
    "city": "都城市",
    "category": "community_day_service",
    "serviceType": "地域密着型通所介護",
    "capacity": 0,
    "openDays": [
      "平日",
      "土曜日",
      "祝日"
    ],
    "openDaysNote": ""
  },
  {
    "id": "4570202103",
    "name": "にこにこデイサービス",
    "kana": "ニコニコデイサービス",
    "address": "宮崎県都城市南鷹尾８街区１２の３号にこにこデイサービス にこにこデイサービス",
    "lat": 31.7166857014952,
    "lng": 131.043193312125,
    "tel": "0986-77-2513",
    "url": "",
    "pref": "宮崎県",
    "city": "都城市",
    "category": "community_day_service",
    "serviceType": "地域密着型通所介護",
    "capacity": 0,
    "openDays": [
      "平日"
    ],
    "openDaysNote": ""
  },
  {
    "id": "4590200301",
    "name": "ライフデイサービス　香禅寺",
    "kana": "ライフデイサービス　コウゼンジ",
    "address": "宮崎県都城市高城町石山3236番地13",
    "lat": 31.842801,
    "lng": 131.1290583,
    "tel": "0986-57-7707",
    "url": "",
    "pref": "宮崎県",
    "city": "都城市",
    "category": "community_day_service",
    "serviceType": "地域密着型通所介護",
    "capacity": 0,
    "openDays": [
      "平日",
      "祝日"
    ],
    "openDaysNote": ""
  },
  {
    "id": "4570204661",
    "name": "ライフデイサービス丸谷",
    "kana": "ライスデイサービス　マルタニ",
    "address": "宮崎県都城市丸谷町６５３－２",
    "lat": 31.8056291,
    "lng": 131.0584759,
    "tel": "0986-77-8266",
    "url": "",
    "pref": "宮崎県",
    "city": "都城市",
    "category": "community_day_service",
    "serviceType": "地域密着型通所介護",
    "capacity": 0,
    "openDays": [
      "平日",
      "祝日"
    ],
    "openDaysNote": ""
  },
  {
    "id": "4570202491",
    "name": "リハケアセンター上長飯",
    "kana": "リハケアセンターカミナガエ",
    "address": "都城市上長飯町３８号１番地",
    "lat": 31.7182887030299,
    "lng": 131.089867876058,
    "tel": "0986-36-4860",
    "url": "http://rehacare-will.jp",
    "pref": "宮崎県",
    "city": "都城市",
    "category": "community_day_service",
    "serviceType": "地域密着型通所介護",
    "capacity": 18,
    "openDays": [
      "平日",
      "土曜日",
      "祝日"
    ],
    "openDaysNote": "祝日は営業致します。年末年始１２月３１日～１月３日は休業"
  },
  {
    "id": "4590200285",
    "name": "リハビリデイサービス希望",
    "kana": "リハビリデイサービスキボウ",
    "address": "宮崎県都城市一万城町27-19",
    "lat": 31.7208984,
    "lng": 131.0926636,
    "tel": "0986-46-4070",
    "url": "https://day.riha-kibou.com/",
    "pref": "宮崎県",
    "city": "都城市",
    "category": "community_day_service",
    "serviceType": "地域密着型通所介護",
    "capacity": 36,
    "openDays": [
      "平日"
    ],
    "openDaysNote": ""
  },
  {
    "id": "4590200343",
    "name": "リハビリデイサービス暮らシャキッ2号館",
    "kana": "リハビリデイサービスニゴウカン",
    "address": "宮崎県都城市上水流町1182番地8-1棟",
    "lat": 31.8084692,
    "lng": 131.0986009,
    "tel": "0986-36-6643",
    "url": "",
    "pref": "宮崎県",
    "city": "都城市",
    "category": "community_day_service",
    "serviceType": "地域密着型通所介護",
    "capacity": 15,
    "openDays": [
      "平日",
      "祝日"
    ],
    "openDaysNote": "年末年始以外の祝祭日は通常通り営業しています。"
  },
  {
    "id": "4590200350",
    "name": "リハビリ特化型デイサービス　enjoylife",
    "kana": "リハビリトッカガタディサービス",
    "address": "宮崎県都城市都原町7614-8",
    "lat": 31.737938,
    "lng": 131.0396982,
    "tel": "0986-57-7375",
    "url": "",
    "pref": "宮崎県",
    "city": "都城市",
    "category": "community_day_service",
    "serviceType": "地域密着型通所介護",
    "capacity": 80,
    "openDays": [
      "平日",
      "祝日"
    ],
    "openDaysNote": ""
  },
  {
    "id": "4590200277",
    "name": "自立支援運動型デイサービスオレンジNEO",
    "kana": "ジリツシエンウンドウガタデイサービスオレンジネオ",
    "address": "上川東1丁目21号16番地",
    "lat": 31.7389109,
    "lng": 131.0740497,
    "tel": "0986⁻77⁻9927",
    "url": "orenji.neo@btvm.ne.jp",
    "pref": "宮崎県",
    "city": "都城市",
    "category": "community_day_service",
    "serviceType": "地域密着型通所介護",
    "capacity": 0,
    "openDays": [
      "平日",
      "祝日"
    ],
    "openDaysNote": "夏季休暇・年末年始は除外"
  },
  {
    "id": "4590200186",
    "name": "星空の都デイサービスセンターかみながえ",
    "kana": "ホシゾラノミヤコデイサービスセンターカミナガエ",
    "address": "上長飯町５１１１番地",
    "lat": 31.7163763898046,
    "lng": 131.095295784131,
    "tel": "0986－26－2788",
    "url": "http://www.joryokukai.com/",
    "pref": "宮崎県",
    "city": "都城市",
    "category": "community_day_service",
    "serviceType": "地域密着型通所介護",
    "capacity": null,
    "openDays": [
      "平日",
      "土曜日",
      "祝日"
    ],
    "openDaysNote": ""
  },
  {
    "id": "4570200370",
    "name": "星空の都デイサービスセンターなかごう",
    "kana": "ホシゾラノミヤコデイサービスセンターナカゴウ",
    "address": "宮崎県都城市豊満町2647",
    "lat": 31.7009318,
    "lng": 131.0948534,
    "tel": "0986-39-1111",
    "url": "https://nakago.fujimoto.com/",
    "pref": "宮崎県",
    "city": "都城市",
    "category": "community_day_service",
    "serviceType": "地域密着型通所介護",
    "capacity": null,
    "openDays": [
      "平日",
      "土曜日",
      "日曜日",
      "祝日"
    ],
    "openDaysNote": ""
  },
  {
    "id": "4570203861",
    "name": "通所介護事業所ふくふく",
    "kana": "ツウショカイゴジギョウショ　フクフク",
    "address": "宮崎県都城市大岩田町５３２０番地",
    "lat": 31.7080439,
    "lng": 131.0509977,
    "tel": "0986-77-6007",
    "url": "",
    "pref": "宮崎県",
    "city": "都城市",
    "category": "community_day_service",
    "serviceType": "地域密着型通所介護",
    "capacity": 19,
    "openDays": [
      "平日",
      "祝日"
    ],
    "openDaysNote": ""
  },
  {
    "id": "4590200129",
    "name": "特別養護老人ホーム長遊園２号館デイサービス",
    "kana": "トクベツヨウゴロウジンホームチョウユウエン２ゴウカンデイサービス",
    "address": "宮崎県都城市高野町2900番地",
    "lat": 31.8110923,
    "lng": 130.9572123,
    "tel": "0986-45-5151",
    "url": "https://kanjikai.or.jp",
    "pref": "宮崎県",
    "city": "都城市",
    "category": "community_day_service",
    "serviceType": "地域密着型通所介護",
    "capacity": 18,
    "openDays": [
      "平日",
      "祝日"
    ],
    "openDaysNote": ""
  },
  {
    "id": "4590200210",
    "name": "民家デイサービスななかまど",
    "kana": "ミンカデイサービスナナカマド",
    "address": "宮崎県都城市山田町中霧島３５５３番地１０",
    "lat": 31.7914095,
    "lng": 131.0382016,
    "tel": "0986-77-0206",
    "url": "",
    "pref": "宮崎県",
    "city": "都城市",
    "category": "community_day_service",
    "serviceType": "地域密着型通所介護",
    "capacity": 0,
    "openDays": [
      "平日",
      "土曜日",
      "祝日"
    ],
    "openDaysNote": ""
  },
  {
    "id": "4570201824",
    "name": "霧島荘デイサービスセンター",
    "kana": "キリシマソウデイサービスセンター",
    "address": "宮崎県都城市山之口町花木２３０２－１",
    "lat": 31.7861788,
    "lng": 131.1555739,
    "tel": "0986-57-5313",
    "url": "http://www.m-sj.or.jp/kirishima/",
    "pref": "宮崎県",
    "city": "都城市",
    "category": "community_day_service",
    "serviceType": "地域密着型通所介護",
    "capacity": null,
    "openDays": [
      "平日",
      "土曜日",
      "祝日"
    ],
    "openDaysNote": ""
  },
  {
    "id": "4572000810",
    "name": "すずのねデイサービスセンター",
    "kana": "スズノネデイサービスセンター",
    "address": "宮崎県児湯郡都農町大字川北4707番地7",
    "lat": 32.2505352,
    "lng": 131.5572686,
    "tel": "0983-21-2678",
    "url": "",
    "pref": "宮崎県",
    "city": "都農町",
    "category": "community_day_service",
    "serviceType": "地域密着型通所介護",
    "capacity": 15,
    "openDays": [
      "平日",
      "土曜日",
      "祝日"
    ],
    "openDaysNote": "台風等の自然災害及び感染症予防対策として、事前に利用者様へ連絡し受け入れを中止する事はあります"
  },
  {
    "id": "4570601056",
    "name": "デイサービス　よつ葉",
    "kana": "デイサービス　ヨツバ",
    "address": "宮崎県日向市大字財光寺中ノ原1158番地7",
    "lat": 32.4031190120318,
    "lng": 131.629659984056,
    "tel": "0982-95-7055",
    "url": "ds.yotsuba.com",
    "pref": "宮崎県",
    "city": "日向市",
    "category": "community_day_service",
    "serviceType": "地域密着型通所介護",
    "capacity": 6,
    "openDays": [
      "平日",
      "土曜日",
      "祝日"
    ],
    "openDaysNote": ""
  },
  {
    "id": "4570601155",
    "name": "デイサービスあおぞら",
    "kana": "デイサービスアオゾラ",
    "address": "宮崎県日向市東郷町山陰辛７５３－１",
    "lat": 32.3956154791197,
    "lng": 131.508060633135,
    "tel": "０９８２－５０－７１７７",
    "url": "",
    "pref": "宮崎県",
    "city": "日向市",
    "category": "community_day_service",
    "serviceType": "地域密着型通所介護",
    "capacity": 17,
    "openDays": [
      "平日"
    ],
    "openDaysNote": ""
  },
  {
    "id": "4590600153",
    "name": "デイサービスえん",
    "kana": "デイサービスエン",
    "address": "宮崎県日向市伊勢ヶ浜119番地",
    "lat": 32.4128820994244,
    "lng": 131.649719018109,
    "tel": "0982-57-3282",
    "url": "http://www.haradagr-dp.co.jp/",
    "pref": "宮崎県",
    "city": "日向市",
    "category": "community_day_service",
    "serviceType": "地域密着型通所介護",
    "capacity": 0,
    "openDays": [
      "平日",
      "土曜日",
      "祝日"
    ],
    "openDaysNote": ""
  },
  {
    "id": "4590600112",
    "name": "デイサービスセンター　おくらがはま",
    "kana": "デイサービスセンター　オクラガハマ",
    "address": "財光寺2740-6",
    "lat": 32.3922438759929,
    "lng": 131.627705164418,
    "tel": "0982-57-2227",
    "url": "https://okuragahama.jp/",
    "pref": "宮崎県",
    "city": "日向市",
    "category": "community_day_service",
    "serviceType": "地域密着型通所介護",
    "capacity": 0,
    "openDays": [
      "平日",
      "土曜日"
    ],
    "openDaysNote": ""
  },
  {
    "id": "4570601171",
    "name": "デイサービスセンター　きずな",
    "kana": "デイサービスセンター　キズナ",
    "address": "宮崎県日向市大字財光寺５３１７番地３",
    "lat": 32.4083182678539,
    "lng": 131.623045285844,
    "tel": "０９８２－５４－８９７０",
    "url": "",
    "pref": "宮崎県",
    "city": "日向市",
    "category": "community_day_service",
    "serviceType": "地域密着型通所介護",
    "capacity": 6,
    "openDays": [
      "平日",
      "祝日"
    ],
    "openDaysNote": ""
  },
  {
    "id": "4590600187",
    "name": "デイサービスふくじゅそう",
    "kana": "デイサービスフクジュソウ",
    "address": "大字日知屋14693-1",
    "lat": 32.4511935,
    "lng": 131.6366108,
    "tel": "0982-50-1414",
    "url": "http://www.fukuju-hyuga.com/",
    "pref": "宮崎県",
    "city": "日向市",
    "category": "community_day_service",
    "serviceType": "地域密着型通所介護",
    "capacity": 30,
    "openDays": [
      "平日",
      "祝日"
    ],
    "openDaysNote": "・延長サービス対応いたします。（改行）　・台風等で利用者様や職員の安全が確保できない場合、休業することがあります。"
  },
  {
    "id": "4590600138",
    "name": "デイサービス糸",
    "kana": "デイサービス　イト",
    "address": "宮崎県日向市大字塩見1403番地",
    "lat": 32.4197122,
    "lng": 131.6154299,
    "tel": "0982-57-3655",
    "url": "",
    "pref": "宮崎県",
    "city": "日向市",
    "category": "community_day_service",
    "serviceType": "地域密着型通所介護",
    "capacity": 0,
    "openDays": [
      "平日",
      "土曜日",
      "祝日"
    ],
    "openDaysNote": "12/31～1/2休み"
  },
  {
    "id": "4590600120",
    "name": "デイサービス笑夢",
    "kana": "デイサービスエム",
    "address": "宮崎県日向市比良町２丁目９６番地",
    "lat": 32.413881,
    "lng": 131.6214351,
    "tel": "0982-57-4177",
    "url": "",
    "pref": "宮崎県",
    "city": "日向市",
    "category": "community_day_service",
    "serviceType": "地域密着型通所介護",
    "capacity": 10,
    "openDays": [
      "平日",
      "土曜日",
      "祝日"
    ],
    "openDaysNote": "１２月３１日～１月３日は休業"
  },
  {
    "id": "4570600454",
    "name": "デイサービス心愛",
    "kana": "デイサービスココア",
    "address": "宮崎県日向市亀崎西２丁目１５７番地",
    "lat": 32.4371431,
    "lng": 131.6303697,
    "tel": "0982-55-1331",
    "url": "http://kokoa2004skyhome.jimdo.com/",
    "pref": "宮崎県",
    "city": "日向市",
    "category": "community_day_service",
    "serviceType": "地域密着型通所介護",
    "capacity": 0,
    "openDays": [
      "平日",
      "祝日"
    ],
    "openDaysNote": "なし"
  },
  {
    "id": "4570601304",
    "name": "デイサービス陽春",
    "kana": "デイサービスヒカリ",
    "address": "宮崎県日向市梶木町１丁目５番地２デイサービス陽春 デイサービス陽春",
    "lat": 32.4512681987137,
    "lng": 131.640866581615,
    "tel": "0982-66-5001",
    "url": "http://www.plusone-hyuga.jp",
    "pref": "宮崎県",
    "city": "日向市",
    "category": "community_day_service",
    "serviceType": "地域密着型通所介護",
    "capacity": 18,
    "openDays": [
      "平日",
      "土曜日",
      "祝日"
    ],
    "openDaysNote": ""
  },
  {
    "id": "4570601320",
    "name": "デイサービス凛",
    "kana": "デイサービスリン",
    "address": "宮崎県日向市大字財光寺字中ノ原1164-1",
    "lat": 32.403135,
    "lng": 131.6299377,
    "tel": "0982-66-5201",
    "url": "lovelove55@eco.ocn.ne.jp",
    "pref": "宮崎県",
    "city": "日向市",
    "category": "community_day_service",
    "serviceType": "地域密着型通所介護",
    "capacity": 0,
    "openDays": [
      "平日",
      "土曜日",
      "日曜日",
      "祝日"
    ],
    "openDaysNote": ""
  },
  {
    "id": "4570601205",
    "name": "マイハート・ＫＯＫＯ",
    "kana": "マイハート・ココ",
    "address": "宮崎県日向市大字財光寺字大原2993番地3",
    "lat": 32.402666227311,
    "lng": 131.629329694412,
    "tel": "0982-57-3271",
    "url": "lovelove55.jp",
    "pref": "宮崎県",
    "city": "日向市",
    "category": "community_day_service",
    "serviceType": "地域密着型通所介護",
    "capacity": 0,
    "openDays": [
      "平日",
      "祝日"
    ],
    "openDaysNote": ""
  },
  {
    "id": "4570600462",
    "name": "みほこがうらデイサービス",
    "kana": "ミホコガウラデイサービス",
    "address": "細島91‐1",
    "lat": 32.4216325391264,
    "lng": 131.674812240092,
    "tel": "982535133",
    "url": "https://mihokogaura-dsc.jp",
    "pref": "宮崎県",
    "city": "日向市",
    "category": "community_day_service",
    "serviceType": "地域密着型通所介護",
    "capacity": 16,
    "openDays": [
      "平日",
      "土曜日",
      "日曜日",
      "祝日"
    ],
    "openDaysNote": "台風等の自然災害時は休みます。"
  },
  {
    "id": "4570600900",
    "name": "特定非営利活動法人　日向さつき会",
    "kana": "トクテイ　ヒ　エイリカツドウホウジン　ヒュウガサツキカイ",
    "address": "宮崎県　日向市　浜町１丁目６５番地",
    "lat": 32.4206534,
    "lng": 131.6479968,
    "tel": "0982-95-6068",
    "url": "",
    "pref": "宮崎県",
    "city": "日向市",
    "category": "community_day_service",
    "serviceType": "地域密着型通所介護",
    "capacity": 10,
    "openDays": [
      "平日",
      "土曜日",
      "祝日"
    ],
    "openDaysNote": ""
  },
  {
    "id": "4570601007",
    "name": "宝園",
    "kana": "タカラエン",
    "address": "宮崎県日向市大字富高6202番地64",
    "lat": 32.4415961989889,
    "lng": 131.621580813214,
    "tel": "982501767",
    "url": "",
    "pref": "宮崎県",
    "city": "日向市",
    "category": "community_day_service",
    "serviceType": "地域密着型通所介護",
    "capacity": 18,
    "openDays": [
      "平日",
      "土曜日",
      "祝日"
    ],
    "openDaysNote": "年末年始３日間休日"
  },
  {
    "id": "4570400582",
    "name": "デイサービス　スタイル",
    "kana": "デイサービス　スタイル",
    "address": "日南市大字板敷７６１４－１",
    "lat": 31.6314624,
    "lng": 131.3505537,
    "tel": "０９８７－２５－４８５５",
    "url": "",
    "pref": "宮崎県",
    "city": "日南市",
    "category": "community_day_service",
    "serviceType": "地域密着型通所介護",
    "capacity": 0,
    "openDays": [
      "平日"
    ],
    "openDaysNote": ""
  },
  {
    "id": "4570401218",
    "name": "デイサービス　フルール",
    "kana": "デイサービス　フルール",
    "address": "宮崎県日南市大字東弁分甲２５４６－３",
    "lat": 31.6236254536858,
    "lng": 131.404331140006,
    "tel": "０９８７－２７－３５８０",
    "url": "",
    "pref": "宮崎県",
    "city": "日南市",
    "category": "community_day_service",
    "serviceType": "地域密着型通所介護",
    "capacity": 0,
    "openDays": [
      "平日",
      "祝日"
    ],
    "openDaysNote": ""
  },
  {
    "id": "4570400889",
    "name": "デイサービス　茶の実",
    "kana": "デイサービス　チャノミ",
    "address": "宮崎県日南市南郷町潟上356-4",
    "lat": 31.5037923,
    "lng": 131.3429907,
    "tel": "0987-64-1606",
    "url": "",
    "pref": "宮崎県",
    "city": "日南市",
    "category": "community_day_service",
    "serviceType": "地域密着型通所介護",
    "capacity": 0,
    "openDays": [
      "平日",
      "土曜日",
      "祝日"
    ],
    "openDaysNote": ""
  },
  {
    "id": "4571600164",
    "name": "デイサービスコウセイ",
    "kana": "デイサービスコウセイ",
    "address": "日南市北郷町大藤乙402-1",
    "lat": 31.6526544,
    "lng": 131.386168,
    "tel": "0987-55-3740",
    "url": "",
    "pref": "宮崎県",
    "city": "日南市",
    "category": "community_day_service",
    "serviceType": "地域密着型通所介護",
    "capacity": null,
    "openDays": [
      "平日",
      "祝日"
    ],
    "openDaysNote": ""
  },
  {
    "id": "4570401135",
    "name": "デイサービスセンターひだまり",
    "kana": "デイサービスセンターヒダマリ",
    "address": "宮崎県日南市大字楠原１７番地",
    "lat": 31.6256106324971,
    "lng": 131.348086968262,
    "tel": "0987-25-3517",
    "url": "",
    "pref": "宮崎県",
    "city": "日南市",
    "category": "community_day_service",
    "serviceType": "地域密着型通所介護",
    "capacity": 18,
    "openDays": [
      "平日",
      "土曜日",
      "祝日"
    ],
    "openDaysNote": "その他の休み、１２月３１日～１月３日"
  },
  {
    "id": "4570400970",
    "name": "デイサービスセンター心の里",
    "kana": "デイサービスセンター　ココロノサト",
    "address": "宮崎県日南市大字平野１４９８番地８",
    "lat": 31.6136255,
    "lng": 131.3820246,
    "tel": "0987-27-3381",
    "url": "",
    "pref": "宮崎県",
    "city": "日南市",
    "category": "community_day_service",
    "serviceType": "地域密着型通所介護",
    "capacity": 0,
    "openDays": [
      "平日",
      "土曜日",
      "祝日"
    ],
    "openDaysNote": "祝祭日も営業（改行）夏季休暇　　なし（改行）年末年始　　１２月31日から１月３日"
  },
  {
    "id": "4570400640",
    "name": "デイサービス心の芽",
    "kana": "デイサービスココロノメ",
    "address": "宮崎県日南市大字殿所８１番地４",
    "lat": 31.6291605,
    "lng": 131.3757634,
    "tel": "0987-21-2810",
    "url": "",
    "pref": "宮崎県",
    "city": "日南市",
    "category": "community_day_service",
    "serviceType": "地域密着型通所介護",
    "capacity": 0,
    "openDays": [
      "平日",
      "土曜日",
      "日曜日",
      "祝日"
    ],
    "openDaysNote": "なし"
  },
  {
    "id": "4570400616",
    "name": "デイサービス来見遊",
    "kana": "デイサービスクルミユウ",
    "address": "宮崎県日南市大字平野4195-3",
    "lat": 31.587291201842,
    "lng": 131.394766198148,
    "tel": "0987-32-1071",
    "url": "",
    "pref": "宮崎県",
    "city": "日南市",
    "category": "community_day_service",
    "serviceType": "地域密着型通所介護",
    "capacity": 0,
    "openDays": [
      "平日",
      "祝日"
    ],
    "openDaysNote": ""
  },
  {
    "id": "4570400467",
    "name": "デイサービス和",
    "kana": "デイサービスナゴミ",
    "address": "宮崎県日南市大字西弁分137番地",
    "lat": 31.5938353,
    "lng": 131.3726035,
    "tel": "0987-32-0887",
    "url": "http://nagomi-service.sakura.ne.jp/",
    "pref": "宮崎県",
    "city": "日南市",
    "category": "community_day_service",
    "serviceType": "地域密着型通所介護",
    "capacity": 16,
    "openDays": [
      "平日",
      "土曜日"
    ],
    "openDaysNote": ""
  },
  {
    "id": "4570400814",
    "name": "みなとデイサービス",
    "kana": "ミナトデイサービス",
    "address": "宮崎県日南市大字吉野方98番地",
    "lat": 31.6063899,
    "lng": 131.3805749,
    "tel": "0987-55-5812",
    "url": "",
    "pref": "宮崎県",
    "city": "日南市",
    "category": "community_day_service",
    "serviceType": "地域密着型通所介護",
    "capacity": 0,
    "openDays": [
      "平日",
      "祝日"
    ],
    "openDaysNote": ""
  },
  {
    "id": "4570400574",
    "name": "恵老園デイサービスセンター",
    "kana": "ケイロウエンデイサービスセンター",
    "address": "日南市南郷町津屋野2458番地１",
    "lat": 31.5362156,
    "lng": 131.3451895,
    "tel": "0987-64-3300",
    "url": "http://www.takigahira.com",
    "pref": "宮崎県",
    "city": "日南市",
    "category": "community_day_service",
    "serviceType": "地域密着型通所介護",
    "capacity": 0,
    "openDays": [
      "平日",
      "土曜日"
    ],
    "openDaysNote": ""
  },
  {
    "id": "4570401309",
    "name": "合同会社ほほえみの里",
    "kana": "ゴウドウガイシャホホエミノサト",
    "address": "宮崎県日南市大字東弁分2153番地",
    "lat": 31.6312088,
    "lng": 131.3986916,
    "tel": "0987-55-6688",
    "url": "",
    "pref": "宮崎県",
    "city": "日南市",
    "category": "community_day_service",
    "serviceType": "地域密着型通所介護",
    "capacity": 0,
    "openDays": [
      "平日",
      "土曜日",
      "日曜日",
      "祝日"
    ],
    "openDaysNote": ""
  },
  {
    "id": "4570401184",
    "name": "社会福祉法人大樹会　SocialWork日南　南風の丘デイサービスセンター",
    "kana": "シャカイフクシホウジンタイジュカイ　ソーシャルワークニチナン　ハエノオカデイサービスセンター",
    "address": "宮崎県日南市南郷町中村甲3528番地2",
    "lat": 31.5428871,
    "lng": 131.3659713,
    "tel": "0987-55-5800",
    "url": "https://www.taijukai.biz/",
    "pref": "宮崎県",
    "city": "日南市",
    "category": "community_day_service",
    "serviceType": "地域密着型通所介護",
    "capacity": 15,
    "openDays": [
      "平日",
      "土曜日",
      "祝日"
    ],
    "openDaysNote": ""
  },
  {
    "id": "4570401176",
    "name": "地域密着型通所介護せんだんの樹",
    "kana": "チイキミッチャクガタツウショカイゴセンダンノキ",
    "address": "宮崎県日南市大字吉野方7363番地1",
    "lat": 31.6314169,
    "lng": 131.318614,
    "tel": "0987-25-1040",
    "url": "",
    "pref": "宮崎県",
    "city": "日南市",
    "category": "community_day_service",
    "serviceType": "地域密着型通所介護",
    "capacity": 0,
    "openDays": [
      "平日",
      "土曜日",
      "祝日"
    ],
    "openDaysNote": ""
  },
  {
    "id": "4572200212",
    "name": "デイサービスひだまり",
    "kana": "デイサービスヒダマリ",
    "address": "宮崎県西臼杵郡日之影町七折２９９６番地１６",
    "lat": 32.6456728,
    "lng": 131.3961343,
    "tel": "0982-87-2017",
    "url": "",
    "pref": "宮崎県",
    "city": "日之影町",
    "category": "community_day_service",
    "serviceType": "地域密着型通所介護",
    "capacity": 9,
    "openDays": [
      "平日",
      "土曜日",
      "祝日"
    ],
    "openDaysNote": "定休日に利用ご希望の方は事前にご相談ください"
  },
  {
    "id": "4572100347",
    "name": "うなまの里地域密着型通所介護事業所",
    "kana": "ウナマノサトチイキミッチャクガタツウショカイゴジギョウショ",
    "address": "宮崎県東臼杵郡美郷町北郷宇納間170",
    "lat": 32.5051948,
    "lng": 131.4432903,
    "tel": "0982-62-6155",
    "url": "https://www.unamanosato.jp",
    "pref": "宮崎県",
    "city": "美郷町",
    "category": "community_day_service",
    "serviceType": "地域密着型通所介護",
    "capacity": null,
    "openDays": [
      "平日",
      "祝日"
    ],
    "openDaysNote": "平日の祝日は営業しています。（改行）ただし、利用者から希望があり、それに対応可能な場合はこの限りではありません。"
  },
  {
    "id": "4572101162",
    "name": "デイサービス菜の郷",
    "kana": "デイサービスナノサト",
    "address": "宮崎県東臼杵郡門川町大字門川尾末字アゼ地2515番地3",
    "lat": 32.4716227,
    "lng": 131.6445143,
    "tel": "0982-60-1256",
    "url": "",
    "pref": "宮崎県",
    "city": "門川町",
    "category": "community_day_service",
    "serviceType": "地域密着型通所介護",
    "capacity": 18,
    "openDays": [
      "平日",
      "土曜日",
      "祝日"
    ],
    "openDaysNote": ""
  },
  {
    "id": "4572101121",
    "name": "株式会社　姫野　デイサービス　さくらんぼ",
    "kana": "カブシキガイシャ　ヒメノ　デイサービス　サクランボ",
    "address": "宮崎県東臼杵郡門川町大字門川尾末773番地5デイサービス　さくらんぼ デイサービス　さくらんぼ",
    "lat": 32.4618738,
    "lng": 131.6435953,
    "tel": "0982-63-0176",
    "url": "http://sakuranbo-care.com/",
    "pref": "宮崎県",
    "city": "門川町",
    "category": "community_day_service",
    "serviceType": "地域密着型通所介護",
    "capacity": null,
    "openDays": [
      "平日",
      "土曜日",
      "祝日"
    ],
    "openDaysNote": ""
  }
]