[
  {
    "id": "490300084",
    "name": "デイサービス　カノープス塩釜",
    "kana": "デイサービス　カノープスシオガマ",
    "address": "宮城県塩竃市藤倉二丁目2-9",
    "lat": 38.3250075,
    "lng": 141.027824442328,
    "tel": "022-707-7653",
    "url": "",
    "pref": "宮城県",
    "city": "塩竈市",
    "category": "community_day_service",
    "serviceType": "地域密着型通所介護",
    "capacity": 13,
    "openDays": [
      "平日",
      "土曜日",
      "祝日"
    ],
    "openDaysNote": ""
  },
  {
    "id": "470300740",
    "name": "デイサービスあゆみ苑",
    "kana": "デイサービスアユミエン",
    "address": "宮城県塩釜市香津町１２番１７号ライフサポートあゆみ苑 ライフサポートあゆみ苑",
    "lat": 38.3131261,
    "lng": 141.0145115,
    "tel": "022-366-5117",
    "url": "http://www.ayumi-kai.or.jp",
    "pref": "宮城県",
    "city": "塩竈市",
    "category": "community_day_service",
    "serviceType": "地域密着型通所介護",
    "capacity": 0,
    "openDays": [
      "平日",
      "土曜日",
      "祝日"
    ],
    "openDaysNote": ""
  },
  {
    "id": "470300187",
    "name": "まごころ塩釜",
    "kana": "マゴコロシオガマ",
    "address": "宮城県塩釜市袖野田町３９－２",
    "lat": 38.3090428,
    "lng": 141.0002217,
    "tel": "022-362-2030",
    "url": "https://magokoro2030.jimdo.com/",
    "pref": "宮城県",
    "city": "塩竈市",
    "category": "community_day_service",
    "serviceType": "地域密着型通所介護",
    "capacity": 60,
    "openDays": [
      "平日",
      "土曜日",
      "祝日"
    ],
    "openDaysNote": ""
  },
  {
    "id": "470300815",
    "name": "リハビリ型デイサービスサンエル",
    "kana": "リハビリガタデイサービスサンエル",
    "address": "宮城県塩竈市尾島町1番5号",
    "lat": 38.3172090645235,
    "lng": 141.022237964418,
    "tel": "022-362-1678",
    "url": "",
    "pref": "宮城県",
    "city": "塩竈市",
    "category": "community_day_service",
    "serviceType": "地域密着型通所介護",
    "capacity": 60,
    "openDays": [
      "平日"
    ],
    "openDaysNote": "12/30～1/3はお休みとなります。（改行）通所日が祝日と重なった場合は、ご希望があれば可能な範囲で振替を実施しています。"
  },
  {
    "id": "490300100",
    "name": "悠の森デイサービス",
    "kana": "ユウノモリデイサービス",
    "address": "宮城県塩竃市伊保石377－4番地",
    "lat": 38.3382826,
    "lng": 141.0163508,
    "tel": "022-253-6080",
    "url": "",
    "pref": "宮城県",
    "city": "塩竈市",
    "category": "community_day_service",
    "serviceType": "地域密着型通所介護",
    "capacity": 0,
    "openDays": [],
    "openDaysNote": "曜日は、相談に応じます。"
  },
  {
    "id": "492800065",
    "name": "おたっしゃ倶楽部",
    "kana": "オタッシャクラブ",
    "address": "宮城県加美郡加美町字赤塚202番地1",
    "lat": 38.5625871,
    "lng": 140.8604133,
    "tel": "0229-87-5035",
    "url": "https://carefree-ots.ivalue.info/",
    "pref": "宮城県",
    "city": "加美町",
    "category": "community_day_service",
    "serviceType": "地域密着型通所介護",
    "capacity": null,
    "openDays": [
      "平日",
      "祝日"
    ],
    "openDaysNote": "年末年始休業（12月31〜1月3日）"
  },
  {
    "id": "472800614",
    "name": "デイサービス　くれよん",
    "kana": "デイサービス　クレヨン",
    "address": "宮城県加美郡加美町字町裏２７７－２",
    "lat": 38.5690815,
    "lng": 140.8610092,
    "tel": "0229-87-3787",
    "url": "",
    "pref": "宮城県",
    "city": "加美町",
    "category": "community_day_service",
    "serviceType": "地域密着型通所介護",
    "capacity": 10,
    "openDays": [
      "平日",
      "土曜日",
      "祝日"
    ],
    "openDaysNote": ""
  },
  {
    "id": "472800747",
    "name": "デイサービス　壱番館",
    "kana": "デイサービス　イチバンカン",
    "address": "宮城県加美郡加美町平柳字本屋敷２番地1サービス付き高齢者向け住宅　加美壱番館　デイサービス壱番館 サービス付き高齢者向け住宅　加美壱番館　デイサービス壱番館",
    "lat": 38.5671673811341,
    "lng": 140.890280080951,
    "tel": "0229-25-5771",
    "url": "",
    "pref": "宮城県",
    "city": "加美町",
    "category": "community_day_service",
    "serviceType": "地域密着型通所介護",
    "capacity": 18,
    "openDays": [
      "平日",
      "祝日"
    ],
    "openDaysNote": "・秘密保持に努める。（改行）・相談・苦情は迅速に対応します。（改行）・福祉サービスを提供するものとの密接な連携に努めます。（改行）・サービス提供にともない利用者又はその家族等の介護者の生命・身体・財産に損害を及ぼした場合は、その損害を賠償します。（改行）・"
  },
  {
    "id": "472800465",
    "name": "デイサービスおたっしゃ館",
    "kana": "デイサービスオタッシャカン",
    "address": "宮城県加美郡加美町字赤塚202番地1",
    "lat": 38.5626323,
    "lng": 140.8604511,
    "tel": "0229-64-4050",
    "url": "https://carefree-ots.ivalue.info",
    "pref": "宮城県",
    "city": "加美町",
    "category": "community_day_service",
    "serviceType": "地域密着型通所介護",
    "capacity": 18,
    "openDays": [
      "平日",
      "土曜日",
      "祝日"
    ],
    "openDaysNote": "日曜日以外の祝祭日は営業（改行）年末年始休業(12月31日～1月3日)"
  },
  {
    "id": "492800057",
    "name": "デイサービス加美弐番館",
    "kana": "デイサービスカミニバンカン",
    "address": "宮城県加美郡加美町平柳字本屋敷2番地の4― ―",
    "lat": 38.567471,
    "lng": 140.890231,
    "tel": "0229-25-5772",
    "url": "―",
    "pref": "宮城県",
    "city": "加美町",
    "category": "community_day_service",
    "serviceType": "地域密着型通所介護",
    "capacity": 15,
    "openDays": [
      "平日",
      "祝日"
    ],
    "openDaysNote": "サービス付き高齢者向け住宅「サ高住」に併設しているため、土日も「サ高住」勤務者が日常不可欠な介助は（無償で）実施している。"
  },
  {
    "id": "472800663",
    "name": "希望館デイサービス　ファミリア",
    "kana": "キボウカンデイサービスファミリア",
    "address": "宮城県加美郡加美町字大門222番地",
    "lat": 38.5753498,
    "lng": 140.8514403,
    "tel": "0229-64-1677",
    "url": "https://kiboukan-pocoapoco.com",
    "pref": "宮城県",
    "city": "加美町",
    "category": "community_day_service",
    "serviceType": "地域密着型通所介護",
    "capacity": 0,
    "openDays": [
      "平日",
      "土曜日",
      "祝日"
    ],
    "openDaysNote": ""
  },
  {
    "id": "492800099",
    "name": "中新田民主デイサービス",
    "kana": "ナカニイダミンシュデイサービス",
    "address": "宮城県加美郡加美町字矢越345",
    "lat": 38.5722803,
    "lng": 140.8644909,
    "tel": "0229-63-5702",
    "url": "",
    "pref": "宮城県",
    "city": "加美町",
    "category": "community_day_service",
    "serviceType": "地域密着型通所介護",
    "capacity": 0,
    "openDays": [
      "平日",
      "土曜日"
    ],
    "openDaysNote": ""
  },
  {
    "id": "490800042",
    "name": "デイサ－ビス日なた",
    "kana": "デイサ-ビスヒナタ",
    "address": "宮城県角田市角田字裏町６番地９",
    "lat": 37.9674306,
    "lng": 140.7829628,
    "tel": "0224-66-5829",
    "url": "",
    "pref": "宮城県",
    "city": "角田市",
    "category": "community_day_service",
    "serviceType": "地域密着型通所介護",
    "capacity": null,
    "openDays": [
      "平日",
      "土曜日"
    ],
    "openDaysNote": "年末年始休あり"
  },
  {
    "id": "470800376",
    "name": "デイサービスひかり苑",
    "kana": "デイサービスヒカリエン",
    "address": "宮城県角田市枝野字畑中143－3デイサービスひかり苑 デイサービスひかり苑",
    "lat": 37.9432042,
    "lng": 140.8020178,
    "tel": "0224-61-1235",
    "url": "",
    "pref": "宮城県",
    "city": "角田市",
    "category": "community_day_service",
    "serviceType": "地域密着型通所介護",
    "capacity": 10,
    "openDays": [
      "平日",
      "祝日"
    ],
    "openDaysNote": ""
  },
  {
    "id": "472300128",
    "name": "そのつ森",
    "kana": "ソノツモリ",
    "address": "宮城県伊具郡丸森町筆甫字和田７３旧筆甫中学校 旧筆甫中学校",
    "lat": 37.828373,
    "lng": 140.7280822,
    "tel": "0224-87-6362",
    "url": "http://sonotsumori.org/",
    "pref": "宮城県",
    "city": "丸森町",
    "category": "community_day_service",
    "serviceType": "地域密着型通所介護",
    "capacity": 0,
    "openDays": [
      "平日"
    ],
    "openDaysNote": "年末年始休業"
  },
  {
    "id": "491100111",
    "name": "カーサ岩沼デイサービスセンターひだまり",
    "kana": "カーサイワヌマデイサービスセンターヒダマリ",
    "address": "宮城県岩沼市中央３丁目７番１６号",
    "lat": 38.1135025,
    "lng": 140.8691572,
    "tel": "0223-29-4754",
    "url": "http://casa-iwanuma.jp",
    "pref": "宮城県",
    "city": "岩沼市",
    "category": "community_day_service",
    "serviceType": "地域密着型通所介護",
    "capacity": 11,
    "openDays": [
      "平日",
      "土曜日",
      "祝日"
    ],
    "openDaysNote": ""
  },
  {
    "id": "471100594",
    "name": "デイサービスセンター　さくら",
    "kana": "デイサービスセンター　サクラ",
    "address": "宮城県岩沼市桜５丁目１０番１１号",
    "lat": 38.1131637,
    "lng": 140.873207,
    "tel": "0223-36-7255",
    "url": "http://nadeshiko-iwanuma.com",
    "pref": "宮城県",
    "city": "岩沼市",
    "category": "community_day_service",
    "serviceType": "地域密着型通所介護",
    "capacity": 12,
    "openDays": [
      "平日",
      "祝日"
    ],
    "openDaysNote": ""
  },
  {
    "id": "471100537",
    "name": "デイサービスセンターまんさく",
    "kana": "デイサービスセンターマンサク",
    "address": "宮城県岩沼市土ヶ崎２丁目９番４号",
    "lat": 38.1128835308685,
    "lng": 140.860672238623,
    "tel": "0223-23-1120",
    "url": "",
    "pref": "宮城県",
    "city": "岩沼市",
    "category": "community_day_service",
    "serviceType": "地域密着型通所介護",
    "capacity": 0,
    "openDays": [
      "平日",
      "土曜日",
      "祝日"
    ],
    "openDaysNote": ""
  },
  {
    "id": "471100693",
    "name": "デイサービス平等ほほえみ館",
    "kana": "デイサービスビョウドウホホエミカン",
    "address": "宮城県岩沼市平等一丁目5番地2",
    "lat": 38.1132629,
    "lng": 140.8447366,
    "tel": "0223-36-9307",
    "url": "",
    "pref": "宮城県",
    "city": "岩沼市",
    "category": "community_day_service",
    "serviceType": "地域密着型通所介護",
    "capacity": 60,
    "openDays": [
      "平日",
      "土曜日",
      "祝日"
    ],
    "openDaysNote": "その他会社が指定する休業日（年末年始等）"
  },
  {
    "id": "471100198",
    "name": "ひなたぼっこ桑原",
    "kana": "ヒナタボッコクワバラ",
    "address": "宮城県岩沼市桑原二丁目１番６号",
    "lat": 38.10275,
    "lng": 140.8571223,
    "tel": "0223-24-0674",
    "url": "http://www.home-hinatabocco.com/",
    "pref": "宮城県",
    "city": "岩沼市",
    "category": "community_day_service",
    "serviceType": "地域密着型通所介護",
    "capacity": 15,
    "openDays": [
      "平日",
      "土曜日",
      "日曜日",
      "祝日"
    ],
    "openDaysNote": ""
  },
  {
    "id": "471100347",
    "name": "ひなたぼっこ二木",
    "kana": "ヒナタボッコフタキ",
    "address": "宮城県岩沼市二木一丁目３番７－９号",
    "lat": 38.1041221,
    "lng": 140.8578611,
    "tel": "0223-23-7631",
    "url": "http://www.home‐hinatabocco.com/",
    "pref": "宮城県",
    "city": "岩沼市",
    "category": "community_day_service",
    "serviceType": "地域密着型通所介護",
    "capacity": 18,
    "openDays": [
      "平日",
      "土曜日",
      "祝日"
    ],
    "openDaysNote": ""
  },
  {
    "id": "471100255",
    "name": "特定非営利活動法人　やまぼうし",
    "kana": "トクテイヒエイリカツドウホウジン　ヤマボウシ",
    "address": "宮城県岩沼市桜5丁目11番3号",
    "lat": 38.112556676195,
    "lng": 140.872330384131,
    "tel": "0223-23-2672",
    "url": "http://blog.canpan.info/yamaboushi/",
    "pref": "宮城県",
    "city": "岩沼市",
    "category": "community_day_service",
    "serviceType": "地域密着型通所介護",
    "capacity": 10,
    "openDays": [
      "平日"
    ],
    "openDaysNote": ""
  },
  {
    "id": "470500976",
    "name": "デイサービスなかがわ",
    "kana": "デイサービスナカガワ",
    "address": "宮城県気仙沼市松崎萱139-1",
    "lat": 38.8793319,
    "lng": 141.5678659,
    "tel": "0226-23-9066",
    "url": "http://www.nakagawa-life.jp",
    "pref": "宮城県",
    "city": "気仙沼市",
    "category": "community_day_service",
    "serviceType": "地域密着型通所介護",
    "capacity": 18,
    "openDays": [
      "平日",
      "土曜日",
      "祝日"
    ],
    "openDaysNote": "・祝祭日は営業（改行）・夏季休業　8月15日（改行）・年末年始休業　12月31日～1月3日"
  },
  {
    "id": "490500139",
    "name": "デイサービス村伝",
    "kana": "デイサービスムラデン",
    "address": "宮城県気仙沼市南町1丁目４－１０夢コモンズ　１０５ 夢コモンズ　１０５",
    "lat": 38.9043069,
    "lng": 141.5739159,
    "tel": "0226-28-9293",
    "url": "http://www.muraden-k.jp/",
    "pref": "宮城県",
    "city": "気仙沼市",
    "category": "community_day_service",
    "serviceType": "地域密着型通所介護",
    "capacity": 18,
    "openDays": [
      "平日",
      "土曜日",
      "祝日"
    ],
    "openDaysNote": "年末年始（12月30日〜1月3日）（改行）お盆（8月13日〜15日）"
  },
  {
    "id": "490500196",
    "name": "デイサービス村伝たなか",
    "kana": "デイサービスムラデンタナカ",
    "address": "宮城県気仙沼市上田中2丁目6-41階 1階",
    "lat": 38.8867246,
    "lng": 141.5550764,
    "tel": "0226-28-9255",
    "url": "http://www.muraden-k.jp/",
    "pref": "宮城県",
    "city": "気仙沼市",
    "category": "community_day_service",
    "serviceType": "地域密着型通所介護",
    "capacity": 0,
    "openDays": [
      "平日",
      "土曜日",
      "祝日"
    ],
    "openDaysNote": "年末年始（12月30日から1月3日）（改行）お盆（8月13日から15日）お休みを頂きます。"
  },
  {
    "id": "470501065",
    "name": "デイ倶楽部いぶし銀",
    "kana": "デイクラブイブシギン",
    "address": "宮城県気仙沼市百目木２６９番地１",
    "lat": 38.8978345,
    "lng": 141.5294155,
    "tel": "0226-25-8442",
    "url": "",
    "pref": "宮城県",
    "city": "気仙沼市",
    "category": "community_day_service",
    "serviceType": "地域密着型通所介護",
    "capacity": 13,
    "openDays": [
      "平日",
      "土曜日",
      "祝日"
    ],
    "openDaysNote": "電話・ＦＡＸは営業時間外も常に連絡可能"
  },
  {
    "id": "490500170",
    "name": "ぽらん気仙沼デイサービス",
    "kana": "ポランケセンヌマデイサービス",
    "address": "宮城県気仙沼市上田中1丁目4-1",
    "lat": 38.887667,
    "lng": 141.5518474,
    "tel": "0226-25-8718",
    "url": "",
    "pref": "宮城県",
    "city": "気仙沼市",
    "category": "community_day_service",
    "serviceType": "地域密着型通所介護",
    "capacity": 18,
    "openDays": [
      "平日"
    ],
    "openDaysNote": ""
  },
  {
    "id": "470501024",
    "name": "みずなし介護センター　デイサービス穂のり",
    "kana": "ミズナシカイゴセンター　デイサービスミノリ",
    "address": "宮城県気仙沼市切通９４番",
    "lat": 38.9127581,
    "lng": 141.543894,
    "tel": "0226-23-5118",
    "url": "",
    "pref": "宮城県",
    "city": "気仙沼市",
    "category": "community_day_service",
    "serviceType": "地域密着型通所介護",
    "capacity": 0,
    "openDays": [
      "平日",
      "土曜日",
      "祝日"
    ],
    "openDaysNote": ""
  },
  {
    "id": "470500992",
    "name": "みなみデイサービスセンター",
    "kana": "ミナミデイサービスセンター",
    "address": "宮城県気仙沼市栄町2番11号ケアハウスみなみ ケアハウスみなみ",
    "lat": 38.9116848940704,
    "lng": 141.577369963035,
    "tel": "0226-23-4878",
    "url": "https://carehouse-minami.jp/",
    "pref": "宮城県",
    "city": "気仙沼市",
    "category": "community_day_service",
    "serviceType": "地域密着型通所介護",
    "capacity": 0,
    "openDays": [
      "平日"
    ],
    "openDaysNote": ""
  },
  {
    "id": "470500638",
    "name": "やすらぎデイサービスセンター",
    "kana": "ヤスラギデイサービスセンター",
    "address": "宮城県気仙沼市西中才108-6",
    "lat": 38.9291985,
    "lng": 141.5821375,
    "tel": "0226-21-2270",
    "url": "",
    "pref": "宮城県",
    "city": "気仙沼市",
    "category": "community_day_service",
    "serviceType": "地域密着型通所介護",
    "capacity": 0,
    "openDays": [
      "平日",
      "土曜日",
      "祝日"
    ],
    "openDaysNote": ""
  },
  {
    "id": "470500984",
    "name": "リハスパ気仙沼",
    "kana": "リハスパケセンヌマ",
    "address": "宮城県気仙沼市長磯大窪10－1",
    "lat": 38.8463391,
    "lng": 141.5751386,
    "tel": "0226-25-8831",
    "url": "http://www.rehaspa-kesennuma.com/",
    "pref": "宮城県",
    "city": "気仙沼市",
    "category": "community_day_service",
    "serviceType": "地域密着型通所介護",
    "capacity": 5,
    "openDays": [
      "平日"
    ],
    "openDaysNote": ""
  },
  {
    "id": "470500828",
    "name": "階上ブランチデイサービスセンター",
    "kana": "ハシカミブランチデイサービスセンター",
    "address": "宮城県気仙沼市長磯船原66",
    "lat": 38.8422926,
    "lng": 141.5815133,
    "tel": "0226-26-1320",
    "url": "http://www.kingsgarden.or.jp/",
    "pref": "宮城県",
    "city": "気仙沼市",
    "category": "community_day_service",
    "serviceType": "地域密着型通所介護",
    "capacity": 6,
    "openDays": [
      "平日",
      "祝日"
    ],
    "openDaysNote": "年末年始の休みは１２月３１日から１月３日までとなります。（改行）お盆の休みは8月15日から8月16日となります。（改行）※変動する場合がございます。"
  },
  {
    "id": "470501073",
    "name": "気仙沼地域福祉事業所すろーらいふ",
    "kana": "ケセンヌマチイキフクシジギョウショスローライフ",
    "address": "宮城県気仙沼市台２４９番地３",
    "lat": 38.9364962,
    "lng": 141.5190307,
    "tel": "0226-25-7281",
    "url": "",
    "pref": "宮城県",
    "city": "気仙沼市",
    "category": "community_day_service",
    "serviceType": "地域密着型通所介護",
    "capacity": 15,
    "openDays": [
      "平日"
    ],
    "openDaysNote": ""
  },
  {
    "id": "470500695",
    "name": "大谷デイサービスセンター",
    "kana": "オオヤデイサービスセンター",
    "address": "宮城県気仙沼市本吉町窪10番地１",
    "lat": 38.815927,
    "lng": 141.568814,
    "tel": "0226－25－9591",
    "url": "",
    "pref": "宮城県",
    "city": "気仙沼市",
    "category": "community_day_service",
    "serviceType": "地域密着型通所介護",
    "capacity": 18,
    "openDays": [
      "平日",
      "土曜日",
      "祝日"
    ],
    "openDaysNote": ""
  },
  {
    "id": "470500547",
    "name": "土筆の里",
    "kana": "ツクシノサト",
    "address": "宮城県気仙沼市唐桑町小長根１７２－１",
    "lat": 38.8907426,
    "lng": 141.6586422,
    "tel": "０２２６－３１－２０３６",
    "url": "",
    "pref": "宮城県",
    "city": "気仙沼市",
    "category": "community_day_service",
    "serviceType": "地域密着型通所介護",
    "capacity": 15,
    "openDays": [
      "平日",
      "土曜日",
      "日曜日",
      "祝日"
    ],
    "openDaysNote": "年中無休(ただし、8/14・8/15及び12/31～翌年1/2を除く)"
  },
  {
    "id": "491300224",
    "name": "ウエックデイサービスセンター一迫",
    "kana": "ウエックデイサービスセンターイチハサマ",
    "address": "宮城県栗原市一迫真坂字南町２４",
    "lat": 38.7358266,
    "lng": 140.9551148,
    "tel": "0228-52-5201",
    "url": "http://www.welsyspartners.co.jp",
    "pref": "宮城県",
    "city": "栗原市",
    "category": "community_day_service",
    "serviceType": "地域密着型通所介護",
    "capacity": 0,
    "openDays": [
      "平日"
    ],
    "openDaysNote": ""
  },
  {
    "id": "491300521",
    "name": "ケア　サロン　anjuchuo",
    "kana": "ケアサロン　アンジュ　チュウオウ",
    "address": "宮城県栗原市志波姫沼崎原８２番地１",
    "lat": 38.7583345,
    "lng": 141.0737945,
    "tel": "0228-24-8771",
    "url": "",
    "pref": "宮城県",
    "city": "栗原市",
    "category": "community_day_service",
    "serviceType": "地域密着型通所介護",
    "capacity": null,
    "openDays": [
      "平日",
      "土曜日",
      "日曜日",
      "祝日"
    ],
    "openDaysNote": ""
  },
  {
    "id": "471301135",
    "name": "サポートセンターころんぶす西館",
    "kana": "サポートセンターコロンブスニシカン",
    "address": "宮城県栗原市一迫真坂字鶴町135",
    "lat": 38.7446850741335,
    "lng": 140.938532872502,
    "tel": "0228-52-5123",
    "url": "https://colonbus.jp/",
    "pref": "宮城県",
    "city": "栗原市",
    "category": "community_day_service",
    "serviceType": "地域密着型通所介護",
    "capacity": 18,
    "openDays": [
      "平日",
      "土曜日",
      "祝日"
    ],
    "openDaysNote": "日曜日は必要に応じて営業する場合もある。"
  },
  {
    "id": "491300539",
    "name": "デイサービス　ｒａｎ",
    "kana": "デイサービス　ラン",
    "address": "宮城県栗原市高清水桜丁９",
    "lat": 38.656636,
    "lng": 141.0126409,
    "tel": "0228-24-7245",
    "url": "izuminosato.co.jp",
    "pref": "宮城県",
    "city": "栗原市",
    "category": "community_day_service",
    "serviceType": "地域密着型通所介護",
    "capacity": null,
    "openDays": [
      "平日",
      "土曜日",
      "日曜日",
      "祝日"
    ],
    "openDaysNote": ""
  },
  {
    "id": "471301739",
    "name": "デイサービス　花つつみ",
    "kana": "デイサービス　ハナツツミ",
    "address": "宮城県栗原市若柳字川南堤通13-4",
    "lat": 38.7718991704761,
    "lng": 141.121256123279,
    "tel": "0228-32-5060",
    "url": "http://hanatutumi.grupo.jp",
    "pref": "宮城県",
    "city": "栗原市",
    "category": "community_day_service",
    "serviceType": "地域密着型通所介護",
    "capacity": 18,
    "openDays": [
      "平日",
      "土曜日",
      "祝日"
    ],
    "openDaysNote": "年末年始休業期間(12/29～1/3）（改行）祝日営業しています"
  },
  {
    "id": "491300216",
    "name": "デイサービス　笑みの園",
    "kana": "デイサービス　エミノソノ",
    "address": "宮城県栗原市若柳字川南堤通18-11",
    "lat": 38.772653,
    "lng": 141.1193265,
    "tel": "0228-24-8281",
    "url": "",
    "pref": "宮城県",
    "city": "栗原市",
    "category": "community_day_service",
    "serviceType": "地域密着型通所介護",
    "capacity": 12,
    "openDays": [
      "平日",
      "土曜日",
      "日曜日",
      "祝日"
    ],
    "openDaysNote": ""
  },
  {
    "id": "471301879",
    "name": "デイサービス　和み　新橋本亭",
    "kana": "デイサービス　ナゴミ　シンハシモトテイ",
    "address": "宮城県栗原市志波姫新橋本122",
    "lat": 38.756229,
    "lng": 141.0892611,
    "tel": "0228-24-8985",
    "url": "https://care-life-faith.com/",
    "pref": "宮城県",
    "city": "栗原市",
    "category": "community_day_service",
    "serviceType": "地域密着型通所介護",
    "capacity": 15,
    "openDays": [
      "平日",
      "土曜日",
      "日曜日",
      "祝日"
    ],
    "openDaysNote": ""
  },
  {
    "id": "491300547",
    "name": "デイサービス　和み　新田沢",
    "kana": "デイサービス　ナゴミ　ニッタサワ",
    "address": "宮城県栗原市瀬峰新田沢168",
    "lat": 38.6720708,
    "lng": 141.0705376,
    "tel": "0228-24-7595",
    "url": "https://cere-life-faith.com/",
    "pref": "宮城県",
    "city": "栗原市",
    "category": "community_day_service",
    "serviceType": "地域密着型通所介護",
    "capacity": 10,
    "openDays": [
      "平日",
      "土曜日",
      "日曜日",
      "祝日"
    ],
    "openDaysNote": ""
  },
  {
    "id": "491300265",
    "name": "デイサービス　和み　川北新町亭",
    "kana": "デイサービス　ナゴミ　カワキタシンマチテイ",
    "address": "宮城県栗原市若柳川北新町107番地4",
    "lat": 38.774042,
    "lng": 141.1280534,
    "tel": "0228-24-8650",
    "url": "https://care-life-faith.com/",
    "pref": "宮城県",
    "city": "栗原市",
    "category": "community_day_service",
    "serviceType": "地域密着型通所介護",
    "capacity": 15,
    "openDays": [
      "平日",
      "土曜日",
      "日曜日",
      "祝日"
    ],
    "openDaysNote": ""
  },
  {
    "id": "491300505",
    "name": "デイサービス　和み　南砂押亭",
    "kana": "デイサービス　ナゴミ　ミナミスナオシテイ",
    "address": "宮城県栗原市若柳川北南砂押9-1",
    "lat": 38.7756116,
    "lng": 141.144465,
    "tel": "0228-24-9773",
    "url": "https://care-life-faith.com/",
    "pref": "宮城県",
    "city": "栗原市",
    "category": "community_day_service",
    "serviceType": "地域密着型通所介護",
    "capacity": 15,
    "openDays": [
      "平日",
      "土曜日",
      "日曜日",
      "祝日"
    ],
    "openDaysNote": ""
  },
  {
    "id": "491300232",
    "name": "デイサービスあくと",
    "kana": "デイサービスアクト",
    "address": "宮城県栗原市若柳字福岡谷地畑31-15",
    "lat": 38.7814454274261,
    "lng": 141.11678124605,
    "tel": "0228-24-7095",
    "url": "https://al-kurihara.com",
    "pref": "宮城県",
    "city": "栗原市",
    "category": "community_day_service",
    "serviceType": "地域密着型通所介護",
    "capacity": 0,
    "openDays": [
      "平日",
      "土曜日"
    ],
    "openDaysNote": ""
  },
  {
    "id": "491300307",
    "name": "デイサービスおやま",
    "kana": "デイサービスオヤマ",
    "address": "宮城県栗原市一迫真坂字南町25小山はりきゅう接骨院併設 小山はりきゅう接骨院併設",
    "lat": 38.7360641533299,
    "lng": 140.95509246627,
    "tel": "0228-24-8609",
    "url": "https://mtocare.co.jp",
    "pref": "宮城県",
    "city": "栗原市",
    "category": "community_day_service",
    "serviceType": "地域密着型通所介護",
    "capacity": 0,
    "openDays": [
      "平日",
      "祝日"
    ],
    "openDaysNote": "年末年始（12/31～1/3）、その他会社特定日"
  },
  {
    "id": "491300315",
    "name": "デイサービスケアスタ中町",
    "kana": "デイサービス　ケアスタナカマチ",
    "address": "宮城県栗原市金成中町西裏15-4",
    "lat": 38.8119228,
    "lng": 141.0740797,
    "tel": "0228-24-8456",
    "url": "https://happy-seikoudoku.com/",
    "pref": "宮城県",
    "city": "栗原市",
    "category": "community_day_service",
    "serviceType": "地域密着型通所介護",
    "capacity": 15,
    "openDays": [
      "平日",
      "土曜日",
      "祝日"
    ],
    "openDaysNote": ""
  },
  {
    "id": "471301903",
    "name": "デイサービスすっちゃん",
    "kana": "デイサービススッチャン",
    "address": "宮城県栗原市金成沢辺町164-1",
    "lat": 38.7980185,
    "lng": 141.0597902,
    "tel": "0228-24-8277",
    "url": "http://www.hakucho-en.com/",
    "pref": "宮城県",
    "city": "栗原市",
    "category": "community_day_service",
    "serviceType": "地域密着型通所介護",
    "capacity": 0,
    "openDays": [
      "平日"
    ],
    "openDaysNote": ""
  },
  {
    "id": "471300814",
    "name": "デイサービスセンター　しのさんの家",
    "kana": "デイサービスセンター　シノサンノウチ",
    "address": "宮城県栗原市栗駒岩ヶ崎上小路52-1",
    "lat": 38.8324315000002,
    "lng": 140.985810472353,
    "tel": "0228-45-1497",
    "url": "",
    "pref": "宮城県",
    "city": "栗原市",
    "category": "community_day_service",
    "serviceType": "地域密着型通所介護",
    "capacity": 18,
    "openDays": [
      "平日",
      "土曜日",
      "日曜日",
      "祝日"
    ],
    "openDaysNote": "提供時間前後の延長あり。"
  },
  {
    "id": "471301804",
    "name": "デイサービスセンター　金成ポプラの家３号館",
    "kana": "デイサービスセンター　カンナリポプラノイエサンゴウカン",
    "address": "宮城県栗原市金成上町34",
    "lat": 38.8077114,
    "lng": 141.072507,
    "tel": "0228-42-3142",
    "url": "",
    "pref": "宮城県",
    "city": "栗原市",
    "category": "community_day_service",
    "serviceType": "地域密着型通所介護",
    "capacity": 0,
    "openDays": [
      "平日",
      "土曜日",
      "日曜日",
      "祝日"
    ],
    "openDaysNote": ""
  },
  {
    "id": "491300554",
    "name": "デイサービスめぐりあい",
    "kana": "デイサービスメグリアイ",
    "address": "宮城県栗原市志波姫伊豆野城内8-1",
    "lat": 38.77614,
    "lng": 141.1019052,
    "tel": "0228-24-7847",
    "url": "",
    "pref": "宮城県",
    "city": "栗原市",
    "category": "community_day_service",
    "serviceType": "地域密着型通所介護",
    "capacity": 0,
    "openDays": [
      "平日",
      "土曜日",
      "日曜日",
      "祝日"
    ],
    "openDaysNote": ""
  },
  {
    "id": "491300364",
    "name": "デイサービス希望",
    "kana": "デイサービスノゾミ",
    "address": "宮城県栗原市若柳字大林要害86-3",
    "lat": 38.7826057,
    "lng": 141.1033838,
    "tel": "0228-24-7475",
    "url": "http://a-mpartners.com",
    "pref": "宮城県",
    "city": "栗原市",
    "category": "community_day_service",
    "serviceType": "地域密着型通所介護",
    "capacity": 1,
    "openDays": [
      "平日",
      "土曜日",
      "日曜日",
      "祝日"
    ],
    "openDaysNote": ""
  },
  {
    "id": "471300996",
    "name": "デイサービス希望館",
    "kana": "デイサービスキボウカン",
    "address": "宮城県栗原市志波姫南八樟200番地",
    "lat": 38.7389865,
    "lng": 141.0534575,
    "tel": "0228-25-3088",
    "url": "",
    "pref": "宮城県",
    "city": "栗原市",
    "category": "community_day_service",
    "serviceType": "地域密着型通所介護",
    "capacity": 18,
    "openDays": [
      "平日",
      "土曜日",
      "祝日"
    ],
    "openDaysNote": ""
  },
  {
    "id": "471301747",
    "name": "デイサービス八木",
    "kana": "デイサービスヤギ",
    "address": "宮城県栗原市若柳字川南八木１１３番地",
    "lat": 38.7591154,
    "lng": 141.111775,
    "tel": "0228-32-6863",
    "url": "",
    "pref": "宮城県",
    "city": "栗原市",
    "category": "community_day_service",
    "serviceType": "地域密着型通所介護",
    "capacity": 0,
    "openDays": [
      "平日",
      "土曜日",
      "日曜日",
      "祝日"
    ],
    "openDaysNote": "延長サービス提供時間　８時００分～９時００分、１７時３０分～１９時３０分"
  },
  {
    "id": "471301887",
    "name": "デイサロン花つつみ",
    "kana": "デイサロンハナツツミ",
    "address": "宮城県栗原市若柳字川北中町15",
    "lat": 38.7712174,
    "lng": 141.1315198,
    "tel": "0228-24-8670",
    "url": "",
    "pref": "宮城県",
    "city": "栗原市",
    "category": "community_day_service",
    "serviceType": "地域密着型通所介護",
    "capacity": 10,
    "openDays": [
      "平日",
      "土曜日",
      "祝日"
    ],
    "openDaysNote": ""
  },
  {
    "id": "491300422",
    "name": "ふぃっとりは　小山はりきゅう接骨院",
    "kana": "フィットリハオヤマハリキュウセッコツイン",
    "address": "宮城県栗原市一迫真坂字南町25",
    "lat": 38.7360506,
    "lng": 140.9550237,
    "tel": "0228-52-2013",
    "url": "https://mtocare.co.jp",
    "pref": "宮城県",
    "city": "栗原市",
    "category": "community_day_service",
    "serviceType": "地域密着型通所介護",
    "capacity": null,
    "openDays": [
      "平日"
    ],
    "openDaysNote": "年末年始（12/31～1/3）、その他会社特定日"
  },
  {
    "id": "471301556",
    "name": "ほほえみサポート・ケアセンター",
    "kana": "ホホエミサポート・ケアセンター",
    "address": "栗原市若柳字川南堤通１５番３",
    "lat": 38.7726225,
    "lng": 141.1209735,
    "tel": "0228-32-6321",
    "url": "http://hohoemicare.web.fc2.com/index.html",
    "pref": "宮城県",
    "city": "栗原市",
    "category": "community_day_service",
    "serviceType": "地域密着型通所介護",
    "capacity": 0,
    "openDays": [
      "平日",
      "土曜日",
      "日曜日",
      "祝日"
    ],
    "openDaysNote": "なし"
  },
  {
    "id": "491300414",
    "name": "りつわウエルネス",
    "kana": "リツワウエルネス",
    "address": "宮城県栗原市栗駒岩ケ崎八日町5",
    "lat": 38.8307684,
    "lng": 140.994948,
    "tel": "0228-49-3732",
    "url": "http://ritsuwa.com/carevillage-kurihara/uerunesu/",
    "pref": "宮城県",
    "city": "栗原市",
    "category": "community_day_service",
    "serviceType": "地域密着型通所介護",
    "capacity": 0,
    "openDays": [
      "平日",
      "土曜日",
      "祝日"
    ],
    "openDaysNote": ""
  },
  {
    "id": "491300356",
    "name": "花つつみ　ココアン",
    "kana": "ハナツツミ　ココアン",
    "address": "宮城県栗原市若柳字川北中町17-7- -",
    "lat": 38.771384,
    "lng": 141.1318309,
    "tel": "0228-24-7030",
    "url": "-",
    "pref": "宮城県",
    "city": "栗原市",
    "category": "community_day_service",
    "serviceType": "地域密着型通所介護",
    "capacity": 0,
    "openDays": [
      "平日",
      "土曜日",
      "祝日"
    ],
    "openDaysNote": "年末年始（12/29～1/3）"
  },
  {
    "id": "491300406",
    "name": "共生型デイサービスかつらは",
    "kana": "キョウセイガタデイサービスカツラハ",
    "address": "宮城県栗原市高清水新桂葉278番地2特別養護老人ホーム桂葉 特別養護老人ホーム桂葉",
    "lat": 38.6576483,
    "lng": 141.0080989,
    "tel": "0228-58-2177",
    "url": "https://www.homeikai.or.jp",
    "pref": "宮城県",
    "city": "栗原市",
    "category": "community_day_service",
    "serviceType": "地域密着型通所介護",
    "capacity": 15,
    "openDays": [
      "平日",
      "土曜日",
      "祝日"
    ],
    "openDaysNote": ""
  },
  {
    "id": "491300463",
    "name": "栗原市一迫デイサービスセンター",
    "kana": "クリハラシイチハサマデイサービスセンター",
    "address": "宮城県栗原市一迫真坂字高橋20番地1",
    "lat": 38.7387263,
    "lng": 140.9533833,
    "tel": "0228-52-4433",
    "url": "http://kurihara-sfk.jp/",
    "pref": "宮城県",
    "city": "栗原市",
    "category": "community_day_service",
    "serviceType": "地域密着型通所介護",
    "capacity": 0,
    "openDays": [
      "平日",
      "土曜日",
      "祝日"
    ],
    "openDaysNote": ""
  },
  {
    "id": "491300455",
    "name": "栗原市金成デイサービスセンター",
    "kana": "クリハラシカンナリデイサービスセンター",
    "address": "宮城県栗原市金成沢辺町沖200",
    "lat": 38.8006279,
    "lng": 141.0657094,
    "tel": "0228-42-1154",
    "url": "http://kurihara-sfk.jp",
    "pref": "宮城県",
    "city": "栗原市",
    "category": "community_day_service",
    "serviceType": "地域密着型通所介護",
    "capacity": 0,
    "openDays": [
      "平日",
      "土曜日",
      "祝日"
    ],
    "openDaysNote": ""
  },
  {
    "id": "491300331",
    "name": "桜樹支援デイサービスセンター",
    "kana": "オウジュシエンデイサービスセンター",
    "address": "宮城県栗原市若柳川北元町裏114",
    "lat": 38.7746394,
    "lng": 141.1348499,
    "tel": "0228-25-4802",
    "url": "",
    "pref": "宮城県",
    "city": "栗原市",
    "category": "community_day_service",
    "serviceType": "地域密着型通所介護",
    "capacity": null,
    "openDays": [
      "平日",
      "土曜日"
    ],
    "openDaysNote": "土曜日のみ営業（12月30日～1月3日除く）"
  },
  {
    "id": "471300202",
    "name": "若柳共生型デイサービスつむぎ",
    "kana": "ワカヤナギキョウセイガタデイサービスツムギ",
    "address": "宮城県栗原市若柳武鎗字藤貫沢８５番地",
    "lat": 38.8071051,
    "lng": 141.1123066,
    "tel": "0228-32-6164",
    "url": "https://www.homeikai.or.jp/",
    "pref": "宮城県",
    "city": "栗原市",
    "category": "community_day_service",
    "serviceType": "地域密着型通所介護",
    "capacity": 15,
    "openDays": [
      "平日",
      "土曜日",
      "祝日"
    ],
    "openDaysNote": ""
  },
  {
    "id": "491300562",
    "name": "地域密着型通所介護やまあかり",
    "kana": "ヤマアカリ",
    "address": "宮城県栗原市栗駒松倉高田23-1",
    "lat": 38.8623616703482,
    "lng": 140.95492142209,
    "tel": "0228-24-9811",
    "url": "",
    "pref": "宮城県",
    "city": "栗原市",
    "category": "community_day_service",
    "serviceType": "地域密着型通所介護",
    "capacity": 0,
    "openDays": [
      "平日",
      "土曜日",
      "日曜日",
      "祝日"
    ],
    "openDaysNote": "年中無休"
  },
  {
    "id": "491300497",
    "name": "地域密着型通所介護飛縁",
    "kana": "チイキミッチャクガタツウショカイゴヒヨリ",
    "address": "宮城県栗原市金成小迫小坊沢66",
    "lat": 38.82072,
    "lng": 141.0513472,
    "tel": "0228-24-9543",
    "url": "",
    "pref": "宮城県",
    "city": "栗原市",
    "category": "community_day_service",
    "serviceType": "地域密着型通所介護",
    "capacity": null,
    "openDays": [
      "平日"
    ],
    "openDaysNote": ""
  },
  {
    "id": "471301663",
    "name": "通所介護ひまわり畑岡",
    "kana": "ツウショカイゴヒマワリハタオカ",
    "address": "栗原市若柳字上畑岡本鹿野５２-１",
    "lat": 38.7374181,
    "lng": 141.1149364,
    "tel": "0228-24-7741",
    "url": "",
    "pref": "宮城県",
    "city": "栗原市",
    "category": "community_day_service",
    "serviceType": "地域密着型通所介護",
    "capacity": 0,
    "openDays": [
      "平日",
      "土曜日",
      "祝日"
    ],
    "openDaysNote": ""
  },
  {
    "id": "491300570",
    "name": "風和の郷　六日町",
    "kana": "フウナノサト　ムイカマチ",
    "address": "宮城県栗原市栗駒岩ケ崎六日町４５番地",
    "lat": 38.8309118,
    "lng": 140.9894834,
    "tel": "0228-24-7430",
    "url": "https://fuuna-no-sato.com/outline.html",
    "pref": "宮城県",
    "city": "栗原市",
    "category": "community_day_service",
    "serviceType": "地域密着型通所介護",
    "capacity": null,
    "openDays": [
      "平日",
      "土曜日",
      "日曜日",
      "祝日"
    ],
    "openDaysNote": ""
  },
  {
    "id": "471300558",
    "name": "薬師デイサービスセンター",
    "kana": "ヤクシデイサービスセンター",
    "address": "宮城県栗原市築館伊豆四丁目３番４０号",
    "lat": 38.7310727,
    "lng": 141.0233662,
    "tel": "0228-22-0155",
    "url": "https://www.hatayamaclinic.com",
    "pref": "宮城県",
    "city": "栗原市",
    "category": "community_day_service",
    "serviceType": "地域密着型通所介護",
    "capacity": 0,
    "openDays": [
      "平日",
      "土曜日",
      "祝日"
    ],
    "openDaysNote": ""
  },
  {
    "id": "492400049",
    "name": "すみれデイサービス",
    "kana": "スミレデイサービス",
    "address": "宮城県亘理郡山元町坂元字町44-1",
    "lat": 37.920621,
    "lng": 140.8967183,
    "tel": "0223-38-1661",
    "url": "",
    "pref": "宮城県",
    "city": "山元町",
    "category": "community_day_service",
    "serviceType": "地域密着型通所介護",
    "capacity": 0,
    "openDays": [
      "平日",
      "土曜日",
      "祝日"
    ],
    "openDaysNote": ""
  },
  {
    "id": "492400072",
    "name": "ディ・ハウスにこにこ",
    "kana": "ディ・ハウスニコニコ",
    "address": "宮城県亘理郡山元町小平字北ノ入５６番地２",
    "lat": 37.9829588,
    "lng": 140.8599977,
    "tel": "0223-33-8388",
    "url": "",
    "pref": "宮城県",
    "city": "山元町",
    "category": "community_day_service",
    "serviceType": "地域密着型通所介護",
    "capacity": null,
    "openDays": [
      "平日",
      "土曜日",
      "祝日"
    ],
    "openDaysNote": ""
  },
  {
    "id": "472400472",
    "name": "デイサービス　えん",
    "kana": "デイサービス　エン",
    "address": "宮城県亘理郡山元町山寺字畑中10番地7",
    "lat": 37.9692588,
    "lng": 140.8700854,
    "tel": "0223-33-8850",
    "url": "",
    "pref": "宮城県",
    "city": "山元町",
    "category": "community_day_service",
    "serviceType": "地域密着型通所介護",
    "capacity": 0,
    "openDays": [
      "平日",
      "土曜日",
      "祝日"
    ],
    "openDaysNote": "年末年始休業：１２月３１日から１月３日まで"
  },
  {
    "id": "492400080",
    "name": "デイサービス　ひまわり",
    "kana": "デイサービス　ヒマワリ",
    "address": "宮城県亘理郡山元町高瀬字合戦原100-41",
    "lat": 37.943215195718,
    "lng": 140.8929512704,
    "tel": "0223-35-6530",
    "url": "",
    "pref": "宮城県",
    "city": "山元町",
    "category": "community_day_service",
    "serviceType": "地域密着型通所介護",
    "capacity": 18,
    "openDays": [
      "平日",
      "土曜日",
      "祝日"
    ],
    "openDaysNote": ""
  },
  {
    "id": "472400647",
    "name": "医療法人社団　松村クリニック　さくらデイサービス",
    "kana": "イリョウホウジンシャダン　マツムラクリニック　サクラデイサービス",
    "address": "宮城県亘理郡山元町高瀬字合戦原54番地2在宅ケアセンターさくら内 在宅ケアセンターさくら内",
    "lat": 37.9465594665128,
    "lng": 140.894052429639,
    "tel": "0223-23-1187",
    "url": "",
    "pref": "宮城県",
    "city": "山元町",
    "category": "community_day_service",
    "serviceType": "地域密着型通所介護",
    "capacity": 0,
    "openDays": [
      "平日",
      "土曜日",
      "祝日"
    ],
    "openDaysNote": ""
  },
  {
    "id": "472600873",
    "name": "デイサービスひまわりの郷",
    "kana": "デイサービス　ヒマワリノサト",
    "address": "宮城県宮城郡七ヶ浜町遠山5-5-64",
    "lat": 38.3046947149005,
    "lng": 141.038999297859,
    "tel": "022-794-7684",
    "url": "https://www.himawari-7.com/",
    "pref": "宮城県",
    "city": "七ヶ浜町",
    "category": "community_day_service",
    "serviceType": "地域密着型通所介護",
    "capacity": 0,
    "openDays": [
      "平日",
      "土曜日",
      "祝日"
    ],
    "openDaysNote": ""
  },
  {
    "id": "472600378",
    "name": "在宅支援　ほたる",
    "kana": "ザイタクシエン　ホタル",
    "address": "宮城県宮城郡七ヶ浜町遠山二丁目4-38",
    "lat": 38.2956017,
    "lng": 141.0407322,
    "tel": "022-365-7030",
    "url": "",
    "pref": "宮城県",
    "city": "七ヶ浜町",
    "category": "community_day_service",
    "serviceType": "地域密着型通所介護",
    "capacity": 10,
    "openDays": [
      "平日",
      "土曜日",
      "祝日"
    ],
    "openDaysNote": ""
  },
  {
    "id": "472201011",
    "name": "みどりの杜デイサービスセンター東船岡",
    "kana": "ミドリノモリデイサービスセンターヒガシフナオカ",
    "address": "宮城県柴田郡柴田町船岡新栄4－6－5",
    "lat": 38.0511694543971,
    "lng": 140.782163057672,
    "tel": "0224－54－3717",
    "url": "http://www.frontier-g.co.jp/ds/index.html",
    "pref": "宮城県",
    "city": "柴田町",
    "category": "community_day_service",
    "serviceType": "地域密着型通所介護",
    "capacity": 0,
    "openDays": [
      "平日",
      "土曜日"
    ],
    "openDaysNote": "午前9：00～12：15　午後14：00～17：15（改行）3時間の短時間型（改行）運動中心のデイサービス（改行）食事・入浴なし（改行）12月29日～1月5日，8月12日～8月15日は休業"
  },
  {
    "id": "492200159",
    "name": "らいおんハートリハビリデイサービスばうむ",
    "kana": "ライオンハートリハビリデイサービスバウム",
    "address": "宮城県柴田郡柴田町字下名生剣塚42番地３号",
    "lat": 38.0657038577336,
    "lng": 140.807261284656,
    "tel": "0224-86-5471",
    "url": "https://lion-heart.co/html/baum.html",
    "pref": "宮城県",
    "city": "柴田町",
    "category": "community_day_service",
    "serviceType": "地域密着型通所介護",
    "capacity": 18,
    "openDays": [
      "平日",
      "土曜日",
      "祝日"
    ],
    "openDaysNote": "12月30日～1月3日年末年始休暇"
  },
  {
    "id": "493500037",
    "name": "デイサービス　ふらっと女川",
    "kana": "デイサービス　フラットオナガワ",
    "address": "宮城県牡鹿郡女川町鷲神浜字堀切山109-6",
    "lat": 38.4403460846028,
    "lng": 141.440300689549,
    "tel": "0225-25-7380",
    "url": "https://flat-onagawa.com/",
    "pref": "宮城県",
    "city": "女川町",
    "category": "community_day_service",
    "serviceType": "地域密着型通所介護",
    "capacity": 15,
    "openDays": [
      "平日",
      "土曜日",
      "祝日"
    ],
    "openDaysNote": ""
  },
  {
    "id": "472600501",
    "name": "松島町健康館デイサービスセンター",
    "kana": "マツシママチケンコウカンデイサービスセンター",
    "address": "宮城県宮城郡松島町初原字岩清水1-1",
    "lat": 38.3992892,
    "lng": 141.0561079,
    "tel": "022-354-3305",
    "url": "http://r.goope.jp/matsushakyo/",
    "pref": "宮城県",
    "city": "松島町",
    "category": "community_day_service",
    "serviceType": "地域密着型通所介護",
    "capacity": 0,
    "openDays": [
      "平日",
      "土曜日"
    ],
    "openDaysNote": ""
  },
  {
    "id": "470202516",
    "name": "A＆BきむらA",
    "kana": "エイアンドビイキムラエイ",
    "address": "宮城県石巻市中里4丁目11－12",
    "lat": 38.4429068,
    "lng": 141.2933535,
    "tel": "0225-25-6293",
    "url": "http://hp.kaipoke.biz/pmy/",
    "pref": "宮城県",
    "city": "石巻市",
    "category": "community_day_service",
    "serviceType": "地域密着型通所介護",
    "capacity": 100,
    "openDays": [
      "平日"
    ],
    "openDaysNote": ""
  },
  {
    "id": "470202656",
    "name": "A＆BきむらB",
    "kana": "エイアンドビイキムラビイ",
    "address": "宮城県石巻市中里4丁目１１－１２",
    "lat": 38.443204,
    "lng": 141.2936285,
    "tel": "0225-25-6294",
    "url": "http://hp.kaipoke.biz/pmy/",
    "pref": "宮城県",
    "city": "石巻市",
    "category": "community_day_service",
    "serviceType": "地域密着型通所介護",
    "capacity": 50,
    "openDays": [
      "平日"
    ],
    "openDaysNote": ""
  },
  {
    "id": "470201880",
    "name": "アイユーデイサービス",
    "kana": "アイユーデイサービス",
    "address": "宮城県石巻市さくら町五丁目６番地３",
    "lat": 38.4222557,
    "lng": 141.3594898,
    "tel": "0225-24-5639",
    "url": "http://www.aiwa-kaigo.com/",
    "pref": "宮城県",
    "city": "石巻市",
    "category": "community_day_service",
    "serviceType": "地域密着型通所介護",
    "capacity": 10,
    "openDays": [
      "平日",
      "祝日"
    ],
    "openDaysNote": ""
  },
  {
    "id": "470202557",
    "name": "あおぞらデイサービスセンター第Ⅱ",
    "kana": "アオゾラデイサービスセンターダイニ",
    "address": "宮城県石巻市丸井戸三丁目１７番１９号",
    "lat": 38.4473793434047,
    "lng": 141.277462348102,
    "tel": "0225-93-6670",
    "url": "",
    "pref": "宮城県",
    "city": "石巻市",
    "category": "community_day_service",
    "serviceType": "地域密着型通所介護",
    "capacity": 0,
    "openDays": [
      "平日",
      "祝日"
    ],
    "openDaysNote": "１月１日～１月２日まで年始休業日・８月１５日～８月１６日までお盆休業日。"
  },
  {
    "id": "470202540",
    "name": "しらゆりデイサービスセンター",
    "kana": "シラユリデイサービスセンター",
    "address": "宮城県石巻市渡波字黄金浜159-10",
    "lat": 38.4189893,
    "lng": 141.3564735,
    "tel": "0225-24-2035",
    "url": "",
    "pref": "宮城県",
    "city": "石巻市",
    "category": "community_day_service",
    "serviceType": "地域密着型通所介護",
    "capacity": 0,
    "openDays": [
      "平日",
      "土曜日",
      "日曜日",
      "祝日"
    ],
    "openDaysNote": "利用者が居る日のみ運営"
  },
  {
    "id": "470202391",
    "name": "スタジオぷらす",
    "kana": "スタジオプラス",
    "address": "宮城県石巻市相野谷字今泉前29-3",
    "lat": 38.5168824,
    "lng": 141.3196035,
    "tel": "0225-98-8957",
    "url": "https://replus.mystrikingly.com/",
    "pref": "宮城県",
    "city": "石巻市",
    "category": "community_day_service",
    "serviceType": "地域密着型通所介護",
    "capacity": 90,
    "openDays": [
      "平日",
      "土曜日",
      "祝日"
    ],
    "openDaysNote": "木曜日と土曜日の午後、日曜日は休み"
  },
  {
    "id": "470200940",
    "name": "せんだんの杜ものうなかつやま第一通所介護事業所",
    "kana": "センダンノモリモノウナカツヤマダイイチツウショカイゴジギョウショ",
    "address": "宮城県石巻市桃生町給人町字東町９６番地２",
    "lat": 38.5409574,
    "lng": 141.2391895,
    "tel": "0225-79-1602",
    "url": "http://www.sendan.or.jp/",
    "pref": "宮城県",
    "city": "石巻市",
    "category": "community_day_service",
    "serviceType": "地域密着型通所介護",
    "capacity": 0,
    "openDays": [
      "平日",
      "土曜日",
      "日曜日",
      "祝日"
    ],
    "openDaysNote": ""
  },
  {
    "id": "470202292",
    "name": "デイサービス　とやけの空",
    "kana": "デイサービス　トヤケノソラ",
    "address": "宮城県石巻市大森字的場１",
    "lat": 38.502244515156,
    "lng": 141.315784580391,
    "tel": "0225-98-7571",
    "url": "https://toyakenomori.net",
    "pref": "宮城県",
    "city": "石巻市",
    "category": "community_day_service",
    "serviceType": "地域密着型通所介護",
    "capacity": 50,
    "openDays": [
      "平日",
      "祝日"
    ],
    "openDaysNote": ""
  },
  {
    "id": "470201914",
    "name": "デイサービス　とやけの森",
    "kana": "デイサービス　トヤケノモリ",
    "address": "宮城県石巻市大森字的場１",
    "lat": 38.5023924869071,
    "lng": 141.315953623902,
    "tel": "0225-25-7103",
    "url": "https://toyakenomori.net",
    "pref": "宮城県",
    "city": "石巻市",
    "category": "community_day_service",
    "serviceType": "地域密着型通所介護",
    "capacity": 100,
    "openDays": [
      "平日",
      "土曜日",
      "祝日"
    ],
    "openDaysNote": ""
  },
  {
    "id": "470202177",
    "name": "デイサービスセンター花鳥風月",
    "kana": "デイサービスセンターカチョウフウゲツ",
    "address": "宮城県石巻市開成1番地",
    "lat": 38.4654046,
    "lng": 141.3090608,
    "tel": "0225-25-5380",
    "url": "http://katyofuugetu.wix.com/kaigo",
    "pref": "宮城県",
    "city": "石巻市",
    "category": "community_day_service",
    "serviceType": "地域密着型通所介護",
    "capacity": 0,
    "openDays": [
      "平日",
      "土曜日",
      "日曜日",
      "祝日"
    ],
    "openDaysNote": ""
  },
  {
    "id": "490200292",
    "name": "デイサービスももとせ",
    "kana": "デイサービスモモトセ",
    "address": "宮城県石巻市門脇字青葉東１０１－１",
    "lat": 38.4353319,
    "lng": 141.2690664,
    "tel": "0225-90-4381",
    "url": "",
    "pref": "宮城県",
    "city": "石巻市",
    "category": "community_day_service",
    "serviceType": "地域密着型通所介護",
    "capacity": 16,
    "openDays": [
      "平日",
      "土曜日",
      "日曜日",
      "祝日"
    ],
    "openDaysNote": ""
  },
  {
    "id": "470202219",
    "name": "デイサービス福寿の里",
    "kana": "デイサービスフクジュノサト",
    "address": "宮城県石巻市鹿又字梅木屋敷37",
    "lat": 38.4965604,
    "lng": 141.2586845,
    "tel": "0225-86-5115",
    "url": "https://www.fukuzyunosato.com/",
    "pref": "宮城県",
    "city": "石巻市",
    "category": "community_day_service",
    "serviceType": "地域密着型通所介護",
    "capacity": 0,
    "openDays": [
      "平日",
      "土曜日",
      "日曜日",
      "祝日"
    ],
    "openDaysNote": ""
  },
  {
    "id": "470200973",
    "name": "ぱんぷきん介護センターデイサービスセンターさくら",
    "kana": "パンプキンカイゴセンターデイサービスセンターサクラ",
    "address": "宮城県石巻市広渕字馬場屋敷113-1",
    "lat": 38.4744757,
    "lng": 141.2165444,
    "tel": "0225-86-6166",
    "url": "http://care-net.biz/04/pumpkin/",
    "pref": "宮城県",
    "city": "石巻市",
    "category": "community_day_service",
    "serviceType": "地域密着型通所介護",
    "capacity": 18,
    "openDays": [
      "平日",
      "土曜日",
      "祝日"
    ],
    "openDaysNote": "上記以外は、営業しております"
  },
  {
    "id": "470201328",
    "name": "ひだまりの家ディサービスセンター",
    "kana": "ヒダマリノイエデイサービスセンター",
    "address": "宮城県石巻市須江字池袋5番地2",
    "lat": 38.4749153,
    "lng": 141.2421838,
    "tel": "0225-86-6855",
    "url": "",
    "pref": "宮城県",
    "city": "石巻市",
    "category": "community_day_service",
    "serviceType": "地域密着型通所介護",
    "capacity": 18,
    "openDays": [
      "平日",
      "土曜日",
      "祝日"
    ],
    "openDaysNote": "年末年始休み（改行）12月31日～1月1日"
  },
  {
    "id": "470202763",
    "name": "フィットネス型リハサロン　ＭＫ石巻",
    "kana": "フィットネスガタリハサロン　エムケーイシノマキ",
    "address": "宮城県石巻市南中里３丁目１３－１５ＭＫﾌﾟﾗｻﾞ１Ｆ ＭＫﾌﾟﾗｻﾞ１Ｆ",
    "lat": 38.4399966,
    "lng": 141.2974756,
    "tel": "0225-25-7350",
    "url": "http://www.i-port.ne.jp>zen/mkkaigo.html",
    "pref": "宮城県",
    "city": "石巻市",
    "category": "community_day_service",
    "serviceType": "地域密着型通所介護",
    "capacity": 50,
    "openDays": [
      "平日"
    ],
    "openDaysNote": "夏季休暇（８月１３日から１５日）、年末年始（１２月２９日から１月４日）"
  },
  {
    "id": "490200391",
    "name": "ぷりけあデイサービス",
    "kana": "プリケアデイサービス",
    "address": "宮城県石巻市駅前北通り１－１４－２９ダルセーニョ壱番館２F ダルセーニョ壱番館２F",
    "lat": 38.4382415,
    "lng": 141.3074016,
    "tel": "0225-90-3357",
    "url": "https://pri-care.com",
    "pref": "宮城県",
    "city": "石巻市",
    "category": "community_day_service",
    "serviceType": "地域密着型通所介護",
    "capacity": null,
    "openDays": [
      "平日"
    ],
    "openDaysNote": ""
  },
  {
    "id": "470200593",
    "name": "まごころデイサービスセンター",
    "kana": "デイサービスセンター",
    "address": "宮城県石巻市中里４丁目７－１７",
    "lat": 38.4424082336384,
    "lng": 141.294655272166,
    "tel": "0225-21-1981",
    "url": "",
    "pref": "宮城県",
    "city": "石巻市",
    "category": "community_day_service",
    "serviceType": "地域密着型通所介護",
    "capacity": 0,
    "openDays": [
      "平日",
      "土曜日",
      "祝日"
    ],
    "openDaysNote": ""
  },
  {
    "id": "470202466",
    "name": "よってがいん",
    "kana": "ヨッテガイン",
    "address": "宮城県石巻市渡波字新千刈140番地1",
    "lat": 38.4218196353556,
    "lng": 141.353950160748,
    "tel": "0225-98-8350",
    "url": "https://www.facebook.com/YottegainWatanoha",
    "pref": "宮城県",
    "city": "石巻市",
    "category": "community_day_service",
    "serviceType": "地域密着型通所介護",
    "capacity": 10,
    "openDays": [
      "平日",
      "日曜日",
      "祝日"
    ],
    "openDaysNote": "12/31及び1/1は休み"
  },
  {
    "id": "470202615",
    "name": "リハビリサロンPlace",
    "kana": "リハビリサロンプレイス",
    "address": "宮城県石巻市千石町２番３８号",
    "lat": 38.434805973179,
    "lng": 141.308443188391,
    "tel": "0225-25-7911",
    "url": "http://rehasalonplace.wix.com/rehasalonplace",
    "pref": "宮城県",
    "city": "石巻市",
    "category": "community_day_service",
    "serviceType": "地域密着型通所介護",
    "capacity": 15,
    "openDays": [
      "平日",
      "土曜日",
      "祝日"
    ],
    "openDaysNote": ""
  },
  {
    "id": "470202375",
    "name": "リハビリデイサービス　結",
    "kana": "リハビリデイサービス　ユイ",
    "address": "宮城県石巻市山下町1丁目5－20クレアトゥール103 クレアトゥール103",
    "lat": 38.4344892601917,
    "lng": 141.294791896465,
    "tel": "0225-98-9040",
    "url": "http://hidamarihari9.web.fc2.com",
    "pref": "宮城県",
    "city": "石巻市",
    "category": "community_day_service",
    "serviceType": "地域密着型通所介護",
    "capacity": 180,
    "openDays": [
      "平日",
      "土曜日",
      "祝日"
    ],
    "openDaysNote": "祝日営業（改行）年5日の有給休暇取得あり"
  },
  {
    "id": "470202482",
    "name": "リハビリ特化型デイサービス　リハニック石巻",
    "kana": "リハビリトッカガタデイサービス　リハニック　イシノマキ",
    "address": "宮城県石巻市双葉町8-37ハイツ千石1F ハイツ千石1F",
    "lat": 38.4253249,
    "lng": 141.2909847,
    "tel": "0225-25-6460",
    "url": "http://www.rehanic.jp/",
    "pref": "宮城県",
    "city": "石巻市",
    "category": "community_day_service",
    "serviceType": "地域密着型通所介護",
    "capacity": 180,
    "openDays": [
      "平日",
      "祝日"
    ],
    "openDaysNote": ""
  },
  {
    "id": "470202706",
    "name": "レッツ倶楽部石巻蛇田",
    "kana": "レッツクラブイシノマキヘビタ",
    "address": "宮城県石巻市蛇田字南経塚6-4",
    "lat": 38.4527676157118,
    "lng": 141.264760755992,
    "tel": "0225-98-9846",
    "url": "http:/www.lets-club.jp",
    "pref": "宮城県",
    "city": "石巻市",
    "category": "community_day_service",
    "serviceType": "地域密着型通所介護",
    "capacity": 216,
    "openDays": [
      "平日",
      "土曜日",
      "祝日"
    ],
    "openDaysNote": "但し、お盆・年末年始を除く。"
  },
  {
    "id": "470202227",
    "name": "清優館デイサービスセンター",
    "kana": "セイユウカンデイサービスセンター",
    "address": "宮城県石巻市鮎川浜清崎山７番地",
    "lat": 38.2984144074191,
    "lng": 141.499041898811,
    "tel": "0225-44-1380",
    "url": "https://www.kyokujukai.or.jp/",
    "pref": "宮城県",
    "city": "石巻市",
    "category": "community_day_service",
    "serviceType": "地域密着型通所介護",
    "capacity": 10,
    "openDays": [
      "平日",
      "祝日"
    ],
    "openDaysNote": ""
  },
  {
    "id": "470200148",
    "name": "石巻デイサービスセンターやすらぎ荘",
    "kana": "イシノマキデイサービスセンターヤスラギソウ",
    "address": "宮城県石巻市山下町一丁目11番22号",
    "lat": 38.4319955832704,
    "lng": 141.294089758301,
    "tel": "0225-93-8332",
    "url": "http://www.wajinfukusi.jp/",
    "pref": "宮城県",
    "city": "石巻市",
    "category": "community_day_service",
    "serviceType": "地域密着型通所介護",
    "capacity": 18,
    "openDays": [
      "平日",
      "土曜日",
      "祝日"
    ],
    "openDaysNote": "日曜日と年末年始（12/30から1/3まで）は、併設の特別養護老人ホーム和香園（電話：0225-93-8330）にて対応"
  },
  {
    "id": "470201146",
    "name": "石巻市雄勝デイサービスセンター",
    "kana": "イシノマキシオガツデイサービスセンター",
    "address": "宮城県石巻市雄勝町小島字和田１２３番地",
    "lat": 38.5121620300395,
    "lng": 141.50038272209,
    "tel": "0225-57-3645",
    "url": "http://www.kyokujukai.or.jp/",
    "pref": "宮城県",
    "city": "石巻市",
    "category": "community_day_service",
    "serviceType": "地域密着型通所介護",
    "capacity": 10,
    "openDays": [
      "平日",
      "祝日"
    ],
    "openDaysNote": "重要事項説明書に記載"
  },
  {
    "id": "470202565",
    "name": "通所介護事業所「湊」",
    "kana": "ツウショカイゴジギョウショ「ミナト」",
    "address": "宮城県市湊東二丁目１９番地１",
    "lat": 38.4185879,
    "lng": 141.3241486,
    "tel": "0225-90-4061",
    "url": "",
    "pref": "宮城県",
    "city": "石巻市",
    "category": "community_day_service",
    "serviceType": "地域密着型通所介護",
    "capacity": 0,
    "openDays": [
      "平日",
      "祝日"
    ],
    "openDaysNote": ""
  },
  {
    "id": "470200890",
    "name": "網地島デイサービスセンター",
    "kana": "アジシマデイサービスセンター",
    "address": "宮城県石巻市長渡浜杉13-3",
    "lat": 38.2663788,
    "lng": 141.4781654,
    "tel": "0225-44-3007",
    "url": "http://www.amishou.weebly.com",
    "pref": "宮城県",
    "city": "石巻市",
    "category": "community_day_service",
    "serviceType": "地域密着型通所介護",
    "capacity": 36,
    "openDays": [
      "平日"
    ],
    "openDaysNote": "水曜日・金曜日の週2回営業"
  },
  {
    "id": "475202396",
    "name": "GENKINEXT　仙台小田原",
    "kana": "ゲンキネクスト　センダイオダワラ",
    "address": "仙台市宮城野区小田原2丁目1-28アブニール小田原１階 アブニール小田原１階",
    "lat": 38.2647244,
    "lng": 140.8935092,
    "tel": "022-762-8975",
    "url": "https://kaigo-next.com/",
    "pref": "宮城県",
    "city": "仙台市宮城野区",
    "category": "community_day_service",
    "serviceType": "地域密着型通所介護",
    "capacity": 0,
    "openDays": [
      "平日",
      "祝日"
    ],
    "openDaysNote": "12/31-1/2年末年始休み"
  },
  {
    "id": "475202743",
    "name": "GENKINEXT仙台中野栄",
    "kana": "ゲンキネクスト　センダイナカノサカエ",
    "address": "宮城県仙台市宮城野区中野字柳原17",
    "lat": 38.281468,
    "lng": 140.9891548,
    "tel": "022－766－8298",
    "url": "",
    "pref": "宮城県",
    "city": "仙台市宮城野区",
    "category": "community_day_service",
    "serviceType": "地域密着型通所介護",
    "capacity": 140,
    "openDays": [
      "平日",
      "祝日"
    ],
    "openDaysNote": ""
  },
  {
    "id": "475202974",
    "name": "Ｑアップスタジオ宮城野",
    "kana": "キュウアップスタジオミヤギノ",
    "address": "宮城県仙台市宮城野区鶴巻二丁目１番１３号",
    "lat": 38.2608328,
    "lng": 140.9648386,
    "tel": "022-388-7626",
    "url": "http://www.care-partner.com/",
    "pref": "宮城県",
    "city": "仙台市宮城野区",
    "category": "community_day_service",
    "serviceType": "地域密着型通所介護",
    "capacity": 15,
    "openDays": [
      "平日",
      "祝日"
    ],
    "openDaysNote": "年末年始休暇として12/30～1/3日定休日とさせていただいております。"
  },
  {
    "id": "475203154",
    "name": "アースサポート仙台高砂",
    "kana": "アースサポートセンダイタカサゴ",
    "address": "宮城県仙台市宮城野区福室3丁目24番18号",
    "lat": 38.2824114,
    "lng": 140.972981,
    "tel": "022-388-6200",
    "url": "http://www.earthsupport.co.jp/",
    "pref": "宮城県",
    "city": "仙台市宮城野区",
    "category": "community_day_service",
    "serviceType": "地域密着型通所介護",
    "capacity": 0,
    "openDays": [
      "平日",
      "土曜日",
      "祝日"
    ],
    "openDaysNote": "12/30-1/3を除く"
  },
  {
    "id": "475202214",
    "name": "サテライトケアセンターみやぎの",
    "kana": "サテライトケアセンターミヤギノ",
    "address": "宮城県仙台市宮城野区幸町2-4-5",
    "lat": 38.2763954,
    "lng": 140.8949944,
    "tel": "022-344-7792",
    "url": "http://www.team-forest.net",
    "pref": "宮城県",
    "city": "仙台市宮城野区",
    "category": "community_day_service",
    "serviceType": "地域密着型通所介護",
    "capacity": 18,
    "openDays": [
      "平日"
    ],
    "openDaysNote": ""
  },
  {
    "id": "475202792",
    "name": "サテライトケアセンター榴ヶ岡通所介護事業所",
    "kana": "サテライトケアセンターツツジガオカツウショカイゴジギョウショ",
    "address": "宮城県仙台市宮城野区榴岡３－９－２０光明コーポ１０２ 光明コーポ１０２",
    "lat": 38.260633,
    "lng": 140.8895375,
    "tel": "０２２－３５４－１７９２",
    "url": "http://team-forest.net",
    "pref": "宮城県",
    "city": "仙台市宮城野区",
    "category": "community_day_service",
    "serviceType": "地域密着型通所介護",
    "capacity": 18,
    "openDays": [
      "平日"
    ],
    "openDaysNote": ""
  },
  {
    "id": "475202693",
    "name": "ステラパークス仙台　デイサービスセンターすてら",
    "kana": "ステラパークスセンダイ　デイサービスセンターステラ",
    "address": "宮城県仙台市宮城野区福田町1丁目3番27号ステラパークス仙台 ステラパークス仙台",
    "lat": 38.2595383,
    "lng": 140.962375,
    "tel": "022-388-7015",
    "url": "http://stella-pax.com",
    "pref": "宮城県",
    "city": "仙台市宮城野区",
    "category": "community_day_service",
    "serviceType": "地域密着型通所介護",
    "capacity": 10,
    "openDays": [
      "平日",
      "祝日"
    ],
    "openDaysNote": ""
  },
  {
    "id": "475202313",
    "name": "デイサービスＮＡＫＡＧＡＷＡ",
    "kana": "デイサービスナカガワ",
    "address": "宮城県仙台市宮城野区鉄砲町中3番地4プラザ和光ビル１Ｆ プラザ和光ビル１Ｆ",
    "lat": 38.2639799,
    "lng": 140.8890375,
    "tel": "022-299-2510",
    "url": "http://www.nakagawa-d.co.jp",
    "pref": "宮城県",
    "city": "仙台市宮城野区",
    "category": "community_day_service",
    "serviceType": "地域密着型通所介護",
    "capacity": 18,
    "openDays": [
      "平日",
      "祝日"
    ],
    "openDaysNote": ""
  },
  {
    "id": "475202073",
    "name": "デイサービス雅苑",
    "kana": "デイサービスミヤビエン",
    "address": "宮城県仙台市宮城野区原町５丁目１－１１",
    "lat": 38.2680749937712,
    "lng": 140.911664559525,
    "tel": "022-346-9016",
    "url": "",
    "pref": "宮城県",
    "city": "仙台市宮城野区",
    "category": "community_day_service",
    "serviceType": "地域密着型通所介護",
    "capacity": 10,
    "openDays": [
      "平日",
      "土曜日"
    ],
    "openDaysNote": "GW、敬老の日は営業致します。"
  },
  {
    "id": "495200453",
    "name": "でいさーびす畑中",
    "kana": "デイサービスハタケナカ",
    "address": "宮城県仙台市宮城野区岩切字水分64-43",
    "lat": 38.3019962,
    "lng": 140.9369266,
    "tel": "022-255-7041",
    "url": "",
    "pref": "宮城県",
    "city": "仙台市宮城野区",
    "category": "community_day_service",
    "serviceType": "地域密着型通所介護",
    "capacity": 8,
    "openDays": [
      "平日",
      "祝日"
    ],
    "openDaysNote": ""
  },
  {
    "id": "495200339",
    "name": "フィジカルケア",
    "kana": "フィジカルケア",
    "address": "宮城県仙台市宮城野区宮千代3-4-21コーポ松和1F コーポ松和1F",
    "lat": 38.2540709,
    "lng": 140.9167571,
    "tel": "022-766-8626",
    "url": "",
    "pref": "宮城県",
    "city": "仙台市宮城野区",
    "category": "community_day_service",
    "serviceType": "地域密着型通所介護",
    "capacity": 10,
    "openDays": [
      "平日",
      "祝日"
    ],
    "openDaysNote": "祝祭日は営業している。"
  },
  {
    "id": "495200586",
    "name": "プラスワン宮千代フィットネスジム",
    "kana": "プラスワンミヤチヨフィットネスジム",
    "address": "宮城県仙台市宮城野区宮千代1-21-3",
    "lat": 38.2532551,
    "lng": 140.9072345,
    "tel": "022-794-8988",
    "url": "",
    "pref": "宮城県",
    "city": "仙台市宮城野区",
    "category": "community_day_service",
    "serviceType": "地域密着型通所介護",
    "capacity": 7,
    "openDays": [
      "平日",
      "祝日"
    ],
    "openDaysNote": ""
  },
  {
    "id": "495200529",
    "name": "まごの手デイサービス",
    "kana": "マゴノテデイサービス",
    "address": "宮城県仙台市宮城野区鶴ケ谷3-20-22",
    "lat": 38.2911026,
    "lng": 140.912979,
    "tel": "022-794-9428",
    "url": "http://magonote-d-service.jimdosite.com",
    "pref": "宮城県",
    "city": "仙台市宮城野区",
    "category": "community_day_service",
    "serviceType": "地域密着型通所介護",
    "capacity": 10,
    "openDays": [
      "平日"
    ],
    "openDaysNote": ""
  },
  {
    "id": "475300406",
    "name": "アースサポート河原町",
    "kana": "アースサポートカワラマチ",
    "address": "宮城県仙台市若林区新弓ノ町37番3号",
    "lat": 38.2405932,
    "lng": 140.8900715,
    "tel": "022-726-3881",
    "url": "http://www.earthsupport.co.jp",
    "pref": "宮城県",
    "city": "仙台市若林区",
    "category": "community_day_service",
    "serviceType": "地域密着型通所介護",
    "capacity": 0,
    "openDays": [
      "平日",
      "土曜日",
      "祝日"
    ],
    "openDaysNote": "１２月３０日～１月３日を除く"
  },
  {
    "id": "475302147",
    "name": "アースサポート仙台大和町",
    "kana": "アースサポートセンダイヤマトマチ",
    "address": "宮城県仙台市若林区大和町５－３０－２５",
    "lat": 38.2476552,
    "lng": 140.9240457,
    "tel": "022-782-6311",
    "url": "http://www.earthsupport.co.jp",
    "pref": "宮城県",
    "city": "仙台市若林区",
    "category": "community_day_service",
    "serviceType": "地域密着型通所介護",
    "capacity": 0,
    "openDays": [
      "平日",
      "祝日"
    ],
    "openDaysNote": "12/30～1/3は休み"
  },
  {
    "id": "475301438",
    "name": "アシスト中倉デイサービス",
    "kana": "アシストナカクラデイサービス",
    "address": "宮城県仙台市若林区中倉一丁目１番8号阿部ビル1階 阿部ビル1階",
    "lat": 38.2439855,
    "lng": 140.9091889,
    "tel": "022-346-7280",
    "url": "http://assist-nakakura.com/",
    "pref": "宮城県",
    "city": "仙台市若林区",
    "category": "community_day_service",
    "serviceType": "地域密着型通所介護",
    "capacity": 10,
    "openDays": [
      "平日",
      "土曜日",
      "祝日"
    ],
    "openDaysNote": "日曜日以外の祝日は、通常通り営業。"
  },
  {
    "id": "495300246",
    "name": "お泊り対応型デイサービス　くるみ",
    "kana": "オトマリタイオウガタデイサービス　クルミ",
    "address": "宮城県仙台市若林区上飯田2丁目34ｰ31",
    "lat": 38.2147612,
    "lng": 140.9199452,
    "tel": "022-354-0635",
    "url": "",
    "pref": "宮城県",
    "city": "仙台市若林区",
    "category": "community_day_service",
    "serviceType": "地域密着型通所介護",
    "capacity": 0,
    "openDays": [
      "平日",
      "土曜日",
      "祝日"
    ],
    "openDaysNote": "夏季休業及び年末年始休業あり。"
  },
  {
    "id": "495300352",
    "name": "グランユニライフデイサービスセンター仙台若林",
    "kana": "グランユニライフデイサービスセンターセンダイワカバヤシ",
    "address": "宮城県仙台市若林区若林5-4-50メディカルグランヴィル仙台若林 メディカルグランヴィル仙台若林",
    "lat": 38.2303718,
    "lng": 140.9024248,
    "tel": "022-207-8867",
    "url": "",
    "pref": "宮城県",
    "city": "仙台市若林区",
    "category": "community_day_service",
    "serviceType": "地域密着型通所介護",
    "capacity": 0,
    "openDays": [
      "平日",
      "祝日"
    ],
    "openDaysNote": ""
  },
  {
    "id": "475301347",
    "name": "サテライトケアセンター仙台東　通所介護事業所",
    "kana": "サテライトケアセンターセンダイヒガシ",
    "address": "宮城県仙台市若林区六丁の目北町１４－６１　1F",
    "lat": 38.2506436674047,
    "lng": 140.951312259525,
    "tel": "022-288-3372",
    "url": "http://www.team-forest.net/",
    "pref": "宮城県",
    "city": "仙台市若林区",
    "category": "community_day_service",
    "serviceType": "地域密着型通所介護",
    "capacity": 0,
    "openDays": [
      "平日"
    ],
    "openDaysNote": ""
  },
  {
    "id": "475302196",
    "name": "デイサービスいきいき",
    "kana": "デイサービスイキイキ",
    "address": "宮城県仙台市若林区若林5-1-5",
    "lat": 38.2328327518312,
    "lng": 140.90381024418,
    "tel": "022-353-7317",
    "url": "https://naritasekkotu.ivalue.info/",
    "pref": "宮城県",
    "city": "仙台市若林区",
    "category": "community_day_service",
    "serviceType": "地域密着型通所介護",
    "capacity": 0,
    "openDays": [
      "平日",
      "祝日"
    ],
    "openDaysNote": ""
  },
  {
    "id": "475302469",
    "name": "デイサービスセンターなずな",
    "kana": "デイサービスセンターナズナ",
    "address": "宮城県仙台市若林区木ノ下２丁目１－３１",
    "lat": 38.2532814,
    "lng": 140.9011477,
    "tel": "022-353-6557",
    "url": "",
    "pref": "宮城県",
    "city": "仙台市若林区",
    "category": "community_day_service",
    "serviceType": "地域密着型通所介護",
    "capacity": 0,
    "openDays": [
      "平日",
      "土曜日",
      "祝日"
    ],
    "openDaysNote": ""
  },
  {
    "id": "475302022",
    "name": "デイサービスメロディ",
    "kana": "デイサービスメロディ",
    "address": "宮城県仙台市若林区連坊2-4-5志水ビル 志水ビル",
    "lat": 38.2523116,
    "lng": 140.8911571,
    "tel": "022-352-9119",
    "url": "http://melodykaigo.web.fc2.com/",
    "pref": "宮城県",
    "city": "仙台市若林区",
    "category": "community_day_service",
    "serviceType": "地域密着型通所介護",
    "capacity": 15,
    "openDays": [
      "平日"
    ],
    "openDaysNote": ""
  },
  {
    "id": "475301776",
    "name": "デイサービス憩いの園すみれ",
    "kana": "デイサービスイコイノソノスミレ",
    "address": "宮城県仙台市若林区沖野2丁目5番30号",
    "lat": 38.2313275888902,
    "lng": 140.909349184903,
    "tel": "022-762-6488",
    "url": "http://ikoi-sono.com",
    "pref": "宮城県",
    "city": "仙台市若林区",
    "category": "community_day_service",
    "serviceType": "地域密着型通所介護",
    "capacity": null,
    "openDays": [
      "平日",
      "土曜日",
      "日曜日",
      "祝日"
    ],
    "openDaysNote": ""
  },
  {
    "id": "475301545",
    "name": "ハート＆ドリーム",
    "kana": "ハートアンドドリーム",
    "address": "宮城県仙台市若林区荒町116番地１号シャンボール荒町１０１ シャンボール荒町１０１",
    "lat": 38.2497699,
    "lng": 140.8816331,
    "tel": "022-221-0556",
    "url": "",
    "pref": "宮城県",
    "city": "仙台市若林区",
    "category": "community_day_service",
    "serviceType": "地域密着型通所介護",
    "capacity": 18,
    "openDays": [
      "平日",
      "祝日"
    ],
    "openDaysNote": "年末年始　１２月２９日～１月３日"
  },
  {
    "id": "475302287",
    "name": "バイタルケア河原町デイサービスセンターさふらんの家",
    "kana": "バイタルケアカワラマチ　デイサービスセンターサフランノイエ",
    "address": "宮城県仙台市若林区河原町１丁目１－３プロモ河原町１０１号 プロモ河原町１０１号",
    "lat": 38.2403959,
    "lng": 140.8884994,
    "tel": "022-748-7313",
    "url": "http://www.vitalcare.co.jp/",
    "pref": "宮城県",
    "city": "仙台市若林区",
    "category": "community_day_service",
    "serviceType": "地域密着型通所介護",
    "capacity": 18,
    "openDays": [
      "平日",
      "土曜日",
      "祝日"
    ],
    "openDaysNote": "年末年始の休暇：１２/３０～１/３"
  },
  {
    "id": "475301479",
    "name": "バイタルケア若林デイサービスセンターさふらんの家",
    "kana": "バイタルケアワカバヤシディサービスセンターサフランノイエ",
    "address": "宮城県仙台市若林区木ノ下4丁目８番15号",
    "lat": 38.2488512,
    "lng": 140.8988148,
    "tel": "022-352-6473",
    "url": "http://www.vitalcare.co.jp",
    "pref": "宮城県",
    "city": "仙台市若林区",
    "category": "community_day_service",
    "serviceType": "地域密着型通所介護",
    "capacity": 13,
    "openDays": [
      "平日",
      "土曜日",
      "祝日"
    ],
    "openDaysNote": "年末年始・日曜日以外は定休日なし。"
  },
  {
    "id": "475302006",
    "name": "ライフの学校共生型デイサービスセンター萩の風キャンパス",
    "kana": "ライフノガッコウキョウセイガタデイサービスセンターハギノカゼキャンパス",
    "address": "宮城県仙台市若林区上飯田字天神1-1ライフの学校特別養護老人ホーム萩の風キャンパス ライフの学校特別養護老人ホーム萩の風キャンパス",
    "lat": 38.2203218,
    "lng": 140.9207531,
    "tel": "080-8207-5252",
    "url": "https://gakkou.life/",
    "pref": "宮城県",
    "city": "仙台市若林区",
    "category": "community_day_service",
    "serviceType": "地域密着型通所介護",
    "capacity": 3,
    "openDays": [
      "平日",
      "祝日"
    ],
    "openDaysNote": ""
  },
  {
    "id": "495300386",
    "name": "リハサポート若林",
    "kana": "リハサポートワカバヤシ",
    "address": "宮城県仙台市若林区なないろの里1-19-3　メリディアンなないろの里五番館2",
    "lat": 38.2390295101773,
    "lng": 140.928476792604,
    "tel": "022-766-8414",
    "url": "https://reha-support.co.jp",
    "pref": "宮城県",
    "city": "仙台市若林区",
    "category": "community_day_service",
    "serviceType": "地域密着型通所介護",
    "capacity": 10,
    "openDays": [
      "平日"
    ],
    "openDaysNote": "夏季休暇、冬季休暇"
  },
  {
    "id": "495300410",
    "name": "リハビリステーション若林",
    "kana": "リハビリステーションワカバヤシ",
    "address": "宮城県仙台市若林区一本杉町7-7",
    "lat": 38.2434762,
    "lng": 140.9073776,
    "tel": "022-794-9371",
    "url": "https://www.keiai-pms.com/%E3%83%AA%E3%83%8F%E3%83%93%E3%83%AA%E3%82%B9%E3%83%86%E3%83%BC%E3%82%B7%E3%83%A7%E3%83%B3%E8%8B%A5%E6%9E%97",
    "pref": "宮城県",
    "city": "仙台市若林区",
    "category": "community_day_service",
    "serviceType": "地域密着型通所介護",
    "capacity": 10,
    "openDays": [
      "平日"
    ],
    "openDaysNote": "年末年始休暇　12月30日～1月3日（改行）その他事業所が指定する日"
  },
  {
    "id": "475301990",
    "name": "リハビリデイサービスnagomi沖野店",
    "kana": "リハビリデイサービスナゴミオキノテン",
    "address": "宮城県仙台市若林区沖野3丁目11-23氷上壱番館1階 氷上壱番館1階",
    "lat": 38.2252974141999,
    "lng": 140.912269796959,
    "tel": "022-355-4981",
    "url": "https://www.my-nagomi.com/",
    "pref": "宮城県",
    "city": "仙台市若林区",
    "category": "community_day_service",
    "serviceType": "地域密着型通所介護",
    "capacity": 100,
    "openDays": [
      "平日",
      "祝日"
    ],
    "openDaysNote": "ＧＷ・お盆・年末年始休暇あり（その他休業時は事前に関係各所に連絡）"
  },
  {
    "id": "495300345",
    "name": "レコードブック仙台白萩町",
    "kana": "レコードブックセンダイシラハギマチ",
    "address": "宮城県仙台市若林区白萩町23-1プロスぺレ白萩103 プロスぺレ白萩103",
    "lat": 38.2520338,
    "lng": 140.9087968,
    "tel": "022-253-7056",
    "url": "",
    "pref": "宮城県",
    "city": "仙台市若林区",
    "category": "community_day_service",
    "serviceType": "地域密着型通所介護",
    "capacity": 18,
    "openDays": [
      "平日"
    ],
    "openDaysNote": ""
  },
  {
    "id": "495300501",
    "name": "南小泉デイサービスセンター",
    "kana": "ミナミコイズミデイサービスセンター",
    "address": "仙台市若林区一本杉町18-10",
    "lat": 38.2447948,
    "lng": 140.9041843,
    "tel": "022-290-4561",
    "url": "",
    "pref": "宮城県",
    "city": "仙台市若林区",
    "category": "community_day_service",
    "serviceType": "地域密着型通所介護",
    "capacity": 0,
    "openDays": [
      "平日",
      "土曜日"
    ],
    "openDaysNote": "特記なし"
  },
  {
    "id": "475302337",
    "name": "穂の郷",
    "kana": "ホノサト",
    "address": "宮城県仙台市若林区沖野２丁目5－17",
    "lat": 38.2317452,
    "lng": 140.9092256,
    "tel": "022-253-6266",
    "url": "http://honosato1001.jimdo.com",
    "pref": "宮城県",
    "city": "仙台市若林区",
    "category": "community_day_service",
    "serviceType": "地域密着型通所介護",
    "capacity": 15,
    "openDays": [
      "平日",
      "祝日"
    ],
    "openDaysNote": ""
  },
  {
    "id": "475104766",
    "name": "GENKINEXT仙台北根黒松",
    "kana": "ゲンキネクストセンダイキタネクロマツ",
    "address": "宮城県仙台市青葉区北根黒松2-38オーヒラ貸店舗事務所1F オーヒラ貸店舗事務所1F",
    "lat": 38.3094937,
    "lng": 140.8800852,
    "tel": "022-343-1760",
    "url": "https://kaigo-next.com/sp/search/detail/766",
    "pref": "宮城県",
    "city": "仙台市青葉区",
    "category": "community_day_service",
    "serviceType": "地域密着型通所介護",
    "capacity": 0,
    "openDays": [
      "平日"
    ],
    "openDaysNote": "午前　9：00～12：05（改行）午後　13：30～16：35（改行）（改行）夏期・冬期休業有"
  },
  {
    "id": "495100505",
    "name": "Nextデイ　ほくと",
    "kana": "ネクストデイ　ホクト",
    "address": "宮城県仙台市青葉区新坂町4番21号ケープロイヤル601号 ケープロイヤル601号",
    "lat": 38.27752938128,
    "lng": 140.854646401466,
    "tel": "022－344ー8048",
    "url": "https://taiju-sendai.or.jp",
    "pref": "宮城県",
    "city": "仙台市青葉区",
    "category": "community_day_service",
    "serviceType": "地域密着型通所介護",
    "capacity": 13,
    "openDays": [
      "平日",
      "土曜日",
      "祝日"
    ],
    "openDaysNote": "祝日は営業（日曜日と重なる場合は定休日）"
  },
  {
    "id": "475101283",
    "name": "アースサポート仙台青葉",
    "kana": "アースサポートセンダイアオバ",
    "address": "宮城県仙台市青葉区旭ヶ丘2丁目29-1",
    "lat": 38.2932901,
    "lng": 140.8881757,
    "tel": "022-728-6250",
    "url": "http://www.earthsupport.co.jp",
    "pref": "宮城県",
    "city": "仙台市青葉区",
    "category": "community_day_service",
    "serviceType": "地域密着型通所介護",
    "capacity": 0,
    "openDays": [
      "平日",
      "土曜日",
      "祝日"
    ],
    "openDaysNote": "12/30～1/3を除く"
  },
  {
    "id": "495100570",
    "name": "アシストクラブ荒巻",
    "kana": "アシストクラブアラマキ",
    "address": "宮城県仙台市青葉区荒巻本沢3-16-5シティライトビル２F シティライトビル２F",
    "lat": 38.2930144,
    "lng": 140.8555082,
    "tel": "022-341-8451",
    "url": "",
    "pref": "宮城県",
    "city": "仙台市青葉区",
    "category": "community_day_service",
    "serviceType": "地域密着型通所介護",
    "capacity": null,
    "openDays": [
      "平日",
      "祝日"
    ],
    "openDaysNote": ""
  },
  {
    "id": "495100695",
    "name": "エムズ北山",
    "kana": "エムズキタヤマ",
    "address": "宮城県仙台市青葉区北山1-24-21",
    "lat": 38.2853324749444,
    "lng": 140.857840771164,
    "tel": "022-342-9907",
    "url": "http：//ms-co-ltd.com/services/359/",
    "pref": "宮城県",
    "city": "仙台市青葉区",
    "category": "community_day_service",
    "serviceType": "地域密着型通所介護",
    "capacity": 10,
    "openDays": [
      "平日",
      "土曜日",
      "日曜日",
      "祝日"
    ],
    "openDaysNote": ""
  },
  {
    "id": "475104063",
    "name": "サボン",
    "kana": "サボン",
    "address": "仙台市青葉区荒巻本沢３丁目１－３７コートプレミオ１Ｆ コートプレミオ１Ｆ",
    "lat": 38.2898183876782,
    "lng": 140.85770638109,
    "tel": "022-341-2289",
    "url": "http://www.designkobo.jp/sabon/",
    "pref": "宮城県",
    "city": "仙台市青葉区",
    "category": "community_day_service",
    "serviceType": "地域密着型通所介護",
    "capacity": 0,
    "openDays": [
      "平日",
      "土曜日",
      "祝日"
    ],
    "openDaysNote": ""
  },
  {
    "id": "475103321",
    "name": "デイサービス　まなびや栗生館",
    "kana": "デイサービス　マナビヤクリウカン",
    "address": "宮城県仙台市青葉区栗生7-11-2ゴールドエイジフォーリア ゴールドエイジフォーリア",
    "lat": 38.2689344,
    "lng": 140.7770082,
    "tel": "022-391-9050",
    "url": "http://www.goldage.co.jp",
    "pref": "宮城県",
    "city": "仙台市青葉区",
    "category": "community_day_service",
    "serviceType": "地域密着型通所介護",
    "capacity": 0,
    "openDays": [
      "平日",
      "土曜日",
      "日曜日",
      "祝日"
    ],
    "openDaysNote": ""
  },
  {
    "id": "475104568",
    "name": "デイサービス　ゆっ歩",
    "kana": "デイサービス　ユッポ",
    "address": "宮城県仙台市青葉区桜ヶ丘1丁目6-7",
    "lat": 38.2963251562477,
    "lng": 140.848867511607,
    "tel": "022-346-6117",
    "url": "https://to-walk.jp/?mode=f4",
    "pref": "宮城県",
    "city": "仙台市青葉区",
    "category": "community_day_service",
    "serviceType": "地域密着型通所介護",
    "capacity": 10,
    "openDays": [
      "平日",
      "土曜日",
      "祝日"
    ],
    "openDaysNote": "その他の休所日（改行）①夏期　8月13日～8月15日（改行）②年末年始　12月30日～1月3日（改行）③ゴールデンウイーク　5月3日～5月5日"
  },
  {
    "id": "475104006",
    "name": "デイサービスあったかの家小松島",
    "kana": "デイサービスアッタカノイエコマツシマ",
    "address": "宮城県仙台市青葉区小松島4丁目20-8",
    "lat": 38.2861746,
    "lng": 140.8902079,
    "tel": "022-346-9217",
    "url": "http://human-aid.co.jp/",
    "pref": "宮城県",
    "city": "仙台市青葉区",
    "category": "community_day_service",
    "serviceType": "地域密着型通所介護",
    "capacity": 0,
    "openDays": [
      "平日",
      "土曜日",
      "日曜日",
      "祝日"
    ],
    "openDaysNote": "介護保険外での夜間サービスもあり、24時間365日営業をしております。"
  },
  {
    "id": "495100463",
    "name": "デイサービスサロン八千代の家-仙台広瀬-",
    "kana": "デイサービスサロンヤチヨノイエ　センダイヒロセ",
    "address": "宮城県仙台市青葉区広瀬町2-5",
    "lat": 38.2687119,
    "lng": 140.8598482,
    "tel": "022-725-6948",
    "url": "http://www.shibuya-m.jp/index.php",
    "pref": "宮城県",
    "city": "仙台市青葉区",
    "category": "community_day_service",
    "serviceType": "地域密着型通所介護",
    "capacity": 0,
    "openDays": [
      "平日",
      "土曜日",
      "祝日"
    ],
    "openDaysNote": "※祝日も営業しています。"
  },
  {
    "id": "475103008",
    "name": "デイサービスセンター　ドンクマサー末広",
    "kana": "デイサービスセンター　ドンクマサースエヒロ",
    "address": "仙台市青葉区上杉1丁目3-16　ドンクマサーパートIビル",
    "lat": 38.2701179899753,
    "lng": 140.871284376335,
    "tel": "022-211-7728",
    "url": "http://www.dnkmsa.co.jp/",
    "pref": "宮城県",
    "city": "仙台市青葉区",
    "category": "community_day_service",
    "serviceType": "地域密着型通所介護",
    "capacity": 0,
    "openDays": [
      "平日",
      "土曜日",
      "祝日"
    ],
    "openDaysNote": ""
  },
  {
    "id": "475104162",
    "name": "デイサービスはるの風",
    "kana": "デイサービスハルノカゼ",
    "address": "宮城県仙台市青葉区中山7丁目15-10",
    "lat": 38.2981104,
    "lng": 140.8341461,
    "tel": "022-346-7975",
    "url": "",
    "pref": "宮城県",
    "city": "仙台市青葉区",
    "category": "community_day_service",
    "serviceType": "地域密着型通所介護",
    "capacity": 10,
    "openDays": [
      "平日",
      "土曜日",
      "日曜日",
      "祝日"
    ],
    "openDaysNote": "上記時間外自費サービスにてお泊りサービスも有り"
  },
  {
    "id": "495100489",
    "name": "デイサービスはるの風吉成",
    "kana": "デイサービスハルノカゼヨシナリ",
    "address": "宮城県仙台市青葉区吉成3丁目10-16",
    "lat": 38.2909815,
    "lng": 140.8171152,
    "tel": "022-341-8336",
    "url": "https://harunokaze.co.jp/",
    "pref": "宮城県",
    "city": "仙台市青葉区",
    "category": "community_day_service",
    "serviceType": "地域密着型通所介護",
    "capacity": 0,
    "openDays": [
      "平日",
      "土曜日",
      "日曜日",
      "祝日"
    ],
    "openDaysNote": ""
  },
  {
    "id": "495100646",
    "name": "デイサービスみどりの園",
    "kana": "デイサービスミドリノソノ",
    "address": "宮城県仙台市青葉区八幡６丁目７－１８",
    "lat": 38.2693405,
    "lng": 140.8354225,
    "tel": "022-725-4381",
    "url": "",
    "pref": "宮城県",
    "city": "仙台市青葉区",
    "category": "community_day_service",
    "serviceType": "地域密着型通所介護",
    "capacity": 10,
    "openDays": [
      "平日",
      "土曜日",
      "祝日"
    ],
    "openDaysNote": ""
  },
  {
    "id": "495100406",
    "name": "フレンドくらぶ",
    "kana": "フレンドクラブ",
    "address": "宮城県仙台市青葉区中山８丁目２－１１",
    "lat": 38.2990741,
    "lng": 140.8330434,
    "tel": "022-342-9408",
    "url": "",
    "pref": "宮城県",
    "city": "仙台市青葉区",
    "category": "community_day_service",
    "serviceType": "地域密着型通所介護",
    "capacity": 0,
    "openDays": [
      "平日"
    ],
    "openDaysNote": ""
  },
  {
    "id": "475103545",
    "name": "ポラリスデイサービスセンター旭ヶ丘",
    "kana": "ポラリスデイサービスセンターアサヒガオカ",
    "address": "宮城県仙台市青葉区旭ヶ丘2-30-20フォレスト北星101号 フォレスト北星101号",
    "lat": 38.2929376,
    "lng": 140.8881909,
    "tel": "022-728-7661",
    "url": "",
    "pref": "宮城県",
    "city": "仙台市青葉区",
    "category": "community_day_service",
    "serviceType": "地域密着型通所介護",
    "capacity": 14,
    "openDays": [
      "平日",
      "土曜日",
      "祝日"
    ],
    "openDaysNote": "■定員　午前　14名　午後　14名（改行）（改行）■サービス提供時間　9：15～12：20（改行）　　　　　　　　　　13：20～16：25"
  },
  {
    "id": "475103487",
    "name": "ポラリスデイサービスセンター川平",
    "kana": "ポラリスデイサービスセンターカワダイラ",
    "address": "宮城県仙台市青葉区川平4丁目19番26号",
    "lat": 38.3015155,
    "lng": 140.8341931,
    "tel": "022-707-0416",
    "url": "http://www.polaris.care/",
    "pref": "宮城県",
    "city": "仙台市青葉区",
    "category": "community_day_service",
    "serviceType": "地域密着型通所介護",
    "capacity": 18,
    "openDays": [
      "平日",
      "土曜日",
      "祝日"
    ],
    "openDaysNote": ""
  },
  {
    "id": "495100752",
    "name": "ミック健康の森　北四番丁",
    "kana": "ミックケンコウノモリ　キタヨバンチョウ",
    "address": "宮城県仙台市青葉区柏木1-1-12サンシティ北四番丁 サンシティ北四番丁",
    "lat": 38.2750431,
    "lng": 140.8667436,
    "tel": "022-342-0990",
    "url": "https://mik-kenkonomori.com/facility/touhoku/kitayobancho/",
    "pref": "宮城県",
    "city": "仙台市青葉区",
    "category": "community_day_service",
    "serviceType": "地域密着型通所介護",
    "capacity": 0,
    "openDays": [
      "平日",
      "祝日"
    ],
    "openDaysNote": "12月29日から1月3日までは休業とする"
  },
  {
    "id": "495100679",
    "name": "リハ＆スパ憩いの杜デイサービス",
    "kana": "リハアンドスパイコイノモリデイサービス",
    "address": "宮城県仙台市青葉区旭ヶ丘１丁目7-8コウワビル102 コウワビル102",
    "lat": 38.289608,
    "lng": 140.8869965,
    "tel": "022-725-8921",
    "url": "https://www.big-advance.site/c/144/2167",
    "pref": "宮城県",
    "city": "仙台市青葉区",
    "category": "community_day_service",
    "serviceType": "地域密着型通所介護",
    "capacity": 140,
    "openDays": [
      "平日",
      "土曜日"
    ],
    "openDaysNote": ""
  },
  {
    "id": "495100364",
    "name": "リハビリステーション　グランツ高松",
    "kana": "リハビリステーション　グランツタカマツ",
    "address": "宮城県仙台市青葉区高松2-23-8",
    "lat": 38.2804449,
    "lng": 140.8958384,
    "tel": "022-341-3641",
    "url": "https://www.keiai-pms.com",
    "pref": "宮城県",
    "city": "仙台市青葉区",
    "category": "community_day_service",
    "serviceType": "地域密着型通所介護",
    "capacity": 36,
    "openDays": [
      "平日"
    ],
    "openDaysNote": "年末年始休業　あり"
  },
  {
    "id": "475102893",
    "name": "リハビリステーションくにみ",
    "kana": "リハビリステーションクニミ",
    "address": "仙台市青葉区国見2丁目4番30号",
    "lat": 38.2754996,
    "lng": 140.8463853,
    "tel": "022-343-0464",
    "url": "https://www.keiai-pms.com/",
    "pref": "宮城県",
    "city": "仙台市青葉区",
    "category": "community_day_service",
    "serviceType": "地域密着型通所介護",
    "capacity": 18,
    "openDays": [
      "平日"
    ],
    "openDaysNote": "年末年始のお休み"
  },
  {
    "id": "475102620",
    "name": "リハビリステーションばんざん",
    "kana": "リハビリステーションバンザン",
    "address": "宮城県仙台市青葉区落合１丁目12-13",
    "lat": 38.2707910834188,
    "lng": 140.794757689939,
    "tel": "022-393-5370",
    "url": "http:www.keiai.jp",
    "pref": "宮城県",
    "city": "仙台市青葉区",
    "category": "community_day_service",
    "serviceType": "地域密着型通所介護",
    "capacity": 25,
    "openDays": [
      "平日"
    ],
    "openDaysNote": "年末年始休暇　12月30日～1月3日　　　　　　　　　　　　　　　　　　　　　　　　　　　　　　　　　おその他事業所が指定する日"
  },
  {
    "id": "475103198",
    "name": "リハビリステーション中山",
    "kana": "リハビリステーションナカヤマ",
    "address": "宮城県仙台市青葉区中山6丁目11-3",
    "lat": 38.294932,
    "lng": 140.83663,
    "tel": "223437088",
    "url": "https://www.keiai-pms.com",
    "pref": "宮城県",
    "city": "仙台市青葉区",
    "category": "community_day_service",
    "serviceType": "地域密着型通所介護",
    "capacity": 13,
    "openDays": [
      "平日"
    ],
    "openDaysNote": "年末年始休暇１２月３０日～１月３日"
  },
  {
    "id": "495100703",
    "name": "リハビリディサービス　きわみケア",
    "kana": "リハビリ　ディサービス　キワミケア",
    "address": "宮城県仙台市青葉区西勝山27-3",
    "lat": 38.3010038,
    "lng": 140.8399323,
    "tel": "022-341-0447",
    "url": "http://www.kiwamicare.com/",
    "pref": "宮城県",
    "city": "仙台市青葉区",
    "category": "community_day_service",
    "serviceType": "地域密着型通所介護",
    "capacity": 75,
    "openDays": [
      "平日",
      "祝日"
    ],
    "openDaysNote": ""
  },
  {
    "id": "475104741",
    "name": "リハビリデイサービスうるおす仙台",
    "kana": "リハビリデイサービスウルオスセンダイ",
    "address": "宮城県仙台市青葉区高松2丁目10番地23号",
    "lat": 38.2796949,
    "lng": 140.8918971,
    "tel": "022-725-6740",
    "url": "http://uruossendai.com",
    "pref": "宮城県",
    "city": "仙台市青葉区",
    "category": "community_day_service",
    "serviceType": "地域密着型通所介護",
    "capacity": 100,
    "openDays": [
      "平日",
      "祝日"
    ],
    "openDaysNote": ""
  },
  {
    "id": "495100448",
    "name": "レコードブック仙台通町",
    "kana": "レコードブックセンダイトオリチョウ",
    "address": "宮城県仙台市青葉区通町1-4-31KOTOBIKI5　1F KOTOBIKI5　1F",
    "lat": 38.277471098825,
    "lng": 140.865040777497,
    "tel": "022-341-5338",
    "url": "",
    "pref": "宮城県",
    "city": "仙台市青葉区",
    "category": "community_day_service",
    "serviceType": "地域密着型通所介護",
    "capacity": null,
    "openDays": [
      "平日",
      "祝日"
    ],
    "openDaysNote": ""
  },
  {
    "id": "475103875",
    "name": "介護予防センター早稲田イーライフ青葉",
    "kana": "カイゴヨボウセンターワセダイーライフアオバ",
    "address": "宮城県仙台市青葉区支倉町2-32ランドマーク支倉101 ランドマーク支倉101",
    "lat": 38.2681325,
    "lng": 140.8606809,
    "tel": "022-266-8670",
    "url": "https://waseda-elife-sendai.com/",
    "pref": "宮城県",
    "city": "仙台市青葉区",
    "category": "community_day_service",
    "serviceType": "地域密着型通所介護",
    "capacity": 85,
    "openDays": [
      "平日",
      "土曜日"
    ],
    "openDaysNote": "第１・３・５土曜日は営業。"
  },
  {
    "id": "475104659",
    "name": "樹楽仙台青葉",
    "kana": "キラクセンダイアオバ",
    "address": "宮城県仙台市青葉区大町２－１３－２４大町オフィスビル　２Ｆ 大町オフィスビル　２Ｆ",
    "lat": 38.2612796,
    "lng": 140.8677645,
    "tel": "022-397-7693",
    "url": "",
    "pref": "宮城県",
    "city": "仙台市青葉区",
    "category": "community_day_service",
    "serviceType": "地域密着型通所介護",
    "capacity": 16,
    "openDays": [
      "平日",
      "土曜日",
      "日曜日",
      "祝日"
    ],
    "openDaysNote": ""
  },
  {
    "id": "495100687",
    "name": "松田会・リハプラザ愛子",
    "kana": "マツダカイ・リハプラザアヤシ",
    "address": "上愛子字雷神6-2",
    "lat": 38.272773332093,
    "lng": 140.746595564418,
    "tel": "022-796-1847",
    "url": "http://matsuda-hp.com/matsuda/reha-p-ayashi/",
    "pref": "宮城県",
    "city": "仙台市青葉区",
    "category": "community_day_service",
    "serviceType": "地域密着型通所介護",
    "capacity": 0,
    "openDays": [
      "平日",
      "土曜日",
      "祝日"
    ],
    "openDaysNote": "午前　9：00～12：15（改行）午後　13：30～16：45"
  },
  {
    "id": "475104287",
    "name": "笑生デイサービスあやし",
    "kana": "ワラオウデイサービスアヤシ",
    "address": "宮城県仙台市青葉区愛子東４丁目９－６５",
    "lat": 38.2750362,
    "lng": 140.7701028,
    "tel": "022-738-9044",
    "url": "",
    "pref": "宮城県",
    "city": "仙台市青葉区",
    "category": "community_day_service",
    "serviceType": "地域密着型通所介護",
    "capacity": 10,
    "openDays": [
      "平日",
      "土曜日",
      "祝日"
    ],
    "openDaysNote": ""
  },
  {
    "id": "495100711",
    "name": "梅田テラス",
    "kana": "ウメダテラス",
    "address": "宮城県仙台市青葉区梅田町1-63第5白鳥ビル101 第5白鳥ビル101",
    "lat": 38.2765053,
    "lng": 140.880488,
    "tel": "022-342-0706",
    "url": "https://2sib.jp/",
    "pref": "宮城県",
    "city": "仙台市青葉区",
    "category": "community_day_service",
    "serviceType": "地域密着型通所介護",
    "capacity": 100,
    "openDays": [
      "平日"
    ],
    "openDaysNote": "夏季休暇（8/13～8/16）（改行）年末年始（12/30～1/4）"
  },
  {
    "id": "475104683",
    "name": "老人デイサービスセンター　アルカディア仙台敬寿園",
    "kana": "ロウジンデイサービスセンター　アルカディアセンダイケイジュエン",
    "address": "宮城県仙台市青葉区八幡６丁目９番１５号アルカディア仙台敬寿園 アルカディア仙台敬寿園",
    "lat": 38.2669725,
    "lng": 140.8360144,
    "tel": "022-718-3881",
    "url": "http://keijuen.or.jp/arcadia/",
    "pref": "宮城県",
    "city": "仙台市青葉区",
    "category": "community_day_service",
    "serviceType": "地域密着型通所介護",
    "capacity": 18,
    "openDays": [
      "平日",
      "土曜日",
      "祝日"
    ],
    "openDaysNote": ""
  },
  {
    "id": "475501144",
    "name": "“日だまりの家”いずみデイサービスセンター",
    "kana": "“ヒダマリノイエ”イズミデイサービスセンター",
    "address": "宮城県仙台市泉区上谷刈3-16-21",
    "lat": 38.3198949,
    "lng": 140.8688776,
    "tel": "022-208-8405",
    "url": "http://www.mrjk.jp",
    "pref": "宮城県",
    "city": "仙台市泉区",
    "category": "community_day_service",
    "serviceType": "地域密着型通所介護",
    "capacity": 0,
    "openDays": [
      "平日",
      "祝日"
    ],
    "openDaysNote": "定休日の場合においても、緊急時に対応が取れるよう、併設施設との連絡体制を図り、臨機応変に努めている。"
  },
  {
    "id": "475500211",
    "name": "ＮＰＯ法人　おひさまくらぶ",
    "kana": "エヌピーオーホウジン　オヒサマクラブ",
    "address": "宮城県仙台市泉区高森7丁目32番地の16",
    "lat": 38.3425003,
    "lng": 140.8558639,
    "tel": "022-342-6027",
    "url": "http://takurou-ohisama.jimdo.com/",
    "pref": "宮城県",
    "city": "仙台市泉区",
    "category": "community_day_service",
    "serviceType": "地域密着型通所介護",
    "capacity": 10,
    "openDays": [
      "平日",
      "土曜日",
      "祝日"
    ],
    "openDaysNote": ""
  },
  {
    "id": "475502001",
    "name": "アースサポート仙台泉",
    "kana": "アースサポートセンダイイズミ",
    "address": "宮城県仙台市泉区七北田字古内130番地",
    "lat": 38.3265331,
    "lng": 140.8709743,
    "tel": "022-374-1911",
    "url": "http://www.earthsupport.co.jp",
    "pref": "宮城県",
    "city": "仙台市泉区",
    "category": "community_day_service",
    "serviceType": "地域密着型通所介護",
    "capacity": 0,
    "openDays": [
      "平日",
      "土曜日",
      "祝日"
    ],
    "openDaysNote": ""
  },
  {
    "id": "495500571",
    "name": "グレイス長命",
    "kana": "グレイスチョウメイ",
    "address": "宮城県仙台市泉区長命ヶ丘6丁目15‐36",
    "lat": 38.3125711,
    "lng": 140.8294409,
    "tel": "022‐343‐7979",
    "url": "https://www.grace2017.co.jp",
    "pref": "宮城県",
    "city": "仙台市泉区",
    "category": "community_day_service",
    "serviceType": "地域密着型通所介護",
    "capacity": 10,
    "openDays": [
      "平日",
      "土曜日",
      "日曜日",
      "祝日"
    ],
    "openDaysNote": "年中無休で営業致しております。"
  },
  {
    "id": "495500662",
    "name": "サテライトケアセンター　いずみ",
    "kana": "サテライトケアセンターイズミ",
    "address": "宮城県仙台市泉区市名坂字南前5-3",
    "lat": 38.318698,
    "lng": 140.897674,
    "tel": "022-771-8304",
    "url": "http://www.team-forest.net",
    "pref": "宮城県",
    "city": "仙台市泉区",
    "category": "community_day_service",
    "serviceType": "地域密着型通所介護",
    "capacity": 0,
    "openDays": [
      "平日"
    ],
    "openDaysNote": ""
  },
  {
    "id": "475503546",
    "name": "デイサービス　あったかの家　黒松",
    "kana": "デイサービス　アッタカノイエ　クロマツ",
    "address": "宮城県仙台市泉区旭丘堤2-19-3",
    "lat": 38.3032516701501,
    "lng": 140.88964171052,
    "tel": "022-725-2317",
    "url": "http://human-aid.co.jp/",
    "pref": "宮城県",
    "city": "仙台市泉区",
    "category": "community_day_service",
    "serviceType": "地域密着型通所介護",
    "capacity": 18,
    "openDays": [
      "平日",
      "土曜日",
      "日曜日",
      "祝日"
    ],
    "openDaysNote": "なし"
  },
  {
    "id": "495500654",
    "name": "デイサービス　グリーンシーズいずみ",
    "kana": "デイサービス　グリーンシーズイズミ",
    "address": "根白石字町東39",
    "lat": 38.3445456,
    "lng": 140.7976286,
    "tel": "022-341-9211",
    "url": "https://green-seeds.jp",
    "pref": "宮城県",
    "city": "仙台市泉区",
    "category": "community_day_service",
    "serviceType": "地域密着型通所介護",
    "capacity": 10,
    "openDays": [
      "平日",
      "土曜日",
      "祝日"
    ],
    "openDaysNote": ""
  },
  {
    "id": "475503298",
    "name": "デイサービス　グリーンシーズ将監",
    "kana": "デイサービス　グリーンシーズショウゲン",
    "address": "宮城県仙台市泉区将監1丁目30-8",
    "lat": 38.3301804,
    "lng": 140.8886419,
    "tel": "022-725-7915",
    "url": "https://green-seeds.jp/",
    "pref": "宮城県",
    "city": "仙台市泉区",
    "category": "community_day_service",
    "serviceType": "地域密着型通所介護",
    "capacity": 10,
    "openDays": [
      "平日",
      "祝日"
    ],
    "openDaysNote": ""
  },
  {
    "id": "475502613",
    "name": "デイサービス　ココロ",
    "kana": "デイサービス　ココロ",
    "address": "宮城県仙台市泉区加茂3丁目27-3",
    "lat": 38.3162892,
    "lng": 140.8484493,
    "tel": "022-343-6721",
    "url": "https://www.momo-kokoro.co.jp/",
    "pref": "宮城県",
    "city": "仙台市泉区",
    "category": "community_day_service",
    "serviceType": "地域密着型通所介護",
    "capacity": 10,
    "openDays": [
      "平日",
      "土曜日",
      "日曜日",
      "祝日"
    ],
    "openDaysNote": ""
  },
  {
    "id": "475501581",
    "name": "デイサービス　てるてる家族",
    "kana": "デイサービス　テルテルカゾク",
    "address": "宮城県仙台市泉区市名坂字町79番地の1",
    "lat": 38.3189457933462,
    "lng": 140.888438102755,
    "tel": "022-375-4555",
    "url": "http://zorro-company.com/",
    "pref": "宮城県",
    "city": "仙台市泉区",
    "category": "community_day_service",
    "serviceType": "地域密着型通所介護",
    "capacity": 0,
    "openDays": [
      "平日",
      "土曜日",
      "日曜日",
      "祝日"
    ],
    "openDaysNote": "12月30日～1月3日　休み"
  },
  {
    "id": "475503504",
    "name": "デイサービス　もりのひろば",
    "kana": "デイサービス　モリノヒロバ",
    "address": "宮城県仙台市泉区松森字沢目14-2",
    "lat": 38.3066729568921,
    "lng": 140.907378654631,
    "tel": "022-779-7256",
    "url": "http://morinohiroba.com/dayservice/index.html",
    "pref": "宮城県",
    "city": "仙台市泉区",
    "category": "community_day_service",
    "serviceType": "地域密着型通所介護",
    "capacity": 26,
    "openDays": [
      "平日",
      "土曜日",
      "祝日"
    ],
    "openDaysNote": ""
  },
  {
    "id": "475503165",
    "name": "デイサービス「船」天神沢",
    "kana": "デイサービスセンテンジンザワ",
    "address": "宮城県仙台市泉区天神沢1-20-20",
    "lat": 38.3225541,
    "lng": 140.9003242,
    "tel": "022-725-3957",
    "url": "http://hp.kaipoke.biz/m6t/index.html",
    "pref": "宮城県",
    "city": "仙台市泉区",
    "category": "community_day_service",
    "serviceType": "地域密着型通所介護",
    "capacity": 12,
    "openDays": [
      "平日",
      "土曜日",
      "日曜日",
      "祝日"
    ],
    "openDaysNote": "24時間365日営業中"
  },
  {
    "id": "475503280",
    "name": "デイサービスセンタードンクマサー将監",
    "kana": "デイサービスセンタードンクマサーショウゲン",
    "address": "宮城県仙台市泉区将監８丁目15-33ドンクマサーパートⅤビル ドンクマサーパートⅤビル",
    "lat": 38.3314909,
    "lng": 140.8787046,
    "tel": "022-346-0294",
    "url": "http://www.dnkmsa.co.jp/index.html",
    "pref": "宮城県",
    "city": "仙台市泉区",
    "category": "community_day_service",
    "serviceType": "地域密着型通所介護",
    "capacity": 0,
    "openDays": [
      "平日",
      "土曜日",
      "祝日"
    ],
    "openDaysNote": "毎週月曜日～土曜日まで営業（日曜日休業）（改行）※但し12月31日～1月3日を除く"
  },
  {
    "id": "475502258",
    "name": "デイサービスセンターみんなの家",
    "kana": "デイサービスセンターミンナノイエ",
    "address": "宮城県仙台市泉区七北田新道３－１",
    "lat": 38.3356881,
    "lng": 140.8890556,
    "tel": "022-343-5001",
    "url": "http://kokopelli.biz/",
    "pref": "宮城県",
    "city": "仙台市泉区",
    "category": "community_day_service",
    "serviceType": "地域密着型通所介護",
    "capacity": 0,
    "openDays": [
      "平日",
      "土曜日",
      "祝日"
    ],
    "openDaysNote": ""
  },
  {
    "id": "475500542",
    "name": "デイサービスセンターラビット",
    "kana": "デイサービスセンターラビット",
    "address": "宮城県仙台市泉区上谷刈字長命10番地",
    "lat": 38.3193474,
    "lng": 140.8562595,
    "tel": "022-777-7683",
    "url": "https://senjusou-izumi.jimdofree.com/",
    "pref": "宮城県",
    "city": "仙台市泉区",
    "category": "community_day_service",
    "serviceType": "地域密着型通所介護",
    "capacity": 18,
    "openDays": [
      "平日",
      "土曜日"
    ],
    "openDaysNote": "※要介護認定者を対象に12月30日、1月3日に限り午前中の入浴サービスを行う場合もあります。"
  },
  {
    "id": "475502308",
    "name": "デイサービス悠々",
    "kana": "デイサービスユウユウ",
    "address": "宮城県仙台市泉区松陵四丁目23番地の9",
    "lat": 38.330322,
    "lng": 140.916845,
    "tel": "022-739-7631",
    "url": "http://www.izuminomori.jp",
    "pref": "宮城県",
    "city": "仙台市泉区",
    "category": "community_day_service",
    "serviceType": "地域密着型通所介護",
    "capacity": 10,
    "openDays": [
      "平日",
      "祝日"
    ],
    "openDaysNote": ""
  },
  {
    "id": "475502993",
    "name": "デイサロンぴーちゃん",
    "kana": "デイサロンピーチャン",
    "address": "宮城県仙台市泉区南光台７丁目３６－５",
    "lat": 38.29969,
    "lng": 140.9029389,
    "tel": "022－220－0561",
    "url": "",
    "pref": "宮城県",
    "city": "仙台市泉区",
    "category": "community_day_service",
    "serviceType": "地域密着型通所介護",
    "capacity": 10,
    "openDays": [
      "平日",
      "土曜日",
      "祝日"
    ],
    "openDaysNote": ""
  },
  {
    "id": "495500563",
    "name": "トレーニングデイサービス　泉ビレジ",
    "kana": "トレーニングデイサービス　イズミビレジ",
    "address": "宮城県仙台市泉区館6-14-6",
    "lat": 38.3188862,
    "lng": 140.799811,
    "tel": "022-702-6933",
    "url": "http://traning-izumi-village.com/",
    "pref": "宮城県",
    "city": "仙台市泉区",
    "category": "community_day_service",
    "serviceType": "地域密着型通所介護",
    "capacity": 10,
    "openDays": [
      "平日",
      "祝日"
    ],
    "openDaysNote": ""
  },
  {
    "id": "475502894",
    "name": "リハくる泉中央",
    "kana": "リハクルイズミチュウオウ",
    "address": "宮城県仙台市泉区泉中央4-7-4KCヒルズアネックス1F KCヒルズアネックス1F",
    "lat": 38.3231867,
    "lng": 140.8855702,
    "tel": "022-341-7277",
    "url": "https://rihakuru-izumi.com/",
    "pref": "宮城県",
    "city": "仙台市泉区",
    "category": "community_day_service",
    "serviceType": "地域密着型通所介護",
    "capacity": 15,
    "openDays": [
      "平日",
      "土曜日",
      "祝日"
    ],
    "openDaysNote": ""
  },
  {
    "id": "495500779",
    "name": "リハニック仙台南光台",
    "kana": "リハニックセンダイナンコウダイ",
    "address": "宮城県仙台市泉区松森陣々原11－25",
    "lat": 38.301804109256,
    "lng": 140.912537066162,
    "tel": "223418957",
    "url": "https://www.rehanic.jp/",
    "pref": "宮城県",
    "city": "仙台市泉区",
    "category": "community_day_service",
    "serviceType": "地域密着型通所介護",
    "capacity": 100,
    "openDays": [
      "平日",
      "祝日"
    ],
    "openDaysNote": ""
  },
  {
    "id": "495500621",
    "name": "レコードブック仙台泉中央",
    "kana": "レコードブックセンダイイズミチュウオウ",
    "address": "宮城県仙台市泉区泉中央3丁目18-2グランヒルST103 グランヒルST103",
    "lat": 38.326093,
    "lng": 140.8858529,
    "tel": "022-725-3161",
    "url": "https://www.recordbook.jp/facility/senndaiizumityuuou/",
    "pref": "宮城県",
    "city": "仙台市泉区",
    "category": "community_day_service",
    "serviceType": "地域密着型通所介護",
    "capacity": 0,
    "openDays": [
      "平日",
      "祝日"
    ],
    "openDaysNote": ""
  },
  {
    "id": "495500811",
    "name": "レコードブック南光台四条通り",
    "kana": "レコードブックナンコウダイシジョウドオリ",
    "address": "宮城県仙台市泉区南光台南３丁目４-３梅伸ビル１階 梅伸ビル１階",
    "lat": 38.2962895,
    "lng": 140.9072517,
    "tel": "223558620",
    "url": "https://www.recordbook.jp/facility/nankodaishijodori/",
    "pref": "宮城県",
    "city": "仙台市泉区",
    "category": "community_day_service",
    "serviceType": "地域密着型通所介護",
    "capacity": null,
    "openDays": [
      "平日",
      "祝日"
    ],
    "openDaysNote": ""
  },
  {
    "id": "475502381",
    "name": "音楽リハビリデイサービスゆらリズム　南光台店",
    "kana": "オンガクリハビリデイサービスユラリズム　ナンコウダイテン",
    "address": "宮城県仙台市泉区南光台南1-1-3シンセービル1階 シンセービル1階",
    "lat": 38.2981345,
    "lng": 140.89837,
    "tel": "022-251-2021",
    "url": "https://www.yura-ongaku.com/",
    "pref": "宮城県",
    "city": "仙台市泉区",
    "category": "community_day_service",
    "serviceType": "地域密着型通所介護",
    "capacity": 126,
    "openDays": [
      "平日",
      "祝日"
    ],
    "openDaysNote": "年末年始は休業（12/28～1/5）"
  },
  {
    "id": "475503025",
    "name": "介護予防センター早稲田イーライフ南光台",
    "kana": "カイゴヨボウセンターワセダイーライフナンコウダイ",
    "address": "宮城県仙台市泉区南光台東1丁目1-24アルファ201102 アルファ201102",
    "lat": 38.2976653,
    "lng": 140.9038612,
    "tel": "022-353-9295",
    "url": "https://waseda-elife-sendai.com/",
    "pref": "宮城県",
    "city": "仙台市泉区",
    "category": "community_day_service",
    "serviceType": "地域密着型通所介護",
    "capacity": 85,
    "openDays": [
      "平日",
      "土曜日"
    ],
    "openDaysNote": "第１・３・５土曜日は午後のみサービス提供。"
  },
  {
    "id": "475502654",
    "name": "笑鶴亭ひまわり園すこやか元気塾",
    "kana": "ショウカクテイヒマワリエンスコヤカゲンキジュク",
    "address": "宮城県仙台市泉区歩坂町６１－１５",
    "lat": 38.3261346,
    "lng": 140.9071288,
    "tel": "022-374-9053",
    "url": "https://iwasakiyatarou.com",
    "pref": "宮城県",
    "city": "仙台市泉区",
    "category": "community_day_service",
    "serviceType": "地域密着型通所介護",
    "capacity": 20,
    "openDays": [
      "平日"
    ],
    "openDaysNote": ""
  },
  {
    "id": "495500613",
    "name": "長命ヶ丘デイサロン5丁目",
    "kana": "チョウメイガオカデイサロンゴチョウメ",
    "address": "宮城県仙台市泉区長命ヶ丘19番地11",
    "lat": 38.3146370583429,
    "lng": 140.831491929365,
    "tel": "022-777-8243",
    "url": "http://ms-co-ltd.com/services/350/",
    "pref": "宮城県",
    "city": "仙台市泉区",
    "category": "community_day_service",
    "serviceType": "地域密着型通所介護",
    "capacity": 10,
    "openDays": [
      "平日",
      "土曜日",
      "日曜日",
      "祝日"
    ],
    "openDaysNote": ""
  },
  {
    "id": "495500449",
    "name": "長命ヶ丘デイサロンルポ",
    "kana": "チョウメイガオカデイサロンルポ",
    "address": "宮城県仙台市泉区長命ヶ丘5丁目18番地２３",
    "lat": 38.3142348101206,
    "lng": 140.832039753985,
    "tel": "022-702-0002",
    "url": "http://ms-co-ltd.com/",
    "pref": "宮城県",
    "city": "仙台市泉区",
    "category": "community_day_service",
    "serviceType": "地域密着型通所介護",
    "capacity": 0,
    "openDays": [
      "平日",
      "土曜日",
      "祝日"
    ],
    "openDaysNote": ""
  },
  {
    "id": "475502902",
    "name": "通い処　湧々庵　将監",
    "kana": "カヨイドコロ　ユウユウアン　ショウゲン",
    "address": "宮城県仙台市泉区将監５丁目７－８",
    "lat": 38.3401530620235,
    "lng": 140.879204114325,
    "tel": "022-341-7856",
    "url": "http://www.yusenkai.co.jp",
    "pref": "宮城県",
    "city": "仙台市泉区",
    "category": "community_day_service",
    "serviceType": "地域密着型通所介護",
    "capacity": 15,
    "openDays": [
      "平日"
    ],
    "openDaysNote": "平日における祝日は営業しております。"
  },
  {
    "id": "475502829",
    "name": "通い処湧々庵向陽台",
    "kana": "カヨイドコロユウユウアンコウヨウダイ",
    "address": "宮城県仙台市泉区向陽台2丁目５－２３",
    "lat": 38.3377027229081,
    "lng": 140.89382423691,
    "tel": "022-346-0844",
    "url": "http://www.yusenkai.co.jp",
    "pref": "宮城県",
    "city": "仙台市泉区",
    "category": "community_day_service",
    "serviceType": "地域密着型通所介護",
    "capacity": 0,
    "openDays": [
      "平日"
    ],
    "openDaysNote": ""
  },
  {
    "id": "475503157",
    "name": "湯治郎",
    "kana": "ユウジロウ",
    "address": "宮城県仙台市泉区将監５－６－３",
    "lat": 38.3400373,
    "lng": 140.8783647,
    "tel": "０２２－７２５－２５７１",
    "url": "https://yusenkai.co.jp/",
    "pref": "宮城県",
    "city": "仙台市泉区",
    "category": "community_day_service",
    "serviceType": "地域密着型通所介護",
    "capacity": 0,
    "openDays": [
      "平日",
      "祝日"
    ],
    "openDaysNote": "平日における祝日は営業しております。"
  },
  {
    "id": "475500989",
    "name": "南光だｉ雲母倶楽部",
    "kana": "ナンコウダイキララクラブ",
    "address": "宮城県仙台市泉区南光台2丁目9-67",
    "lat": 38.2914935,
    "lng": 140.8934738,
    "tel": "022-234-1711",
    "url": "http://koujinou.kilala.biz/",
    "pref": "宮城県",
    "city": "仙台市泉区",
    "category": "community_day_service",
    "serviceType": "地域密着型通所介護",
    "capacity": 3,
    "openDays": [
      "平日",
      "祝日"
    ],
    "openDaysNote": "平日の祝祭日は営業しています。"
  },
  {
    "id": "495500639",
    "name": "湧々庵hanare",
    "kana": "ユウユウアン　ハナレ",
    "address": "宮城県仙台市泉区将監１０－１８－１４",
    "lat": 38.3374712,
    "lng": 140.8689795,
    "tel": "022-725-8930",
    "url": "https://yusenkai.co.jp",
    "pref": "宮城県",
    "city": "仙台市泉区",
    "category": "community_day_service",
    "serviceType": "地域密着型通所介護",
    "capacity": 0,
    "openDays": [
      "平日"
    ],
    "openDaysNote": "平日における祝祭日は営業しております。"
  },
  {
    "id": "475402269",
    "name": "(株)デイサービス菖",
    "kana": "デイサービスアヤメ",
    "address": "宮城県仙台市太白区西多賀1-3-25",
    "lat": 38.2256611,
    "lng": 140.8619133,
    "tel": "022-247-0058",
    "url": "",
    "pref": "宮城県",
    "city": "仙台市太白区",
    "category": "community_day_service",
    "serviceType": "地域密着型通所介護",
    "capacity": 10,
    "openDays": [
      "平日",
      "土曜日",
      "祝日"
    ],
    "openDaysNote": ""
  },
  {
    "id": "475403002",
    "name": "GENKI　NEXT仙台泉崎",
    "kana": "ゲンキネクストセンダイイズミザキ",
    "address": "宮城県仙台市太白区泉崎１－１－２０ラフェリオ長町南1F ラフェリオ長町南1F",
    "lat": 38.2233698,
    "lng": 140.8705626,
    "tel": "022-796-5360",
    "url": "https://kaigo-next.com/sp/search/detail/844/",
    "pref": "宮城県",
    "city": "仙台市太白区",
    "category": "community_day_service",
    "serviceType": "地域密着型通所介護",
    "capacity": 0,
    "openDays": [
      "平日",
      "祝日"
    ],
    "openDaysNote": ""
  },
  {
    "id": "475402491",
    "name": "SPANAKAGAWA",
    "kana": "スパナカガワ",
    "address": "宮城県仙台市太白区茂ケ崎３丁目１１－１０グリーンヒルズ野草園1F グリーンヒルズ野草園1F",
    "lat": 38.2383154,
    "lng": 140.8747424,
    "tel": "022-393-8749",
    "url": "http://www.nakagawa-d.co.jp",
    "pref": "宮城県",
    "city": "仙台市太白区",
    "category": "community_day_service",
    "serviceType": "地域密着型通所介護",
    "capacity": 10,
    "openDays": [
      "平日",
      "祝日"
    ],
    "openDaysNote": "ゴールデンウィーク　年末年始は営業しておりません。"
  },
  {
    "id": "495400681",
    "name": "アースサポート八本松",
    "kana": "アースサポートハチホンマツ",
    "address": "宮城県仙台市太白区郡山3-23-20",
    "lat": 38.2237894,
    "lng": 140.8951539,
    "tel": "022-748-0411",
    "url": "http://www.earthsupport.co.jp",
    "pref": "宮城県",
    "city": "仙台市太白区",
    "category": "community_day_service",
    "serviceType": "地域密着型通所介護",
    "capacity": 0,
    "openDays": [
      "平日",
      "土曜日",
      "祝日"
    ],
    "openDaysNote": "12月30日～1月3日除く"
  },
  {
    "id": "495400749",
    "name": "きたえるーむ仙台鈎取",
    "kana": "キタエルームセンダイカギトリ",
    "address": "宮城県仙台市太白区鈎取本町1-2-3カマタハウス１階 カマタハウス１階",
    "lat": 38.2207184421419,
    "lng": 140.844605265082,
    "tel": "022-797-7481",
    "url": "https://kitaeroom.com/shop/post-94.shtml",
    "pref": "宮城県",
    "city": "仙台市太白区",
    "category": "community_day_service",
    "serviceType": "地域密着型通所介護",
    "capacity": 0,
    "openDays": [
      "平日",
      "祝日"
    ],
    "openDaysNote": "祝祭日、一部お休みとなる日があります。"
  },
  {
    "id": "475403051",
    "name": "サテライトケアセンター長町南通所介護事業所",
    "kana": "サテライトケアセンターナガマチミナミツウショカイゴジギョウショ",
    "address": "宮城県仙台市太白区泉崎1丁目34-7",
    "lat": 38.2192841,
    "lng": 140.8701183,
    "tel": "022-796-6520",
    "url": "http://www.team-forest.net/",
    "pref": "宮城県",
    "city": "仙台市太白区",
    "category": "community_day_service",
    "serviceType": "地域密着型通所介護",
    "capacity": 0,
    "openDays": [
      "平日"
    ],
    "openDaysNote": "なし"
  },
  {
    "id": "495400715",
    "name": "スポーツデイLesport鈎取",
    "kana": "スポーツデイリスポルトカギトリ",
    "address": "鈎取3‐2‐20ハイライズ鈎取1F ハイライズ鈎取1F",
    "lat": 38.2254441,
    "lng": 140.8415616,
    "tel": "022-226-8436",
    "url": "https://leifras.co.jp/",
    "pref": "宮城県",
    "city": "仙台市太白区",
    "category": "community_day_service",
    "serviceType": "地域密着型通所介護",
    "capacity": 15,
    "openDays": [
      "平日",
      "祝日"
    ],
    "openDaysNote": ""
  },
  {
    "id": "475402814",
    "name": "デイサービス　かえる",
    "kana": "デイサービス　カエル",
    "address": "宮城県仙台市太白区四郎丸字神明８０－１",
    "lat": 38.1904635,
    "lng": 140.9140356,
    "tel": "022-797-0951",
    "url": "",
    "pref": "宮城県",
    "city": "仙台市太白区",
    "category": "community_day_service",
    "serviceType": "地域密着型通所介護",
    "capacity": 10,
    "openDays": [
      "平日"
    ],
    "openDaysNote": "＊祝日であっても、ご利用の希望が多い場合は営業へ変更しご利用いただいている。"
  },
  {
    "id": "495400756",
    "name": "デイサービス　ポラーノの椅子",
    "kana": "デイサービス　ポラーノノイス",
    "address": "宮城県仙台市太白区山田北前町44-12ポラーノの椅子 ポラーノの椅子",
    "lat": 38.222551,
    "lng": 140.8258755,
    "tel": "022-738-9160",
    "url": "https://pollanno-chair.my.canva.site/",
    "pref": "宮城県",
    "city": "仙台市太白区",
    "category": "community_day_service",
    "serviceType": "地域密着型通所介護",
    "capacity": null,
    "openDays": [
      "平日"
    ],
    "openDaysNote": ""
  },
  {
    "id": "475403457",
    "name": "デイサービス　もんぜん",
    "kana": "デイサービス　モンゼン",
    "address": "宮城県仙台市太白区門前町2番3号",
    "lat": 38.236049,
    "lng": 140.8808113,
    "tel": "022-397-6133",
    "url": "",
    "pref": "宮城県",
    "city": "仙台市太白区",
    "category": "community_day_service",
    "serviceType": "地域密着型通所介護",
    "capacity": 0,
    "openDays": [
      "平日"
    ],
    "openDaysNote": ""
  },
  {
    "id": "475403440",
    "name": "デイサービス　やわらぎ",
    "kana": "デイサービス　ヤワラギ",
    "address": "宮城県仙台市太白区緑ヶ丘2丁目15番10号",
    "lat": 38.2320494,
    "lng": 140.8612049,
    "tel": "022-308-3739",
    "url": "",
    "pref": "宮城県",
    "city": "仙台市太白区",
    "category": "community_day_service",
    "serviceType": "地域密着型通所介護",
    "capacity": 0,
    "openDays": [
      "平日",
      "土曜日",
      "祝日"
    ],
    "openDaysNote": ""
  },
  {
    "id": "475402137",
    "name": "デイサービスセンター　にこトピア向山の家",
    "kana": "デイサービスセンター　ニコトピアムカイヤマノイエ",
    "address": "宮城県仙台市太白区八木山緑町４－２４",
    "lat": 38.2449008,
    "lng": 140.8642764,
    "tel": "022-217-6660",
    "url": "http://www.sg-miyagikai.jp/office/100/",
    "pref": "宮城県",
    "city": "仙台市太白区",
    "category": "community_day_service",
    "serviceType": "地域密着型通所介護",
    "capacity": 10,
    "openDays": [
      "平日",
      "祝日"
    ],
    "openDaysNote": "平日の祝日は通常営業。"
  },
  {
    "id": "475401444",
    "name": "デイサービスセンター　和み園",
    "kana": "デイサービスセンター　ナゴミエン",
    "address": "仙台市太白区柳生字田中7-3",
    "lat": 38.1941116,
    "lng": 140.8691861,
    "tel": "022-306-3750",
    "url": "",
    "pref": "宮城県",
    "city": "仙台市太白区",
    "category": "community_day_service",
    "serviceType": "地域密着型通所介護",
    "capacity": 9,
    "openDays": [
      "平日",
      "土曜日",
      "祝日"
    ],
    "openDaysNote": ""
  },
  {
    "id": "475402541",
    "name": "デイサービスわだち",
    "kana": "ディサービスワダチ",
    "address": "宮城県仙台市太白区日本平２７－１０",
    "lat": 38.224440759918,
    "lng": 140.810872167605,
    "tel": "022-395-5571",
    "url": "https://wadati-10.tkc.best-hp.jp",
    "pref": "宮城県",
    "city": "仙台市太白区",
    "category": "community_day_service",
    "serviceType": "地域密着型通所介護",
    "capacity": 14,
    "openDays": [
      "平日",
      "土曜日",
      "日曜日",
      "祝日"
    ],
    "openDaysNote": ""
  },
  {
    "id": "495400491",
    "name": "デイサービス和み富沢亭",
    "kana": "デイサービス　ナゴミ　トミザワテイ",
    "address": "仙台市太白区富沢2丁目15-25",
    "lat": 38.2211727,
    "lng": 140.8613302,
    "tel": "022-797-1215",
    "url": "https://care-life-faith.com/",
    "pref": "宮城県",
    "city": "仙台市太白区",
    "category": "community_day_service",
    "serviceType": "地域密着型通所介護",
    "capacity": 9,
    "openDays": [
      "平日",
      "土曜日",
      "日曜日",
      "祝日"
    ],
    "openDaysNote": ""
  },
  {
    "id": "495400517",
    "name": "デイサロンエムズ南仙台",
    "kana": "デイサロンエムズミナミセンダイ",
    "address": "宮城県仙台市太白区中田4丁目12番7号",
    "lat": 38.1989922,
    "lng": 140.8878369,
    "tel": "022-796-7994",
    "url": "http://www.ms-co-ltd.com/",
    "pref": "宮城県",
    "city": "仙台市太白区",
    "category": "community_day_service",
    "serviceType": "地域密着型通所介護",
    "capacity": 18,
    "openDays": [
      "平日",
      "土曜日",
      "日曜日",
      "祝日"
    ],
    "openDaysNote": ""
  },
  {
    "id": "495400764",
    "name": "デイホーム松が丘",
    "kana": "デイホームマツガオカ",
    "address": "宮城県仙台市太白区松が丘４４番２０号デイホーム松が丘 デイホーム松が丘",
    "lat": 38.2399419,
    "lng": 140.8486661,
    "tel": "022-796-9868",
    "url": "https://hp.kaipoke.biz/cg9/",
    "pref": "宮城県",
    "city": "仙台市太白区",
    "category": "community_day_service",
    "serviceType": "地域密着型通所介護",
    "capacity": null,
    "openDays": [
      "平日",
      "祝日"
    ],
    "openDaysNote": ""
  },
  {
    "id": "495400566",
    "name": "プラスワン長嶺フィットネスジム",
    "kana": "プラスワンナガミネフィットネスジム",
    "address": "宮城県仙台市太白区長嶺8番10号",
    "lat": 38.2364348,
    "lng": 140.8675137,
    "tel": "022-281-8959",
    "url": "https://ponagamine.com",
    "pref": "宮城県",
    "city": "仙台市太白区",
    "category": "community_day_service",
    "serviceType": "地域密着型通所介護",
    "capacity": 10,
    "openDays": [
      "平日",
      "祝日"
    ],
    "openDaysNote": ""
  },
  {
    "id": "495400632",
    "name": "プラスワン長嶺リラックス＆お風呂",
    "kana": "プラスワンナガミネリラックスアンドオフロ",
    "address": "宮城県仙台市太白区長嶺8-10",
    "lat": 38.2364348,
    "lng": 140.8675137,
    "tel": "022-281-9502",
    "url": "https://ponagamine.com",
    "pref": "宮城県",
    "city": "仙台市太白区",
    "category": "community_day_service",
    "serviceType": "地域密着型通所介護",
    "capacity": 0,
    "openDays": [
      "平日",
      "祝日"
    ],
    "openDaysNote": ""
  },
  {
    "id": "475402285",
    "name": "みどりの杜デイサービスセンター",
    "kana": "ミドリノモリデイサービスセンター",
    "address": "宮城県仙台市太白区西多賀3丁目7‐38デイライト西多賀102号室 デイライト西多賀102号室",
    "lat": 38.2232752,
    "lng": 140.855464,
    "tel": "022-738-8737",
    "url": "",
    "pref": "宮城県",
    "city": "仙台市太白区",
    "category": "community_day_service",
    "serviceType": "地域密着型通所介護",
    "capacity": 0,
    "openDays": [
      "平日"
    ],
    "openDaysNote": ""
  },
  {
    "id": "475402657",
    "name": "みどりの杜デイサービスセンター　中田",
    "kana": "ミドリノモリデイサービスセンター　ナカタ",
    "address": "宮城県仙台市太白区中田町字法地北19番6号",
    "lat": 38.1972484,
    "lng": 140.90105,
    "tel": "022-397-8487",
    "url": "http://frontier-g.co.jp/corporate.html",
    "pref": "宮城県",
    "city": "仙台市太白区",
    "category": "community_day_service",
    "serviceType": "地域密着型通所介護",
    "capacity": 0,
    "openDays": [
      "平日",
      "土曜日"
    ],
    "openDaysNote": ""
  },
  {
    "id": "495400400",
    "name": "リハビリサロン楽動ながまち",
    "kana": "リハビリサロンラクドウナガマチ",
    "address": "宮城県仙台市太白区郡山7-8-11リハビリサロン楽動ながまち リハビリサロン楽動ながまち",
    "lat": 38.2156837100478,
    "lng": 140.889159290196,
    "tel": "022-395-6530",
    "url": "https://rakudo-co.com/jp/",
    "pref": "宮城県",
    "city": "仙台市太白区",
    "category": "community_day_service",
    "serviceType": "地域密着型通所介護",
    "capacity": 0,
    "openDays": [
      "平日",
      "土曜日"
    ],
    "openDaysNote": ""
  },
  {
    "id": "475403499",
    "name": "リハビリサロン豊齢",
    "kana": "リハビリサロンホウレイ",
    "address": "宮城県仙台市太白区茂庭台2丁目16-10",
    "lat": 38.2329972,
    "lng": 140.7830453,
    "tel": "022-281-3190",
    "url": "http://www.hourei.com",
    "pref": "宮城県",
    "city": "仙台市太白区",
    "category": "community_day_service",
    "serviceType": "地域密着型通所介護",
    "capacity": 10,
    "openDays": [
      "平日",
      "土曜日"
    ],
    "openDaysNote": "年末年始の休日は必要に応じて実施することがある。（改行）営業時間帯で2部制になっている。"
  },
  {
    "id": "475402145",
    "name": "リハビリステーション八木山",
    "kana": "リハビリステーションヤギヤマ",
    "address": "宮城県仙台市太白区八木山松波町15-2",
    "lat": 38.2423309,
    "lng": 140.8585173,
    "tel": "022-738-8232",
    "url": "http://www.keiai-pms-.com",
    "pref": "宮城県",
    "city": "仙台市太白区",
    "category": "community_day_service",
    "serviceType": "地域密着型通所介護",
    "capacity": 10,
    "openDays": [
      "平日"
    ],
    "openDaysNote": "年末年始のお休み"
  },
  {
    "id": "495400608",
    "name": "リハビリ特化型デイサービス　ムーブメントプロ仙台",
    "kana": "リハビリトッカガタデイサービス　ムーブメントプロセンダイ",
    "address": "宮城県仙台市太白区泉崎2丁目2-25プチファミール102号 プチファミール102号",
    "lat": 38.2238738,
    "lng": 140.8670225,
    "tel": "022-302-6045",
    "url": "https://randc-shonan.co.jp/",
    "pref": "宮城県",
    "city": "仙台市太白区",
    "category": "community_day_service",
    "serviceType": "地域密着型通所介護",
    "capacity": 150,
    "openDays": [
      "平日",
      "祝日"
    ],
    "openDaysNote": "冬季休暇：12月29日～1月3日"
  },
  {
    "id": "495400590",
    "name": "レコードブック仙台長町",
    "kana": "レコードブックセンダイナガマチ",
    "address": "宮城県仙台市太白区長町5丁目2-17タウゼン・プラッツ長町１F タウゼン・プラッツ長町１F",
    "lat": 38.2252668,
    "lng": 140.8843298,
    "tel": "022-226-7968",
    "url": "",
    "pref": "宮城県",
    "city": "仙台市太白区",
    "category": "community_day_service",
    "serviceType": "地域密着型通所介護",
    "capacity": 18,
    "openDays": [
      "平日"
    ],
    "openDaysNote": ""
  },
  {
    "id": "475402301",
    "name": "介護予防センター早稲田イーライフ仙台",
    "kana": "カイゴヨボウセンターワセダイーライフセンダイ",
    "address": "宮城県仙台市太白区西多賀2丁目6-32Tハウス1F Tハウス1F",
    "lat": 38.2207254,
    "lng": 140.8562084,
    "tel": "022-397-8722",
    "url": "https://waseda-elife-sendai.com/",
    "pref": "宮城県",
    "city": "仙台市太白区",
    "category": "community_day_service",
    "serviceType": "地域密着型通所介護",
    "capacity": 85,
    "openDays": [
      "平日",
      "土曜日"
    ],
    "openDaysNote": "第1・3・5土曜日は午前のみサービス提供。"
  },
  {
    "id": "495400616",
    "name": "笑生デイサービスあきう",
    "kana": "ワラオウデイサービスアキウ",
    "address": "宮城県仙台市太白区秋保町湯向3-1",
    "lat": 38.2276436,
    "lng": 140.7248941,
    "tel": "022-302-6686",
    "url": "",
    "pref": "宮城県",
    "city": "仙台市太白区",
    "category": "community_day_service",
    "serviceType": "地域密着型通所介護",
    "capacity": 0,
    "openDays": [
      "平日",
      "土曜日",
      "祝日"
    ],
    "openDaysNote": ""
  },
  {
    "id": "495400772",
    "name": "地域密着型デイサービス暖",
    "kana": "チイキミッチャクガタデイサービスダン",
    "address": "宮城県仙台市太白区鹿野本町８－３６",
    "lat": 38.2331352014009,
    "lng": 140.871849735582,
    "tel": "022－281－8550",
    "url": "",
    "pref": "宮城県",
    "city": "仙台市太白区",
    "category": "community_day_service",
    "serviceType": "地域密着型通所介護",
    "capacity": 0,
    "openDays": [
      "平日"
    ],
    "openDaysNote": "年末年始　１２月２９日～１月３日"
  },
  {
    "id": "475403176",
    "name": "堀川整骨院デイサービス",
    "kana": "ホリカワセイコツインデイサービス",
    "address": "宮城県仙台市太白区鈎取1-5-50",
    "lat": 38.2214516,
    "lng": 140.8476013,
    "tel": "022-281-9865",
    "url": "http://www.horikawaseikotu.com/branch/day.html",
    "pref": "宮城県",
    "city": "仙台市太白区",
    "category": "community_day_service",
    "serviceType": "地域密着型通所介護",
    "capacity": 6,
    "openDays": [
      "平日"
    ],
    "openDaysNote": "午前（9：30～12：30）と午後（15：00～18：00）の二部制です。"
  },
  {
    "id": "495400475",
    "name": "夢うさぎ",
    "kana": "ユメウサギ",
    "address": "宮城県仙台市太白区諏訪町13-44あすと浪漫座内 あすと浪漫座内",
    "lat": 38.2149126,
    "lng": 140.885056,
    "tel": "022-399-7335",
    "url": "http://care-net.biz/04/wing/",
    "pref": "宮城県",
    "city": "仙台市太白区",
    "category": "community_day_service",
    "serviceType": "地域密着型通所介護",
    "capacity": 0,
    "openDays": [
      "平日",
      "祝日"
    ],
    "openDaysNote": ""
  },
  {
    "id": "470900697",
    "name": "デイサービスヒマワリ",
    "kana": "デイサービスヒマワリ",
    "address": "宮城県多賀城市高崎2-22-8",
    "lat": 38.2969441,
    "lng": 140.9942704,
    "tel": "022-794-7580",
    "url": "https://www.himawari-7.com",
    "pref": "宮城県",
    "city": "多賀城市",
    "category": "community_day_service",
    "serviceType": "地域密着型通所介護",
    "capacity": 0,
    "openDays": [
      "平日",
      "土曜日",
      "祝日"
    ],
    "openDaysNote": ""
  },
  {
    "id": "490900164",
    "name": "リハアスリート",
    "kana": "リハアスリート",
    "address": "宮城県多賀城市大代3-5-26-103103 103",
    "lat": 38.2930702,
    "lng": 141.0348292,
    "tel": "022-349-9810",
    "url": "https://www.sinkeidou.com/",
    "pref": "宮城県",
    "city": "多賀城市",
    "category": "community_day_service",
    "serviceType": "地域密着型通所介護",
    "capacity": 0,
    "openDays": [
      "平日"
    ],
    "openDaysNote": ""
  },
  {
    "id": "470900598",
    "name": "リハビリ型デイサービス　リハトレーション",
    "kana": "リハビリガタデイサービス　リハトレーション",
    "address": "宮城県多賀城市八幡４丁目７－５０八幡ハイツ１F 八幡ハイツ１F",
    "lat": 38.2911679353565,
    "lng": 141.013430661377,
    "tel": "022-364-7285",
    "url": "https://rehatration.wixsite.com/rehatration/",
    "pref": "宮城県",
    "city": "多賀城市",
    "category": "community_day_service",
    "serviceType": "地域密着型通所介護",
    "capacity": 15,
    "openDays": [
      "平日",
      "祝日"
    ],
    "openDaysNote": "夏季休暇（お盆休み）、年末年始休暇（お正月休み）は除く"
  },
  {
    "id": "472201326",
    "name": "ピュア健康俱楽部デイサービスセンター",
    "kana": "ピュア　ケンコウクラブ　デイサービスセンター",
    "address": "宮城県柴田郡大河原町字新東24-1",
    "lat": 38.0547224459861,
    "lng": 140.731607530411,
    "tel": "224510881",
    "url": "https://puresports.co.jp/kenkoclub/",
    "pref": "宮城県",
    "city": "大河原町",
    "category": "community_day_service",
    "serviceType": "地域密着型通所介護",
    "capacity": 0,
    "openDays": [
      "平日"
    ],
    "openDaysNote": "お盆及び年始年末休館日有"
  },
  {
    "id": "492200142",
    "name": "リハスパ　大河原",
    "kana": "リハスパオオガワラ",
    "address": "宮城県柴田郡大河原町新東21−6アイル新南ビル101 アイル新南ビル101",
    "lat": 38.058087430624,
    "lng": 140.735693357178,
    "tel": "0224-51-8117",
    "url": "rihaspa.net>inho",
    "pref": "宮城県",
    "city": "大河原町",
    "category": "community_day_service",
    "serviceType": "地域密着型通所介護",
    "capacity": 0,
    "openDays": [
      "平日",
      "祝日"
    ],
    "openDaysNote": ""
  },
  {
    "id": "472200872",
    "name": "合同会社ウエルネスケアきずな",
    "kana": "ゴウドウガイシャウエルスケアキズナ",
    "address": "宮城県柴田郡大河原町金ヶ瀬字町81-1",
    "lat": 38.0447174,
    "lng": 140.7091398,
    "tel": "0224-52-5118",
    "url": "",
    "pref": "宮城県",
    "city": "大河原町",
    "category": "community_day_service",
    "serviceType": "地域密着型通所介護",
    "capacity": 10,
    "openDays": [
      "平日",
      "祝日"
    ],
    "openDaysNote": "緊急時の対応については時間、曜日の設定はないです"
  },
  {
    "id": "472200468",
    "name": "有限会社　太陽デイサービスセンター",
    "kana": "ユウゲンガイシャ　タイヨウデイサービスセンター",
    "address": "宮城県柴田郡大河原町大谷字見城前１５９－４太陽デイサービスセンター内 太陽デイサービスセンター内",
    "lat": 38.0316169474841,
    "lng": 140.737291307957,
    "tel": "0224-53-8330",
    "url": "",
    "pref": "宮城県",
    "city": "大河原町",
    "category": "community_day_service",
    "serviceType": "地域密着型通所介護",
    "capacity": 10,
    "openDays": [
      "平日",
      "土曜日",
      "祝日"
    ],
    "openDaysNote": "正月休暇　12月31日～1月3日"
  },
  {
    "id": "472700988",
    "name": "デイサービスセンター　ウィング",
    "kana": "デイサービスセンター　ウィング",
    "address": "宮城県黒川郡大郷町羽生字金井川94番1特別養護老人ホーム　ウイング 特別養護老人ホーム　ウイング",
    "lat": 38.42486,
    "lng": 141.0164909,
    "tel": "022-359-8182",
    "url": "http://www.zenshunkai.jp/",
    "pref": "宮城県",
    "city": "大郷町",
    "category": "community_day_service",
    "serviceType": "地域密着型通所介護",
    "capacity": 18,
    "openDays": [
      "平日",
      "祝日"
    ],
    "openDaysNote": "年末年始の休日あり（改行）12月31日から1月2日"
  },
  {
    "id": "472701135",
    "name": "通所介護リハビリセンターおおひら",
    "kana": "ツウショカイゴリハビリセンターオオヒラ",
    "address": "宮城県黒川郡大衡村大衡字枛木47-79",
    "lat": 38.4743936377817,
    "lng": 140.87581637498,
    "tel": "022-346-0151",
    "url": "https://office-ohtsuka.jp/",
    "pref": "宮城県",
    "city": "大衡村",
    "category": "community_day_service",
    "serviceType": "地域密着型通所介護",
    "capacity": 170,
    "openDays": [
      "平日",
      "土曜日",
      "祝日"
    ],
    "openDaysNote": "GW・お盆・シルバーウィーク・年末年始は休業となります。"
  },
  {
    "id": "471502450",
    "name": "えあいの郷デイサービス",
    "kana": "エアイノサトデイサービス",
    "address": "宮城県大崎市古川新田字川原12-2",
    "lat": 38.6013538,
    "lng": 140.9278699,
    "tel": "0229-26-5771",
    "url": "",
    "pref": "宮城県",
    "city": "大崎市",
    "category": "community_day_service",
    "serviceType": "地域密着型通所介護",
    "capacity": 18,
    "openDays": [
      "平日",
      "祝日"
    ],
    "openDaysNote": ""
  },
  {
    "id": "471501676",
    "name": "デイサービス　あずなの里",
    "kana": "デイサービス　アズナノサト",
    "address": "宮城県大崎市岩出山字二ノ構171番地",
    "lat": 38.6497527,
    "lng": 140.8654538,
    "tel": "0229-72-5211",
    "url": "http://m-airinkai.co.jp",
    "pref": "宮城県",
    "city": "大崎市",
    "category": "community_day_service",
    "serviceType": "地域密着型通所介護",
    "capacity": 0,
    "openDays": [
      "平日",
      "土曜日",
      "日曜日",
      "祝日"
    ],
    "openDaysNote": ""
  },
  {
    "id": "491500229",
    "name": "デイサービス　まはな",
    "kana": "デイサービス　マハナ",
    "address": "宮城県大崎市古川新堀字城野20番1デイサービスまはな デイサービスまはな",
    "lat": 38.5794116471536,
    "lng": 140.893295446033,
    "tel": "0229-25-4881",
    "url": "",
    "pref": "宮城県",
    "city": "大崎市",
    "category": "community_day_service",
    "serviceType": "地域密着型通所介護",
    "capacity": 11,
    "openDays": [
      "平日",
      "土曜日",
      "日曜日",
      "祝日"
    ],
    "openDaysNote": ""
  },
  {
    "id": "471501619",
    "name": "デイサービス　栄泉",
    "kana": "デイサービス　エイセン",
    "address": "宮城県大崎市鳴子温泉字末沢1番２３",
    "lat": 38.7515336,
    "lng": 140.7282983,
    "tel": "0229-82-2665",
    "url": "http://ritsuoukai.or.jp",
    "pref": "宮城県",
    "city": "大崎市",
    "category": "community_day_service",
    "serviceType": "地域密着型通所介護",
    "capacity": null,
    "openDays": [
      "平日",
      "祝日"
    ],
    "openDaysNote": ""
  },
  {
    "id": "471501924",
    "name": "デイサービス　楽笑",
    "kana": "デイサービス　ラフ",
    "address": "大崎市田尻字北大杉５９番地",
    "lat": 38.5990747437551,
    "lng": 141.018959814433,
    "tel": "０２２９－８７－４０３１",
    "url": "",
    "pref": "宮城県",
    "city": "大崎市",
    "category": "community_day_service",
    "serviceType": "地域密着型通所介護",
    "capacity": 17,
    "openDays": [
      "平日",
      "土曜日",
      "日曜日",
      "祝日"
    ],
    "openDaysNote": ""
  },
  {
    "id": "471501874",
    "name": "デイサービス　孫の手",
    "kana": "デイサービス　マゴノテ",
    "address": "宮城県大崎市田尻小松字土手下９３番地１",
    "lat": 38.6182068,
    "lng": 141.0037748,
    "tel": "0229-38-1855",
    "url": "http;//deepcare.jp/",
    "pref": "宮城県",
    "city": "大崎市",
    "category": "community_day_service",
    "serviceType": "地域密着型通所介護",
    "capacity": 10,
    "openDays": [
      "平日",
      "土曜日",
      "日曜日",
      "祝日"
    ],
    "openDaysNote": ""
  },
  {
    "id": "471501726",
    "name": "デイサービス　福祉の杜",
    "kana": "デイサービス　フクシノモリ",
    "address": "宮城県大崎市鹿島台大迫字川前１２０番地",
    "lat": 38.447616,
    "lng": 141.030013,
    "tel": "0229-56-6062",
    "url": "",
    "pref": "宮城県",
    "city": "大崎市",
    "category": "community_day_service",
    "serviceType": "地域密着型通所介護",
    "capacity": 10,
    "openDays": [
      "平日",
      "土曜日",
      "日曜日",
      "祝日"
    ],
    "openDaysNote": ""
  },
  {
    "id": "471502088",
    "name": "デイサービス　緑のそよ風",
    "kana": "デイサービス　ミドリノソヨカゼ",
    "address": "宮城県大崎市岩出山字細峯1",
    "lat": 38.6318521,
    "lng": 140.8718596,
    "tel": "0229-25-8520",
    "url": "https://www.urbanedirect.com/",
    "pref": "宮城県",
    "city": "大崎市",
    "category": "community_day_service",
    "serviceType": "地域密着型通所介護",
    "capacity": 0,
    "openDays": [
      "平日",
      "土曜日",
      "日曜日",
      "祝日"
    ],
    "openDaysNote": ""
  },
  {
    "id": "491500286",
    "name": "デイサービスあいわの家",
    "kana": "デイサービスアイワノイエ",
    "address": "宮城県大崎市駅東二丁目７番13号",
    "lat": 38.5742308466033,
    "lng": 140.971857719777,
    "tel": "0229-25-8911",
    "url": "http://airinkai.net",
    "pref": "宮城県",
    "city": "大崎市",
    "category": "community_day_service",
    "serviceType": "地域密着型通所介護",
    "capacity": 0,
    "openDays": [
      "平日",
      "土曜日",
      "日曜日",
      "祝日"
    ],
    "openDaysNote": ""
  },
  {
    "id": "471501791",
    "name": "デイサービスセンター　ニコニコ・あっちゃん",
    "kana": "デイサービスセンターニコニコアッチャン",
    "address": "宮城県大崎市松山千石字松山383-1",
    "lat": 38.5164939,
    "lng": 141.0511518,
    "tel": "0229-55-5633",
    "url": "",
    "pref": "宮城県",
    "city": "大崎市",
    "category": "community_day_service",
    "serviceType": "地域密着型通所介護",
    "capacity": 15,
    "openDays": [
      "平日",
      "土曜日",
      "日曜日",
      "祝日"
    ],
    "openDaysNote": "天災等によりやむを得ず業務を遂行できないと判断した日は、臨時休業する場合がある。"
  },
  {
    "id": "491500302",
    "name": "デイサービスセンターひ・な・た",
    "kana": "デイサービスセンターヒ・ナ・タ",
    "address": "宮城県大崎市古川大幡字道上2番地1",
    "lat": 38.5589263,
    "lng": 140.9652134,
    "tel": "0229-25-5716",
    "url": "http://smile-hinata.com",
    "pref": "宮城県",
    "city": "大崎市",
    "category": "community_day_service",
    "serviceType": "地域密着型通所介護",
    "capacity": 12,
    "openDays": [
      "平日",
      "土曜日",
      "祝日"
    ],
    "openDaysNote": ""
  },
  {
    "id": "471502104",
    "name": "デイサービス陽だまり",
    "kana": "デイサービスヒダマリ",
    "address": "宮城県大崎市松山金谷字金田89",
    "lat": 38.5123528,
    "lng": 141.0609204,
    "tel": "0229-55-2662",
    "url": "",
    "pref": "宮城県",
    "city": "大崎市",
    "category": "community_day_service",
    "serviceType": "地域密着型通所介護",
    "capacity": 0,
    "openDays": [
      "平日",
      "土曜日",
      "日曜日",
      "祝日"
    ],
    "openDaysNote": ""
  },
  {
    "id": "491500237",
    "name": "デイサービス欅",
    "kana": "デイサービスケヤキ",
    "address": "宮城県大崎市古川沢田字筒場15",
    "lat": 38.5961520761557,
    "lng": 140.973854470778,
    "tel": "0229-25-4743",
    "url": "",
    "pref": "宮城県",
    "city": "大崎市",
    "category": "community_day_service",
    "serviceType": "地域密着型通所介護",
    "capacity": 18,
    "openDays": [
      "平日",
      "土曜日",
      "日曜日",
      "祝日"
    ],
    "openDaysNote": ""
  },
  {
    "id": "491500369",
    "name": "デイサービス欅　師山",
    "kana": "デイサービスケヤキ　モロヤマ",
    "address": "宮城県大崎市古川師山字高崎64",
    "lat": 38.5422155,
    "lng": 140.9702757,
    "tel": "0229-25-7337",
    "url": "",
    "pref": "宮城県",
    "city": "大崎市",
    "category": "community_day_service",
    "serviceType": "地域密着型通所介護",
    "capacity": 18,
    "openDays": [
      "平日",
      "土曜日",
      "日曜日",
      "祝日"
    ],
    "openDaysNote": ""
  },
  {
    "id": "491500443",
    "name": "ミーケアデイサービス",
    "kana": "ミーケアデイサービス",
    "address": "宮城県大崎市古川新田字川原12-2",
    "lat": 38.6015664,
    "lng": 140.9276188,
    "tel": "0229-26-5770",
    "url": "",
    "pref": "宮城県",
    "city": "大崎市",
    "category": "community_day_service",
    "serviceType": "地域密着型通所介護",
    "capacity": null,
    "openDays": [
      "平日",
      "祝日"
    ],
    "openDaysNote": ""
  },
  {
    "id": "471502146",
    "name": "リハビリ特化型デイサービス　リハニック大崎",
    "kana": "リハビリトッカガタデイサービス　リハニック　オオサキ",
    "address": "宮城県大崎市古川駅前大通3丁目4-23ジュネスビル1F ジュネスビル1F",
    "lat": 38.5733417,
    "lng": 140.9680401,
    "tel": "0229-25-8995",
    "url": "http://www.rehanic.jp/",
    "pref": "宮城県",
    "city": "大崎市",
    "category": "community_day_service",
    "serviceType": "地域密着型通所介護",
    "capacity": 0,
    "openDays": [
      "平日",
      "祝日"
    ],
    "openDaysNote": ""
  },
  {
    "id": "471501536",
    "name": "介護の里　桜日和",
    "kana": "カイゴノサト　サクラビヨリ",
    "address": "宮城県大崎市古川新田字大西1-61",
    "lat": 38.6035868,
    "lng": 140.9254921,
    "tel": "0229-26-5061",
    "url": "",
    "pref": "宮城県",
    "city": "大崎市",
    "category": "community_day_service",
    "serviceType": "地域密着型通所介護",
    "capacity": 10,
    "openDays": [
      "平日",
      "土曜日",
      "日曜日",
      "祝日"
    ],
    "openDaysNote": ""
  },
  {
    "id": "471501387",
    "name": "介護横丁　小春日和",
    "kana": "カイゴヨコチョウコハルビヨリ",
    "address": "宮城県大崎市古川稲葉字新堀70-1",
    "lat": 38.5548599,
    "lng": 140.947404,
    "tel": "0229-25-6210",
    "url": "",
    "pref": "宮城県",
    "city": "大崎市",
    "category": "community_day_service",
    "serviceType": "地域密着型通所介護",
    "capacity": 0,
    "openDays": [
      "平日",
      "土曜日",
      "日曜日",
      "祝日"
    ],
    "openDaysNote": ""
  },
  {
    "id": "491500385",
    "name": "岩出山地域福祉事業所　みんなの居場所いわでやま",
    "kana": "イワデヤマチイキフクシジギョウショ　ミンナノイバショイワデヤマ",
    "address": "宮城県大崎市岩出山下野目字沖ノ井85番地",
    "lat": 38.6319154635171,
    "lng": 140.894530064418,
    "tel": "0229-25-9984",
    "url": "",
    "pref": "宮城県",
    "city": "大崎市",
    "category": "community_day_service",
    "serviceType": "地域密着型通所介護",
    "capacity": 9,
    "openDays": [
      "平日",
      "土曜日",
      "祝日"
    ],
    "openDaysNote": ""
  },
  {
    "id": "471502443",
    "name": "機能訓練特化型デイサービス　はばたき",
    "kana": "ハバタキ",
    "address": "宮城県大崎市松山金谷字金田86番地1",
    "lat": 38.5131805,
    "lng": 141.060676,
    "tel": "0229-25-4103",
    "url": "",
    "pref": "宮城県",
    "city": "大崎市",
    "category": "community_day_service",
    "serviceType": "地域密着型通所介護",
    "capacity": 10,
    "openDays": [
      "平日",
      "祝日"
    ],
    "openDaysNote": ""
  },
  {
    "id": "471501700",
    "name": "合同会社　えがお",
    "kana": "ゴウドウカイシャ　エガオ",
    "address": "宮城県大崎市古川塚目屋敷85",
    "lat": 38.5751372,
    "lng": 140.9369998,
    "tel": "0229-87-3473",
    "url": "",
    "pref": "宮城県",
    "city": "大崎市",
    "category": "community_day_service",
    "serviceType": "地域密着型通所介護",
    "capacity": 8,
    "openDays": [
      "平日",
      "土曜日",
      "祝日"
    ],
    "openDaysNote": ""
  },
  {
    "id": "471502385",
    "name": "合同会社　純之家",
    "kana": "ゴウドウガイシャ　ジュンノイエ",
    "address": "宮城県大崎市田尻小塩字東沢田二13番地1",
    "lat": 38.6028731,
    "lng": 141.0749361,
    "tel": "0229-39-1776",
    "url": "http://hp.kaipoke.biz/vxb/",
    "pref": "宮城県",
    "city": "大崎市",
    "category": "community_day_service",
    "serviceType": "地域密着型通所介護",
    "capacity": 0,
    "openDays": [
      "平日",
      "土曜日",
      "日曜日",
      "祝日"
    ],
    "openDaysNote": "年末年始12/30～1/3までお休みとなります。"
  },
  {
    "id": "471501858",
    "name": "社会貢献型通所介護事業所「おぢゃっこ倶楽部」",
    "kana": "シャカイコウケンガタツウショカイゴジギョウショ「オヂャッコクラブ」",
    "address": "宮城県大崎市三本木新沼字中谷地屋敷79",
    "lat": 38.5351592,
    "lng": 140.9348391,
    "tel": "0229-53-1611",
    "url": "http://odyakko.net/",
    "pref": "宮城県",
    "city": "大崎市",
    "category": "community_day_service",
    "serviceType": "地域密着型通所介護",
    "capacity": 15,
    "openDays": [
      "平日",
      "祝日"
    ],
    "openDaysNote": ""
  },
  {
    "id": "471502013",
    "name": "新第二桜日和",
    "kana": "シンダイニサクラビヨリ",
    "address": "宮城県大崎市古川塚目字北原３-１番地",
    "lat": 38.5860251,
    "lng": 140.9377228,
    "tel": "0229-87-4218",
    "url": "",
    "pref": "宮城県",
    "city": "大崎市",
    "category": "community_day_service",
    "serviceType": "地域密着型通所介護",
    "capacity": 10,
    "openDays": [
      "平日",
      "土曜日",
      "日曜日",
      "祝日"
    ],
    "openDaysNote": "なし"
  },
  {
    "id": "491500534",
    "name": "大貫デイサービスセンター",
    "kana": "オオヌキデイサービスセンター",
    "address": "宮城県大崎市田尻大貫字境３６番地１",
    "lat": 38.6108159,
    "lng": 141.1059157,
    "tel": "0229-38-1511",
    "url": "http://www.tajirifukusikai.com",
    "pref": "宮城県",
    "city": "大崎市",
    "category": "community_day_service",
    "serviceType": "地域密着型通所介護",
    "capacity": 0,
    "openDays": [
      "平日",
      "土曜日",
      "祝日"
    ],
    "openDaysNote": "年末年始（１月１日～１月３日）定休日となります。"
  },
  {
    "id": "471501155",
    "name": "大崎市社会福祉協議会オニコウベデイサービスセンター",
    "kana": "オオサキシシャカイフクシキョウギカイオニコウベデイサービスセンター",
    "address": "宮城県大崎市鳴子温泉鬼首字宮沢53番地1",
    "lat": 38.8063696,
    "lng": 140.6691663,
    "tel": "0229-86-2727",
    "url": "",
    "pref": "宮城県",
    "city": "大崎市",
    "category": "community_day_service",
    "serviceType": "地域密着型通所介護",
    "capacity": 10,
    "openDays": [
      "平日",
      "土曜日",
      "祝日"
    ],
    "openDaysNote": ""
  },
  {
    "id": "471501601",
    "name": "大杉デイサービス",
    "kana": "オオスギデイサービス",
    "address": "宮城県大崎市田尻字北大杉6-1",
    "lat": 38.5982068,
    "lng": 141.0150409,
    "tel": "0229-39-4651",
    "url": "",
    "pref": "宮城県",
    "city": "大崎市",
    "category": "community_day_service",
    "serviceType": "地域密着型通所介護",
    "capacity": 0,
    "openDays": [
      "平日",
      "土曜日",
      "日曜日",
      "祝日"
    ],
    "openDaysNote": ""
  },
  {
    "id": "471501718",
    "name": "第二桜日和",
    "kana": "ダイニサクラビヨリ",
    "address": "宮城県大崎市古川新田字大西1番７２",
    "lat": 38.6034646,
    "lng": 140.9261282,
    "tel": "0229-87-3561",
    "url": "",
    "pref": "宮城県",
    "city": "大崎市",
    "category": "community_day_service",
    "serviceType": "地域密着型通所介護",
    "capacity": 0,
    "openDays": [
      "平日",
      "土曜日",
      "日曜日",
      "祝日"
    ],
    "openDaysNote": ""
  },
  {
    "id": "491500252",
    "name": "地域密着型デイサービス桂",
    "kana": "チイキミッチャクガタデイサービスカツラ",
    "address": "宮城県大崎市鹿島台平渡字吹上16番地1",
    "lat": 38.4744164,
    "lng": 141.0902586,
    "tel": "0229－25－6350",
    "url": "",
    "pref": "宮城県",
    "city": "大崎市",
    "category": "community_day_service",
    "serviceType": "地域密着型通所介護",
    "capacity": null,
    "openDays": [
      "平日",
      "土曜日",
      "日曜日",
      "祝日"
    ],
    "openDaysNote": "デイをお休みされる時は前日にご連絡を宜しくお願いしております。体調不良にてお休みされる時は当日の8時ころまで連絡を頂くようにお願いしております。"
  },
  {
    "id": "491500427",
    "name": "地域密着型通所介護　デイサービス緑のそよ風　４号館",
    "kana": "チイキミッチャクガタ　ツウショカイゴ　デイサービスミドリノソヨカゼ　ヨンゴウカン",
    "address": "田尻小松字竪沢1－1",
    "lat": 38.6229929,
    "lng": 141.0118327,
    "tel": "0229－38－1610",
    "url": "",
    "pref": "宮城県",
    "city": "大崎市",
    "category": "community_day_service",
    "serviceType": "地域密着型通所介護",
    "capacity": 0,
    "openDays": [
      "平日",
      "土曜日",
      "日曜日",
      "祝日"
    ],
    "openDaysNote": ""
  },
  {
    "id": "471501866",
    "name": "茶話本舗デイサービス三本木亭",
    "kana": "サワホンポデイサービスサンボンギテイ",
    "address": "宮城県大崎市中沢字中沢屋敷281-3",
    "lat": 38.5395344619737,
    "lng": 140.91646482759,
    "tel": "0229-53-1870",
    "url": "",
    "pref": "宮城県",
    "city": "大崎市",
    "category": "community_day_service",
    "serviceType": "地域密着型通所介護",
    "capacity": 10,
    "openDays": [
      "平日",
      "土曜日",
      "日曜日",
      "祝日"
    ],
    "openDaysNote": ""
  },
  {
    "id": "471501627",
    "name": "湯ったり　ふきゆ荘",
    "kana": "ユッタリ　フキユソウ",
    "address": "大崎市鳴子温泉字星沼１５番地１２",
    "lat": 38.7277183,
    "lng": 140.6799826,
    "tel": "0229-87-2239",
    "url": "",
    "pref": "宮城県",
    "city": "大崎市",
    "category": "community_day_service",
    "serviceType": "地域密着型通所介護",
    "capacity": 12,
    "openDays": [
      "平日",
      "土曜日",
      "日曜日",
      "祝日"
    ],
    "openDaysNote": ""
  },
  {
    "id": "471500736",
    "name": "南原デイサービスセンター",
    "kana": "ミナミハラデイサービスセンター",
    "address": "宮城県大崎市鳴子温泉字南原１２０番地１",
    "lat": 38.7182437,
    "lng": 140.6544241,
    "tel": "0229-87-1350",
    "url": "http://fukafukahouse.jimdo.com/",
    "pref": "宮城県",
    "city": "大崎市",
    "category": "community_day_service",
    "serviceType": "地域密着型通所介護",
    "capacity": 0,
    "openDays": [
      "平日",
      "土曜日",
      "祝日"
    ],
    "openDaysNote": "11月～2月までの冬期間は9:30～15:50となります。"
  },
  {
    "id": "471500777",
    "name": "鳴子地域福祉事業所　介護予防ステーション　なるっこ",
    "kana": "ナルコチイキフクシジギョウショ　カイゴヨボウステーション　ナルッコ",
    "address": "宮城県大崎市鳴子温泉字町下15-1",
    "lat": 38.7368455665732,
    "lng": 140.768895449995,
    "tel": "0229-25-4738",
    "url": "",
    "pref": "宮城県",
    "city": "大崎市",
    "category": "community_day_service",
    "serviceType": "地域密着型通所介護",
    "capacity": 14,
    "openDays": [
      "平日",
      "土曜日",
      "祝日"
    ],
    "openDaysNote": "営業日　　月曜日より土曜日、祝祭日も営業"
  },
  {
    "id": "492700083",
    "name": "デイサービス　杜のクラブ",
    "kana": "デイサービス　モリノクラブ",
    "address": "宮城県黒川郡大和町杜の丘２丁目１-７",
    "lat": 38.3859469,
    "lng": 140.867189,
    "tel": "０２２-３４１-９６２３",
    "url": "https://morino-club.com/",
    "pref": "宮城県",
    "city": "大和町",
    "category": "community_day_service",
    "serviceType": "地域密着型通所介護",
    "capacity": 0,
    "openDays": [
      "平日",
      "土曜日"
    ],
    "openDaysNote": ""
  },
  {
    "id": "471200774",
    "name": "あんディ・ケアサービス",
    "kana": "アンディ・ケアサービス",
    "address": "宮城県登米市迫町佐沼字中江5丁目11-17",
    "lat": 38.6911696,
    "lng": 141.1812903,
    "tel": "0220-21-5155",
    "url": "https://neovision.info",
    "pref": "宮城県",
    "city": "登米市",
    "category": "community_day_service",
    "serviceType": "地域密着型通所介護",
    "capacity": 18,
    "openDays": [
      "平日",
      "土曜日",
      "祝日"
    ],
    "openDaysNote": "その他の休日（改行）12月31日・1月1日・2日・3日"
  },
  {
    "id": "471200998",
    "name": "あんディ・スポルト",
    "kana": "アンディ・スポルト",
    "address": "宮城県登米市迫町佐沼字中江5丁目１１－１７",
    "lat": 38.6911696,
    "lng": 141.1812903,
    "tel": "0220-21-1260",
    "url": "https://neovision.info",
    "pref": "宮城県",
    "city": "登米市",
    "category": "community_day_service",
    "serviceType": "地域密着型通所介護",
    "capacity": 10,
    "openDays": [
      "平日",
      "土曜日",
      "祝日"
    ],
    "openDaysNote": "その他の休日（改行）12月31日・1月1日・2日・3日"
  },
  {
    "id": "471201459",
    "name": "あんディ・まめスポ",
    "kana": "アンディ・マメスポ",
    "address": "宮城県登米市迫町佐沼字大網256-4ビーンズエステートⅢ　101 ビーンズエステートⅢ　101",
    "lat": 38.6793004783496,
    "lng": 141.198328704399,
    "tel": "0220-23-7343",
    "url": "https://neovision.info/",
    "pref": "宮城県",
    "city": "登米市",
    "category": "community_day_service",
    "serviceType": "地域密着型通所介護",
    "capacity": 60,
    "openDays": [
      "平日",
      "土曜日",
      "祝日"
    ],
    "openDaysNote": "その他の休⽇（改行）12⽉31⽇・1⽉1⽇・2⽇・3⽇"
  },
  {
    "id": "471201368",
    "name": "デイサービス　こころ",
    "kana": "デイサービス　ココロ",
    "address": "宮城県登米市迫町佐沼字中江５丁目２－１０ノエビアビル　１階 ノエビアビル　１階",
    "lat": 38.6909279291528,
    "lng": 141.185568071164,
    "tel": "0220-22-6005",
    "url": "https//www.noebia.com",
    "pref": "宮城県",
    "city": "登米市",
    "category": "community_day_service",
    "serviceType": "地域密着型通所介護",
    "capacity": 10,
    "openDays": [
      "平日",
      "土曜日",
      "日曜日",
      "祝日"
    ],
    "openDaysNote": ""
  },
  {
    "id": "471201574",
    "name": "デイサービス　しばた",
    "kana": "デイサービス　シバタ",
    "address": "宮城県登米市登米町日野渡321-5",
    "lat": 38.6607542245011,
    "lng": 141.270777190491,
    "tel": "0220-53-1055",
    "url": "",
    "pref": "宮城県",
    "city": "登米市",
    "category": "community_day_service",
    "serviceType": "地域密着型通所介護",
    "capacity": 10,
    "openDays": [
      "平日"
    ],
    "openDaysNote": ""
  },
  {
    "id": "471201517",
    "name": "デイサービス　ひなたぼっこ",
    "kana": "デイサービス　ヒナタボッコ",
    "address": "宮城県登米市迫町佐沼字新大東127",
    "lat": 38.6819378,
    "lng": 141.1999197,
    "tel": "0220－23－7837",
    "url": "",
    "pref": "宮城県",
    "city": "登米市",
    "category": "community_day_service",
    "serviceType": "地域密着型通所介護",
    "capacity": 14,
    "openDays": [
      "平日",
      "土曜日",
      "祝日"
    ],
    "openDaysNote": ""
  },
  {
    "id": "491200457",
    "name": "デイサービス　みんなの家錦織",
    "kana": "デイサービス　ミンナノイエニシキオリ",
    "address": "宮城県登米市東和町錦織字内の目１４",
    "lat": 38.7569805,
    "lng": 141.2880565,
    "tel": "0220-23-9371",
    "url": "https://minnanoie55.wordpress.com/",
    "pref": "宮城県",
    "city": "登米市",
    "category": "community_day_service",
    "serviceType": "地域密着型通所介護",
    "capacity": null,
    "openDays": [
      "平日",
      "土曜日",
      "祝日"
    ],
    "openDaysNote": ""
  },
  {
    "id": "491200341",
    "name": "デイサービス　わっしょい",
    "kana": "ワッショイ",
    "address": "宮城県登米市中田町宝江新井田字神畑149",
    "lat": 38.6941434,
    "lng": 141.237855,
    "tel": "0220-23-8750",
    "url": "http://www.chouseikai.com",
    "pref": "宮城県",
    "city": "登米市",
    "category": "community_day_service",
    "serviceType": "地域密着型通所介護",
    "capacity": 18,
    "openDays": [
      "平日",
      "土曜日",
      "祝日"
    ],
    "openDaysNote": ""
  },
  {
    "id": "471201467",
    "name": "デイサービス　和み　長者原亭",
    "kana": "デイサービス　ナゴミ　チョウジャハラテイ",
    "address": "宮城県登米市南方町長者原135番地",
    "lat": 38.6473961,
    "lng": 141.0920778,
    "tel": "0220-23-8828",
    "url": "https://care-life-faith.com",
    "pref": "宮城県",
    "city": "登米市",
    "category": "community_day_service",
    "serviceType": "地域密着型通所介護",
    "capacity": 14,
    "openDays": [
      "平日",
      "土曜日",
      "日曜日",
      "祝日"
    ],
    "openDaysNote": ""
  },
  {
    "id": "491200440",
    "name": "デイサービスこころの森",
    "kana": "デイサービスココロノモリ",
    "address": "宮城県登米市迫町北方字紫雲山下12",
    "lat": 38.6998329,
    "lng": 141.1884908,
    "tel": "0220-21-5325",
    "url": "https://www.noebia.com",
    "pref": "宮城県",
    "city": "登米市",
    "category": "community_day_service",
    "serviceType": "地域密着型通所介護",
    "capacity": null,
    "openDays": [
      "平日",
      "土曜日",
      "祝日"
    ],
    "openDaysNote": "1/1～1/3は除く"
  },
  {
    "id": "471201475",
    "name": "デイサービスセンター　にしだて",
    "kana": "デイサービスセンターニシダテ",
    "address": "宮城県登米市迫町佐沼字西舘56-11",
    "lat": 38.699405255642,
    "lng": 141.190633904893,
    "tel": "0220-21-5636",
    "url": "https://www.yui-nishidate.com/",
    "pref": "宮城県",
    "city": "登米市",
    "category": "community_day_service",
    "serviceType": "地域密着型通所介護",
    "capacity": 2,
    "openDays": [
      "平日",
      "土曜日",
      "祝日"
    ],
    "openDaysNote": ""
  },
  {
    "id": "491200432",
    "name": "デイサービスセンターとんぼ",
    "kana": "デイサービスセンタートンボ",
    "address": "豊里町大曲124番地4",
    "lat": 38.5989829,
    "lng": 141.2294974,
    "tel": "0225-25-7456",
    "url": "",
    "pref": "宮城県",
    "city": "登米市",
    "category": "community_day_service",
    "serviceType": "地域密着型通所介護",
    "capacity": 18,
    "openDays": [
      "平日",
      "土曜日",
      "祝日"
    ],
    "openDaysNote": ""
  },
  {
    "id": "491200358",
    "name": "デイサービスプラスワ",
    "kana": "デイサービスプラスワ",
    "address": "宮城県登米市迫町佐沼字光ヶ丘166番地",
    "lat": 38.6882494,
    "lng": 141.2051033,
    "tel": "0220-23-9537",
    "url": "https://purasuwa.com/",
    "pref": "宮城県",
    "city": "登米市",
    "category": "community_day_service",
    "serviceType": "地域密着型通所介護",
    "capacity": 9,
    "openDays": [
      "平日",
      "土曜日",
      "日曜日",
      "祝日"
    ],
    "openDaysNote": ""
  },
  {
    "id": "491200382",
    "name": "デイサービスプラスワ中田",
    "kana": "デイサービスプラスワナカダ",
    "address": "宮城県登米市中田町上沼字西桜場32番地１",
    "lat": 38.7142310639008,
    "lng": 141.239966637959,
    "tel": "0220-23-8480",
    "url": "",
    "pref": "宮城県",
    "city": "登米市",
    "category": "community_day_service",
    "serviceType": "地域密着型通所介護",
    "capacity": 8,
    "openDays": [
      "平日",
      "土曜日",
      "日曜日",
      "祝日"
    ],
    "openDaysNote": ""
  },
  {
    "id": "491200408",
    "name": "デイサービスみんなの家",
    "kana": "デイサービスミンナノイエ",
    "address": "宮城県登米市中田町宝江新井田字並柳前55",
    "lat": 38.6738339,
    "lng": 141.2585634,
    "tel": "0220－23－9252",
    "url": "http://www.min-nano-ie.com/",
    "pref": "宮城県",
    "city": "登米市",
    "category": "community_day_service",
    "serviceType": "地域密着型通所介護",
    "capacity": 0,
    "openDays": [
      "平日",
      "土曜日",
      "祝日"
    ],
    "openDaysNote": ""
  },
  {
    "id": "491200416",
    "name": "デイサービスみんなの家　樹",
    "kana": "デイサービスミンナノイエ　イツキ",
    "address": "宮城県登米市中田町宝江新井田字並柳前55",
    "lat": 38.6738339,
    "lng": 141.2585634,
    "tel": "0220-23-9252",
    "url": "http://kaigo110min-nano-ie.spaces.live.com/",
    "pref": "宮城県",
    "city": "登米市",
    "category": "community_day_service",
    "serviceType": "地域密着型通所介護",
    "capacity": 0,
    "openDays": [
      "平日",
      "土曜日",
      "祝日"
    ],
    "openDaysNote": ""
  },
  {
    "id": "491200424",
    "name": "デイサービスみんなの家幸",
    "kana": "デイサービスミンナノイエサチ",
    "address": "中田町宝江新井田字新姥沼190",
    "lat": 38.6751853,
    "lng": 141.2506651,
    "tel": "0220-34-7464",
    "url": "https://minnanoie55.wordpress.com",
    "pref": "宮城県",
    "city": "登米市",
    "category": "community_day_service",
    "serviceType": "地域密着型通所介護",
    "capacity": null,
    "openDays": [
      "平日",
      "土曜日",
      "日曜日",
      "祝日"
    ],
    "openDaysNote": ""
  },
  {
    "id": "491200325",
    "name": "デイサービスわかば",
    "kana": "デイサービスワカバ",
    "address": "宮城県登米市登米町日野渡内の目321-1",
    "lat": 38.6605532582641,
    "lng": 141.270864218385,
    "tel": "0220-23-8472",
    "url": "",
    "pref": "宮城県",
    "city": "登米市",
    "category": "community_day_service",
    "serviceType": "地域密着型通所介護",
    "capacity": 18,
    "openDays": [
      "平日",
      "祝日"
    ],
    "openDaysNote": "【半日型】（改行）午前09：00～12：10（改行）午後13：30～16：40"
  },
  {
    "id": "471201533",
    "name": "デイサービス一輪の花",
    "kana": "デイサービスイチリンノハナ",
    "address": "宮城県登米市迫町佐沼字中江四丁目１４番地１３",
    "lat": 38.6902755,
    "lng": 141.1868704,
    "tel": "0220-22-1311",
    "url": "http://www.1rinnohana.com",
    "pref": "宮城県",
    "city": "登米市",
    "category": "community_day_service",
    "serviceType": "地域密着型通所介護",
    "capacity": 15,
    "openDays": [
      "平日",
      "土曜日",
      "日曜日",
      "祝日"
    ],
    "openDaysNote": ""
  },
  {
    "id": "471201160",
    "name": "デイサービス希望の郷",
    "kana": "デイサービスキボウノサト",
    "address": "宮城県登米市石越町南郷字高森232-4",
    "lat": 38.7647546827617,
    "lng": 141.175978313492,
    "tel": "0228-25-4073",
    "url": "https://www.saiki-mori.com",
    "pref": "宮城県",
    "city": "登米市",
    "category": "community_day_service",
    "serviceType": "地域密着型通所介護",
    "capacity": 10,
    "openDays": [
      "平日",
      "土曜日",
      "祝日"
    ],
    "openDaysNote": ""
  },
  {
    "id": "471200808",
    "name": "なごみの家きらり",
    "kana": "ナゴミノイエキラリ",
    "address": "宮城県登米市迫町佐沼字西佐沼１６４番",
    "lat": 38.6834932,
    "lng": 141.1996669,
    "tel": "0220-23-7677",
    "url": "https://www.kumanen.jp/kirari.htm",
    "pref": "宮城県",
    "city": "登米市",
    "category": "community_day_service",
    "serviceType": "地域密着型通所介護",
    "capacity": 0,
    "openDays": [
      "平日",
      "土曜日",
      "日曜日",
      "祝日"
    ],
    "openDaysNote": "ご利用者様、ご家族様の希望に添えるよう利用日時の変更や利用時間、送迎時間など柔軟な対応をしています。"
  },
  {
    "id": "471200410",
    "name": "ひだまりデイサービスセンター",
    "kana": "ヒダマリデイサービスセンター",
    "address": "宮城県登米市中田町宝江新井田字南新田４３３",
    "lat": 38.6887882,
    "lng": 141.2345222,
    "tel": "0220-34-5107",
    "url": "",
    "pref": "宮城県",
    "city": "登米市",
    "category": "community_day_service",
    "serviceType": "地域密着型通所介護",
    "capacity": 0,
    "openDays": [
      "平日",
      "土曜日",
      "祝日"
    ],
    "openDaysNote": "夏期休暇（８月１３、１４、１５、１６日）　　年末年始休暇（１２月２９、３０、３１、１、２、３日）"
  },
  {
    "id": "491200366",
    "name": "フィットネス型運動サービスきらび",
    "kana": "フィットネスガタウンドウサービスキラビ",
    "address": "宮城県登米市米山町西野字西野前201ｰ1",
    "lat": 38.6272974,
    "lng": 141.2033201,
    "tel": "220238933",
    "url": "",
    "pref": "宮城県",
    "city": "登米市",
    "category": "community_day_service",
    "serviceType": "地域密着型通所介護",
    "capacity": 0,
    "openDays": [
      "平日",
      "土曜日",
      "祝日"
    ],
    "openDaysNote": ""
  },
  {
    "id": "471200840",
    "name": "ほんわか",
    "kana": "ホンワカ",
    "address": "宮城県登米市中田町宝江黒沼字十文字211-5",
    "lat": 38.7111446,
    "lng": 141.238329,
    "tel": "0220-34-8071",
    "url": "http://www.keisen-net.jp",
    "pref": "宮城県",
    "city": "登米市",
    "category": "community_day_service",
    "serviceType": "地域密着型通所介護",
    "capacity": 10,
    "openDays": [
      "平日",
      "土曜日",
      "祝日"
    ],
    "openDaysNote": ""
  },
  {
    "id": "471201483",
    "name": "リハビリデイサービス　ナル",
    "kana": "リハビリデイサービス　ナル",
    "address": "宮城県登米市豊里町下屋浦306-2",
    "lat": 38.5796922239536,
    "lng": 141.239252175084,
    "tel": "0225-24-8143",
    "url": "http://reha-nalu.com/",
    "pref": "宮城県",
    "city": "登米市",
    "category": "community_day_service",
    "serviceType": "地域密着型通所介護",
    "capacity": 0,
    "openDays": [
      "平日",
      "祝日"
    ],
    "openDaysNote": ""
  },
  {
    "id": "491200333",
    "name": "リハビリデイサービス咲顔",
    "kana": "リハビリデイサービスエガオ",
    "address": "宮城県登米市津山町柳津字本町154番地2",
    "lat": 38.6121052744521,
    "lng": 141.300964597484,
    "tel": "0225-25-5372",
    "url": "http://egao-rehabili.com",
    "pref": "宮城県",
    "city": "登米市",
    "category": "community_day_service",
    "serviceType": "地域密着型通所介護",
    "capacity": null,
    "openDays": [
      "平日",
      "祝日"
    ],
    "openDaysNote": ""
  },
  {
    "id": "491200374",
    "name": "四季のめぐみ　デイサービス足之助",
    "kana": "シキノメグミ　デイサービスアシノスケ",
    "address": "宮城県登米市迫町佐沼字中江１丁目５番地１３",
    "lat": 38.6922324,
    "lng": 141.1912454,
    "tel": "0220-21-1210",
    "url": "http:/www.nishitaxi.com/",
    "pref": "宮城県",
    "city": "登米市",
    "category": "community_day_service",
    "serviceType": "地域密着型通所介護",
    "capacity": 50,
    "openDays": [
      "平日",
      "祝日"
    ],
    "openDaysNote": "年末年始休暇（12月30日～1月3日）"
  },
  {
    "id": "471201210",
    "name": "大錦デイサービス",
    "kana": "オオニシキデイサービス",
    "address": "宮城県登米市迫町佐沼字錦185",
    "lat": 38.6906621,
    "lng": 141.2031273,
    "tel": "0220-23-9339",
    "url": "",
    "pref": "宮城県",
    "city": "登米市",
    "category": "community_day_service",
    "serviceType": "地域密着型通所介護",
    "capacity": 10,
    "openDays": [
      "平日",
      "土曜日",
      "日曜日",
      "祝日"
    ],
    "openDaysNote": ""
  },
  {
    "id": "471201509",
    "name": "大門いこいの広場",
    "kana": "ダイモンイコイノヒロバ",
    "address": "宮城県登米市南方町原5番地",
    "lat": 38.6658564488327,
    "lng": 141.180486571828,
    "tel": "0220-23-9541",
    "url": "",
    "pref": "宮城県",
    "city": "登米市",
    "category": "community_day_service",
    "serviceType": "地域密着型通所介護",
    "capacity": 0,
    "openDays": [
      "平日",
      "土曜日",
      "日曜日",
      "祝日"
    ],
    "openDaysNote": ""
  },
  {
    "id": "471200964",
    "name": "大柳デイサービス",
    "kana": "オオヤナギデイサービス",
    "address": "宮城県登米市中田町上沼字大柳7-4",
    "lat": 38.716697,
    "lng": 141.2420924,
    "tel": "0220-34-8778",
    "url": "",
    "pref": "宮城県",
    "city": "登米市",
    "category": "community_day_service",
    "serviceType": "地域密着型通所介護",
    "capacity": 11,
    "openDays": [
      "平日",
      "土曜日",
      "日曜日",
      "祝日"
    ],
    "openDaysNote": ""
  },
  {
    "id": "471200501",
    "name": "登米市社協中田デイサービスセンター",
    "kana": "トメシシャキョウナカダデイサービスセンター",
    "address": "宮城県登米市中田町上沼字西桜場１８番地中田老人福祉センター内 中田老人福祉センター内",
    "lat": 38.7145776,
    "lng": 141.2383508,
    "tel": "0220-34-2030",
    "url": "http://www.tome-shakyo.jp/",
    "pref": "宮城県",
    "city": "登米市",
    "category": "community_day_service",
    "serviceType": "地域密着型通所介護",
    "capacity": 15,
    "openDays": [
      "平日",
      "祝日"
    ],
    "openDaysNote": "年末年始休業　12月31日～1/3"
  },
  {
    "id": "491400131",
    "name": "Cooking　Cafe　Ji-Ji",
    "kana": "クッキングカフェ　ジージ",
    "address": "宮城県東松島市小野字中の関6番2",
    "lat": 38.402137,
    "lng": 141.165548,
    "tel": "0225-87-2311",
    "url": "http://kotobukikai.jp/",
    "pref": "宮城県",
    "city": "東松島市",
    "category": "community_day_service",
    "serviceType": "地域密着型通所介護",
    "capacity": 0,
    "openDays": [
      "平日",
      "土曜日",
      "祝日"
    ],
    "openDaysNote": ""
  },
  {
    "id": "471400721",
    "name": "デイサービス　ちょ筋ばこ",
    "kana": "デイサービス　チョキンバコ",
    "address": "宮城県東松島市大曲字堺堀185",
    "lat": 38.4264955996406,
    "lng": 141.232927794664,
    "tel": "0225-90-3998",
    "url": "",
    "pref": "宮城県",
    "city": "東松島市",
    "category": "community_day_service",
    "serviceType": "地域密着型通所介護",
    "capacity": 0,
    "openDays": [
      "平日",
      "土曜日"
    ],
    "openDaysNote": ""
  },
  {
    "id": "471400689",
    "name": "デイサービス　和花",
    "kana": "デイサービス　ノドカ",
    "address": "宮城県東松島市牛網字駅前一丁目48番地2",
    "lat": 38.3991140849934,
    "lng": 141.175716158197,
    "tel": "0225⁻90⁻3677",
    "url": "",
    "pref": "宮城県",
    "city": "東松島市",
    "category": "community_day_service",
    "serviceType": "地域密着型通所介護",
    "capacity": 15,
    "openDays": [
      "平日",
      "祝日"
    ],
    "openDaysNote": "年末、年始休業（12月29日～1月３日）"
  },
  {
    "id": "491400107",
    "name": "デイサービス・すみちゃんの家",
    "kana": "デイサービス・スミチャンノイエ",
    "address": "宮城県東松島市野蒜ケ丘２丁目３４番地５",
    "lat": 38.3756155499393,
    "lng": 141.147271619188,
    "tel": "0225-25-6138",
    "url": "http://sumichannoie.jimdo.com/",
    "pref": "宮城県",
    "city": "東松島市",
    "category": "community_day_service",
    "serviceType": "地域密着型通所介護",
    "capacity": 0,
    "openDays": [
      "平日",
      "土曜日",
      "日曜日",
      "祝日"
    ],
    "openDaysNote": ""
  },
  {
    "id": "471400234",
    "name": "デイサービスセンター　いずみの郷",
    "kana": "デイサービスセンター　イズミノサト",
    "address": "宮城県東松島市大塩字緑ヶ丘４丁目１番７号",
    "lat": 38.4420727,
    "lng": 141.1725336,
    "tel": "0225-84-2362",
    "url": "https://purasukeaitirenn.wixsite.com/website",
    "pref": "宮城県",
    "city": "東松島市",
    "category": "community_day_service",
    "serviceType": "地域密着型通所介護",
    "capacity": 0,
    "openDays": [
      "平日",
      "土曜日",
      "祝日"
    ],
    "openDaysNote": ""
  },
  {
    "id": "491400099",
    "name": "デイサービス鹿妻・希望の杜",
    "kana": "デイサービスカヅマ・キボウノモリ",
    "address": "宮城県東松島市矢本字穴尻６３番地1",
    "lat": 38.4044944788945,
    "lng": 141.186398555881,
    "tel": "0225-82-3001",
    "url": "",
    "pref": "宮城県",
    "city": "東松島市",
    "category": "community_day_service",
    "serviceType": "地域密着型通所介護",
    "capacity": 18,
    "openDays": [
      "平日",
      "土曜日",
      "日曜日",
      "祝日"
    ],
    "openDaysNote": ""
  },
  {
    "id": "491400164",
    "name": "デイハウスたんぽぽ",
    "kana": "デイハウスタンポポ",
    "address": "宮城県東松島市赤井字中新丁204番地",
    "lat": 38.4524023,
    "lng": 141.2162013,
    "tel": "0225-90-9625",
    "url": "",
    "pref": "宮城県",
    "city": "東松島市",
    "category": "community_day_service",
    "serviceType": "地域密着型通所介護",
    "capacity": null,
    "openDays": [
      "平日",
      "土曜日",
      "日曜日",
      "祝日"
    ],
    "openDaysNote": ""
  },
  {
    "id": "473600450",
    "name": "南三陸町デイサービスセンターいりや",
    "kana": "ミナミサリクチョウデイサービスセンターイリヤ",
    "address": "宮城県本吉郡南三陸町入谷字新中の町２番地",
    "lat": 38.7026118,
    "lng": 141.4135808,
    "tel": "0226-46-1041",
    "url": "",
    "pref": "宮城県",
    "city": "南三陸町",
    "category": "community_day_service",
    "serviceType": "地域密着型通所介護",
    "capacity": null,
    "openDays": [
      "平日",
      "土曜日",
      "祝日"
    ],
    "openDaysNote": ""
  },
  {
    "id": "470600412",
    "name": "サポートデイ・白石",
    "kana": "サポートデイ・シロイシ",
    "address": "白石市福岡蔵本字茶園６２－１総合福祉センター 総合福祉センター",
    "lat": 38.0103403,
    "lng": 140.6030976,
    "tel": "0224-22-2880",
    "url": "",
    "pref": "宮城県",
    "city": "白石市",
    "category": "community_day_service",
    "serviceType": "地域密着型通所介護",
    "capacity": 15,
    "openDays": [
      "平日"
    ],
    "openDaysNote": ""
  },
  {
    "id": "470600479",
    "name": "デイサービス　りんご倶楽部",
    "kana": "デイサービス　リンゴクラブ",
    "address": "宮城県白石市城北町４－１７",
    "lat": 38.0067714561243,
    "lng": 140.619120926984,
    "tel": "０２２４－２９－３２６７",
    "url": "https://www.palm-s.com",
    "pref": "宮城県",
    "city": "白石市",
    "category": "community_day_service",
    "serviceType": "地域密着型通所介護",
    "capacity": 14,
    "openDays": [
      "平日",
      "土曜日",
      "祝日"
    ],
    "openDaysNote": ""
  },
  {
    "id": "470600560",
    "name": "デイサービス　杜のめぐみ",
    "kana": "デイサービス　モリノメグミ",
    "address": "宮城県白石市郡山字小森下５５番１",
    "lat": 38.0042702,
    "lng": 140.6474115,
    "tel": "0224-22-6755",
    "url": "",
    "pref": "宮城県",
    "city": "白石市",
    "category": "community_day_service",
    "serviceType": "地域密着型通所介護",
    "capacity": null,
    "openDays": [
      "平日",
      "土曜日"
    ],
    "openDaysNote": ""
  },
  {
    "id": "470600537",
    "name": "デイサービスいちご倶楽部",
    "kana": "デイサービスイチゴクラブ",
    "address": "宮城県白石市福岡蔵本字樋ノ口54-1",
    "lat": 38.0019442,
    "lng": 140.6073894,
    "tel": "0224-29-3963",
    "url": "http://www.palm-s.com/",
    "pref": "宮城県",
    "city": "白石市",
    "category": "community_day_service",
    "serviceType": "地域密着型通所介護",
    "capacity": 15,
    "openDays": [
      "平日",
      "祝日"
    ],
    "openDaysNote": ""
  },
  {
    "id": "470600172",
    "name": "デイサービスセンター茶園",
    "kana": "デイサービスセンターチャエン",
    "address": "宮城県白石市福岡蔵本字茶園62-1",
    "lat": 38.0104009,
    "lng": 140.6039688,
    "tel": "0224-25-0007",
    "url": "http://www.enjyu.or.jp/",
    "pref": "宮城県",
    "city": "白石市",
    "category": "community_day_service",
    "serviceType": "地域密着型通所介護",
    "capacity": 0,
    "openDays": [
      "平日"
    ],
    "openDaysNote": "祝日営業（改行）年末年始、GW休業"
  },
  {
    "id": "470600552",
    "name": "デイサービスセンター輪音",
    "kana": "デイサービスセンターワオン",
    "address": "宮城県白石市東町３丁目６番５４号",
    "lat": 37.9926237,
    "lng": 140.627655,
    "tel": "０２２４－２６－３１８８",
    "url": "http:/waon263188.com/",
    "pref": "宮城県",
    "city": "白石市",
    "category": "community_day_service",
    "serviceType": "地域密着型通所介護",
    "capacity": 15,
    "openDays": [
      "平日",
      "祝日"
    ],
    "openDaysNote": ""
  },
  {
    "id": "490600111",
    "name": "デイサービス糸遊",
    "kana": "デイサービスイトユウ",
    "address": "宮城県白石市西益岡町5番53号",
    "lat": 38.0046120531927,
    "lng": 140.614006583467,
    "tel": "0224-24-4644",
    "url": "http://banryoku.jp/",
    "pref": "宮城県",
    "city": "白石市",
    "category": "community_day_service",
    "serviceType": "地域密着型通所介護",
    "capacity": 18,
    "openDays": [
      "平日",
      "土曜日",
      "祝日"
    ],
    "openDaysNote": "デイサービス糸遊が休業であっても、電話連絡は承ることができます。（改行）サービス付き高齢者向け住宅に常時職員がおりますので、お気軽にご連絡ください。（改行）電話番号は共通です。"
  },
  {
    "id": "490600137",
    "name": "デイハウス沢端",
    "kana": "デイハウスサワバタ",
    "address": "宮城県白石市沢端町5-22- -",
    "lat": 38.0047912,
    "lng": 140.6182021,
    "tel": "0224-22-2781",
    "url": "",
    "pref": "宮城県",
    "city": "白石市",
    "category": "community_day_service",
    "serviceType": "地域密着型通所介護",
    "capacity": 10,
    "openDays": [
      "平日",
      "土曜日",
      "祝日"
    ],
    "openDaysNote": "-"
  },
  {
    "id": "470600511",
    "name": "よりそうデイサービス水音の家",
    "kana": "ヨリソウデイサービスミズオトノイエ",
    "address": "宮城県白石市字柳川原８－５",
    "lat": 38.0139129,
    "lng": 140.6276787,
    "tel": "0224-26-9715",
    "url": "",
    "pref": "宮城県",
    "city": "白石市",
    "category": "community_day_service",
    "serviceType": "地域密着型通所介護",
    "capacity": 0,
    "openDays": [
      "平日",
      "土曜日",
      "日曜日",
      "祝日"
    ],
    "openDaysNote": ""
  },
  {
    "id": "493100101",
    "name": "ウエックデイサービスセンター小牛田",
    "kana": "ウエックデイサービスセンターコゴタ",
    "address": "宮城県遠田郡美里町駅東一丁目２－３",
    "lat": 38.541985,
    "lng": 141.0670919,
    "tel": "0229-32-2811",
    "url": "http://www.welsyspartners.co.jp",
    "pref": "宮城県",
    "city": "美里町",
    "category": "community_day_service",
    "serviceType": "地域密着型通所介護",
    "capacity": 0,
    "openDays": [
      "平日",
      "祝日"
    ],
    "openDaysNote": ""
  },
  {
    "id": "473100980",
    "name": "えりどうデイサービス",
    "kana": "エリドウデイサービス",
    "address": "宮城県遠田郡美里町北浦字清水谷地29番地",
    "lat": 38.5446021,
    "lng": 141.046665,
    "tel": "0229-25-5234",
    "url": "",
    "pref": "宮城県",
    "city": "美里町",
    "category": "community_day_service",
    "serviceType": "地域密着型通所介護",
    "capacity": 13,
    "openDays": [
      "平日",
      "土曜日",
      "祝日"
    ],
    "openDaysNote": ""
  },
  {
    "id": "473100840",
    "name": "デイサービス　いこいの杜",
    "kana": "デイサービス　イコイノモリ",
    "address": "遠田郡美里町二郷字佐野四号８８８番地",
    "lat": 38.4721239975473,
    "lng": 141.1301003,
    "tel": "0229-87-4671",
    "url": "",
    "pref": "宮城県",
    "city": "美里町",
    "category": "community_day_service",
    "serviceType": "地域密着型通所介護",
    "capacity": 14,
    "openDays": [
      "平日",
      "土曜日",
      "日曜日",
      "祝日"
    ],
    "openDaysNote": ""
  },
  {
    "id": "473101061",
    "name": "デイサービス「ゆず」",
    "kana": "デイサービス「ユズ」",
    "address": "宮城県遠田郡美里町二郷字小島33番1",
    "lat": 38.4548541,
    "lng": 141.1602756,
    "tel": "0229-25-8475",
    "url": "",
    "pref": "宮城県",
    "city": "美里町",
    "category": "community_day_service",
    "serviceType": "地域密着型通所介護",
    "capacity": 10,
    "openDays": [
      "平日",
      "土曜日",
      "祝日"
    ],
    "openDaysNote": ""
  },
  {
    "id": "493100093",
    "name": "デイサービス木漏れ日",
    "kana": "デイサービスコモレビ",
    "address": "宮城県遠田郡美里町木間塚28番地1",
    "lat": 38.4908147591437,
    "lng": 141.129367867043,
    "tel": "0229-25-3513",
    "url": "",
    "pref": "宮城県",
    "city": "美里町",
    "category": "community_day_service",
    "serviceType": "地域密着型通所介護",
    "capacity": 10,
    "openDays": [
      "平日",
      "土曜日",
      "日曜日",
      "祝日"
    ],
    "openDaysNote": ""
  },
  {
    "id": "472701150",
    "name": "デイサービスセンター　奏",
    "kana": "デイサービスセンター　カナデ",
    "address": "宮城県富谷市明石台３丁目３－１",
    "lat": 38.3483422,
    "lng": 140.8892742,
    "tel": "022-739-7073",
    "url": "",
    "pref": "宮城県",
    "city": "富谷市",
    "category": "community_day_service",
    "serviceType": "地域密着型通所介護",
    "capacity": 13,
    "openDays": [
      "平日",
      "祝日"
    ],
    "openDaysNote": "年末年始休　１２月２８日～１月３日（改行）ＧＷ休及びお盆休み（不定休）"
  },
  {
    "id": "470700808",
    "name": "シャーメゾン・サロン・プラザ",
    "kana": "シャーメゾン・サロン・プラザ",
    "address": "宮城県名取市増田一丁目5番6号グランドシャーメゾン1階店舗 グランドシャーメゾン1階店舗",
    "lat": 38.1672812,
    "lng": 140.8858918,
    "tel": "022-302-3288",
    "url": "http://hp.kaipoke.biz/scn/",
    "pref": "宮城県",
    "city": "名取市",
    "category": "community_day_service",
    "serviceType": "地域密着型通所介護",
    "capacity": 3,
    "openDays": [
      "平日",
      "土曜日"
    ],
    "openDaysNote": ""
  },
  {
    "id": "470700998",
    "name": "ライフケアセンター名取デイサービスセンター",
    "kana": "ライフケアセンターナトリデイサービスセンター",
    "address": "宮城県名取市増田字柳田37-3",
    "lat": 38.1718641010874,
    "lng": 140.894033408702,
    "tel": "022-383-1022",
    "url": "http://www.natorichuo-clinic.jp/",
    "pref": "宮城県",
    "city": "名取市",
    "category": "community_day_service",
    "serviceType": "地域密着型通所介護",
    "capacity": 15,
    "openDays": [
      "平日"
    ],
    "openDaysNote": "法人が指定する休業日（お盆期間・年末年始期間）"
  },
  {
    "id": "470700907",
    "name": "リハビリ特化型デイサービスリハニック名取",
    "kana": "リハビリトッカガタデイサービスリハニックナトリ",
    "address": "宮城県名取市植松四丁目17番地29号",
    "lat": 38.1437311,
    "lng": 140.8800715,
    "tel": "022-796-2953",
    "url": "http://www.rehanic.jp/",
    "pref": "宮城県",
    "city": "名取市",
    "category": "community_day_service",
    "serviceType": "地域密着型通所介護",
    "capacity": 100,
    "openDays": [
      "平日",
      "祝日"
    ],
    "openDaysNote": ""
  },
  {
    "id": "470701053",
    "name": "幸留館デイサービスセンター",
    "kana": "コウリュウカンデイサービスセンター",
    "address": "宮城県名取市大手町二丁目6番12号",
    "lat": 38.1674928105739,
    "lng": 140.882233083432,
    "tel": "022-382-0836",
    "url": "",
    "pref": "宮城県",
    "city": "名取市",
    "category": "community_day_service",
    "serviceType": "地域密着型通所介護",
    "capacity": 10,
    "openDays": [
      "平日",
      "祝日"
    ],
    "openDaysNote": ""
  },
  {
    "id": "470700972",
    "name": "桜坂サロン",
    "kana": "サクラザカサロン",
    "address": "宮城県名取市相互台東１丁目6-11",
    "lat": 38.210882323756,
    "lng": 140.814515601852,
    "tel": "022-397-9135",
    "url": "https://heros-sakurazakasaron.co.jp",
    "pref": "宮城県",
    "city": "名取市",
    "category": "community_day_service",
    "serviceType": "地域密着型通所介護",
    "capacity": 8,
    "openDays": [
      "平日"
    ],
    "openDaysNote": "祝日、金曜日、土曜日、日曜日はお休みを頂いております。"
  },
  {
    "id": "470701103",
    "name": "指定居宅サービス事業所ほっとなとり　なちゅる",
    "kana": "シテイキョタクサービスジギョウショホットナトリ　ナチュル",
    "address": "宮城県名取市那智が丘1丁目13番地8号",
    "lat": 38.1948305,
    "lng": 140.8447104,
    "tel": "022-398-9186",
    "url": "http://www.natorisyakyo.or.jp",
    "pref": "宮城県",
    "city": "名取市",
    "category": "community_day_service",
    "serviceType": "地域密着型通所介護",
    "capacity": 10,
    "openDays": [
      "平日",
      "土曜日",
      "祝日"
    ],
    "openDaysNote": ""
  },
  {
    "id": "470700725",
    "name": "相互台デイサービスセンターヒーローズ",
    "kana": "ソウゴダイデイサービスセンターヒーローズ",
    "address": "宮城県名取市相互台１丁目３番５号",
    "lat": 38.206254,
    "lng": 140.8096578,
    "tel": "022-386-7881",
    "url": "http://heros-sakurazakasaron.co.jp",
    "pref": "宮城県",
    "city": "名取市",
    "category": "community_day_service",
    "serviceType": "地域密着型通所介護",
    "capacity": 10,
    "openDays": [
      "平日",
      "土曜日",
      "祝日"
    ],
    "openDaysNote": ""
  },
  {
    "id": "490700085",
    "name": "那智が丘四季の風デイサービスセンター",
    "kana": "ナチガオカシキノカゼデイサービスセンター",
    "address": "宮城県名取市那智が丘5丁目7番地の９",
    "lat": 38.1969418,
    "lng": 140.8376187,
    "tel": "022-797-7926",
    "url": "https://www.nagomi-welfare.com",
    "pref": "宮城県",
    "city": "名取市",
    "category": "community_day_service",
    "serviceType": "地域密着型通所介護",
    "capacity": 0,
    "openDays": [
      "平日",
      "祝日"
    ],
    "openDaysNote": ""
  },
  {
    "id": "470700444",
    "name": "本郷デイサービスセンターふるさと",
    "kana": "ホンゴウデイサービスセンターフルサト",
    "address": "宮城県名取市本郷字町田４６",
    "lat": 38.1286851,
    "lng": 140.8779392,
    "tel": "022-384-3790",
    "url": "",
    "pref": "宮城県",
    "city": "名取市",
    "category": "community_day_service",
    "serviceType": "地域密着型通所介護",
    "capacity": 60,
    "openDays": [
      "平日",
      "土曜日",
      "祝日"
    ],
    "openDaysNote": ""
  },
  {
    "id": "493100168",
    "name": "デイサービス　わっく",
    "kana": "デイサービス　ワック",
    "address": "宮城県遠田郡涌谷町柳町17-1",
    "lat": 38.540337879396,
    "lng": 141.128904864418,
    "tel": "0229-25-8828",
    "url": "",
    "pref": "宮城県",
    "city": "涌谷町",
    "category": "community_day_service",
    "serviceType": "地域密着型通所介護",
    "capacity": 0,
    "openDays": [
      "平日",
      "土曜日",
      "日曜日",
      "祝日"
    ],
    "openDaysNote": ""
  },
  {
    "id": "473100196",
    "name": "デイサービスセンターひまわり",
    "kana": "デイサービスセンターヒマワリ",
    "address": "宮城県遠田郡涌谷町字立町20番地1",
    "lat": 38.5423982,
    "lng": 141.1287083,
    "tel": "0229-43-6655",
    "url": "",
    "pref": "宮城県",
    "city": "涌谷町",
    "category": "community_day_service",
    "serviceType": "地域密着型通所介護",
    "capacity": 18,
    "openDays": [
      "平日",
      "土曜日",
      "祝日"
    ],
    "openDaysNote": "水曜日・土曜日のみの営業"
  },
  {
    "id": "473100766",
    "name": "デイサービス接骨木",
    "kana": "デイサービスニワトコ",
    "address": "宮城県遠田郡涌谷町涌谷字新見龍寺前103番地1",
    "lat": 38.5409821,
    "lng": 141.1401876,
    "tel": "0229-43-3506",
    "url": "",
    "pref": "宮城県",
    "city": "涌谷町",
    "category": "community_day_service",
    "serviceType": "地域密着型通所介護",
    "capacity": 0,
    "openDays": [
      "平日",
      "土曜日",
      "祝日"
    ],
    "openDaysNote": ""
  },
  {
    "id": "473100881",
    "name": "デイサービス接骨木渋江",
    "kana": "デイサービス　ニワトコ　シブエ",
    "address": "宮城県遠田郡涌谷町字渋江17番地１",
    "lat": 38.541662,
    "lng": 141.1223369,
    "tel": "0229-25-8670",
    "url": "",
    "pref": "宮城県",
    "city": "涌谷町",
    "category": "community_day_service",
    "serviceType": "地域密着型通所介護",
    "capacity": null,
    "openDays": [
      "平日",
      "祝日"
    ],
    "openDaysNote": "但し１２月３１日から１月３日までを事業所の休みとする。"
  },
  {
    "id": "493100069",
    "name": "ゆうらいふ箟岳地域ケアセンター",
    "kana": "ユウライフノノダケチイキケアセンター",
    "address": "宮城県遠田郡涌谷町太田字舟ヶ沢8-1",
    "lat": 38.5708577,
    "lng": 141.1868043,
    "tel": "0229-25-5596",
    "url": "http://www.wakuya-sfk.net",
    "pref": "宮城県",
    "city": "涌谷町",
    "category": "community_day_service",
    "serviceType": "地域密着型通所介護",
    "capacity": null,
    "openDays": [
      "平日",
      "土曜日",
      "祝日"
    ],
    "openDaysNote": ""
  },
  {
    "id": "472600881",
    "name": "デイサービス　きら喜楽",
    "kana": "デイサービス　キラキラ",
    "address": "宮城県宮城郡利府町中央３丁目１６－７",
    "lat": 38.3277982,
    "lng": 140.9787833,
    "tel": "022-356-2163",
    "url": "",
    "pref": "宮城県",
    "city": "利府町",
    "category": "community_day_service",
    "serviceType": "地域密着型通所介護",
    "capacity": 10,
    "openDays": [
      "平日",
      "土曜日",
      "祝日"
    ],
    "openDaysNote": "年末年始休日１２月３０日～１月３日(カレンダー等により定めた期間より長期になる場合もある）"
  },
  {
    "id": "472600543",
    "name": "株式会社ふれあいホームひなたぼっこ",
    "kana": "カブシキガイシャフレアイホームヒナタボッコ",
    "address": "宮城県宮城郡利府町花園3丁目5番地18",
    "lat": 38.3400856,
    "lng": 140.9761383,
    "tel": "022-349-0617",
    "url": "",
    "pref": "宮城県",
    "city": "利府町",
    "category": "community_day_service",
    "serviceType": "地域密着型通所介護",
    "capacity": 8,
    "openDays": [
      "平日",
      "土曜日",
      "祝日"
    ],
    "openDaysNote": ""
  },
  {
    "id": "472400712",
    "name": "デイサービス　えん　亘理",
    "kana": "デイサービス　エン　ワタリ",
    "address": "宮城県亘理郡亘理町逢隈高屋字柴９０番地１",
    "lat": 38.0335441,
    "lng": 140.8824794,
    "tel": "0223-36-8250",
    "url": "",
    "pref": "宮城県",
    "city": "亘理町",
    "category": "community_day_service",
    "serviceType": "地域密着型通所介護",
    "capacity": 10,
    "openDays": [
      "平日",
      "土曜日",
      "祝日"
    ],
    "openDaysNote": "年末年始休業（１２月３1日から１月３日）"
  },
  {
    "id": "472400530",
    "name": "デイサービス　ふくろうの家",
    "kana": "デイサービス　フクロウノイエ",
    "address": "亘理郡亘理町逢隈牛袋字舘内38-4",
    "lat": 38.0749384166473,
    "lng": 140.877852371747,
    "tel": "0223-34-3993",
    "url": "",
    "pref": "宮城県",
    "city": "亘理町",
    "category": "community_day_service",
    "serviceType": "地域密着型通所介護",
    "capacity": 18,
    "openDays": [
      "平日",
      "土曜日",
      "祝日"
    ],
    "openDaysNote": ""
  },
  {
    "id": "492400098",
    "name": "伊達舞LABO",
    "kana": "ダテマイラボ",
    "address": "宮城県亘理郡亘理町新井町73番8",
    "lat": 38.0401943,
    "lng": 140.8546823,
    "tel": "0223-31-1838",
    "url": "https://ds.datemai-llc.com/",
    "pref": "宮城県",
    "city": "亘理町",
    "category": "community_day_service",
    "serviceType": "地域密着型通所介護",
    "capacity": 0,
    "openDays": [
      "平日"
    ],
    "openDaysNote": ""
  }
]