[
  {
    "id": "1690600083",
    "name": "デイサービスあったかホーム",
    "kana": "デイサービスアッタカホーム",
    "address": "富山県滑川市中川原134",
    "lat": 36.7722209,
    "lng": 137.3487417,
    "tel": "076-471-5608",
    "url": "http://www.nashakyo.net/",
    "pref": "富山県",
    "city": "滑川市",
    "category": "community_day_service",
    "serviceType": "地域密着型通所介護",
    "capacity": null,
    "openDays": [
      "平日",
      "祝日"
    ],
    "openDaysNote": ""
  },
  {
    "id": "1670600319",
    "name": "デイサービスセンターお達者くらぶ中新",
    "kana": "デイサービスセンターオタツシャクラブナカシン",
    "address": "滑川市中新1302番地",
    "lat": 36.7526246,
    "lng": 137.3753745,
    "tel": "076-471-5237",
    "url": "",
    "pref": "富山県",
    "city": "滑川市",
    "category": "community_day_service",
    "serviceType": "地域密着型通所介護",
    "capacity": null,
    "openDays": [
      "平日",
      "土曜日",
      "祝日"
    ],
    "openDaysNote": "特になし"
  },
  {
    "id": "1690600067",
    "name": "デイサービスたんぽぽ",
    "kana": "デイサービスタンポポ",
    "address": "富山県滑川市常盤町181-43",
    "lat": 36.7682366,
    "lng": 137.3461522,
    "tel": "076-475-6288",
    "url": "",
    "pref": "富山県",
    "city": "滑川市",
    "category": "community_day_service",
    "serviceType": "地域密着型通所介護",
    "capacity": 0,
    "openDays": [
      "平日",
      "祝日"
    ],
    "openDaysNote": ""
  },
  {
    "id": "1670600301",
    "name": "デイサービスほがらか",
    "kana": "デイサービスホガラカ",
    "address": "下島143-3",
    "lat": 36.7564565,
    "lng": 137.3398801,
    "tel": "076-471-5657",
    "url": "",
    "pref": "富山県",
    "city": "滑川市",
    "category": "community_day_service",
    "serviceType": "地域密着型通所介護",
    "capacity": 0,
    "openDays": [
      "平日",
      "土曜日",
      "日曜日",
      "祝日"
    ],
    "openDaysNote": "お盆、年末年始は３日間休業"
  },
  {
    "id": "1670600368",
    "name": "デイサービスらくらく",
    "kana": "デイサービスラクラク",
    "address": "富山県滑川市追分3342-1",
    "lat": 36.7825518,
    "lng": 137.3754897,
    "tel": "076-477-2588",
    "url": "",
    "pref": "富山県",
    "city": "滑川市",
    "category": "community_day_service",
    "serviceType": "地域密着型通所介護",
    "capacity": 0,
    "openDays": [
      "平日",
      "土曜日",
      "祝日"
    ],
    "openDaysNote": "利用時間については本人様ご家族様の都合に合わせて調整している。(延長や短縮も可能)"
  },
  {
    "id": "1690600091",
    "name": "富山型デイサービス　またこられ～",
    "kana": "トヤマガタデイサービス　マタコラレ～",
    "address": "富山県滑川市横道３４１８番地",
    "lat": 36.7568357,
    "lng": 137.3858617,
    "tel": "076-471-5125",
    "url": "",
    "pref": "富山県",
    "city": "滑川市",
    "category": "community_day_service",
    "serviceType": "地域密着型通所介護",
    "capacity": 10,
    "openDays": [
      "平日",
      "土曜日",
      "日曜日",
      "祝日"
    ],
    "openDaysNote": ""
  },
  {
    "id": "1670400553",
    "name": "こみゅにてぃはうす　愛夢",
    "kana": "コミュニティハウス　アイム",
    "address": "魚津市吉島553番地１",
    "lat": 36.8304146,
    "lng": 137.4183472,
    "tel": "0765-22-5789",
    "url": "",
    "pref": "富山県",
    "city": "魚津市",
    "category": "community_day_service",
    "serviceType": "地域密着型通所介護",
    "capacity": 12,
    "openDays": [
      "平日",
      "日曜日",
      "祝日"
    ],
    "openDaysNote": ""
  },
  {
    "id": "1670400611",
    "name": "デイサービスあんどの里ありそ館",
    "kana": "デイサービスアンドノサトアリソカン",
    "address": "魚津市北鬼江1177番地あんどの里ありそ館 あんどの里ありそ館",
    "lat": 36.8288448,
    "lng": 137.4007567,
    "tel": "0765-24-1680",
    "url": "",
    "pref": "富山県",
    "city": "魚津市",
    "category": "community_day_service",
    "serviceType": "地域密着型通所介護",
    "capacity": 0,
    "openDays": [
      "平日"
    ],
    "openDaysNote": "12月29日～1月3日の年末・年始は休業となります。"
  },
  {
    "id": "1670400389",
    "name": "デイサービスちょうろく",
    "kana": "デイサービスチョウロク",
    "address": "富山県魚津市石垣388－2",
    "lat": 36.805181,
    "lng": 137.4435043,
    "tel": "0765-23-6511",
    "url": "http://www.hospy.jp",
    "pref": "富山県",
    "city": "魚津市",
    "category": "community_day_service",
    "serviceType": "地域密着型通所介護",
    "capacity": null,
    "openDays": [
      "平日",
      "土曜日",
      "日曜日",
      "祝日"
    ],
    "openDaysNote": ""
  },
  {
    "id": "1690400054",
    "name": "デイサービスむすびの里",
    "kana": "デイサービスムスビノサト",
    "address": "富山県魚津市天王15番地",
    "lat": 36.8459466,
    "lng": 137.417983,
    "tel": "0765-32-3637",
    "url": "",
    "pref": "富山県",
    "city": "魚津市",
    "category": "community_day_service",
    "serviceType": "地域密着型通所介護",
    "capacity": 0,
    "openDays": [
      "平日",
      "祝日"
    ],
    "openDaysNote": "祝日が月曜日から金曜日の場合、通常通り営業しております。（改行）12/31~1/3まではお休みとさせていただきます。（改行）お盆休みは不定で、当該年度のお盆1ヶ月以上前に休業日をお知らせいたします。（改行）その他臨時のお休みの場合は猶予をもって事前に告知させて頂きます。"
  },
  {
    "id": "1670400330",
    "name": "パティオ　しらゆり",
    "kana": "パティオ　シラユリ",
    "address": "富山県魚津市本江1090",
    "lat": 36.8167129,
    "lng": 137.4119457,
    "tel": "0765-25-0333",
    "url": "http:www.hakkou-est.jp",
    "pref": "富山県",
    "city": "魚津市",
    "category": "community_day_service",
    "serviceType": "地域密着型通所介護",
    "capacity": null,
    "openDays": [
      "平日",
      "土曜日",
      "祝日"
    ],
    "openDaysNote": ""
  },
  {
    "id": "1690400096",
    "name": "パティオ　しらゆり",
    "kana": "パティオ　シラユリ",
    "address": "富山県魚津市本江1090",
    "lat": 36.8167248302852,
    "lng": 137.411973738237,
    "tel": "0765-25-0333",
    "url": "https://www.site.medicalcare.toyama.jp/ai/office",
    "pref": "富山県",
    "city": "魚津市",
    "category": "community_day_service",
    "serviceType": "地域密着型通所介護",
    "capacity": null,
    "openDays": [
      "平日",
      "土曜日",
      "祝日"
    ],
    "openDaysNote": ""
  },
  {
    "id": "1670400421",
    "name": "魚津地域福祉事業所スマイルぽぴー",
    "kana": "ウオヅチイキフクシジギョウショスマイルポピー",
    "address": "富山県魚津市上村木1-6-5",
    "lat": 36.8236983,
    "lng": 137.4074177,
    "tel": "0765-23-4035",
    "url": "",
    "pref": "富山県",
    "city": "魚津市",
    "category": "community_day_service",
    "serviceType": "地域密着型通所介護",
    "capacity": 0,
    "openDays": [
      "平日",
      "土曜日",
      "日曜日",
      "祝日"
    ],
    "openDaysNote": "定休日：金曜日"
  },
  {
    "id": "1670400629",
    "name": "魚津病院吉島デイサービス",
    "kana": "ウオヅビョウインキチジマデイサービス",
    "address": "富山県魚津市吉島200番3",
    "lat": 36.8269927,
    "lng": 137.4172808,
    "tel": "0765-24-6630",
    "url": "http://uozubyouin.jp/",
    "pref": "富山県",
    "city": "魚津市",
    "category": "community_day_service",
    "serviceType": "地域密着型通所介護",
    "capacity": 0,
    "openDays": [
      "平日",
      "土曜日",
      "祝日"
    ],
    "openDaysNote": ""
  },
  {
    "id": "1670400223",
    "name": "経田デイサービスセンター",
    "kana": "キョウデンデイサービスセンター",
    "address": "富山県魚津市東町１２－１",
    "lat": 36.8541922,
    "lng": 137.4159335,
    "tel": "0765-24-8822",
    "url": "http://niikawa-fukushi.net",
    "pref": "富山県",
    "city": "魚津市",
    "category": "community_day_service",
    "serviceType": "地域密着型通所介護",
    "capacity": 0,
    "openDays": [
      "平日",
      "土曜日",
      "祝日"
    ],
    "openDaysNote": "R6.10.1～休止中"
  },
  {
    "id": "1670400652",
    "name": "住吉デイサービスセンター",
    "kana": "スミヨシデイサービスセンター",
    "address": "富山県魚津市住吉２５２３番地２",
    "lat": 36.8033498,
    "lng": 137.3994944,
    "tel": "0765-32-5154",
    "url": "http://niikawa-fukushi.net",
    "pref": "富山県",
    "city": "魚津市",
    "category": "community_day_service",
    "serviceType": "地域密着型通所介護",
    "capacity": null,
    "openDays": [
      "平日",
      "土曜日",
      "祝日"
    ],
    "openDaysNote": ""
  },
  {
    "id": "1670400405",
    "name": "専正寺デイサービスまごころ",
    "kana": "センショウジデイサービスマゴコロ",
    "address": "富山県魚津市本江新町9－8",
    "lat": 36.8199896471684,
    "lng": 137.406608458896,
    "tel": "0765-23-5980",
    "url": "www.toyamagata.com/magokoro",
    "pref": "富山県",
    "city": "魚津市",
    "category": "community_day_service",
    "serviceType": "地域密着型通所介護",
    "capacity": 18,
    "openDays": [
      "平日",
      "土曜日"
    ],
    "openDaysNote": ""
  },
  {
    "id": "1670400504",
    "name": "片貝デイサービスセンター",
    "kana": "カタカイデイサービスセンター",
    "address": "富山県魚津市島尻８５０－１",
    "lat": 36.7910888,
    "lng": 137.4699383,
    "tel": "0765-32-7711",
    "url": "http://www.niikawa-fukushi.net",
    "pref": "富山県",
    "city": "魚津市",
    "category": "community_day_service",
    "serviceType": "地域密着型通所介護",
    "capacity": null,
    "openDays": [
      "平日"
    ],
    "openDaysNote": "5月3日～5日の営業時間は、8時15分～17時15分となります。"
  },
  {
    "id": "1670400587",
    "name": "本江デイサービスちょうろく",
    "kana": "ホンゴウデイサービスチョウロク",
    "address": "富山県魚津市本江１６１６番地",
    "lat": 36.8160155,
    "lng": 137.4041184,
    "tel": "0765-23-6523",
    "url": "http://www.hospy.jp",
    "pref": "富山県",
    "city": "魚津市",
    "category": "community_day_service",
    "serviceType": "地域密着型通所介護",
    "capacity": null,
    "openDays": [
      "平日",
      "土曜日",
      "祝日"
    ],
    "openDaysNote": "定休日の日曜日においても、併設の住宅型有料老人ホーム「本エちょうろくハウス」にて連絡体制を整備しております。"
  },
  {
    "id": "1670202082",
    "name": "あっとほ～む米島　デイサービスセンター",
    "kana": "アットホ～ムヨネジマ　デイサービスセンター",
    "address": "富山県高岡市米島328-1あっとほ～む米島 あっとほ～む米島",
    "lat": 36.7765688,
    "lng": 137.0392733,
    "tel": "0766-25-7760",
    "url": "http:/www.shinseikaihatu.co.jp/athome/",
    "pref": "富山県",
    "city": "高岡市",
    "category": "community_day_service",
    "serviceType": "地域密着型通所介護",
    "capacity": 18,
    "openDays": [
      "平日",
      "土曜日",
      "祝日"
    ],
    "openDaysNote": ""
  },
  {
    "id": "1690200736",
    "name": "イエトカフェ戸出春日",
    "kana": "イエトカフェトイデカスガ",
    "address": "富山県高岡市戸出春日６３１",
    "lat": 36.6945192,
    "lng": 137.0001015,
    "tel": "0766-54-0097",
    "url": "",
    "pref": "富山県",
    "city": "高岡市",
    "category": "community_day_service",
    "serviceType": "地域密着型通所介護",
    "capacity": 0,
    "openDays": [
      "平日",
      "祝日"
    ],
    "openDaysNote": ""
  },
  {
    "id": "1690200710",
    "name": "いそべ家具デイサービス未来",
    "kana": "イソベカグデイサービスミライ",
    "address": "内免３丁目３８０－１",
    "lat": 36.7571654,
    "lng": 137.0119321,
    "tel": "0766－30－4123",
    "url": "https://www.mirai-yoshimaru.com/2016/11/28/286/",
    "pref": "富山県",
    "city": "高岡市",
    "category": "community_day_service",
    "serviceType": "地域密着型通所介護",
    "capacity": 0,
    "openDays": [
      "平日",
      "祝日"
    ],
    "openDaysNote": ""
  },
  {
    "id": "1670202157",
    "name": "げんきデイ中田館",
    "kana": "ゲンキデイナカダカン",
    "address": "高岡市下麻生89番2だいご中田館 だいご中田館",
    "lat": 36.693376,
    "lng": 137.0191542,
    "tel": "0766-36-2888",
    "url": "http://www.daigoen.com/",
    "pref": "富山県",
    "city": "高岡市",
    "category": "community_day_service",
    "serviceType": "地域密着型通所介護",
    "capacity": 10,
    "openDays": [
      "平日",
      "土曜日",
      "日曜日",
      "祝日"
    ],
    "openDaysNote": "利用可能な時間帯は原則17時までとなります。"
  },
  {
    "id": "1690200835",
    "name": "シニアレジデンスかの苑",
    "kana": "シニアレジデンスカノエン",
    "address": "富山県高岡市上渡16番地の2シニアレジデンスかの苑 シニアレジデンスかの苑",
    "lat": 36.7289951125741,
    "lng": 136.959521770392,
    "tel": "0766-31-3888",
    "url": "https://tatenofukushikai-kanoen.com/facility/spa/",
    "pref": "富山県",
    "city": "高岡市",
    "category": "community_day_service",
    "serviceType": "地域密着型通所介護",
    "capacity": null,
    "openDays": [
      "平日",
      "土曜日",
      "祝日"
    ],
    "openDaysNote": ""
  },
  {
    "id": "1670201035",
    "name": "デイケアハウス手をつなごう",
    "kana": "デイケアハウステヲツナゴウ",
    "address": "富山県高岡市本丸町１３番１８号",
    "lat": 36.752236,
    "lng": 137.0216275,
    "tel": "0766-21-0976",
    "url": "http://www1.coralnet.or.jp/hand/",
    "pref": "富山県",
    "city": "高岡市",
    "category": "community_day_service",
    "serviceType": "地域密着型通所介護",
    "capacity": 10,
    "openDays": [
      "平日",
      "土曜日",
      "日曜日",
      "祝日"
    ],
    "openDaysNote": "施設・地域での感染症の拡大や、災害が予想される悪天候の時など、安全が確保できないと判断された場合には営業を行えない場合があります。"
  },
  {
    "id": "1690200777",
    "name": "デイサービスおはな",
    "kana": "デイサービスオハナ",
    "address": "富山県高岡市辻319-2",
    "lat": 36.7249579595473,
    "lng": 136.976027989748,
    "tel": "766310870",
    "url": "",
    "pref": "富山県",
    "city": "高岡市",
    "category": "community_day_service",
    "serviceType": "地域密着型通所介護",
    "capacity": 0,
    "openDays": [
      "平日",
      "祝日"
    ],
    "openDaysNote": "・夏季（8/15～16）、年末年始（12/31～1/3）、その他事業所が指定した休業日有り。"
  },
  {
    "id": "1670200409",
    "name": "デイサービスセンターさがの苑",
    "kana": "デイサービスセンターサガノエン",
    "address": "富山県高岡市佐加野1701",
    "lat": 36.7563841,
    "lng": 136.9713003,
    "tel": "0766-28-0088",
    "url": "",
    "pref": "富山県",
    "city": "高岡市",
    "category": "community_day_service",
    "serviceType": "地域密着型通所介護",
    "capacity": 0,
    "openDays": [
      "平日",
      "土曜日",
      "祝日"
    ],
    "openDaysNote": "特になし"
  },
  {
    "id": "1670202124",
    "name": "はなれの家",
    "kana": "ハナレノイエ",
    "address": "放生津8-6",
    "lat": 36.7694621,
    "lng": 137.0830175,
    "tel": "0766-50-9164",
    "url": "https://www.big-advance.site/s/138/1426",
    "pref": "富山県",
    "city": "高岡市",
    "category": "community_day_service",
    "serviceType": "地域密着型通所介護",
    "capacity": 0,
    "openDays": [
      "平日",
      "土曜日",
      "祝日"
    ],
    "openDaysNote": "お盆　正月　休み"
  },
  {
    "id": "1670201142",
    "name": "ﾌｧﾐﾘｰｻﾎﾟｰﾄﾊｳｽわか木",
    "kana": "ファミリーサポートハウスワカキ",
    "address": "富山県高岡市波岡61-1",
    "lat": 36.7545071,
    "lng": 136.991601,
    "tel": "0766-23-9080",
    "url": "http://wakaki.net/",
    "pref": "富山県",
    "city": "高岡市",
    "category": "community_day_service",
    "serviceType": "地域密着型通所介護",
    "capacity": 0,
    "openDays": [
      "平日",
      "土曜日",
      "祝日"
    ],
    "openDaysNote": "特になし"
  },
  {
    "id": "1670202215",
    "name": "フクシアケアセンター",
    "kana": "フクシアケアセンター",
    "address": "富山県高岡市明園町9番12号",
    "lat": 36.7423461,
    "lng": 137.0278377,
    "tel": "0766-54-6013",
    "url": "www//hukushia.jp",
    "pref": "富山県",
    "city": "高岡市",
    "category": "community_day_service",
    "serviceType": "地域密着型通所介護",
    "capacity": null,
    "openDays": [
      "平日",
      "土曜日",
      "日曜日",
      "祝日"
    ],
    "openDaysNote": "自主サービスとして希望者には夕食を提供しています。"
  },
  {
    "id": "1670202033",
    "name": "リハビリ・デイサービスたかおか",
    "kana": "リハビリ・デイサービスタカオカ",
    "address": "横田本町8-10",
    "lat": 36.7531795,
    "lng": 136.9985004,
    "tel": "0766-73-2891",
    "url": "http://www.lifecreate2010.jp/",
    "pref": "富山県",
    "city": "高岡市",
    "category": "community_day_service",
    "serviceType": "地域密着型通所介護",
    "capacity": 0,
    "openDays": [
      "平日",
      "土曜日"
    ],
    "openDaysNote": ""
  },
  {
    "id": "1690200801",
    "name": "リハビリデイ藤園苑一歩一歩",
    "kana": "リハビリデイフジソノエンイッポイッポ",
    "address": "富山県高岡市早川262-1",
    "lat": 36.7517933,
    "lng": 136.9866907,
    "tel": "0766-21-8133",
    "url": "http://www.fujisonoen.or.jp",
    "pref": "富山県",
    "city": "高岡市",
    "category": "community_day_service",
    "serviceType": "地域密着型通所介護",
    "capacity": null,
    "openDays": [
      "平日",
      "土曜日",
      "祝日"
    ],
    "openDaysNote": "お盆（8/14、15）、年末年始（12/31～1/3）は休み"
  },
  {
    "id": "1670202264",
    "name": "吉久デイサービス　むら花",
    "kana": "ヨシヒサデイサービス　ムラハナ",
    "address": "吉久2－3－17",
    "lat": 36.779102,
    "lng": 137.0549639,
    "tel": "0766－84－8778",
    "url": "",
    "pref": "富山県",
    "city": "高岡市",
    "category": "community_day_service",
    "serviceType": "地域密着型通所介護",
    "capacity": 0,
    "openDays": [
      "平日",
      "土曜日",
      "祝日"
    ],
    "openDaysNote": ""
  },
  {
    "id": "1670202363",
    "name": "健生株式会社",
    "kana": "ケンセイカブシキカイシャ",
    "address": "高岡市清水町３丁目6-33のぞみリハビリテーションアカデミー のぞみリハビリテーションアカデミー",
    "lat": 36.7380618,
    "lng": 137.0063257,
    "tel": "0766-24-7350",
    "url": "https：//nozoriha.net",
    "pref": "富山県",
    "city": "高岡市",
    "category": "community_day_service",
    "serviceType": "地域密着型通所介護",
    "capacity": 20,
    "openDays": [
      "平日",
      "土曜日"
    ],
    "openDaysNote": ""
  },
  {
    "id": "1610213181",
    "name": "市野瀬和田内科医院",
    "kana": "イチノセワダナイカイイン",
    "address": "富山県高岡市戸出市野瀬388",
    "lat": 36.6992789,
    "lng": 136.9818896,
    "tel": "0766-63-1118",
    "url": "",
    "pref": "富山県",
    "city": "高岡市",
    "category": "community_day_service",
    "serviceType": "地域密着型通所介護",
    "capacity": null,
    "openDays": [
      "平日",
      "土曜日"
    ],
    "openDaysNote": ""
  },
  {
    "id": "1670201589",
    "name": "志貴野長生寮デイサービスセンター",
    "kana": "シキノチョウセイリョウデイサービスセンター",
    "address": "富山県高岡市滝新21番地1",
    "lat": 36.6778564,
    "lng": 137.0302807,
    "tel": "0766-36-8850",
    "url": "/business/dayservice.php",
    "pref": "富山県",
    "city": "高岡市",
    "category": "community_day_service",
    "serviceType": "地域密着型通所介護",
    "capacity": 0,
    "openDays": [
      "平日",
      "土曜日",
      "祝日"
    ],
    "openDaysNote": "休業日　12月29日から翌年の1月3日まで"
  },
  {
    "id": "1670202249",
    "name": "社会福祉法人あいの風福祉会",
    "kana": "シャカイフクシホウジンアイノカゼフクシカイ",
    "address": "富山県高岡市内免5丁目50番１",
    "lat": 36.7542017,
    "lng": 137.0045553,
    "tel": "0766-26-0311",
    "url": "www.ainokaze.ne.jp",
    "pref": "富山県",
    "city": "高岡市",
    "category": "community_day_service",
    "serviceType": "地域密着型通所介護",
    "capacity": 0,
    "openDays": [
      "平日",
      "祝日"
    ],
    "openDaysNote": ""
  },
  {
    "id": "1670201027",
    "name": "小規模共生ホームひらすま通所介護事業所",
    "kana": "ショウキボキョウセイホームヒラスマツウショカイゴジギョウショ",
    "address": "富山県高岡市木町2番25号",
    "lat": 36.7633453,
    "lng": 137.0136121,
    "tel": "０７６６－２５－５０１０",
    "url": "http://toyamagata.com/hirasuma/index.html",
    "pref": "富山県",
    "city": "高岡市",
    "category": "community_day_service",
    "serviceType": "地域密着型通所介護",
    "capacity": 0,
    "openDays": [
      "平日",
      "土曜日",
      "日曜日",
      "祝日"
    ],
    "openDaysNote": ""
  },
  {
    "id": "1670201878",
    "name": "赤れんが",
    "kana": "アカレンガ",
    "address": "放生津8-1",
    "lat": 36.7694621,
    "lng": 137.0830175,
    "tel": "0766-50-8588",
    "url": "https://www.big-advance.site/s/138/1426",
    "pref": "富山県",
    "city": "高岡市",
    "category": "community_day_service",
    "serviceType": "地域密着型通所介護",
    "capacity": 0,
    "openDays": [
      "平日",
      "祝日"
    ],
    "openDaysNote": "お盆　正月　休み"
  },
  {
    "id": "1690200918",
    "name": "地域密着型通所介護　雅",
    "kana": "チイキミッチャクガタツウショカイゴミヤビ",
    "address": "富山県高岡市京田281-1",
    "lat": 36.7310374,
    "lng": 137.0124289,
    "tel": "0766-50-8773",
    "url": "www.miyabi-fukushi.com",
    "pref": "富山県",
    "city": "高岡市",
    "category": "community_day_service",
    "serviceType": "地域密着型通所介護",
    "capacity": null,
    "openDays": [
      "平日",
      "祝日"
    ],
    "openDaysNote": ""
  },
  {
    "id": "1670201704",
    "name": "特定非営利活動法人　ウエルネット",
    "kana": "トクテイヒエイリカツドホウジン　ウエルネット",
    "address": "富山県高岡市福岡町福岡新295",
    "lat": 36.7131132,
    "lng": 136.9338645,
    "tel": "0766－64－2929",
    "url": "https://www.2929.or.jp",
    "pref": "富山県",
    "city": "高岡市",
    "category": "community_day_service",
    "serviceType": "地域密着型通所介護",
    "capacity": 10,
    "openDays": [
      "平日",
      "土曜日",
      "祝日"
    ],
    "openDaysNote": ""
  },
  {
    "id": "1690200660",
    "name": "富山型デイサービス　もみじ",
    "kana": "トヤマガタデイサービス　モミジ",
    "address": "富山県高岡市中保1389-1",
    "lat": 36.7211565487879,
    "lng": 136.96207027568,
    "tel": "0766-31-5557",
    "url": "momijihk.co.jp",
    "pref": "富山県",
    "city": "高岡市",
    "category": "community_day_service",
    "serviceType": "地域密着型通所介護",
    "capacity": 15,
    "openDays": [
      "平日",
      "祝日"
    ],
    "openDaysNote": "大雪、災害時などは、お休みさせていただくことがございます。（改行）その際には、必ずご本人様、ご家族様にご連絡を差し上げます。"
  },
  {
    "id": "1670200946",
    "name": "労働者協同組合　労協センター事業団　高岡地域福祉事業所　デイサービスぽぴー",
    "kana": "ロウドウシャキョウドウクミアイ　ロウキョウセンタージギョウダン　タカオカチイキフクシジギョウショ　デイサービスポピー",
    "address": "富山県高岡市大坪町3－5－1",
    "lat": 36.7579129,
    "lng": 137.0170287,
    "tel": "0766－27－8101",
    "url": "https://takaokapopy.jimdofree.com/",
    "pref": "富山県",
    "city": "高岡市",
    "category": "community_day_service",
    "serviceType": "地域密着型通所介護",
    "capacity": 0,
    "openDays": [
      "平日",
      "土曜日",
      "祝日"
    ],
    "openDaysNote": "年末年始、お盆に臨時休業の場合あり。"
  },
  {
    "id": "1690700214",
    "name": "CHACHACHA黒部",
    "kana": "チャチャチャクロベ",
    "address": "富山県黒部市荻生741",
    "lat": 36.8909059,
    "lng": 137.4718708,
    "tel": "0765－32－5121",
    "url": "",
    "pref": "富山県",
    "city": "黒部市",
    "category": "community_day_service",
    "serviceType": "地域密着型通所介護",
    "capacity": null,
    "openDays": [
      "平日",
      "祝日"
    ],
    "openDaysNote": "年末年始、一部祝日休業あり"
  },
  {
    "id": "1670700341",
    "name": "アイ福祉サポート株式会社",
    "kana": "アイフクシサポート　カブシキカイシャ",
    "address": "富山県黒部市生地芦区３４番地",
    "lat": 36.8972321,
    "lng": 137.4185738,
    "tel": "0765-33-4460",
    "url": "http://www.webes.jp/sibanba/",
    "pref": "富山県",
    "city": "黒部市",
    "category": "community_day_service",
    "serviceType": "地域密着型通所介護",
    "capacity": 0,
    "openDays": [
      "平日",
      "土曜日",
      "祝日"
    ],
    "openDaysNote": ""
  },
  {
    "id": "1690700206",
    "name": "デイサービスさくらい",
    "kana": "デイサービスサクライ",
    "address": "富山県黒部市堀高24-1",
    "lat": 36.8806121,
    "lng": 137.4413193,
    "tel": "0765-54-5200",
    "url": "http：//care-net.biz/16/sakurai/",
    "pref": "富山県",
    "city": "黒部市",
    "category": "community_day_service",
    "serviceType": "地域密着型通所介護",
    "capacity": 18,
    "openDays": [
      "平日",
      "土曜日",
      "祝日"
    ],
    "openDaysNote": "特になし"
  },
  {
    "id": "1690700164",
    "name": "機能訓練特化富山型ディサービスリハットネス",
    "kana": "キノウクンレントッカ　トヤマガタデイサービス　リハットネス",
    "address": "中新18機能訓練特化富山型ディサービスリハットネス 機能訓練特化富山型ディサービスリハットネス",
    "lat": 36.887253,
    "lng": 137.4273928,
    "tel": "0765-52-5088",
    "url": "https://www.eisac.co.jp",
    "pref": "富山県",
    "city": "黒部市",
    "category": "community_day_service",
    "serviceType": "地域密着型通所介護",
    "capacity": 0,
    "openDays": [
      "平日"
    ],
    "openDaysNote": "午前・午後の二部制（8：30～12：00・13：00～16：30）　各定員15名"
  },
  {
    "id": "1690700222",
    "name": "上町の家",
    "kana": "カンマチノイエ",
    "address": "富山県黒部市生地249番地",
    "lat": 36.888934,
    "lng": 137.4173089,
    "tel": "0765-33-5506",
    "url": "",
    "pref": "富山県",
    "city": "黒部市",
    "category": "community_day_service",
    "serviceType": "地域密着型通所介護",
    "capacity": 0,
    "openDays": [
      "平日",
      "土曜日",
      "祝日"
    ],
    "openDaysNote": ""
  },
  {
    "id": "1671700308",
    "name": "特定非営利活動法人　あいの風",
    "kana": "トクテイヒエイリカツドウホジン　アイノカゼ",
    "address": "富山県黒部市宇奈月町栃屋１５１－４",
    "lat": 36.8708652359981,
    "lng": 137.511051018385,
    "tel": "０７６５－６５－１８８１",
    "url": "npo-kaze@ma.mrr.jp",
    "pref": "富山県",
    "city": "黒部市",
    "category": "community_day_service",
    "serviceType": "地域密着型通所介護",
    "capacity": 0,
    "openDays": [
      "平日",
      "土曜日",
      "祝日"
    ],
    "openDaysNote": "営業時間の延長については、相談に応じています。"
  },
  {
    "id": "1670700457",
    "name": "富山型デイサービスきずな",
    "kana": "トヤマガタデイサービスキズナ",
    "address": "富山県黒部市三日市2840番地1",
    "lat": 36.8779877,
    "lng": 137.45381,
    "tel": "0765-52-2121",
    "url": "",
    "pref": "富山県",
    "city": "黒部市",
    "category": "community_day_service",
    "serviceType": "地域密着型通所介護",
    "capacity": 0,
    "openDays": [
      "平日",
      "土曜日",
      "祝日"
    ],
    "openDaysNote": ""
  },
  {
    "id": "1670700382",
    "name": "富山型デイサービスしばんばの里「こもれび」",
    "kana": "トヤマガタデイサービス　シバンバノサト　コモレビ",
    "address": "富山県黒部市生地芦区３４番地",
    "lat": 36.8972321,
    "lng": 137.4185738,
    "tel": "0765-33-4522",
    "url": "http://www.webes.jp/sibanba/",
    "pref": "富山県",
    "city": "黒部市",
    "category": "community_day_service",
    "serviceType": "地域密着型通所介護",
    "capacity": 18,
    "openDays": [
      "平日",
      "土曜日",
      "祝日"
    ],
    "openDaysNote": "年末年始　１２月３１日～１月３日（改行）お盆休み　　８月１５日、１６日"
  },
  {
    "id": "1670700390",
    "name": "富山型デイサービスまごの手",
    "kana": "トヤマガタデイサービスマゴノテ",
    "address": "富山県黒部市犬山500番1",
    "lat": 36.855457,
    "lng": 137.4295877,
    "tel": "0765-54-0053",
    "url": "",
    "pref": "富山県",
    "city": "黒部市",
    "category": "community_day_service",
    "serviceType": "地域密着型通所介護",
    "capacity": 18,
    "openDays": [
      "平日",
      "土曜日",
      "祝日"
    ],
    "openDaysNote": ""
  },
  {
    "id": "1691100349",
    "name": "ｲｴﾄｶﾌｪ二の丸",
    "kana": "イエトカフェ　ニノマル",
    "address": "二の丸町1-2",
    "lat": 34.921198,
    "lng": 135.7702894,
    "tel": "0766-53-5333",
    "url": "https://www.big-advance.site/s/138/1426",
    "pref": "富山県",
    "city": "射水市",
    "category": "community_day_service",
    "serviceType": "地域密着型通所介護",
    "capacity": 0,
    "openDays": [
      "平日",
      "祝日"
    ],
    "openDaysNote": "お盆　正月　休み"
  },
  {
    "id": "1670300258",
    "name": "いちにのさんぽデイサービス",
    "kana": "イチニノサンポデイサービス",
    "address": "本江後新１０２",
    "lat": 36.753538,
    "lng": 137.1697198,
    "tel": "0766-86-0685",
    "url": "http://toyamagata.com/sanpo/index.html",
    "pref": "富山県",
    "city": "射水市",
    "category": "community_day_service",
    "serviceType": "地域密着型通所介護",
    "capacity": 0,
    "openDays": [
      "平日",
      "祝日"
    ],
    "openDaysNote": ""
  },
  {
    "id": "1671100095",
    "name": "いちにのさんぽ練合",
    "kana": "イチニノサンポネリヤ",
    "address": "富山県射水市海老江練合570番地",
    "lat": 36.7615839,
    "lng": 137.1604624,
    "tel": "0766-86-8655",
    "url": "http://www.toyamagata.com/sanpo/",
    "pref": "富山県",
    "city": "射水市",
    "category": "community_day_service",
    "serviceType": "地域密着型通所介護",
    "capacity": 0,
    "openDays": [
      "平日",
      "土曜日",
      "祝日"
    ],
    "openDaysNote": ""
  },
  {
    "id": "1671100483",
    "name": "いみずの里デイサービス",
    "kana": "イミズノサトデイサービス",
    "address": "富山県射水市赤井77-1",
    "lat": 36.7308581,
    "lng": 137.0693838,
    "tel": "0766-73-2614",
    "url": "",
    "pref": "富山県",
    "city": "射水市",
    "category": "community_day_service",
    "serviceType": "地域密着型通所介護",
    "capacity": 18,
    "openDays": [
      "平日",
      "土曜日",
      "祝日"
    ],
    "openDaysNote": ""
  },
  {
    "id": "1691100455",
    "name": "サープレィ足洗温泉デイサービスセンター",
    "kana": "サープレィアシアライオンセンデイサービスセンター",
    "address": "足洗新町1-5",
    "lat": 36.7591928,
    "lng": 137.1677392,
    "tel": "0766-30-8826",
    "url": "https://kijukai.or.jp/pages/107/",
    "pref": "富山県",
    "city": "射水市",
    "category": "community_day_service",
    "serviceType": "地域密着型通所介護",
    "capacity": null,
    "openDays": [
      "平日"
    ],
    "openDaysNote": ""
  },
  {
    "id": "1671100525",
    "name": "デイサービス　ゆずリハビリいみず",
    "kana": "デイサービス　ユズリハビリイミズ",
    "address": "富山県射水市戸破3463-1",
    "lat": 36.7227823,
    "lng": 137.1079411,
    "tel": "0766-55-1815",
    "url": "https://r.goope.jp/sr-16-163811s0109",
    "pref": "富山県",
    "city": "射水市",
    "category": "community_day_service",
    "serviceType": "地域密着型通所介護",
    "capacity": 0,
    "openDays": [
      "平日",
      "祝日"
    ],
    "openDaysNote": "年末年始及びお盆は休み"
  },
  {
    "id": "1671100319",
    "name": "デイサービスセンターきららか",
    "kana": "デイサービスセンターキララカ",
    "address": "戸破688",
    "lat": 36.7189630999949,
    "lng": 137.11438392209,
    "tel": "0766-55-1855",
    "url": "http://cosuca.jp/",
    "pref": "富山県",
    "city": "射水市",
    "category": "community_day_service",
    "serviceType": "地域密着型通所介護",
    "capacity": 18,
    "openDays": [
      "平日",
      "土曜日"
    ],
    "openDaysNote": ""
  },
  {
    "id": "1671100335",
    "name": "デイサービスわしづか",
    "kana": "デイサービスワシヅカ",
    "address": "富山県射水市鷲塚558番地",
    "lat": 36.7223883,
    "lng": 137.1220838,
    "tel": "0766-55-2083",
    "url": "",
    "pref": "富山県",
    "city": "射水市",
    "category": "community_day_service",
    "serviceType": "地域密着型通所介護",
    "capacity": null,
    "openDays": [
      "平日",
      "土曜日",
      "祝日"
    ],
    "openDaysNote": ""
  },
  {
    "id": "1691100406",
    "name": "デイサービス縁",
    "kana": "デイサービスエニシ",
    "address": "富山県射水市海老江１４６７番地９０",
    "lat": 36.7678078453004,
    "lng": 137.141473987766,
    "tel": "0766-86-8233",
    "url": "http://syoei-group.co.jp",
    "pref": "富山県",
    "city": "射水市",
    "category": "community_day_service",
    "serviceType": "地域密着型通所介護",
    "capacity": 0,
    "openDays": [
      "平日",
      "土曜日",
      "祝日"
    ],
    "openDaysNote": "３６５日家族の要望に応じる（改行）午後３時１５分以降の利用も相談に応じる"
  },
  {
    "id": "1671100384",
    "name": "小さな幸せの家いみず",
    "kana": "チイサナシアワセノイエイミズ",
    "address": "富山県射水市中太閤山16-90-7",
    "lat": 36.702615,
    "lng": 137.0989066,
    "tel": "0766-54-0870",
    "url": "http://shiawase-ie.com/",
    "pref": "富山県",
    "city": "射水市",
    "category": "community_day_service",
    "serviceType": "地域密着型通所介護",
    "capacity": 10,
    "openDays": [
      "平日",
      "土曜日",
      "祝日"
    ],
    "openDaysNote": "サービス提供時間は、9時から17時まで。その他のサービス提供時間については、要相談。"
  },
  {
    "id": "1671100012",
    "name": "赤田デイサービスめぐみ",
    "kana": "アカダデイサービスメグミ",
    "address": "富山県射水市橋下条1374",
    "lat": 36.7136411,
    "lng": 137.0849996,
    "tel": "0766-57-8802",
    "url": "",
    "pref": "富山県",
    "city": "射水市",
    "category": "community_day_service",
    "serviceType": "地域密着型通所介護",
    "capacity": 2,
    "openDays": [
      "平日",
      "土曜日",
      "祝日"
    ],
    "openDaysNote": ""
  },
  {
    "id": "1691100364",
    "name": "地域密着型　通所介護　雅　小杉",
    "kana": "チイキミッチャクガタ　ミヤビ　コスギ",
    "address": "富山県射水市戸破1677-1",
    "lat": 36.7137247,
    "lng": 137.0951929,
    "tel": "0766-57-8873",
    "url": "www.miyabi-fukushi.com",
    "pref": "富山県",
    "city": "射水市",
    "category": "community_day_service",
    "serviceType": "地域密着型通所介護",
    "capacity": 18,
    "openDays": [
      "平日",
      "祝日"
    ],
    "openDaysNote": ""
  },
  {
    "id": "1671600722",
    "name": "デイサービスむらのなか",
    "kana": "デイサービスムラノナカ",
    "address": "富山県中新川郡舟橋村東芦原205番地",
    "lat": 36.6936465,
    "lng": 137.3012735,
    "tel": "076-464-5432",
    "url": "",
    "pref": "富山県",
    "city": "舟橋村",
    "category": "community_day_service",
    "serviceType": "地域密着型通所介護",
    "capacity": 10,
    "openDays": [
      "平日",
      "土曜日",
      "祝日"
    ],
    "openDaysNote": ""
  },
  {
    "id": "1690900194",
    "name": "デイサービスセンター喜楽里",
    "kana": "デイサービスセンターキラリ",
    "address": "富山県小矢部市法楽寺1800番地の1",
    "lat": 36.6945768536949,
    "lng": 136.873948484596,
    "tel": "0766-30-8230",
    "url": "https://www.seirakuen.site/",
    "pref": "富山県",
    "city": "小矢部市",
    "category": "community_day_service",
    "serviceType": "地域密着型通所介護",
    "capacity": 0,
    "openDays": [
      "平日",
      "祝日"
    ],
    "openDaysNote": ""
  },
  {
    "id": "1670900511",
    "name": "デイサービスセンター心楽",
    "kana": "デイサービスセンターココラク",
    "address": "富山県小矢部市城山町2-42",
    "lat": 36.6787547461131,
    "lng": 136.866393673611,
    "tel": "0766-67-6611",
    "url": "https://seirakuen.site/",
    "pref": "富山県",
    "city": "小矢部市",
    "category": "community_day_service",
    "serviceType": "地域密着型通所介護",
    "capacity": null,
    "openDays": [
      "平日",
      "祝日"
    ],
    "openDaysNote": ""
  },
  {
    "id": "1670900271",
    "name": "デイサービスわくわく小矢部",
    "kana": "デイサービスワクワクオヤベ",
    "address": "新富町４番１号",
    "lat": 34.9708209,
    "lng": 138.369172,
    "tel": "0766-67-5360",
    "url": "http://toyamagata.com/wakuwakuoyabe/index.html.",
    "pref": "富山県",
    "city": "小矢部市",
    "category": "community_day_service",
    "serviceType": "地域密着型通所介護",
    "capacity": null,
    "openDays": [
      "平日",
      "土曜日",
      "祝日"
    ],
    "openDaysNote": ""
  },
  {
    "id": "1670900503",
    "name": "ビスケットデイサービスかいぐん",
    "kana": "ビスケットデイサービスカイグン",
    "address": "芹川3887番地1",
    "lat": 36.6825104,
    "lng": 136.8912338,
    "tel": "0766-68-1188",
    "url": "",
    "pref": "富山県",
    "city": "小矢部市",
    "category": "community_day_service",
    "serviceType": "地域密着型通所介護",
    "capacity": null,
    "openDays": [
      "平日",
      "祝日"
    ],
    "openDaysNote": ""
  },
  {
    "id": "1670900461",
    "name": "リハビリ･デイサービスおやべ",
    "kana": "リハビリ・デイサービスオヤベ",
    "address": "富山県小矢部市赤倉２０７",
    "lat": 36.6603966,
    "lng": 136.8869126,
    "tel": "０７６６－６７－２００１",
    "url": "http://www.lifecreate2010.jp/",
    "pref": "富山県",
    "city": "小矢部市",
    "category": "community_day_service",
    "serviceType": "地域密着型通所介護",
    "capacity": 0,
    "openDays": [
      "平日",
      "土曜日"
    ],
    "openDaysNote": ""
  },
  {
    "id": "1670900206",
    "name": "ローカルセンター小矢部",
    "kana": "ローカルセンターオヤベ",
    "address": "小矢部市新西92-1",
    "lat": 36.6306763,
    "lng": 136.8966376,
    "tel": "0766-61-8533",
    "url": "",
    "pref": "富山県",
    "city": "小矢部市",
    "category": "community_day_service",
    "serviceType": "地域密着型通所介護",
    "capacity": 0,
    "openDays": [
      "平日",
      "土曜日",
      "祝日"
    ],
    "openDaysNote": "特になし"
  },
  {
    "id": "1670900552",
    "name": "富山型デイサービス城山",
    "kana": "トヤマガタデイサービスシロヤマ",
    "address": "富山県小矢部市城山町9-32",
    "lat": 36.6813270699951,
    "lng": 136.863353398009,
    "tel": "0766-53-5876",
    "url": "day-Shiroyama.com",
    "pref": "富山県",
    "city": "小矢部市",
    "category": "community_day_service",
    "serviceType": "地域密着型通所介護",
    "capacity": 10,
    "openDays": [
      "平日",
      "土曜日",
      "祝日"
    ],
    "openDaysNote": "お盆は8月15.16日（改行）年末年始は12月30日より1月3日まで休日"
  },
  {
    "id": "1671600557",
    "name": "お茶の間",
    "kana": "オチャノマ",
    "address": "富山県中新川郡上市町若杉三丁目418番地",
    "lat": 36.705574,
    "lng": 137.3515922,
    "tel": "076-473-3383",
    "url": "",
    "pref": "富山県",
    "city": "上市町",
    "category": "community_day_service",
    "serviceType": "地域密着型通所介護",
    "capacity": 18,
    "openDays": [
      "平日",
      "土曜日",
      "祝日"
    ],
    "openDaysNote": "特になし"
  },
  {
    "id": "1671600540",
    "name": "ディサービス　元・気・楽",
    "kana": "ディサービス　ゲンキラク",
    "address": "富山県中新川郡上市町丸山１１番地",
    "lat": 36.694484,
    "lng": 137.38386,
    "tel": "076-473-3955",
    "url": "",
    "pref": "富山県",
    "city": "上市町",
    "category": "community_day_service",
    "serviceType": "地域密着型通所介護",
    "capacity": 18,
    "openDays": [
      "平日",
      "土曜日"
    ],
    "openDaysNote": ""
  },
  {
    "id": "1691700221",
    "name": "あおぞら苑",
    "kana": "アオゾラエン",
    "address": "富山県下新川郡朝日町道下884-1",
    "lat": 36.9488144,
    "lng": 137.5621694,
    "tel": "0765-83-1112",
    "url": "",
    "pref": "富山県",
    "city": "朝日町",
    "category": "community_day_service",
    "serviceType": "地域密着型通所介護",
    "capacity": null,
    "openDays": [
      "平日",
      "土曜日",
      "祝日"
    ],
    "openDaysNote": ""
  },
  {
    "id": "1671700506",
    "name": "デイサービス花日和",
    "kana": "デイサービスハナビヨリ",
    "address": "富山県下新川郡朝日町沼保1370",
    "lat": 36.9542,
    "lng": 137.563569,
    "tel": "0765-83-2287",
    "url": "",
    "pref": "富山県",
    "city": "朝日町",
    "category": "community_day_service",
    "serviceType": "地域密着型通所介護",
    "capacity": null,
    "openDays": [
      "平日",
      "土曜日",
      "祝日"
    ],
    "openDaysNote": "利用時間の延長等は相談に応じます。"
  },
  {
    "id": "1690800253",
    "name": "さくらの縁デイサービスセンター",
    "kana": "サクラノエンデイサービスセンター",
    "address": "富山県砺波市矢木86番地",
    "lat": 36.6348399,
    "lng": 136.9722579,
    "tel": "0763-33-7039",
    "url": "",
    "pref": "富山県",
    "city": "砺波市",
    "category": "community_day_service",
    "serviceType": "地域密着型通所介護",
    "capacity": 0,
    "openDays": [
      "平日",
      "土曜日",
      "祝日"
    ],
    "openDaysNote": ""
  },
  {
    "id": "1670800497",
    "name": "デイサービス　かがやき",
    "kana": "デイサービス　カガヤキ",
    "address": "富山県砺波市新富町2-11",
    "lat": 36.6399958,
    "lng": 136.9481626,
    "tel": "0763-33-0724",
    "url": "",
    "pref": "富山県",
    "city": "砺波市",
    "category": "community_day_service",
    "serviceType": "地域密着型通所介護",
    "capacity": 18,
    "openDays": [
      "平日"
    ],
    "openDaysNote": ""
  },
  {
    "id": "1670800489",
    "name": "デイサービス　しょうずんだ",
    "kana": "デイサービス　ショウズンダ",
    "address": "庄川町金屋2833-1",
    "lat": 36.5726247,
    "lng": 136.9865109,
    "tel": "0763-82-7667",
    "url": "",
    "pref": "富山県",
    "city": "砺波市",
    "category": "community_day_service",
    "serviceType": "地域密着型通所介護",
    "capacity": 10,
    "openDays": [
      "平日"
    ],
    "openDaysNote": ""
  },
  {
    "id": "1670800646",
    "name": "デイサービスいろり",
    "kana": "デイサービスイロリ",
    "address": "富山県砺波市五郎丸333番地",
    "lat": 36.6155242,
    "lng": 136.9582905,
    "tel": "0763-32-2369",
    "url": "",
    "pref": "富山県",
    "city": "砺波市",
    "category": "community_day_service",
    "serviceType": "地域密着型通所介護",
    "capacity": 0,
    "openDays": [
      "平日",
      "土曜日",
      "祝日"
    ],
    "openDaysNote": ""
  },
  {
    "id": "1670800539",
    "name": "デイサービスゆずの木",
    "kana": "デイサービスユズノキ",
    "address": "富山県砺波市庄川町高儀新95番地3",
    "lat": 36.5932303,
    "lng": 136.977889,
    "tel": "0763-82-6864",
    "url": "http://www.shogawa.jp/facilities/yuzunoki",
    "pref": "富山県",
    "city": "砺波市",
    "category": "community_day_service",
    "serviceType": "地域密着型通所介護",
    "capacity": 0,
    "openDays": [
      "平日",
      "祝日"
    ],
    "openDaysNote": ""
  },
  {
    "id": "1690800212",
    "name": "のぞみリハビリテーションアカデミー",
    "kana": "ノゾミリハビリテーションアカデミー",
    "address": "富山県砺波市宮丸183-1",
    "lat": 36.6572078,
    "lng": 136.9673614,
    "tel": "0763-58-5826",
    "url": "https：//nozoriha.net",
    "pref": "富山県",
    "city": "砺波市",
    "category": "community_day_service",
    "serviceType": "地域密着型通所介護",
    "capacity": 0,
    "openDays": [
      "平日",
      "土曜日"
    ],
    "openDaysNote": ""
  },
  {
    "id": "1690800238",
    "name": "ものがたりデイサービスセンター",
    "kana": "モノガタリデイサービスセンター",
    "address": "富山県砺波市山王町2番12号",
    "lat": 36.636886,
    "lng": 136.9548065,
    "tel": "0763-55-6224",
    "url": "",
    "pref": "富山県",
    "city": "砺波市",
    "category": "community_day_service",
    "serviceType": "地域密着型通所介護",
    "capacity": 18,
    "openDays": [
      "平日",
      "祝日"
    ],
    "openDaysNote": "お盆、祝日営業"
  },
  {
    "id": "1690800154",
    "name": "リハビリ・デイサービスとなみ",
    "kana": "リハビリ・デイサービストナミ",
    "address": "富山県砺波市本町２－６",
    "lat": 36.638866865693,
    "lng": 136.951881338658,
    "tel": "0763-58-5991",
    "url": "http://www.lifecreate2010.jp",
    "pref": "富山県",
    "city": "砺波市",
    "category": "community_day_service",
    "serviceType": "地域密着型通所介護",
    "capacity": 18,
    "openDays": [
      "平日"
    ],
    "openDaysNote": ""
  },
  {
    "id": "1690800204",
    "name": "一期縁",
    "kana": "イチゴエン",
    "address": "富山県砺波市東石丸30-31",
    "lat": 36.6589683,
    "lng": 136.9795875,
    "tel": "0763-55-6431",
    "url": "",
    "pref": "富山県",
    "city": "砺波市",
    "category": "community_day_service",
    "serviceType": "地域密着型通所介護",
    "capacity": 0,
    "openDays": [
      "平日",
      "祝日"
    ],
    "openDaysNote": ""
  },
  {
    "id": "1670800380",
    "name": "宗教法人善福寺デイサービス聚楽",
    "kana": "シュウキョウホウジンゼンプクジデイサービスジュラク",
    "address": "富山県砺波市東中171番地",
    "lat": 36.662814,
    "lng": 136.9334972,
    "tel": "0763-32-1882",
    "url": "",
    "pref": "富山県",
    "city": "砺波市",
    "category": "community_day_service",
    "serviceType": "地域密着型通所介護",
    "capacity": null,
    "openDays": [
      "平日",
      "土曜日",
      "祝日"
    ],
    "openDaysNote": "特になし"
  },
  {
    "id": "1670800588",
    "name": "砺波地域福祉事業所　大空と大地のぽぴー村",
    "kana": "トナミチイキフクシジギョウショ　オオゾラトダイチノポピームラ",
    "address": "富山県砺波市宮森461",
    "lat": 36.646519,
    "lng": 137.0163442,
    "tel": "0763-37-2280",
    "url": "",
    "pref": "富山県",
    "city": "砺波市",
    "category": "community_day_service",
    "serviceType": "地域密着型通所介護",
    "capacity": null,
    "openDays": [
      "平日",
      "土曜日",
      "祝日"
    ],
    "openDaysNote": ""
  },
  {
    "id": "1670800356",
    "name": "特定非営利活動法人さくらの家矢木",
    "kana": "トクテイヒエイリカツドウホウジンサクラノイエヤギ",
    "address": "矢木86",
    "lat": 36.6348413,
    "lng": 136.9721969,
    "tel": "0763-33-7039",
    "url": "",
    "pref": "富山県",
    "city": "砺波市",
    "category": "community_day_service",
    "serviceType": "地域密着型通所介護",
    "capacity": 0,
    "openDays": [
      "平日",
      "土曜日",
      "祝日"
    ],
    "openDaysNote": ""
  },
  {
    "id": "1690800246",
    "name": "北陸メディカルサービス株式会社　デイサービス福",
    "kana": "ホクリクメディカルサービス　デイサービス　フク",
    "address": "富山県砺波市中央町4番1号",
    "lat": 36.6383948,
    "lng": 136.9545215,
    "tel": "0763-34-7250",
    "url": "https://www.hokuriku-medical.co.jp",
    "pref": "富山県",
    "city": "砺波市",
    "category": "community_day_service",
    "serviceType": "地域密着型通所介護",
    "capacity": 0,
    "openDays": [
      "平日",
      "土曜日",
      "祝日"
    ],
    "openDaysNote": ""
  },
  {
    "id": "1691000200",
    "name": "ケアタウン福野",
    "kana": "ケアタウンフクノ",
    "address": "南砺市柴田屋396-11",
    "lat": 36.5981153,
    "lng": 136.9044685,
    "tel": "0763-58-5632",
    "url": "http://www.caretown-group.com/",
    "pref": "富山県",
    "city": "南砺市",
    "category": "community_day_service",
    "serviceType": "地域密着型通所介護",
    "capacity": null,
    "openDays": [
      "平日",
      "土曜日",
      "祝日"
    ],
    "openDaysNote": ""
  },
  {
    "id": "1671000196",
    "name": "デイサービスセンターにこやかな里。",
    "kana": "デイサービスセンターニコヤカナサト。",
    "address": "富山県南砺市福野1466-1",
    "lat": 36.589299,
    "lng": 136.924591,
    "tel": "0763-23-3811",
    "url": "",
    "pref": "富山県",
    "city": "南砺市",
    "category": "community_day_service",
    "serviceType": "地域密着型通所介護",
    "capacity": 12,
    "openDays": [
      "平日",
      "土曜日",
      "祝日"
    ],
    "openDaysNote": "職員の調整により、祝日を休業することもあります。"
  },
  {
    "id": "1671000212",
    "name": "デイサービス母笑夢",
    "kana": "デイサービス　ポエム",
    "address": "南砺市遊部川原53番",
    "lat": 36.5690284,
    "lng": 136.8777152,
    "tel": "０７６３－５２－７５５５",
    "url": "http：//poem.webes.jp",
    "pref": "富山県",
    "city": "南砺市",
    "category": "community_day_service",
    "serviceType": "地域密着型通所介護",
    "capacity": 0,
    "openDays": [
      "平日",
      "土曜日",
      "祝日"
    ],
    "openDaysNote": "その他、ゴールデンウィーク、シルバーウイークなど特別休暇ある場合あり"
  },
  {
    "id": "1671000014",
    "name": "牛田接骨院デイサービス結",
    "kana": "ウシダセッコツインデイサービスユイ",
    "address": "富山県南砺市中ノ江106-3",
    "lat": 36.5649673,
    "lng": 136.8625362,
    "tel": "0763-52-4686",
    "url": "http://yui.sakura-system.com/",
    "pref": "富山県",
    "city": "南砺市",
    "category": "community_day_service",
    "serviceType": "地域密着型通所介護",
    "capacity": 15,
    "openDays": [
      "平日",
      "祝日"
    ],
    "openDaysNote": ""
  },
  {
    "id": "1671000279",
    "name": "南砺市上平デイサービスセンター",
    "kana": "ナントシカミタイラデイサービスセンター",
    "address": "富山県南砺市上平細嶋１１１２番地",
    "lat": 36.4021148,
    "lng": 136.901405,
    "tel": "０７６３－６７－３００３",
    "url": "http//www.nanto-shakyo.jp/wwwindex.jsp",
    "pref": "富山県",
    "city": "南砺市",
    "category": "community_day_service",
    "serviceType": "地域密着型通所介護",
    "capacity": 18,
    "openDays": [
      "平日"
    ],
    "openDaysNote": ""
  },
  {
    "id": "1671000287",
    "name": "南砺市利賀高齢者生活福祉センターネイトピア喜楽利賀デイサービスセンター",
    "kana": "ナントシトガコウレイシャセイカツフクシセンターネイトピアキラクトガデイサービスセンター",
    "address": "富山県南砺市利賀村百瀬川313",
    "lat": 36.4579126,
    "lng": 137.0416663,
    "tel": "0763-68-2316",
    "url": "http://www.nanto-shakyo.jp/www/index.jsp",
    "pref": "富山県",
    "city": "南砺市",
    "category": "community_day_service",
    "serviceType": "地域密着型通所介護",
    "capacity": 10,
    "openDays": [
      "平日"
    ],
    "openDaysNote": ""
  },
  {
    "id": "1671000295",
    "name": "平高齢者生活福祉センターつつじ荘　平デイサービスセンター",
    "kana": "タイラコウレイシャセイカツフクシセンター　ツツジソウタイラデイサービスセンター",
    "address": "富山県南砺市大崩島１００番地",
    "lat": 36.4550752,
    "lng": 136.9764788,
    "tel": "763662866",
    "url": "http//www.nanto-shakyo.jp/wwwindex.jsp",
    "pref": "富山県",
    "city": "南砺市",
    "category": "community_day_service",
    "serviceType": "地域密着型通所介護",
    "capacity": null,
    "openDays": [
      "平日"
    ],
    "openDaysNote": ""
  },
  {
    "id": "1691700254",
    "name": "CHA　CHA　CHA",
    "kana": "チャ　チャ　チャ",
    "address": "富山県下新川郡入善町青木290番地",
    "lat": 36.9226687,
    "lng": 137.4828704,
    "tel": "0765－32－3457",
    "url": "",
    "pref": "富山県",
    "city": "入善町",
    "category": "community_day_service",
    "serviceType": "地域密着型通所介護",
    "capacity": 0,
    "openDays": [
      "平日",
      "祝日"
    ],
    "openDaysNote": ""
  },
  {
    "id": "1671700498",
    "name": "でいさーびすかすがのさと",
    "kana": "デイサービス春日ノ郷",
    "address": "春日４５０－２",
    "lat": 36.953157,
    "lng": 137.5263413,
    "tel": "0765－74－2581",
    "url": "",
    "pref": "富山県",
    "city": "入善町",
    "category": "community_day_service",
    "serviceType": "地域密着型通所介護",
    "capacity": 10,
    "openDays": [
      "平日",
      "祝日"
    ],
    "openDaysNote": ""
  },
  {
    "id": "1691700247",
    "name": "デイサービスセンター木ここち",
    "kana": "デイサービスセンターキココチ",
    "address": "富山県下新川郡入善町青島402-7",
    "lat": 36.9272679,
    "lng": 137.5103739,
    "tel": "0765-74-2295",
    "url": "http://www.sasayaki.org",
    "pref": "富山県",
    "city": "入善町",
    "category": "community_day_service",
    "serviceType": "地域密着型通所介護",
    "capacity": 0,
    "openDays": [
      "平日",
      "祝日"
    ],
    "openDaysNote": ""
  },
  {
    "id": "1691700387",
    "name": "デイサービス雅　春日の郷",
    "kana": "デイサービスミヤビ　カスガノサト",
    "address": "富山県下新川郡入善町春日450-2",
    "lat": 36.9530629,
    "lng": 137.5263426,
    "tel": "0765-74-2581",
    "url": "https://www.miyabi-qol.com",
    "pref": "富山県",
    "city": "入善町",
    "category": "community_day_service",
    "serviceType": "地域密着型通所介護",
    "capacity": null,
    "openDays": [
      "平日",
      "祝日"
    ],
    "openDaysNote": ""
  },
  {
    "id": "1691700312",
    "name": "デイサービス樹",
    "kana": "デイサービスイツキ",
    "address": "富山県下新川郡入善町横山842-1",
    "lat": 36.9547035,
    "lng": 137.5132294,
    "tel": "0765-32-5682",
    "url": "",
    "pref": "富山県",
    "city": "入善町",
    "category": "community_day_service",
    "serviceType": "地域密着型通所介護",
    "capacity": 18,
    "openDays": [
      "平日",
      "土曜日",
      "祝日"
    ],
    "openDaysNote": ""
  },
  {
    "id": "1671700480",
    "name": "富山型デイサービスはまなす",
    "kana": "トヤマガタデイサービスハマナス",
    "address": "富山県下新川郡入善町芦崎347-4",
    "lat": 36.9244002,
    "lng": 137.4305706,
    "tel": "0765-76-0630",
    "url": "",
    "pref": "富山県",
    "city": "入善町",
    "category": "community_day_service",
    "serviceType": "地域密着型通所介護",
    "capacity": 0,
    "openDays": [
      "平日",
      "祝日"
    ],
    "openDaysNote": "大型連休時など臨時休業有"
  },
  {
    "id": "1670500501",
    "name": "デイサービス　マザーハウス・ひみ",
    "kana": "デイサービス　マザーハウス・ヒミ",
    "address": "富山県氷見市指崎１４８４番地デイサービス　マザーハウス・ひみ デイサービス　マザーハウス・ひみ",
    "lat": 36.8924593,
    "lng": 136.9767775,
    "tel": "０７６６－７４－１１１２",
    "url": "http://www.kyuhachi.com",
    "pref": "富山県",
    "city": "氷見市",
    "category": "community_day_service",
    "serviceType": "地域密着型通所介護",
    "capacity": 10,
    "openDays": [
      "平日",
      "祝日"
    ],
    "openDaysNote": ""
  },
  {
    "id": "1670500642",
    "name": "デイサービス　灯",
    "kana": "デイサービスアカリ",
    "address": "富山県氷見市惣領１４７６番地",
    "lat": 36.8018718,
    "lng": 136.9454032,
    "tel": "0766-91-1815",
    "url": "",
    "pref": "富山県",
    "city": "氷見市",
    "category": "community_day_service",
    "serviceType": "地域密着型通所介護",
    "capacity": 0,
    "openDays": [
      "平日",
      "祝日"
    ],
    "openDaysNote": ""
  },
  {
    "id": "1670500659",
    "name": "デイサービスきらく",
    "kana": "デイサービスキラク",
    "address": "稲積　254番地",
    "lat": 36.8786444,
    "lng": 136.9678957,
    "tel": "0766-54-0450",
    "url": "day-kiraku.com",
    "pref": "富山県",
    "city": "氷見市",
    "category": "community_day_service",
    "serviceType": "地域密着型通所介護",
    "capacity": null,
    "openDays": [
      "平日",
      "祝日"
    ],
    "openDaysNote": "お盆（8/15.16）（改行）お正月（12/31～1/3）休み"
  },
  {
    "id": "1670500352",
    "name": "デイサービスわかば",
    "kana": "デイサービスワカバ",
    "address": "富山県氷見市稲積1862番地",
    "lat": 36.8757367,
    "lng": 136.9762534,
    "tel": "０７６６－７２－１５１０",
    "url": "http://www.toyamagata.com/wakaba/",
    "pref": "富山県",
    "city": "氷見市",
    "category": "community_day_service",
    "serviceType": "地域密着型通所介護",
    "capacity": 10,
    "openDays": [
      "平日",
      "土曜日",
      "祝日"
    ],
    "openDaysNote": ""
  },
  {
    "id": "1670500691",
    "name": "ディサービス宙の家",
    "kana": "ディサービス　ソラノウチ",
    "address": "富山県氷見市島尾６６１番地７",
    "lat": 36.8247429,
    "lng": 137.0100179,
    "tel": "0766-92-6203",
    "url": "http://hyumax.jp/",
    "pref": "富山県",
    "city": "氷見市",
    "category": "community_day_service",
    "serviceType": "地域密着型通所介護",
    "capacity": 0,
    "openDays": [
      "平日"
    ],
    "openDaysNote": ""
  },
  {
    "id": "1690500200",
    "name": "みんなの家のどか",
    "kana": "ミンナノイエノドカ",
    "address": "富山県氷見市中村485番地1",
    "lat": 36.8668494,
    "lng": 136.9338455,
    "tel": "0766-73-6321",
    "url": "http://toyamagata.com/nodoka/",
    "pref": "富山県",
    "city": "氷見市",
    "category": "community_day_service",
    "serviceType": "地域密着型通所介護",
    "capacity": 0,
    "openDays": [
      "平日",
      "祝日"
    ],
    "openDaysNote": "通常のサービス提供時間は9時～17時。上記の時間内での延長利用可能。"
  },
  {
    "id": "1670500147",
    "name": "社会福祉法人　氷見市社会福祉協議会",
    "kana": "シャカイフクシホウジン　ヒミシシャカイフクシキョウギカイ",
    "address": "富山県氷見市鞍川967",
    "lat": 36.8553729,
    "lng": 136.974046,
    "tel": "0766-74-8400",
    "url": "http://www.hi-ho.ne.jp/syakyo-himi",
    "pref": "富山県",
    "city": "氷見市",
    "category": "community_day_service",
    "serviceType": "地域密着型通所介護",
    "capacity": null,
    "openDays": [
      "平日",
      "土曜日",
      "祝日"
    ],
    "openDaysNote": "８月１４日から１６日及び１２月２９日から翌年１月３日を除く。"
  },
  {
    "id": "1670500410",
    "name": "氷見市障害者福祉センター我家",
    "kana": "ヒミシショウガイシャフクシセンターワギエ",
    "address": "富山県氷見市幸町34番13号",
    "lat": 36.8565173,
    "lng": 136.9773428,
    "tel": "0766-74-0334",
    "url": "http://www.himi-shakyo.jp/",
    "pref": "富山県",
    "city": "氷見市",
    "category": "community_day_service",
    "serviceType": "地域密着型通所介護",
    "capacity": 0,
    "openDays": [
      "平日",
      "祝日"
    ],
    "openDaysNote": "但し、8月14日～16日、12月29日～1月3日は休み"
  },
  {
    "id": "1690101579",
    "name": "Coco楽笑デイサービス",
    "kana": "ココラクショウデイサービス",
    "address": "富山県富山市蓮町４丁目6-3Coco楽笑 Coco楽笑",
    "lat": 36.7412944,
    "lng": 137.2314585,
    "tel": "076-411-7020",
    "url": "",
    "pref": "富山県",
    "city": "富山市",
    "category": "community_day_service",
    "serviceType": "地域密着型通所介護",
    "capacity": null,
    "openDays": [
      "平日",
      "祝日"
    ],
    "openDaysNote": ""
  },
  {
    "id": "1690101074",
    "name": "ＭＡＸ２１",
    "kana": "マックストゥウェンティワンマックストゥウェンティワン",
    "address": "富山県富山市千石町２－８－２コスモビル１階 コスモビル１階",
    "lat": 36.6865281,
    "lng": 137.2089002,
    "tel": "０７６－４６１－４５２１",
    "url": "http://www.max-21.co.jp",
    "pref": "富山県",
    "city": "富山市",
    "category": "community_day_service",
    "serviceType": "地域密着型通所介護",
    "capacity": 0,
    "openDays": [
      "平日",
      "祝日"
    ],
    "openDaysNote": "サービス提供時間（改行）9時～12時　（改行）13時30分～16時30分"
  },
  {
    "id": "1690101520",
    "name": "アイクリエーション株式会社",
    "kana": "アイクリエーションカブシキガイシャ",
    "address": "富山県富山市上冨居三丁目１２番３４号",
    "lat": 36.7062919,
    "lng": 137.2435199,
    "tel": "076-471-0860",
    "url": "",
    "pref": "富山県",
    "city": "富山市",
    "category": "community_day_service",
    "serviceType": "地域密着型通所介護",
    "capacity": null,
    "openDays": [
      "平日"
    ],
    "openDaysNote": "１単位目　8:30～13:00（改行）２単位目　13:00～17:30"
  },
  {
    "id": "1670103256",
    "name": "ありがとうの家",
    "kana": "アリガトウノイエ",
    "address": "富山市堀川小泉町１－１４－１４",
    "lat": 36.676591,
    "lng": 137.2199076,
    "tel": "076-424-0898",
    "url": "arigatou-toyama.com",
    "pref": "富山県",
    "city": "富山市",
    "category": "community_day_service",
    "serviceType": "地域密着型通所介護",
    "capacity": 10,
    "openDays": [
      "平日",
      "土曜日",
      "祝日"
    ],
    "openDaysNote": ""
  },
  {
    "id": "1670112398",
    "name": "ありがとうホーム西田地方",
    "kana": "アリガトウホームニシデンジガタ",
    "address": "富山県長柄町3-6-6",
    "lat": 36.6852077,
    "lng": 137.2051149,
    "tel": "076-423-1766",
    "url": "arigato-home.com",
    "pref": "富山県",
    "city": "富山市",
    "category": "community_day_service",
    "serviceType": "地域密着型通所介護",
    "capacity": 0,
    "openDays": [
      "平日",
      "土曜日",
      "祝日"
    ],
    "openDaysNote": ""
  },
  {
    "id": "1670104106",
    "name": "ありみね",
    "kana": "アリミネ",
    "address": "富山県富山市亀谷３５０－１３",
    "lat": 36.5656844,
    "lng": 137.3908389,
    "tel": "076-482-1227",
    "url": "",
    "pref": "富山県",
    "city": "富山市",
    "category": "community_day_service",
    "serviceType": "地域密着型通所介護",
    "capacity": null,
    "openDays": [
      "平日",
      "土曜日",
      "祝日"
    ],
    "openDaysNote": ""
  },
  {
    "id": "1690101314",
    "name": "オークスリハプライド荏原",
    "kana": "オークスリハプライドエバラ",
    "address": "富山県富山市向新庄214",
    "lat": 36.6961511,
    "lng": 137.2659422,
    "tel": "076-425-2234",
    "url": "http://www.rehapride.co.jp",
    "pref": "富山県",
    "city": "富山市",
    "category": "community_day_service",
    "serviceType": "地域密着型通所介護",
    "capacity": 150,
    "openDays": [
      "平日",
      "祝日"
    ],
    "openDaysNote": ""
  },
  {
    "id": "1690101124",
    "name": "オークスリハプライド下冨居",
    "kana": "オークスリハプライドシモフゴ",
    "address": "下冨居1-10-35同上 同上",
    "lat": 36.721585,
    "lng": 137.23881,
    "tel": "076-441-4234",
    "url": "www.oarkｓ.co.jp",
    "pref": "富山県",
    "city": "富山市",
    "category": "community_day_service",
    "serviceType": "地域密着型通所介護",
    "capacity": 90,
    "openDays": [
      "平日",
      "祝日"
    ],
    "openDaysNote": ""
  },
  {
    "id": "1670104528",
    "name": "かぶしきがいしゃとやまのたいよう",
    "kana": "株式会社トヤマノ太陽",
    "address": "富山県富山市上野902",
    "lat": 36.6365543,
    "lng": 137.2187313,
    "tel": "764118666",
    "url": "",
    "pref": "富山県",
    "city": "富山市",
    "category": "community_day_service",
    "serviceType": "地域密着型通所介護",
    "capacity": 10,
    "openDays": [
      "平日"
    ],
    "openDaysNote": ""
  },
  {
    "id": "1690101348",
    "name": "けあさぽーと・まき　わごう",
    "kana": "ケアサポート・マキ　和合",
    "address": "富山県富山市金山新東13-3",
    "lat": 36.7426874,
    "lng": 137.2115622,
    "tel": "076-407-5717",
    "url": "care-net.biz/16/care-maki/",
    "pref": "富山県",
    "city": "富山市",
    "category": "community_day_service",
    "serviceType": "地域密着型通所介護",
    "capacity": 10,
    "openDays": [
      "平日",
      "土曜日",
      "祝日"
    ],
    "openDaysNote": ""
  },
  {
    "id": "1690101405",
    "name": "ケアサポート・まき　速星",
    "kana": "ケアサポート・マキ　ハヤホシ",
    "address": "富山県富山市婦中町笹倉133-1",
    "lat": 36.6595656,
    "lng": 137.1531231,
    "tel": "076-407-5515",
    "url": "http://care-net.biz/16/care-maki/",
    "pref": "富山県",
    "city": "富山市",
    "category": "community_day_service",
    "serviceType": "地域密着型通所介護",
    "capacity": 100,
    "openDays": [
      "平日",
      "祝日"
    ],
    "openDaysNote": ""
  },
  {
    "id": "1670112455",
    "name": "ケアサポート・まき　北代",
    "kana": "ケアサポート・マキキタダイ",
    "address": "富山市北代4331-4",
    "lat": 36.7133826054163,
    "lng": 137.181066735857,
    "tel": "０７６－４３４－８０６６",
    "url": "http://care-net.biz/16/care-maki",
    "pref": "富山県",
    "city": "富山市",
    "category": "community_day_service",
    "serviceType": "地域密着型通所介護",
    "capacity": 18,
    "openDays": [
      "平日",
      "土曜日",
      "祝日"
    ],
    "openDaysNote": ""
  },
  {
    "id": "1690101264",
    "name": "さくらデイサービス石坂",
    "kana": "サクラデイサービスイシサカ",
    "address": "富山県富山市石坂3322-1",
    "lat": 36.7171279641158,
    "lng": 137.20028613111,
    "tel": "076-482-3062",
    "url": "https://if-d.net",
    "pref": "富山県",
    "city": "富山市",
    "category": "community_day_service",
    "serviceType": "地域密着型通所介護",
    "capacity": 0,
    "openDays": [
      "平日",
      "土曜日",
      "祝日"
    ],
    "openDaysNote": ""
  },
  {
    "id": "1670102860",
    "name": "ちゅらさんデイサービスセンター",
    "kana": "チュラサンデイサービスセンター",
    "address": "富山県富山市上袋712",
    "lat": 36.6610149,
    "lng": 137.2078652,
    "tel": "076-494-8281",
    "url": "http://www.churasan.jp/",
    "pref": "富山県",
    "city": "富山市",
    "category": "community_day_service",
    "serviceType": "地域密着型通所介護",
    "capacity": null,
    "openDays": [
      "平日",
      "土曜日"
    ],
    "openDaysNote": "事情により営業することがある"
  },
  {
    "id": "1690101033",
    "name": "デイケアセンター　B3-care",
    "kana": "デイケアセンター　ビー・スリー・ケア",
    "address": "辰巳町2-6-2",
    "lat": 36.685411185965,
    "lng": 137.221636530247,
    "tel": "076-422-7556",
    "url": "",
    "pref": "富山県",
    "city": "富山市",
    "category": "community_day_service",
    "serviceType": "地域密着型通所介護",
    "capacity": 30,
    "openDays": [
      "平日",
      "土曜日"
    ],
    "openDaysNote": ""
  },
  {
    "id": "1670102241",
    "name": "デイケアハウスにぎやか",
    "kana": "デイケアハウスニギヤカ",
    "address": "富山県富山市綾田町一丁目１０番１８号",
    "lat": 36.7021515,
    "lng": 137.2351411,
    "tel": "076-431-0466",
    "url": "www.nigiyaka.net",
    "pref": "富山県",
    "city": "富山市",
    "category": "community_day_service",
    "serviceType": "地域密着型通所介護",
    "capacity": 0,
    "openDays": [
      "平日",
      "土曜日",
      "日曜日",
      "祝日"
    ],
    "openDaysNote": "管理者が必要と認める場合は、営業日の変更または臨時に休業することができるものとする。"
  },
  {
    "id": "1690101488",
    "name": "デイサービス　ＡＰサロン",
    "kana": "デイサービス　エーピーサロン",
    "address": "富山県富山市上袋100番地68",
    "lat": 36.6607657,
    "lng": 137.2116957,
    "tel": "076-461-6763",
    "url": "",
    "pref": "富山県",
    "city": "富山市",
    "category": "community_day_service",
    "serviceType": "地域密着型通所介護",
    "capacity": null,
    "openDays": [
      "平日",
      "土曜日",
      "日曜日",
      "祝日"
    ],
    "openDaysNote": ""
  },
  {
    "id": "1670112133",
    "name": "デイサービス　かみだき",
    "kana": "デイサービス　カミダキ",
    "address": "富山県富山市中滝313-7",
    "lat": 36.6093155,
    "lng": 137.2979878,
    "tel": "076-483-1288",
    "url": "https://www.instagram.com/dskamidaki/",
    "pref": "富山県",
    "city": "富山市",
    "category": "community_day_service",
    "serviceType": "地域密着型通所介護",
    "capacity": 5,
    "openDays": [
      "平日",
      "土曜日"
    ],
    "openDaysNote": ""
  },
  {
    "id": "1670100351",
    "name": "デイサービス　このゆびとーまれ",
    "kana": "デイサービス　コノユビトーマレ",
    "address": "富山県富山市富岡町３５５番地",
    "lat": 36.6945865,
    "lng": 137.2622923,
    "tel": "076-493-0765",
    "url": "http://www.geocities.jp/kono_yubi/",
    "pref": "富山県",
    "city": "富山市",
    "category": "community_day_service",
    "serviceType": "地域密着型通所介護",
    "capacity": 0,
    "openDays": [
      "平日",
      "土曜日",
      "日曜日",
      "祝日"
    ],
    "openDaysNote": "延長サービス可能提供時間（改行）午前８時～午前９時（改行）午後１７時３０～１８時３０分"
  },
  {
    "id": "1670102779",
    "name": "デイサービス　このゆびとーまれ茶屋",
    "kana": "デイサービス　コノユビトーマレチャヤ",
    "address": "富山市茶屋町441番地3",
    "lat": 36.7065023,
    "lng": 137.1788341,
    "tel": "076-427-0720",
    "url": "http://www.geocities.jp/kono_yubi/",
    "pref": "富山県",
    "city": "富山市",
    "category": "community_day_service",
    "serviceType": "地域密着型通所介護",
    "capacity": 0,
    "openDays": [
      "平日",
      "土曜日",
      "日曜日",
      "祝日"
    ],
    "openDaysNote": ""
  },
  {
    "id": "1690101231",
    "name": "デイサービス　ひとと樹",
    "kana": "デイサービス　ヒトトキ",
    "address": "富山県富山市町村69-1",
    "lat": 36.6836165,
    "lng": 137.2522105,
    "tel": "（076）461-6970",
    "url": "",
    "pref": "富山県",
    "city": "富山市",
    "category": "community_day_service",
    "serviceType": "地域密着型通所介護",
    "capacity": 18,
    "openDays": [
      "平日",
      "祝日"
    ],
    "openDaysNote": ""
  },
  {
    "id": "1670102415",
    "name": "デイサービス　まめの木",
    "kana": "デイサービス　マメノキ",
    "address": "富山県富山市町袋１２８－１",
    "lat": 36.7339213,
    "lng": 137.2817005,
    "tel": "076-451-5251",
    "url": "http://dsmamenoki.exblog.jp",
    "pref": "富山県",
    "city": "富山市",
    "category": "community_day_service",
    "serviceType": "地域密着型通所介護",
    "capacity": 0,
    "openDays": [
      "平日",
      "土曜日",
      "祝日"
    ],
    "openDaysNote": ""
  },
  {
    "id": "1690101637",
    "name": "デイサービス　むつみの里",
    "kana": "デイサービス　ムツミノサト",
    "address": "富山県富山市月岡町２丁目１８９番地",
    "lat": 36.6245458,
    "lng": 137.263946,
    "tel": "076-428-3600",
    "url": "https://tsukioka.mutsumi-gr.jp/",
    "pref": "富山県",
    "city": "富山市",
    "category": "community_day_service",
    "serviceType": "地域密着型通所介護",
    "capacity": 0,
    "openDays": [
      "平日",
      "土曜日",
      "日曜日",
      "祝日"
    ],
    "openDaysNote": "年末年始（12/29～1/3）休み"
  },
  {
    "id": "1670112562",
    "name": "デイサービス　ゆずり葉",
    "kana": "デイサービスユズリハ",
    "address": "中市２丁目８番４１号",
    "lat": 36.678252,
    "lng": 137.2380309,
    "tel": "０７６－４６１－５２６０",
    "url": "",
    "pref": "富山県",
    "city": "富山市",
    "category": "community_day_service",
    "serviceType": "地域密着型通所介護",
    "capacity": 0,
    "openDays": [
      "平日",
      "土曜日",
      "祝日"
    ],
    "openDaysNote": ""
  },
  {
    "id": "1670103587",
    "name": "デイサービス　よつばのクローバー",
    "kana": "デイサービス　ヨツバノクローバー",
    "address": "本郷中部440",
    "lat": 36.7289601,
    "lng": 137.1527992,
    "tel": "076-436-3339",
    "url": "",
    "pref": "富山県",
    "city": "富山市",
    "category": "community_day_service",
    "serviceType": "地域密着型通所介護",
    "capacity": 0,
    "openDays": [
      "平日",
      "土曜日",
      "祝日"
    ],
    "openDaysNote": "営業時間外でも、希望があれば延長対応している"
  },
  {
    "id": "1690100928",
    "name": "デイサービス　ラ・サンテ",
    "kana": "デイサービス　ラ・サンテ",
    "address": "富山県富山市長江新町３丁目９番１８号",
    "lat": 36.6895565978482,
    "lng": 137.24655116151,
    "tel": "076-424-3103",
    "url": "http://www.tulipen.jp/",
    "pref": "富山県",
    "city": "富山市",
    "category": "community_day_service",
    "serviceType": "地域密着型通所介護",
    "capacity": 0,
    "openDays": [
      "平日",
      "土曜日",
      "祝日"
    ],
    "openDaysNote": "サービス提供時間　９時～１６時"
  },
  {
    "id": "1670111499",
    "name": "デイサービス　希望のみち",
    "kana": "デイサービス　キボウノミチ",
    "address": "富山県富山市高屋敷597番地1",
    "lat": 36.6700592262585,
    "lng": 137.24600013373,
    "tel": "076-407-0311",
    "url": "http://kibounomiti9.webnode.jp/",
    "pref": "富山県",
    "city": "富山市",
    "category": "community_day_service",
    "serviceType": "地域密着型通所介護",
    "capacity": 18,
    "openDays": [
      "平日",
      "土曜日",
      "日曜日",
      "祝日"
    ],
    "openDaysNote": "災害等の非常時や社内研修等で休業することもあり。"
  },
  {
    "id": "1670113164",
    "name": "デイサービス・カルム",
    "kana": "デイサービス・カルム",
    "address": "寺町９番１",
    "lat": 36.6938831324689,
    "lng": 137.17091494144,
    "tel": "076-471-7972",
    "url": "",
    "pref": "富山県",
    "city": "富山市",
    "category": "community_day_service",
    "serviceType": "地域密着型通所介護",
    "capacity": 0,
    "openDays": [
      "平日",
      "祝日"
    ],
    "openDaysNote": "お盆、年末年始の休暇は当事業所カレンダーによる。"
  },
  {
    "id": "1670113586",
    "name": "デイサービス＆フィットネスRE-SH",
    "kana": "デイサービスアンドフィットネスリッシュ",
    "address": "富山県富山市稲荷元町2-6-15開草ビル1F 開草ビル1F",
    "lat": 36.6967247,
    "lng": 137.2279358,
    "tel": "076-432-6770",
    "url": "http://www.re-sh.com",
    "pref": "富山県",
    "city": "富山市",
    "category": "community_day_service",
    "serviceType": "地域密着型通所介護",
    "capacity": null,
    "openDays": [
      "平日",
      "土曜日"
    ],
    "openDaysNote": ""
  },
  {
    "id": "1670103934",
    "name": "デイサービスありがた家",
    "kana": "デイサービスアリガタヤ",
    "address": "富山県富山市八尾町福島三丁目７９",
    "lat": 36.5909829,
    "lng": 137.1426227,
    "tel": "076-455-8339",
    "url": "http://www.toyamagata.com/arigatay/index.html",
    "pref": "富山県",
    "city": "富山市",
    "category": "community_day_service",
    "serviceType": "地域密着型通所介護",
    "capacity": 10,
    "openDays": [
      "平日",
      "土曜日",
      "祝日"
    ],
    "openDaysNote": ""
  },
  {
    "id": "1690101587",
    "name": "デイサービスあんじゅ",
    "kana": "デイサービスアンジュ",
    "address": "富山県富山市大島2丁目596－19",
    "lat": 36.6725886,
    "lng": 137.2733287,
    "tel": "076-461-4568",
    "url": "",
    "pref": "富山県",
    "city": "富山市",
    "category": "community_day_service",
    "serviceType": "地域密着型通所介護",
    "capacity": 0,
    "openDays": [
      "平日",
      "土曜日",
      "祝日"
    ],
    "openDaysNote": "急な天候不良や感染症の流行により変更があります。"
  },
  {
    "id": "1670112208",
    "name": "デイサービスいずみ",
    "kana": "デイサービスイズミ",
    "address": "富山県富山市西大泉2-2",
    "lat": 36.6813543,
    "lng": 137.2235819,
    "tel": "076-492-3833",
    "url": "http://izumi-ds.mond.jp/home/",
    "pref": "富山県",
    "city": "富山市",
    "category": "community_day_service",
    "serviceType": "地域密着型通所介護",
    "capacity": 0,
    "openDays": [
      "平日",
      "土曜日"
    ],
    "openDaysNote": ""
  },
  {
    "id": "1690101447",
    "name": "デイサービスきたえるーむ富山奥田",
    "kana": "デイサービスキタエルームトヤマオクダ",
    "address": "富山県富山市下新本町3番17号",
    "lat": 36.7160143,
    "lng": 137.219321,
    "tel": "076-439-3002",
    "url": "http://www.shoei-welfare.net/",
    "pref": "富山県",
    "city": "富山市",
    "category": "community_day_service",
    "serviceType": "地域密着型通所介護",
    "capacity": 18,
    "openDays": [
      "平日",
      "土曜日"
    ],
    "openDaysNote": ""
  },
  {
    "id": "1670113008",
    "name": "デイサービスきりん",
    "kana": "デイサービスキリン",
    "address": "富山県富山市中川原　105-4",
    "lat": 36.6756858,
    "lng": 137.2441916,
    "tel": "076-461-5481",
    "url": "",
    "pref": "富山県",
    "city": "富山市",
    "category": "community_day_service",
    "serviceType": "地域密着型通所介護",
    "capacity": 10,
    "openDays": [
      "平日",
      "土曜日",
      "祝日"
    ],
    "openDaysNote": ""
  },
  {
    "id": "1670102472",
    "name": "でいさーびすさいさい",
    "kana": "デイサービスサイサイ",
    "address": "富山県富山市金屋2332",
    "lat": 36.6914793,
    "lng": 137.1670385,
    "tel": "076-405-1510",
    "url": "https://www.riunen.com",
    "pref": "富山県",
    "city": "富山市",
    "category": "community_day_service",
    "serviceType": "地域密着型通所介護",
    "capacity": null,
    "openDays": [
      "平日",
      "土曜日",
      "祝日"
    ],
    "openDaysNote": "特になし"
  },
  {
    "id": "1670104791",
    "name": "デイサービスしあわせ",
    "kana": "デイサービス　シアワセ",
    "address": "富山県富山市堀川町8番地",
    "lat": 36.6598506,
    "lng": 137.224284,
    "tel": "076-482-6685",
    "url": "http://shiawase.yamanoha.com/company/index.html",
    "pref": "富山県",
    "city": "富山市",
    "category": "community_day_service",
    "serviceType": "地域密着型通所介護",
    "capacity": null,
    "openDays": [
      "平日",
      "土曜日",
      "祝日"
    ],
    "openDaysNote": ""
  },
  {
    "id": "1670100369",
    "name": "デイサービスしおんの家",
    "kana": "デイサービスシオンノイエ",
    "address": "富山県富山市水橋辻ヶ堂777",
    "lat": 36.7539781,
    "lng": 137.2954485,
    "tel": "076-479-0675",
    "url": "http://www.toyamagata.com/sionnoie",
    "pref": "富山県",
    "city": "富山市",
    "category": "community_day_service",
    "serviceType": "地域密着型通所介護",
    "capacity": null,
    "openDays": [
      "平日",
      "土曜日",
      "日曜日",
      "祝日"
    ],
    "openDaysNote": "年中無休で、上記営業時間外も柔軟に対応いたします。"
  },
  {
    "id": "1670112711",
    "name": "デイサービスセンターつながり",
    "kana": "デイサービスセンターツナガリ",
    "address": "富山県富山市岩瀬天神町２２１",
    "lat": 36.7631758,
    "lng": 137.2335985,
    "tel": "076-438-5686",
    "url": "",
    "pref": "富山県",
    "city": "富山市",
    "category": "community_day_service",
    "serviceType": "地域密着型通所介護",
    "capacity": 0,
    "openDays": [
      "平日",
      "土曜日",
      "祝日"
    ],
    "openDaysNote": "ゴールデンウイーク、お盆に休業することあり"
  },
  {
    "id": "1670101631",
    "name": "デイサービスセンターまる～な",
    "kana": "デイサービスセンターマル～ナ",
    "address": "富山市開発223",
    "lat": 36.6288803,
    "lng": 137.2471206,
    "tel": "076-429-3256",
    "url": "www.toyamaken-coop.or.jp",
    "pref": "富山県",
    "city": "富山市",
    "category": "community_day_service",
    "serviceType": "地域密着型通所介護",
    "capacity": 18,
    "openDays": [
      "平日",
      "土曜日",
      "祝日"
    ],
    "openDaysNote": ""
  },
  {
    "id": "1690101546",
    "name": "デイサービスセンターゆいゆい",
    "kana": "デイサービスセンターユイユイ",
    "address": "富山市婦中町中名９０３番地３３",
    "lat": 36.6444405,
    "lng": 137.1669241,
    "tel": "076-465-1218",
    "url": "",
    "pref": "富山県",
    "city": "富山市",
    "category": "community_day_service",
    "serviceType": "地域密着型通所介護",
    "capacity": null,
    "openDays": [
      "平日",
      "土曜日"
    ],
    "openDaysNote": ""
  },
  {
    "id": "1670103371",
    "name": "デイサービスセンター喜文",
    "kana": "デイサービスセンターキブン",
    "address": "富山市大泉町一丁目２番１３号",
    "lat": 36.6822569,
    "lng": 137.2219432,
    "tel": "076-491-2638",
    "url": "https://www.instagram.com/dsckibun/",
    "pref": "富山県",
    "city": "富山市",
    "category": "community_day_service",
    "serviceType": "地域密着型通所介護",
    "capacity": 10,
    "openDays": [
      "平日"
    ],
    "openDaysNote": ""
  },
  {
    "id": "1670102043",
    "name": "デイサービスひより鵜坂",
    "kana": "デイサービスヒヨリウサカ",
    "address": "富山市婦中町鵜坂139",
    "lat": 36.6756541,
    "lng": 137.1874339,
    "tel": "076-461-3497",
    "url": "http://www.toyama-hiyori.jp/",
    "pref": "富山県",
    "city": "富山市",
    "category": "community_day_service",
    "serviceType": "地域密着型通所介護",
    "capacity": null,
    "openDays": [
      "平日",
      "土曜日",
      "祝日"
    ],
    "openDaysNote": ""
  },
  {
    "id": "1690101363",
    "name": "デイサービスふうりん",
    "kana": "デイサービスフウリン",
    "address": "富山県富山市下堀５１番１号",
    "lat": 36.6612345675835,
    "lng": 137.226285200343,
    "tel": "076-464-3735",
    "url": "",
    "pref": "富山県",
    "city": "富山市",
    "category": "community_day_service",
    "serviceType": "地域密着型通所介護",
    "capacity": 0,
    "openDays": [
      "平日",
      "祝日"
    ],
    "openDaysNote": ""
  },
  {
    "id": "1690101397",
    "name": "デイサービスふくふく",
    "kana": "デイサービスフクフク",
    "address": "富山県富山市月岡町4丁目171-1",
    "lat": 36.6241954205645,
    "lng": 137.2546746,
    "tel": "076-461-7645",
    "url": "http://www.fukufuku-p.com/",
    "pref": "富山県",
    "city": "富山市",
    "category": "community_day_service",
    "serviceType": "地域密着型通所介護",
    "capacity": 0,
    "openDays": [
      "平日",
      "土曜日",
      "祝日"
    ],
    "openDaysNote": "お盆休みと年末年始の休みをいただいている。（その年により休み期間に変動あり）"
  },
  {
    "id": "1690101298",
    "name": "デイサービスふれあいの里ひろた",
    "kana": "デイサービスフレアイノサトヒロタ",
    "address": "富山県富山市鍋田17-50",
    "lat": 36.7145314019797,
    "lng": 137.244969081615,
    "tel": "076-482-3091",
    "url": "https://fureai-hirota.jp.net/",
    "pref": "富山県",
    "city": "富山市",
    "category": "community_day_service",
    "serviceType": "地域密着型通所介護",
    "capacity": null,
    "openDays": [
      "平日",
      "祝日"
    ],
    "openDaysNote": ""
  },
  {
    "id": "1670104957",
    "name": "デイサービスみんなの輪　おおみや",
    "kana": "デイサービスミンナノワ　オオミヤ",
    "address": "富山県富山市大宮町24番地",
    "lat": 36.6604654,
    "lng": 137.2473974,
    "tel": "076-423-0038",
    "url": "http://www.minnanowa.co.jp",
    "pref": "富山県",
    "city": "富山市",
    "category": "community_day_service",
    "serviceType": "地域密着型通所介護",
    "capacity": null,
    "openDays": [
      "平日",
      "土曜日",
      "日曜日",
      "祝日"
    ],
    "openDaysNote": "12月30日から1月3日までは休業します。"
  },
  {
    "id": "1670111903",
    "name": "デイサービスみんなの輪　高屋敷",
    "kana": "デイサービスミンナノワ　タカヤシキ",
    "address": "高屋敷142-5",
    "lat": 36.666598,
    "lng": 137.2453834,
    "tel": "076-461-6031",
    "url": "http://www.minnanowa.co.jp",
    "pref": "富山県",
    "city": "富山市",
    "category": "community_day_service",
    "serviceType": "地域密着型通所介護",
    "capacity": 0,
    "openDays": [
      "平日",
      "土曜日",
      "日曜日",
      "祝日"
    ],
    "openDaysNote": "12月30日から1月3日までは休業いたします。"
  },
  {
    "id": "1670104056",
    "name": "デイサービスめぐみ",
    "kana": "デイサービスメグミ",
    "address": "富山県富山市婦中町速星609番地1",
    "lat": 36.6625078,
    "lng": 137.1603701,
    "tel": "076-465-7707",
    "url": "",
    "pref": "富山県",
    "city": "富山市",
    "category": "community_day_service",
    "serviceType": "地域密着型通所介護",
    "capacity": 0,
    "openDays": [
      "平日",
      "土曜日",
      "祝日"
    ],
    "openDaysNote": ""
  },
  {
    "id": "1690101215",
    "name": "デイサービスゆめと",
    "kana": "デイサービスユメト",
    "address": "富山市上飯野新町２丁目８９",
    "lat": 36.7119712,
    "lng": 137.2549744,
    "tel": "076-411-9872",
    "url": "",
    "pref": "富山県",
    "city": "富山市",
    "category": "community_day_service",
    "serviceType": "地域密着型通所介護",
    "capacity": null,
    "openDays": [
      "平日",
      "土曜日",
      "祝日"
    ],
    "openDaysNote": "GWやお盆休みなどあります。"
  },
  {
    "id": "1690101439",
    "name": "デイサービス愛の家",
    "kana": "デイサービスアイノイエ",
    "address": "開発181",
    "lat": null,
    "lng": null,
    "tel": "076‐405‐9278",
    "url": "http://sou601219.wixsite.com/ainoie",
    "pref": "富山県",
    "city": "富山市",
    "category": "community_day_service",
    "serviceType": "地域密着型通所介護",
    "capacity": null,
    "openDays": [
      "平日",
      "土曜日",
      "祝日"
    ],
    "openDaysNote": ""
  },
  {
    "id": "1690101538",
    "name": "デイサービス花みずき弐番館",
    "kana": "デイサービスハナミズキニバンカン",
    "address": "富山県富山市曙町2番23号",
    "lat": 36.6998543,
    "lng": 137.225467,
    "tel": "076-471-5002",
    "url": "https://www.kaiboufukushi.com/",
    "pref": "富山県",
    "city": "富山市",
    "category": "community_day_service",
    "serviceType": "地域密着型通所介護",
    "capacity": null,
    "openDays": [
      "平日",
      "土曜日",
      "祝日"
    ],
    "openDaysNote": ""
  },
  {
    "id": "1670112927",
    "name": "デイサービス笑美寿北",
    "kana": "デイサービスエビスキタ",
    "address": "富山県富山市西宮町7-63",
    "lat": 36.7485489,
    "lng": 137.2281933,
    "tel": "076-471-5402",
    "url": "http://care-net.biz/16/cc-ebisu/index.php",
    "pref": "富山県",
    "city": "富山市",
    "category": "community_day_service",
    "serviceType": "地域密着型通所介護",
    "capacity": 0,
    "openDays": [
      "平日",
      "土曜日",
      "祝日"
    ],
    "openDaysNote": "平日、土曜、祝日8：30～16：30"
  },
  {
    "id": "1670112067",
    "name": "デイサービス笑和",
    "kana": "デイサービスショウワ",
    "address": "富山市婦中町千里935-3",
    "lat": 36.6325486,
    "lng": 137.1170644,
    "tel": "076-469-5275",
    "url": "",
    "pref": "富山県",
    "city": "富山市",
    "category": "community_day_service",
    "serviceType": "地域密着型通所介護",
    "capacity": null,
    "openDays": [
      "平日",
      "土曜日"
    ],
    "openDaysNote": ""
  },
  {
    "id": "1670113222",
    "name": "デイサービス森さんぽ",
    "kana": "デイサービスモリサンポ",
    "address": "富山県富山市館出町2丁目４－４シニアレジデンスビルト１Ｆ シニアレジデンスビルト１Ｆ",
    "lat": 36.694472,
    "lng": 137.2326417,
    "tel": "076-464-3003",
    "url": "http://www.residence-built.com",
    "pref": "富山県",
    "city": "富山市",
    "category": "community_day_service",
    "serviceType": "地域密着型通所介護",
    "capacity": null,
    "openDays": [
      "平日",
      "祝日"
    ],
    "openDaysNote": ""
  },
  {
    "id": "1670113479",
    "name": "デイサービス川の音",
    "kana": "デイサービスカワノネ",
    "address": "富山県富山市婦中町外輪野151番地",
    "lat": 36.6226059,
    "lng": 137.0882288,
    "tel": "050－3433－5720",
    "url": "http://www.knei.jp/~kawanone/index.html",
    "pref": "富山県",
    "city": "富山市",
    "category": "community_day_service",
    "serviceType": "地域密着型通所介護",
    "capacity": 18,
    "openDays": [
      "平日",
      "祝日"
    ],
    "openDaysNote": ""
  },
  {
    "id": "1690101454",
    "name": "デイサービス蒼の舎",
    "kana": "デイサービスアオノイエ",
    "address": "富山県富山市高畠町二丁目12番地41",
    "lat": 36.7463426,
    "lng": 137.2307562,
    "tel": "076-482-4232",
    "url": "http;//gengo-support.com",
    "pref": "富山県",
    "city": "富山市",
    "category": "community_day_service",
    "serviceType": "地域密着型通所介護",
    "capacity": null,
    "openDays": [
      "平日"
    ],
    "openDaysNote": ""
  },
  {
    "id": "1670112984",
    "name": "デイサービス地球の子",
    "kana": "デイサービスチキュウノコ",
    "address": "八尾町黒田１２４４",
    "lat": 36.6026139,
    "lng": 137.1528795,
    "tel": "076-461-5557",
    "url": "www.tikyuunoko.cam",
    "pref": "富山県",
    "city": "富山市",
    "category": "community_day_service",
    "serviceType": "地域密着型通所介護",
    "capacity": 0,
    "openDays": [
      "平日",
      "土曜日"
    ],
    "openDaysNote": ""
  },
  {
    "id": "1670105111",
    "name": "デイサービス婦中の家",
    "kana": "デイサービスフチュウノイエ",
    "address": "富山県富山市婦中町添島字正仙５４７－６",
    "lat": 36.6414404,
    "lng": 137.1782382,
    "tel": "０７６－４６６－６８７０",
    "url": "http://selfcaresupport.racms.jp/",
    "pref": "富山県",
    "city": "富山市",
    "category": "community_day_service",
    "serviceType": "地域密着型通所介護",
    "capacity": 10,
    "openDays": [
      "平日",
      "土曜日",
      "祝日"
    ],
    "openDaysNote": "営業時間の前後２時間の延長サービスを行う場合がある。（改行）台風接近時、災害時等は利用者の安全を優先して休む場合もあります。"
  },
  {
    "id": "1690101272",
    "name": "ディサービス婦中道場",
    "kana": "デイサービスフチュウドウジョウ",
    "address": "冨山県富山市婦中町道場815",
    "lat": 36.6421653650911,
    "lng": 137.164322728519,
    "tel": "076-465-1003",
    "url": "",
    "pref": "富山県",
    "city": "富山市",
    "category": "community_day_service",
    "serviceType": "地域密着型通所介護",
    "capacity": 0,
    "openDays": [
      "平日",
      "土曜日",
      "祝日"
    ],
    "openDaysNote": ""
  },
  {
    "id": "1670105103",
    "name": "デイサービス北の杜",
    "kana": "デイサービスキタノモリ",
    "address": "富山県富山市森1丁目9-6デイサービス北の杜 デイサービス北の杜",
    "lat": 36.7483576,
    "lng": 137.2352817,
    "tel": "076-426-3911",
    "url": "http://selfcaresupport.racms.jp/",
    "pref": "富山県",
    "city": "富山市",
    "category": "community_day_service",
    "serviceType": "地域密着型通所介護",
    "capacity": 18,
    "openDays": [
      "平日",
      "土曜日",
      "祝日"
    ],
    "openDaysNote": "営業時間の前後2時間の延長サービスを行う場合があります。（改行）台風接近時、災害時等は利用者さまの安全を優先して休む場合もあります。（改行）新型コロナウイルス感染予防のために、2週間程度お休みして頂くことがあります。"
  },
  {
    "id": "1690100878",
    "name": "デイサービス有沢誠",
    "kana": "デイサービスアリサワマコト",
    "address": "富山県富山市有沢　795-1",
    "lat": 36.6818991460322,
    "lng": 137.187923565966,
    "tel": "076-461-6661",
    "url": "",
    "pref": "富山県",
    "city": "富山市",
    "category": "community_day_service",
    "serviceType": "地域密着型通所介護",
    "capacity": 10,
    "openDays": [
      "平日",
      "土曜日"
    ],
    "openDaysNote": ""
  },
  {
    "id": "1670112919",
    "name": "とやま型デイサービス大きな手小さな手",
    "kana": "トヤマガタデイサービスオオキナテチイサナテ",
    "address": "蓮町二丁目９番８号",
    "lat": 36.7435994,
    "lng": 137.2285322,
    "tel": "076-471-5223",
    "url": "http://www.tete-toyama.com",
    "pref": "富山県",
    "city": "富山市",
    "category": "community_day_service",
    "serviceType": "地域密着型通所介護",
    "capacity": 11,
    "openDays": [
      "平日",
      "土曜日",
      "日曜日",
      "祝日"
    ],
    "openDaysNote": ""
  },
  {
    "id": "1670102464",
    "name": "とやま生協　ゆとり～な",
    "kana": "トヤマセイキョウ　ユトリ～ナ",
    "address": "富山県富山市中間島2-27-6",
    "lat": 36.6893567,
    "lng": 137.2657755,
    "tel": "076-492-4114",
    "url": "http://toyama.coop.or.jp",
    "pref": "富山県",
    "city": "富山市",
    "category": "community_day_service",
    "serviceType": "地域密着型通所介護",
    "capacity": 0,
    "openDays": [
      "平日",
      "土曜日",
      "祝日"
    ],
    "openDaysNote": ""
  },
  {
    "id": "1690100985",
    "name": "ナーシングデイサービスこもれび",
    "kana": "ナーシングデイサービスコモレビ",
    "address": "富山県富山市布市650番3ナーシングデイサービスこもれび ナーシングデイサービスこもれび",
    "lat": 36.6428271733667,
    "lng": 137.236358200382,
    "tel": "076-428-2335",
    "url": "https://care-net.biz/16/nursingday/",
    "pref": "富山県",
    "city": "富山市",
    "category": "community_day_service",
    "serviceType": "地域密着型通所介護",
    "capacity": 18,
    "openDays": [
      "平日",
      "祝日"
    ],
    "openDaysNote": "年末年始：12月31日～1月1.2.3日を休みとさせていただきます。"
  },
  {
    "id": "1670105038",
    "name": "なごなるの家",
    "kana": "ナゴナルノイエ",
    "address": "富山県富山市山室２９３番地５",
    "lat": 36.6745109,
    "lng": 137.2331371,
    "tel": "076-422-2341",
    "url": "http://nagonarunoie.com/",
    "pref": "富山県",
    "city": "富山市",
    "category": "community_day_service",
    "serviceType": "地域密着型通所介護",
    "capacity": 18,
    "openDays": [
      "平日",
      "土曜日",
      "祝日"
    ],
    "openDaysNote": ""
  },
  {
    "id": "1690101686",
    "name": "ハクジュサロン大泉",
    "kana": "ハクジュサロンオオイズミ",
    "address": "富山県富山市西大泉１７番１８号",
    "lat": 36.6788823,
    "lng": 137.2244445,
    "tel": "076-400-8820",
    "url": "",
    "pref": "富山県",
    "city": "富山市",
    "category": "community_day_service",
    "serviceType": "地域密着型通所介護",
    "capacity": 80,
    "openDays": [
      "平日"
    ],
    "openDaysNote": ""
  },
  {
    "id": "1670112059",
    "name": "ヒューマンサポート日和",
    "kana": "ヒヨリ",
    "address": "八尾町杉田744番地1",
    "lat": 36.6121501,
    "lng": 137.1656786,
    "tel": "076-455-8577",
    "url": "",
    "pref": "富山県",
    "city": "富山市",
    "category": "community_day_service",
    "serviceType": "地域密着型通所介護",
    "capacity": 0,
    "openDays": [
      "平日",
      "土曜日",
      "祝日"
    ],
    "openDaysNote": "1月1日～1月3日は休み"
  },
  {
    "id": "1690101108",
    "name": "ビルトアップ",
    "kana": "ビルトアップ",
    "address": "富山市館出町２丁目１－２",
    "lat": 36.6937569887356,
    "lng": 137.230525539287,
    "tel": "076-461-3321",
    "url": "https://www.built-up.jp/",
    "pref": "富山県",
    "city": "富山市",
    "category": "community_day_service",
    "serviceType": "地域密着型通所介護",
    "capacity": 0,
    "openDays": [
      "平日",
      "土曜日",
      "祝日"
    ],
    "openDaysNote": ""
  },
  {
    "id": "1690101256",
    "name": "フィットデイ筋たろう",
    "kana": "フィットデイキンタロウ",
    "address": "富山県富山市北新町二丁目1番14号",
    "lat": 36.6928051,
    "lng": 137.2202468,
    "tel": "076-482-4403",
    "url": "",
    "pref": "富山県",
    "city": "富山市",
    "category": "community_day_service",
    "serviceType": "地域密着型通所介護",
    "capacity": 0,
    "openDays": [
      "平日",
      "土曜日",
      "祝日"
    ],
    "openDaysNote": "必要に応じて祝日や休日でも営業することがある。"
  },
  {
    "id": "1670111663",
    "name": "フィットリハアピア",
    "kana": "フィットリハアピア",
    "address": "富山県富山市稲荷元町2-11-1",
    "lat": 36.6967549,
    "lng": 137.2300945,
    "tel": "076-471-6600",
    "url": "http://apa-wellness.com",
    "pref": "富山県",
    "city": "富山市",
    "category": "community_day_service",
    "serviceType": "地域密着型通所介護",
    "capacity": 0,
    "openDays": [
      "平日",
      "土曜日",
      "祝日"
    ],
    "openDaysNote": ""
  },
  {
    "id": "1670113420",
    "name": "フィットリハふちゅう",
    "kana": "フィットリハフチュウ",
    "address": "富山県富山市婦中町島本郷10-10フィットリハふちゅう フィットリハふちゅう",
    "lat": 36.6774125068889,
    "lng": 137.172083815344,
    "tel": "076-464-3364",
    "url": "http://www.apa-wellness.com/",
    "pref": "富山県",
    "city": "富山市",
    "category": "community_day_service",
    "serviceType": "地域密着型通所介護",
    "capacity": 0,
    "openDays": [
      "平日",
      "祝日"
    ],
    "openDaysNote": ""
  },
  {
    "id": "1670104510",
    "name": "ふるさとのあかり八町",
    "kana": "フルサトノアカリハッチョウ",
    "address": "富山県富山市八町２０３７番地２",
    "lat": 36.736993,
    "lng": 137.1832326,
    "tel": "076-435-6522",
    "url": "http://www.toyamagata.com/furusatono_akari",
    "pref": "富山県",
    "city": "富山市",
    "category": "community_day_service",
    "serviceType": "地域密着型通所介護",
    "capacity": null,
    "openDays": [
      "平日",
      "土曜日"
    ],
    "openDaysNote": "但し、利用者及び家族の事情により、営業日以外の利用を希望された場合は管理者を通じ、対応するものとする。"
  },
  {
    "id": "1690101512",
    "name": "ホクサン上轡田デイサービス",
    "kana": "ホクサンカミクツワダデイサービス",
    "address": "富山県富山市婦中町上轡田806番地1",
    "lat": 36.6590838,
    "lng": 137.1755154,
    "tel": "076-464-9714",
    "url": "https://hoku-san.co.jp",
    "pref": "富山県",
    "city": "富山市",
    "category": "community_day_service",
    "serviceType": "地域密着型通所介護",
    "capacity": 0,
    "openDays": [
      "平日",
      "土曜日"
    ],
    "openDaysNote": ""
  },
  {
    "id": "1690101504",
    "name": "マキシ　和合",
    "kana": "マキシ　ワゴウ",
    "address": "金山新東13-3",
    "lat": 36.7426837,
    "lng": 137.2115747,
    "tel": "076-435-2050",
    "url": "",
    "pref": "富山県",
    "city": "富山市",
    "category": "community_day_service",
    "serviceType": "地域密着型通所介護",
    "capacity": null,
    "openDays": [
      "平日"
    ],
    "openDaysNote": "午前（8：30～12：00）・午後（12：30～16：00）の２部制となっております。"
  },
  {
    "id": "1690101470",
    "name": "まっする工房",
    "kana": "マッスルコウボウ",
    "address": "富山市上野799-1",
    "lat": 36.6390954,
    "lng": 137.2185876,
    "tel": "076-456-8625",
    "url": "",
    "pref": "富山県",
    "city": "富山市",
    "category": "community_day_service",
    "serviceType": "地域密着型通所介護",
    "capacity": null,
    "openDays": [
      "平日",
      "祝日"
    ],
    "openDaysNote": "ゴールデンウィーク、盆休、年末年始などの連休あり"
  },
  {
    "id": "1670112372",
    "name": "みずほサポートセンター",
    "kana": "ミズホサポートセンター",
    "address": "富山県富山市婦中町上吉川１３２番地１",
    "lat": 36.6414434,
    "lng": 137.1364368,
    "tel": "０７６－４６９－１６００",
    "url": "http://www.imizu-manyoukai.or.jp/",
    "pref": "富山県",
    "city": "富山市",
    "category": "community_day_service",
    "serviceType": "地域密着型通所介護",
    "capacity": 10,
    "openDays": [
      "平日",
      "土曜日",
      "祝日"
    ],
    "openDaysNote": "祝祭日は営業しております。"
  },
  {
    "id": "1671800363",
    "name": "ライフ・ハウスかりゆし",
    "kana": "ライフハウスカリユシ",
    "address": "富山県富山市婦中町中名903-33",
    "lat": 36.6444018,
    "lng": 137.1669031,
    "tel": "076-465-1218",
    "url": "http://chimugurisa.com",
    "pref": "富山県",
    "city": "富山市",
    "category": "community_day_service",
    "serviceType": "地域密着型通所介護",
    "capacity": 0,
    "openDays": [
      "平日",
      "土曜日"
    ],
    "openDaysNote": ""
  },
  {
    "id": "1670113339",
    "name": "リハビリデイサービス　りおん",
    "kana": "リハビリデイサービス　リオン",
    "address": "富山県富山市神通本町1-5-13横江ビル1階 横江ビル1階",
    "lat": 36.7016064,
    "lng": 137.2084162,
    "tel": "076-482-3401",
    "url": "http://dayservice-rion.com",
    "pref": "富山県",
    "city": "富山市",
    "category": "community_day_service",
    "serviceType": "地域密着型通所介護",
    "capacity": 3,
    "openDays": [
      "平日",
      "祝日"
    ],
    "openDaysNote": ""
  },
  {
    "id": "1670113032",
    "name": "リハビリ倶楽部",
    "kana": "リハビリクラブ",
    "address": "富山県富山市婦中町速星593番地",
    "lat": 36.6633327,
    "lng": 137.16067,
    "tel": "076-461-6627",
    "url": "https://kenkoukeiei.co.jp/",
    "pref": "富山県",
    "city": "富山市",
    "category": "community_day_service",
    "serviceType": "地域密着型通所介護",
    "capacity": 18,
    "openDays": [
      "平日"
    ],
    "openDaysNote": "会社指定の休日や、年間祝日に応じて臨機応変に変更あり。"
  },
  {
    "id": "1670112406",
    "name": "リハ楽とやま",
    "kana": "リハラクトヤマ",
    "address": "富山県富山市奥田町８－２６コーポ内田１階 コーポ内田１階",
    "lat": 36.7122276,
    "lng": 137.2189587,
    "tel": "076-471-6647",
    "url": "",
    "pref": "富山県",
    "city": "富山市",
    "category": "community_day_service",
    "serviceType": "地域密着型通所介護",
    "capacity": 18,
    "openDays": [
      "平日",
      "土曜日",
      "祝日"
    ],
    "openDaysNote": ""
  },
  {
    "id": "1670111630",
    "name": "株式会社　ケア・ワールド",
    "kana": "カブシキカイシャ　ケアワールド",
    "address": "富山県富山市布瀬町南2丁目9番地２",
    "lat": 36.6745532571758,
    "lng": 137.202157220238,
    "tel": "076-422-7003",
    "url": "www.cwn-web.co.jp",
    "pref": "富山県",
    "city": "富山市",
    "category": "community_day_service",
    "serviceType": "地域密着型通所介護",
    "capacity": null,
    "openDays": [
      "平日"
    ],
    "openDaysNote": ""
  },
  {
    "id": "1690100860",
    "name": "株式会社TDS絆",
    "kana": "カブシキガイシャティーデーエスキズナ",
    "address": "富山県富山市太田145番地1デイサービスセンターそくさい家 デイサービスセンターそくさい家",
    "lat": 36.6575547,
    "lng": 137.2473558,
    "tel": "076-460-2216",
    "url": "bankan145012.wixsite.com",
    "pref": "富山県",
    "city": "富山市",
    "category": "community_day_service",
    "serviceType": "地域密着型通所介護",
    "capacity": 15,
    "openDays": [
      "平日",
      "土曜日"
    ],
    "openDaysNote": "12/31～1/3までお休み"
  },
  {
    "id": "1670112950",
    "name": "株式会社ウイズU",
    "kana": "カブシキカイシャウイズユー",
    "address": "富山県富山市桜谷みどり町1-33",
    "lat": 36.7102948,
    "lng": 137.1971939,
    "tel": "076-442-6677",
    "url": "",
    "pref": "富山県",
    "city": "富山市",
    "category": "community_day_service",
    "serviceType": "地域密着型通所介護",
    "capacity": null,
    "openDays": [
      "平日"
    ],
    "openDaysNote": ""
  },
  {
    "id": "1670113354",
    "name": "機能訓練型デイサービス　よっこいしょ",
    "kana": "キノウクンレンガタデイサービス　ヨッコイショ",
    "address": "富山県海岸通１－３４",
    "lat": 36.7572465,
    "lng": 137.2508725,
    "tel": "076-426-1077",
    "url": "toyama-athlete.com",
    "pref": "富山県",
    "city": "富山市",
    "category": "community_day_service",
    "serviceType": "地域密着型通所介護",
    "capacity": 6,
    "openDays": [
      "平日"
    ],
    "openDaysNote": ""
  },
  {
    "id": "1670112547",
    "name": "機能訓練対応型デイサービス　蛍和",
    "kana": "キノウクンレンタイオウガタデイサービスケイワ",
    "address": "富山県富山市婦中町蛍川９５－２９ ９５－２９",
    "lat": 36.649655219155,
    "lng": 137.166961571828,
    "tel": "０７６－４６５－３２１０",
    "url": "http://care-rise.co.jp/",
    "pref": "富山県",
    "city": "富山市",
    "category": "community_day_service",
    "serviceType": "地域密着型通所介護",
    "capacity": 15,
    "openDays": [
      "平日"
    ],
    "openDaysNote": "なし"
  },
  {
    "id": "1670104601",
    "name": "月岡デイサービスセンター　むつみの里",
    "kana": "ツキオカデイサービスセンター　ムツミノサト",
    "address": "富山県富山市月岡町二丁目１８９番地",
    "lat": 36.6244531,
    "lng": 137.2640526,
    "tel": "０７６－４２８－３６００",
    "url": "http://masakuni.mutsumi-gr.jp/",
    "pref": "富山県",
    "city": "富山市",
    "category": "community_day_service",
    "serviceType": "地域密着型通所介護",
    "capacity": 0,
    "openDays": [
      "平日",
      "土曜日",
      "日曜日",
      "祝日"
    ],
    "openDaysNote": "年末年始（１２／３０～１／３）休み"
  },
  {
    "id": "1670103488",
    "name": "月岡デイサービスセンターやまゆり",
    "kana": "ツキオカデイサービスセンターヤマユリ",
    "address": "富山市中布目163",
    "lat": 36.6164179,
    "lng": 137.251615,
    "tel": "076-429-8866",
    "url": "",
    "pref": "富山県",
    "city": "富山市",
    "category": "community_day_service",
    "serviceType": "地域密着型通所介護",
    "capacity": 0,
    "openDays": [
      "平日",
      "土曜日",
      "祝日"
    ],
    "openDaysNote": "時間外はご相談に応じます。"
  },
  {
    "id": "1690101413",
    "name": "向新庄ステーション鈴の音",
    "kana": "ムカイシンジョウステーションスズノネ",
    "address": "富山県富山市向新庄町一丁目7番27号",
    "lat": 36.7023063,
    "lng": 137.2628872,
    "tel": "076-471-8605",
    "url": "",
    "pref": "富山県",
    "city": "富山市",
    "category": "community_day_service",
    "serviceType": "地域密着型通所介護",
    "capacity": null,
    "openDays": [
      "平日"
    ],
    "openDaysNote": ""
  },
  {
    "id": "1690101355",
    "name": "彩りの郷",
    "kana": "イロドリノサト",
    "address": "山室荒屋15－281",
    "lat": 36.6737556,
    "lng": 137.2559497,
    "tel": "076-460-4427",
    "url": "",
    "pref": "富山県",
    "city": "富山市",
    "category": "community_day_service",
    "serviceType": "地域密着型通所介護",
    "capacity": 10,
    "openDays": [
      "平日",
      "土曜日",
      "日曜日",
      "祝日"
    ],
    "openDaysNote": ""
  },
  {
    "id": "1670112315",
    "name": "山田デイサービスセンター福楽",
    "kana": "ヤマダデイサービスセンターフクラ",
    "address": "富山県富山市山田沼又８８",
    "lat": 36.5998531,
    "lng": 137.0679319,
    "tel": "076-457-2888",
    "url": "https://haginoiin.jp/",
    "pref": "富山県",
    "city": "富山市",
    "category": "community_day_service",
    "serviceType": "地域密着型通所介護",
    "capacity": 18,
    "openDays": [
      "平日",
      "土曜日",
      "祝日"
    ],
    "openDaysNote": "祝日、年末もサービスを提供しています。"
  },
  {
    "id": "1670113685",
    "name": "樹楽向新庄",
    "kana": "キラクムカイシンジョウ",
    "address": "富山県富山市向新庄町一丁目５番３０号",
    "lat": 36.7022356,
    "lng": 137.2622115,
    "tel": "076-451-5573",
    "url": "http://www.kiraku-ac.com/",
    "pref": "富山県",
    "city": "富山市",
    "category": "community_day_service",
    "serviceType": "地域密着型通所介護",
    "capacity": 0,
    "openDays": [
      "平日",
      "土曜日",
      "日曜日",
      "祝日"
    ],
    "openDaysNote": ""
  },
  {
    "id": "1690101421",
    "name": "樹楽婦中",
    "kana": "キラクフチュウ",
    "address": "富山県富山市婦中町分田６２",
    "lat": 36.6734493,
    "lng": 137.1807094,
    "tel": "０７６－４８１－６５２０",
    "url": "httpa://www.kiraku-ac.com",
    "pref": "富山県",
    "city": "富山市",
    "category": "community_day_service",
    "serviceType": "地域密着型通所介護",
    "capacity": null,
    "openDays": [
      "平日",
      "土曜日",
      "日曜日",
      "祝日"
    ],
    "openDaysNote": ""
  },
  {
    "id": "1670102217",
    "name": "針原デイサービス",
    "kana": "ハリハラデイサービス",
    "address": "針原中町355",
    "lat": 36.724508,
    "lng": 137.2642495,
    "tel": "076-451-7448",
    "url": "http://seikeikaitoyama.com/concept1.html",
    "pref": "富山県",
    "city": "富山市",
    "category": "community_day_service",
    "serviceType": "地域密着型通所介護",
    "capacity": 0,
    "openDays": [
      "平日",
      "土曜日",
      "祝日"
    ],
    "openDaysNote": ""
  },
  {
    "id": "1670100864",
    "name": "水橋デイサービスセンター",
    "kana": "ミズハシデイサービスセンター",
    "address": "富山県富山市水橋市田袋１２６",
    "lat": 36.7270751,
    "lng": 137.2892972,
    "tel": "076-478-3774",
    "url": "http://niikawa-fukushi.net",
    "pref": "富山県",
    "city": "富山市",
    "category": "community_day_service",
    "serviceType": "地域密着型通所介護",
    "capacity": null,
    "openDays": [
      "平日",
      "土曜日",
      "祝日"
    ],
    "openDaysNote": ""
  },
  {
    "id": "1670104973",
    "name": "誠やﾃﾞｲｻｰﾋﾞｽ",
    "kana": "マコトヤデイサービス",
    "address": "横内　581",
    "lat": 36.6664006,
    "lng": 137.2578079,
    "tel": "076-482-5971",
    "url": "",
    "pref": "富山県",
    "city": "富山市",
    "category": "community_day_service",
    "serviceType": "地域密着型通所介護",
    "capacity": 10,
    "openDays": [
      "平日",
      "土曜日"
    ],
    "openDaysNote": ""
  },
  {
    "id": "1670113248",
    "name": "孫の手デイサービス",
    "kana": "マゴノテデイサービス",
    "address": "四ツ葉町19-3",
    "lat": 36.7061424,
    "lng": 137.2257054,
    "tel": "076-471-8006",
    "url": "",
    "pref": "富山県",
    "city": "富山市",
    "category": "community_day_service",
    "serviceType": "地域密着型通所介護",
    "capacity": 0,
    "openDays": [
      "平日",
      "土曜日",
      "祝日"
    ],
    "openDaysNote": ""
  },
  {
    "id": "1671500120",
    "name": "太陽苑デイサービスセンター",
    "kana": "タイヨウエンデイサービスセンター",
    "address": "富山県富山市新村８７番地２",
    "lat": 36.6179227,
    "lng": 137.2148738,
    "tel": "076-468-3908",
    "url": "http://taiyouen1010.com/",
    "pref": "富山県",
    "city": "富山市",
    "category": "community_day_service",
    "serviceType": "地域密着型通所介護",
    "capacity": 10,
    "openDays": [
      "平日",
      "祝日"
    ],
    "openDaysNote": ""
  },
  {
    "id": "1670113537",
    "name": "茶話本舗デイサービス新屋",
    "kana": "サワホンポデイサービスアラヤ",
    "address": "富山県富山市新屋6-2",
    "lat": 36.7185114003287,
    "lng": 137.2496675,
    "tel": "076-464-6758",
    "url": "",
    "pref": "富山県",
    "city": "富山市",
    "category": "community_day_service",
    "serviceType": "地域密着型通所介護",
    "capacity": 18,
    "openDays": [
      "平日",
      "土曜日",
      "日曜日",
      "祝日"
    ],
    "openDaysNote": ""
  },
  {
    "id": "1690100894",
    "name": "特定非営利活動法人　えがおでねぃ",
    "kana": "トクテイヒエイリカツドウホウジン　エガオデネィ",
    "address": "富山県富山市吉作1027番地1",
    "lat": 36.7086881,
    "lng": 137.1615165,
    "tel": "076-434-6616",
    "url": "",
    "pref": "富山県",
    "city": "富山市",
    "category": "community_day_service",
    "serviceType": "地域密着型通所介護",
    "capacity": null,
    "openDays": [
      "平日",
      "土曜日"
    ],
    "openDaysNote": ""
  },
  {
    "id": "1690101082",
    "name": "入浴特化型デイサービス　ほっと・湯～",
    "kana": "ニュウヨクトッカガタデイサービス　ホット・ユ～",
    "address": "富山県富山市粟島1丁目6番11号",
    "lat": 36.7241055852738,
    "lng": 137.229062563229,
    "tel": "076-471-6016",
    "url": "",
    "pref": "富山県",
    "city": "富山市",
    "category": "community_day_service",
    "serviceType": "地域密着型通所介護",
    "capacity": 18,
    "openDays": [
      "平日",
      "祝日"
    ],
    "openDaysNote": "夏季休暇、年末年始休暇を別に定めています。期間につきましては、その都度決めさせていただきます。"
  },
  {
    "id": "1670112794",
    "name": "富山型デイサービス　くわの里",
    "kana": "トヤマガタデイサービス　クワノサト",
    "address": "富山県富山市桑原６２番地",
    "lat": 36.6158708,
    "lng": 137.2634473,
    "tel": "076-483-8580",
    "url": "http://kuwanosato.co.jp",
    "pref": "富山県",
    "city": "富山市",
    "category": "community_day_service",
    "serviceType": "地域密着型通所介護",
    "capacity": 0,
    "openDays": [
      "平日",
      "土曜日",
      "祝日"
    ],
    "openDaysNote": ""
  },
  {
    "id": "1670102001",
    "name": "富山地域福祉事業所デイサービスぽぴー",
    "kana": "トヤマチイキフクシジギョウショデイサービスポピー",
    "address": "富山県富山市寺町けや木台71番地ハイツ欅 ハイツ欅",
    "lat": 36.6987367,
    "lng": 137.1751875,
    "tel": "076-444-8285",
    "url": "",
    "pref": "富山県",
    "city": "富山市",
    "category": "community_day_service",
    "serviceType": "地域密着型通所介護",
    "capacity": 0,
    "openDays": [
      "平日",
      "土曜日",
      "祝日"
    ],
    "openDaysNote": ""
  },
  {
    "id": "1690101561",
    "name": "北陸メディカルサービス株式会社デイサービスふわり",
    "kana": "ホクリクメディカルサービスカブシキガイシャデイサービスフワリ",
    "address": "富山市八尾町福島字牧野１０１番地１",
    "lat": 36.5804010689235,
    "lng": 137.134198661377,
    "tel": "076-455-2597",
    "url": "http://www.hokuriku-medical.co.jp",
    "pref": "富山県",
    "city": "富山市",
    "category": "community_day_service",
    "serviceType": "地域密着型通所介護",
    "capacity": null,
    "openDays": [
      "平日",
      "土曜日",
      "祝日"
    ],
    "openDaysNote": "曳山祭り・おわら風の盆開催中は、交通規制のため営業時間などが変更となります。詳細についてはお問い合わせください。"
  },
  {
    "id": "1670111804",
    "name": "堀川南光風苑",
    "kana": "ホリカワミナミコウフウエン",
    "address": "本郷町262-14",
    "lat": 36.6630429,
    "lng": 137.2329014,
    "tel": "076-494-3151",
    "url": "https://www.koufuukai.jp/",
    "pref": "富山県",
    "city": "富山市",
    "category": "community_day_service",
    "serviceType": "地域密着型通所介護",
    "capacity": 36,
    "openDays": [
      "平日",
      "土曜日",
      "祝日"
    ],
    "openDaysNote": "昼を挟んで午前、午後で入れ替え2区分（改行）区分１・・・8：30～12：30（改行）区分２・・・13：00～17：00"
  },
  {
    "id": "1670103314",
    "name": "有限会社　デイサービスセンターもみじ",
    "kana": "ユウゲンカイシャ　デイサービスセンターモミジ",
    "address": "富山県富山市上大久保１９１７",
    "lat": 36.586976,
    "lng": 137.2069616,
    "tel": "076-467-2419",
    "url": "",
    "pref": "富山県",
    "city": "富山市",
    "category": "community_day_service",
    "serviceType": "地域密着型通所介護",
    "capacity": 15,
    "openDays": [
      "平日",
      "土曜日",
      "祝日"
    ],
    "openDaysNote": ""
  },
  {
    "id": "1690101058",
    "name": "療養通所介護フローレンスジョジョ",
    "kana": "リョウヨウツウショカイゴフローレンスジョジョ",
    "address": "富山市藤木1972-4スマイル・ジョジョ スマイル・ジョジョ",
    "lat": 36.6856323,
    "lng": 137.2700724,
    "tel": "076-461-6165",
    "url": "",
    "pref": "富山県",
    "city": "富山市",
    "category": "community_day_service",
    "serviceType": "地域密着型通所介護",
    "capacity": 0,
    "openDays": [
      "平日"
    ],
    "openDaysNote": "休日も応相談にて対応可"
  },
  {
    "id": "1671600367",
    "name": "デイサービス　いい茶家",
    "kana": "デイサービス　イイチャ",
    "address": "富山県中新川郡立山町栃津７０番地",
    "lat": 36.6039003,
    "lng": 137.3306601,
    "tel": "０７６－４６１－００２２",
    "url": "iicha2005.com",
    "pref": "富山県",
    "city": "立山町",
    "category": "community_day_service",
    "serviceType": "地域密着型通所介護",
    "capacity": 0,
    "openDays": [
      "平日",
      "祝日"
    ],
    "openDaysNote": ""
  },
  {
    "id": "1691600181",
    "name": "デイサービスこころ",
    "kana": "デイサービスココロ",
    "address": "富山県中新川郡立山町五郎丸149-1",
    "lat": 36.6849604,
    "lng": 137.3028088,
    "tel": "076-463-6625",
    "url": "",
    "pref": "富山県",
    "city": "立山町",
    "category": "community_day_service",
    "serviceType": "地域密着型通所介護",
    "capacity": 0,
    "openDays": [
      "平日",
      "祝日"
    ],
    "openDaysNote": ""
  },
  {
    "id": "1691600173",
    "name": "デイサービスつくしの森",
    "kana": "デイサービスツクシノモリ",
    "address": "富山県中新川郡立山町西大森657番地デイサービスつくしの森 デイサービスつくしの森",
    "lat": 36.6554303,
    "lng": 137.2878261,
    "tel": "076-463-1294",
    "url": "http://hp.kaipoke.biz/zh0/",
    "pref": "富山県",
    "city": "立山町",
    "category": "community_day_service",
    "serviceType": "地域密着型通所介護",
    "capacity": 0,
    "openDays": [
      "平日",
      "土曜日",
      "祝日"
    ],
    "openDaysNote": "お盆８/13-8/15,年末年始12/30-1/3"
  },
  {
    "id": "1671600821",
    "name": "デイサービス横江やまの湯",
    "kana": "デイサービスヨコエヤマノユ",
    "address": "富山県中新川郡立山町横江5-1",
    "lat": 36.5913314069154,
    "lng": 137.329520180951,
    "tel": "076-483-8861",
    "url": "http://384yamanoyu.jp/",
    "pref": "富山県",
    "city": "立山町",
    "category": "community_day_service",
    "serviceType": "地域密着型通所介護",
    "capacity": 0,
    "openDays": [
      "平日",
      "土曜日",
      "祝日"
    ],
    "openDaysNote": ""
  },
  {
    "id": "1671600771",
    "name": "デイサービス花のいえ",
    "kana": "デイサービスハナノイエ",
    "address": "富山県中新川郡立山町二ツ塚342",
    "lat": 36.6849726,
    "lng": 137.3143629,
    "tel": "076-461-6531",
    "url": "",
    "pref": "富山県",
    "city": "立山町",
    "category": "community_day_service",
    "serviceType": "地域密着型通所介護",
    "capacity": 0,
    "openDays": [
      "平日",
      "土曜日",
      "祝日"
    ],
    "openDaysNote": "1/1～1/3、8/15～8/16休み"
  }
]