[
  {
    "id": "672300209",
    "name": "指定通所介護事業所「ちょうよう」",
    "kana": "シテイツウショカイゴジギョウショチョウヨウ",
    "address": "山形県西村山郡河北町谷地字東704番地1",
    "lat": 38.4254739896926,
    "lng": 140.323206950926,
    "tel": "0237-72-3786",
    "url": "http://www.tyoyoen.jp",
    "pref": "山形県",
    "city": "河北町",
    "category": "community_day_service",
    "serviceType": "地域密着型通所介護",
    "capacity": 15,
    "openDays": [
      "平日",
      "土曜日",
      "祝日"
    ],
    "openDaysNote": "なし"
  },
  {
    "id": "671200624",
    "name": "デイサービス　ひかり",
    "kana": "デイサービス　ヒカリ",
    "address": "山形県寒河江市大字寒河江字塩水60-1",
    "lat": 38.3785911,
    "lng": 140.2617237,
    "tel": "0237-85-1251",
    "url": "",
    "pref": "山形県",
    "city": "寒河江市",
    "category": "community_day_service",
    "serviceType": "地域密着型通所介護",
    "capacity": 10,
    "openDays": [
      "平日",
      "土曜日"
    ],
    "openDaysNote": ""
  },
  {
    "id": "671200582",
    "name": "茶ろん幸多",
    "kana": "サロンサチタ",
    "address": "山形県寒河江市幸田町11番10",
    "lat": 38.3666179,
    "lng": 140.2737507,
    "tel": "0237－85－1813",
    "url": "",
    "pref": "山形県",
    "city": "寒河江市",
    "category": "community_day_service",
    "serviceType": "地域密着型通所介護",
    "capacity": 0,
    "openDays": [
      "平日",
      "土曜日",
      "祝日"
    ],
    "openDaysNote": "保険外利用に限り日曜日も8時30分～17時30分まで利用可能。"
  },
  {
    "id": "671200509",
    "name": "陵東デイサービスセンター",
    "kana": "リョウトウデイサービスセンター",
    "address": "山形県寒河江市本町２丁目１０番４０号",
    "lat": 38.3774231384037,
    "lng": 140.276875643997,
    "tel": "０２３７－８５－１４５６",
    "url": "",
    "pref": "山形県",
    "city": "寒河江市",
    "category": "community_day_service",
    "serviceType": "地域密着型通所介護",
    "capacity": 14,
    "openDays": [
      "平日",
      "土曜日",
      "日曜日",
      "祝日"
    ],
    "openDaysNote": ""
  },
  {
    "id": "672500857",
    "name": "神室ふくすけの家",
    "kana": "カムロフクスケノイエ",
    "address": "山形県最上郡金山町大字金山465番地32",
    "lat": 38.8768453393868,
    "lng": 140.334100546716,
    "tel": "0233-64-2020",
    "url": "",
    "pref": "山形県",
    "city": "金山町",
    "category": "community_day_service",
    "serviceType": "地域密着型通所介護",
    "capacity": null,
    "openDays": [
      "平日",
      "土曜日",
      "日曜日",
      "祝日"
    ],
    "openDaysNote": "特になし"
  },
  {
    "id": "672500832",
    "name": "こはな",
    "kana": "コハナ",
    "address": "最上郡戸沢村大字角川１４３６番地",
    "lat": 38.6860111,
    "lng": 140.1624795,
    "tel": "0233-32-0142",
    "url": "http://hp.kaipoke.biz/0rd/",
    "pref": "山形県",
    "city": "戸沢村",
    "category": "community_day_service",
    "serviceType": "地域密着型通所介護",
    "capacity": 11,
    "openDays": [
      "平日",
      "土曜日",
      "祝日"
    ],
    "openDaysNote": ""
  },
  {
    "id": "672500691",
    "name": "デイサービスあっとほーむ太陽",
    "kana": "デイサービスアットホームタイヨウ",
    "address": "山形県最上郡戸沢村大字名高1347番地16号",
    "lat": 38.7488281,
    "lng": 140.1804805,
    "tel": "0233-72-3556",
    "url": "http://home-taiyou.or.jp",
    "pref": "山形県",
    "city": "戸沢村",
    "category": "community_day_service",
    "serviceType": "地域密着型通所介護",
    "capacity": 15,
    "openDays": [
      "平日",
      "土曜日",
      "日曜日",
      "祝日"
    ],
    "openDaysNote": ""
  },
  {
    "id": "692600083",
    "name": "デイサービス彩り",
    "kana": "デイサービスイロドリ",
    "address": "山形県東置賜郡高畠町大字高畠173番地2",
    "lat": 37.9981076,
    "lng": 140.1930862,
    "tel": "0238-40-0777",
    "url": "http://www.t⁻h⁻t.jp/",
    "pref": "山形県",
    "city": "高畠町",
    "category": "community_day_service",
    "serviceType": "地域密着型通所介護",
    "capacity": 0,
    "openDays": [
      "平日",
      "土曜日",
      "祝日"
    ],
    "openDaysNote": ""
  },
  {
    "id": "672600236",
    "name": "指定通所介護事業所特定非営利活動法人かたくりの会",
    "kana": "シテイツウショカイゴジギョウショトクテイヒエイリカツドウホウジンカタクリノカイ",
    "address": "山形県東置賜郡高畠町大字元和田１５９９番地の２１号",
    "lat": 37.9619633,
    "lng": 140.2153073,
    "tel": "0238-58-3555",
    "url": "",
    "pref": "山形県",
    "city": "高畠町",
    "category": "community_day_service",
    "serviceType": "地域密着型通所介護",
    "capacity": 0,
    "openDays": [
      "平日"
    ],
    "openDaysNote": "特になし"
  },
  {
    "id": "672500741",
    "name": "通所介護デイサービスもがみ",
    "kana": "ツウショカイゴデイサービスモガミ",
    "address": "山形県最上郡最上町大字大堀字蟹ノ又1360番地19",
    "lat": 38.7544462831799,
    "lng": 140.467226671383,
    "tel": "0233-44-9755",
    "url": "http://www.tihiro.jp/hukusi/",
    "pref": "山形県",
    "city": "最上町",
    "category": "community_day_service",
    "serviceType": "地域密着型通所介護",
    "capacity": 18,
    "openDays": [
      "平日",
      "土曜日",
      "祝日"
    ],
    "openDaysNote": "平成26年4月より毎週日曜日はお休みしています。"
  },
  {
    "id": "673000501",
    "name": "デイホームのんき",
    "kana": "デイホームノンキ",
    "address": "山形県東田川郡三川町大字猪子字下堀田２３０－１",
    "lat": 38.8189586,
    "lng": 139.840051,
    "tel": "0235-68-1750",
    "url": "https://www.nodoka-nonki.co.jp/",
    "pref": "山形県",
    "city": "三川町",
    "category": "community_day_service",
    "serviceType": "地域密着型通所介護",
    "capacity": 10,
    "openDays": [
      "平日",
      "祝日"
    ],
    "openDaysNote": ""
  },
  {
    "id": "670101617",
    "name": "アースサポート山形",
    "kana": "アースサポートヤマガタ",
    "address": "山形県山形市吉原1丁目11-13",
    "lat": 38.2283086623622,
    "lng": 140.315524891969,
    "tel": "023-645-7311",
    "url": "http://www.earthsupport.co.jp",
    "pref": "山形県",
    "city": "山形市",
    "category": "community_day_service",
    "serviceType": "地域密着型通所介護",
    "capacity": 0,
    "openDays": [
      "平日",
      "土曜日",
      "祝日"
    ],
    "openDaysNote": ""
  },
  {
    "id": "670102011",
    "name": "いずみケアセンター指定通所介護事業所",
    "kana": "イズミケアセンターシテイツウショカイゴジギョウショ",
    "address": "山形市長町一丁目９番５９－１７号",
    "lat": 38.2854384,
    "lng": 140.3379097,
    "tel": "023-681-3423",
    "url": "http://www.izumi-lan.com/",
    "pref": "山形県",
    "city": "山形市",
    "category": "community_day_service",
    "serviceType": "地域密着型通所介護",
    "capacity": 15,
    "openDays": [
      "平日",
      "土曜日",
      "祝日"
    ],
    "openDaysNote": ""
  },
  {
    "id": "690100920",
    "name": "オレアもとき",
    "kana": "オレアモトキ",
    "address": "山形県山形市元木二丁目9-39",
    "lat": 38.2236349873696,
    "lng": 140.320129738379,
    "tel": "023－674-9026",
    "url": "https://olea-iwaki.com/index.html",
    "pref": "山形県",
    "city": "山形市",
    "category": "community_day_service",
    "serviceType": "地域密着型通所介護",
    "capacity": 0,
    "openDays": [
      "平日",
      "土曜日",
      "祝日"
    ],
    "openDaysNote": "社内全体研修で年一回の臨時休業あり"
  },
  {
    "id": "670103092",
    "name": "ことばのデイルーム奏",
    "kana": "コトバノデイルームカナデ",
    "address": "山形市吉原三丁目１番５号",
    "lat": 38.230936556825,
    "lng": 140.308985440892,
    "tel": "023-673-9681",
    "url": "http:voce-yamagata.net",
    "pref": "山形県",
    "city": "山形市",
    "category": "community_day_service",
    "serviceType": "地域密着型通所介護",
    "capacity": 10,
    "openDays": [
      "平日",
      "祝日"
    ],
    "openDaysNote": "なし"
  },
  {
    "id": "670103217",
    "name": "さわやか塾　けやきの森",
    "kana": "サワヤカジュク　ケヤキノモリ",
    "address": "山形市大字漆山字念仏段1903-1",
    "lat": 38.3123911268131,
    "lng": 140.356900668539,
    "tel": "023-674-9327",
    "url": "https://www.keyakinomori.co.jp",
    "pref": "山形県",
    "city": "山形市",
    "category": "community_day_service",
    "serviceType": "地域密着型通所介護",
    "capacity": 10,
    "openDays": [
      "平日",
      "祝日"
    ],
    "openDaysNote": "*平成２３年７月２５日付変更（改行）営業日：毎週月・木曜日"
  },
  {
    "id": "670103886",
    "name": "せんじゅ鳥居ケ丘デイサービス",
    "kana": "センジュトリイガオカデイサービス",
    "address": "山形県山形市鳥居ケ丘１９番１３号マザーパレス山形鳥居ケ丘 マザーパレス山形鳥居ケ丘",
    "lat": 38.2287765896017,
    "lng": 140.335568153923,
    "tel": "023‐665‐1215",
    "url": "https://www.se-njyu.co.jp",
    "pref": "山形県",
    "city": "山形市",
    "category": "community_day_service",
    "serviceType": "地域密着型通所介護",
    "capacity": 90,
    "openDays": [
      "平日",
      "土曜日",
      "祝日"
    ],
    "openDaysNote": ""
  },
  {
    "id": "670103613",
    "name": "ソーレ江俣デイサービス",
    "kana": "ソーレエマタデイサービス",
    "address": "山形県山形市江俣1丁目9-15",
    "lat": 38.2749728,
    "lng": 140.3229861,
    "tel": "023-681-2282",
    "url": "http://www.sole.ne.jp",
    "pref": "山形県",
    "city": "山形市",
    "category": "community_day_service",
    "serviceType": "地域密着型通所介護",
    "capacity": 0,
    "openDays": [
      "平日",
      "土曜日",
      "祝日"
    ],
    "openDaysNote": ""
  },
  {
    "id": "670104090",
    "name": "デイサービス　ＥＭＩＯ",
    "kana": "デイサービス　エミオ",
    "address": "山形県山形市陣場二丁目8番35号",
    "lat": 38.278251,
    "lng": 140.3040723,
    "tel": "023-674-0375",
    "url": "",
    "pref": "山形県",
    "city": "山形市",
    "category": "community_day_service",
    "serviceType": "地域密着型通所介護",
    "capacity": 0,
    "openDays": [
      "平日",
      "土曜日",
      "祝日"
    ],
    "openDaysNote": ""
  },
  {
    "id": "670103902",
    "name": "デイサービス「ほづみの森」",
    "kana": "デイサービス「ホヅミノモリ」",
    "address": "山形県山形市穂積６８番地７",
    "lat": 38.2801755,
    "lng": 140.3617215,
    "tel": "023-665-5771",
    "url": "http://haijiain-moriya.com",
    "pref": "山形県",
    "city": "山形市",
    "category": "community_day_service",
    "serviceType": "地域密着型通所介護",
    "capacity": 18,
    "openDays": [
      "平日",
      "土曜日",
      "祝日"
    ],
    "openDaysNote": ""
  },
  {
    "id": "690100797",
    "name": "デイサービスきたえるーむ山形花楯",
    "kana": "デイサービスキタエルームヤマガタハナダテ",
    "address": "山形県山形市浜崎７６番1号",
    "lat": 38.2823741469574,
    "lng": 140.357262835096,
    "tel": "０２３－６８７－１５５７",
    "url": "",
    "pref": "山形県",
    "city": "山形市",
    "category": "community_day_service",
    "serviceType": "地域密着型通所介護",
    "capacity": 10,
    "openDays": [
      "平日",
      "土曜日"
    ],
    "openDaysNote": ""
  },
  {
    "id": "670103290",
    "name": "デイサービスセンターどりーむらんど",
    "kana": "デイサービスセンタードリームランド",
    "address": "山形市嶋南二丁目２番７号",
    "lat": 38.2786778,
    "lng": 140.3184866,
    "tel": "023-666-6827",
    "url": "",
    "pref": "山形県",
    "city": "山形市",
    "category": "community_day_service",
    "serviceType": "地域密着型通所介護",
    "capacity": 18,
    "openDays": [
      "平日",
      "土曜日",
      "祝日"
    ],
    "openDaysNote": ""
  },
  {
    "id": "670101625",
    "name": "デイホーム株式会社サークル",
    "kana": "デイホーム　カブシキガイシャ　サークル",
    "address": "山形市大字志戸田1685－6",
    "lat": 38.2889094,
    "lng": 140.2805597,
    "tel": "023-681-2785",
    "url": "",
    "pref": "山形県",
    "city": "山形市",
    "category": "community_day_service",
    "serviceType": "地域密着型通所介護",
    "capacity": 0,
    "openDays": [
      "平日",
      "祝日"
    ],
    "openDaysNote": ""
  },
  {
    "id": "670103720",
    "name": "リハビリテーション颯　山形霞城",
    "kana": "リハビリテーションソウ　ヤマガタカジョウ",
    "address": "山形県山形市城南町2丁目10番2号サンファーレ101号室 サンファーレ101号室",
    "lat": 38.2524806,
    "lng": 140.3249975,
    "tel": "023-664-3202",
    "url": "https://vesita.co.jp/group/",
    "pref": "山形県",
    "city": "山形市",
    "category": "community_day_service",
    "serviceType": "地域密着型通所介護",
    "capacity": 17,
    "openDays": [
      "平日",
      "祝日"
    ],
    "openDaysNote": ""
  },
  {
    "id": "670104074",
    "name": "楽トレスペースGreen",
    "kana": "ラクトレスペースグリーン",
    "address": "山形県山形市東原町3丁目9番16号Qビルディング1F Qビルディング1F",
    "lat": 38.2428264,
    "lng": 140.3444544,
    "tel": "236297411",
    "url": "https://www.big-advance.site/s/166/1369/company",
    "pref": "山形県",
    "city": "山形市",
    "category": "community_day_service",
    "serviceType": "地域密着型通所介護",
    "capacity": 0,
    "openDays": [
      "平日",
      "祝日"
    ],
    "openDaysNote": "年末年始休業　12月30日～1月3日まで"
  },
  {
    "id": "670104124",
    "name": "機能訓練専門デイサービス　きたえるーむ山形小白川",
    "kana": "キノウクンレンセンモンデイサービス　キタエルームヤマガタコジラカワ",
    "address": "山形県山形市あさひ町１６番１５号",
    "lat": 38.2428019,
    "lng": 140.3628583,
    "tel": "（023）674-8022",
    "url": "http://www.kitaeroom.com/",
    "pref": "山形県",
    "city": "山形市",
    "category": "community_day_service",
    "serviceType": "地域密着型通所介護",
    "capacity": 18,
    "openDays": [
      "平日",
      "土曜日"
    ],
    "openDaysNote": "サービス提供時間は午前・午後に分かれています。"
  },
  {
    "id": "670103514",
    "name": "社会福祉法人　ユトリア会　通所介護ユトリアケアセンターかすみ",
    "kana": "シャカイフクシホウジンユトリアカイツウショカイゴユトリアケアセンターカスミ",
    "address": "山形県山形市香澄町２丁目３番３２号",
    "lat": 38.2469563,
    "lng": 140.3326276,
    "tel": "023-625-1294",
    "url": "http://utoria-kai.com",
    "pref": "山形県",
    "city": "山形市",
    "category": "community_day_service",
    "serviceType": "地域密着型通所介護",
    "capacity": 0,
    "openDays": [
      "平日",
      "土曜日",
      "日曜日",
      "祝日"
    ],
    "openDaysNote": ""
  },
  {
    "id": "670103621",
    "name": "生活塾",
    "kana": "イキイキジュク",
    "address": "山形県山形市城西町5丁目1番7号",
    "lat": 38.2579980139923,
    "lng": 140.31364558738,
    "tel": "023-664-0168",
    "url": "http://www.sumirekanon.com/",
    "pref": "山形県",
    "city": "山形市",
    "category": "community_day_service",
    "serviceType": "地域密着型通所介護",
    "capacity": 15,
    "openDays": [
      "平日",
      "祝日"
    ],
    "openDaysNote": ""
  },
  {
    "id": "670102854",
    "name": "日向の家",
    "kana": "ヒナタノイエ",
    "address": "山形市あかねケ丘二丁目15番10号",
    "lat": 38.2448642,
    "lng": 140.3085802,
    "tel": "023-645-0580",
    "url": "http://www.sumirekanon.com/",
    "pref": "山形県",
    "city": "山形市",
    "category": "community_day_service",
    "serviceType": "地域密着型通所介護",
    "capacity": 14,
    "openDays": [
      "平日",
      "土曜日",
      "祝日"
    ],
    "openDaysNote": ""
  },
  {
    "id": "672200300",
    "name": "スマイルやまのべデイサービス",
    "kana": "スマイルヤマノベデイサービス",
    "address": "山形県東村山郡山辺町大字山辺１３８０",
    "lat": 38.2916532,
    "lng": 140.2672884,
    "tel": "023-667-0438",
    "url": "http://smile-yamanobe.com/",
    "pref": "山形県",
    "city": "山辺町",
    "category": "community_day_service",
    "serviceType": "地域密着型通所介護",
    "capacity": 0,
    "openDays": [
      "平日",
      "祝日"
    ],
    "openDaysNote": "特になし"
  },
  {
    "id": "670801406",
    "name": "アースサポート酒田",
    "kana": "アースサポートサカタ",
    "address": "山形県酒田市若原町5-2",
    "lat": 38.8977546987966,
    "lng": 139.843503931877,
    "tel": "0234-26-9900",
    "url": "http://www.earthsupport.co.jp",
    "pref": "山形県",
    "city": "酒田市",
    "category": "community_day_service",
    "serviceType": "地域密着型通所介護",
    "capacity": 0,
    "openDays": [
      "平日",
      "土曜日",
      "祝日"
    ],
    "openDaysNote": ""
  },
  {
    "id": "670801695",
    "name": "デイサービスこもれび",
    "kana": "デイサービスコモレビ",
    "address": "山形県酒田市亀ヶ崎5丁目7番53号",
    "lat": 38.8993516,
    "lng": 139.8501232,
    "tel": "0234-43-1020",
    "url": "",
    "pref": "山形県",
    "city": "酒田市",
    "category": "community_day_service",
    "serviceType": "地域密着型通所介護",
    "capacity": 0,
    "openDays": [
      "平日",
      "祝日"
    ],
    "openDaysNote": "年末年始休業：12月30日から1月3日"
  },
  {
    "id": "690800370",
    "name": "デイサービスセンターかたばみ荘",
    "kana": "デイサービスセンターカタバミソウ",
    "address": "山形県酒田市北千日堂前字松境18-1",
    "lat": 38.9366504,
    "lng": 139.8345285,
    "tel": "0234-35-1451",
    "url": "https;//www,katabamisou,jp/",
    "pref": "山形県",
    "city": "酒田市",
    "category": "community_day_service",
    "serviceType": "地域密着型通所介護",
    "capacity": 0,
    "openDays": [
      "平日",
      "土曜日",
      "祝日"
    ],
    "openDaysNote": "年始の1日.2日.3日は休業日"
  },
  {
    "id": "670801091",
    "name": "デイサービスセンターふれんど",
    "kana": "デイサービスセンターフレンド",
    "address": "山形県酒田市古湊町９番８号",
    "lat": 38.9490435,
    "lng": 139.8288257,
    "tel": "0234-35-1210",
    "url": "",
    "pref": "山形県",
    "city": "酒田市",
    "category": "community_day_service",
    "serviceType": "地域密着型通所介護",
    "capacity": 17,
    "openDays": [
      "平日",
      "土曜日",
      "日曜日",
      "祝日"
    ],
    "openDaysNote": "特になし"
  },
  {
    "id": "671300424",
    "name": "上山市社会福祉協議会デイサービスはやま",
    "kana": "カミノヤマシシャカイフクシキョウギカイデイサービスハヤマ",
    "address": "山形県上山市葉山５番７０号上山市老人福祉センター寿荘 上山市老人福祉センター寿荘",
    "lat": 38.1488647,
    "lng": 140.2635661,
    "tel": "023-673-3725",
    "url": "http://care-net.biz/06/kaminoyama/",
    "pref": "山形県",
    "city": "上山市",
    "category": "community_day_service",
    "serviceType": "地域密着型通所介護",
    "capacity": 12,
    "openDays": [
      "平日",
      "祝日"
    ],
    "openDaysNote": "なし"
  },
  {
    "id": "671100907",
    "name": "あおばディサービスセンター",
    "kana": "アオバデイサービスセンター",
    "address": "山形県新庄市沼田町６－２２",
    "lat": 38.7713229,
    "lng": 140.3001889,
    "tel": "0233-32-0658",
    "url": "",
    "pref": "山形県",
    "city": "新庄市",
    "category": "community_day_service",
    "serviceType": "地域密着型通所介護",
    "capacity": 15,
    "openDays": [
      "平日",
      "祝日"
    ],
    "openDaysNote": "定休日以外の休業日：お盆（８/１３）新庄祭り（８/２４・２５・２６）年末年始（１２/３０～１/３）"
  },
  {
    "id": "691100093",
    "name": "デイサービス　すまいる",
    "kana": "デイサービス　スマイル",
    "address": "山形県新庄市小田島町6番60号",
    "lat": 38.7644014,
    "lng": 140.2971058,
    "tel": "0233-32-0283",
    "url": "http://hp.kaipoke.biz/x7f/",
    "pref": "山形県",
    "city": "新庄市",
    "category": "community_day_service",
    "serviceType": "地域密着型通所介護",
    "capacity": 0,
    "openDays": [
      "平日",
      "土曜日",
      "日曜日",
      "祝日"
    ],
    "openDaysNote": ""
  },
  {
    "id": "671100840",
    "name": "デイサービス　ふれあい",
    "kana": "デイサービス　フレアイ",
    "address": "山形県新庄市下田町6-9",
    "lat": 38.7567524,
    "lng": 140.2979895,
    "tel": "0233-23-0308",
    "url": "",
    "pref": "山形県",
    "city": "新庄市",
    "category": "community_day_service",
    "serviceType": "地域密着型通所介護",
    "capacity": 10,
    "openDays": [
      "平日",
      "土曜日",
      "日曜日",
      "祝日"
    ],
    "openDaysNote": ""
  },
  {
    "id": "671100733",
    "name": "デイサービス　ライフ",
    "kana": "デイサービス　ライフ",
    "address": "山形県新庄市金沢2018-7",
    "lat": 38.7525613477913,
    "lng": 140.310508677763,
    "tel": "0233-29-8929",
    "url": "",
    "pref": "山形県",
    "city": "新庄市",
    "category": "community_day_service",
    "serviceType": "地域密着型通所介護",
    "capacity": 0,
    "openDays": [
      "平日",
      "土曜日",
      "日曜日",
      "祝日"
    ],
    "openDaysNote": ""
  },
  {
    "id": "671100857",
    "name": "デイサービスセンター虹（にじ）",
    "kana": "デイサービスセンターニジ（ニジ）",
    "address": "山形県新庄市十日町２８０４番地の６",
    "lat": 38.7687312,
    "lng": 140.2865509,
    "tel": "0233－29－2207",
    "url": "https://www.nijikaigo.com/",
    "pref": "山形県",
    "city": "新庄市",
    "category": "community_day_service",
    "serviceType": "地域密着型通所介護",
    "capacity": 0,
    "openDays": [
      "平日",
      "土曜日",
      "祝日"
    ],
    "openDaysNote": "年末年始休業：12月31日～1月3日（改行）新庄祭り休業：8月25日（改行）提供時間については、利用者様の利用時間によります。"
  },
  {
    "id": "671101046",
    "name": "通所介護「エブリデイズ」",
    "kana": "ツウショカイゴ「エブリデイズ」",
    "address": "山形県新庄市常葉町5-6",
    "lat": 15.4414439,
    "lng": -90.403692,
    "tel": "0233-22-7552",
    "url": "",
    "pref": "山形県",
    "city": "新庄市",
    "category": "community_day_service",
    "serviceType": "地域密着型通所介護",
    "capacity": 0,
    "openDays": [
      "平日",
      "土曜日",
      "祝日"
    ],
    "openDaysNote": ""
  },
  {
    "id": "672600293",
    "name": "ケアステージとこしえ西大塚",
    "kana": "ケアステージトコシエニシオオツカ",
    "address": "山形県東置賜郡川西町大字西大塚２３０１番地",
    "lat": 38.0505256,
    "lng": 140.0645271,
    "tel": "0238-54-2225",
    "url": "http://www.tokoshie.net",
    "pref": "山形県",
    "city": "川西町",
    "category": "community_day_service",
    "serviceType": "地域密着型通所介護",
    "capacity": 0,
    "openDays": [
      "平日",
      "土曜日",
      "日曜日",
      "祝日"
    ],
    "openDaysNote": "年中無休（時短営業等も無し）"
  },
  {
    "id": "692600075",
    "name": "デイサービスセンター　そよ風の森",
    "kana": "デイサービスセンター　ソヨカゼノモリ",
    "address": "山形県東置賜郡川西町大字時田1417番地",
    "lat": 37.9846291,
    "lng": 140.0637246,
    "tel": "0238-46-2121",
    "url": "http://soyokazenomo.jp",
    "pref": "山形県",
    "city": "川西町",
    "category": "community_day_service",
    "serviceType": "地域密着型通所介護",
    "capacity": 18,
    "openDays": [
      "平日",
      "祝日"
    ],
    "openDaysNote": "特になし"
  },
  {
    "id": "672300696",
    "name": "通所介護事業所　「楽　校」",
    "kana": "ツウショカイゴジギョウショ　「ガッコウ」",
    "address": "山形県西村山郡大江町大字左沢５２６番地",
    "lat": 38.3792703,
    "lng": 140.2068765,
    "tel": "０２３７－８５－１７５２",
    "url": "",
    "pref": "山形県",
    "city": "大江町",
    "category": "community_day_service",
    "serviceType": "地域密着型通所介護",
    "capacity": 0,
    "openDays": [
      "平日",
      "土曜日",
      "祝日"
    ],
    "openDaysNote": ""
  },
  {
    "id": "672300514",
    "name": "ぬくひデイサービスセンター",
    "kana": "ヌクヒデイサービスセンター",
    "address": "山形県西村山郡朝日町大字宮宿１１８２－１７",
    "lat": 38.3021393,
    "lng": 140.1486339,
    "tel": "0237-67-3322",
    "url": "",
    "pref": "山形県",
    "city": "朝日町",
    "category": "community_day_service",
    "serviceType": "地域密着型通所介護",
    "capacity": 10,
    "openDays": [
      "平日",
      "土曜日",
      "祝日"
    ],
    "openDaysNote": ""
  },
  {
    "id": "671500452",
    "name": "デイサービスセンター風ぐるま平野",
    "kana": "デイサービスセンターカザグルマヒラノ",
    "address": "山形県長井市九野本5461-5",
    "lat": 38.0927916,
    "lng": 140.0098439,
    "tel": "0238-87-4800",
    "url": "https://curedream.com",
    "pref": "山形県",
    "city": "長井市",
    "category": "community_day_service",
    "serviceType": "地域密着型通所介護",
    "capacity": 0,
    "openDays": [
      "平日",
      "祝日"
    ],
    "openDaysNote": ""
  },
  {
    "id": "671500528",
    "name": "小規模デイサービス　クオーレ伊佐沢",
    "kana": "ショウキボデイサービス　クオーレイサザワ",
    "address": "山形県長井市中伊佐沢字粡町2073",
    "lat": 38.0874856,
    "lng": 140.0666893,
    "tel": "0238-87-0417",
    "url": "",
    "pref": "山形県",
    "city": "長井市",
    "category": "community_day_service",
    "serviceType": "地域密着型通所介護",
    "capacity": 300,
    "openDays": [
      "平日",
      "土曜日",
      "祝日"
    ],
    "openDaysNote": "年末年始の休業日は変更することがあります。"
  },
  {
    "id": "671500486",
    "name": "小規模デイサービス河井の里",
    "kana": "ショウキボデイサービスカワイノサト",
    "address": "山形県長井市河井883番地",
    "lat": 38.0733118,
    "lng": 140.0470778,
    "tel": "0238-88-9227",
    "url": "",
    "pref": "山形県",
    "city": "長井市",
    "category": "community_day_service",
    "serviceType": "地域密着型通所介護",
    "capacity": 10,
    "openDays": [
      "平日",
      "土曜日",
      "祝日"
    ],
    "openDaysNote": ""
  },
  {
    "id": "690700448",
    "name": "アズリー・リハトレ",
    "kana": "アズリー・リハトレ",
    "address": "山形県鶴岡市鳥居町22-20",
    "lat": 38.7295419,
    "lng": 139.8374114,
    "tel": "0235-64-0117",
    "url": "https://azuree.jp/contact/",
    "pref": "山形県",
    "city": "鶴岡市",
    "category": "community_day_service",
    "serviceType": "地域密着型通所介護",
    "capacity": 0,
    "openDays": [
      "平日",
      "土曜日",
      "祝日"
    ],
    "openDaysNote": "【以下の日は休業日となっております】（改行）①こどもの日（改行）②８月１３日（改行）③敬老の日（改行）④年末年始(１２月２９日～１月３日)"
  },
  {
    "id": "670700921",
    "name": "デイホーム　はぐろの里",
    "kana": "デイホーム　ハグロノサト",
    "address": "山形県鶴岡市羽黒町荒川字谷地堰42ー1",
    "lat": 38.7185297306719,
    "lng": 139.899176498672,
    "tel": "0235-26-0120",
    "url": "",
    "pref": "山形県",
    "city": "鶴岡市",
    "category": "community_day_service",
    "serviceType": "地域密着型通所介護",
    "capacity": 10,
    "openDays": [
      "平日",
      "土曜日",
      "日曜日",
      "祝日"
    ],
    "openDaysNote": ""
  },
  {
    "id": "670701333",
    "name": "ハビビ伊勢原",
    "kana": "ハビビイセハラ",
    "address": "山形県鶴岡市伊勢原町１６番１６号",
    "lat": 38.7173486421587,
    "lng": 139.853445773016,
    "tel": "0235-23-8576",
    "url": "https://www.habibi3.com/",
    "pref": "山形県",
    "city": "鶴岡市",
    "category": "community_day_service",
    "serviceType": "地域密着型通所介護",
    "capacity": 15,
    "openDays": [
      "平日",
      "祝日"
    ],
    "openDaysNote": "感染症や不慮の災害等により、規定した営業日以外（土、日曜日）に開所することがある。"
  },
  {
    "id": "670701234",
    "name": "メディカルデイサービスビビ",
    "kana": "メディカルデイサービスビビ",
    "address": "鶴岡市文園町１１－３鶴岡協立病院附属クリニック2階 鶴岡協立病院附属クリニック2階",
    "lat": 38.7146817,
    "lng": 139.8273143,
    "tel": "0235-23-6060",
    "url": "http://y-mcoop.com/vivid/",
    "pref": "山形県",
    "city": "鶴岡市",
    "category": "community_day_service",
    "serviceType": "地域密着型通所介護",
    "capacity": 0,
    "openDays": [
      "平日",
      "土曜日",
      "祝日"
    ],
    "openDaysNote": ""
  },
  {
    "id": "670701770",
    "name": "リハビリステーション・アズリー",
    "kana": "リハビリステーション・アズリー",
    "address": "山形県鶴岡市鳥居町23-2",
    "lat": 38.7292776,
    "lng": 139.837288,
    "tel": "0235-64-8902",
    "url": "https://azuree.jp/contact/",
    "pref": "山形県",
    "city": "鶴岡市",
    "category": "community_day_service",
    "serviceType": "地域密着型通所介護",
    "capacity": 0,
    "openDays": [
      "平日",
      "祝日"
    ],
    "openDaysNote": "【その他休業日】（改行）①5月5日（改行）②8月13日（改行）③敬老の日（改行）④12月29日～1月3日"
  },
  {
    "id": "670701713",
    "name": "瑞穂の郷デイサービスセンター西館",
    "kana": "ミズホノサトデイサービスセンターニシカン",
    "address": "山形県鶴岡市羽黒町細谷字北田１２８－１",
    "lat": 38.737413,
    "lng": 139.8616022,
    "tel": "0235-29-1025",
    "url": "http:www.hcp-net.co.jp",
    "pref": "山形県",
    "city": "鶴岡市",
    "category": "community_day_service",
    "serviceType": "地域密着型通所介護",
    "capacity": 15,
    "openDays": [
      "平日",
      "祝日"
    ],
    "openDaysNote": ""
  },
  {
    "id": "670701705",
    "name": "瑞穂の郷デイサービスセンター東館",
    "kana": "ミズホノサトデイサービスセンターヒガシカン",
    "address": "山形県鶴岡市羽黒町細谷字北田１２８－１",
    "lat": 38.737413,
    "lng": 139.8616022,
    "tel": "0235-29-1025",
    "url": "http://www.hcp-net.co.jp",
    "pref": "山形県",
    "city": "鶴岡市",
    "category": "community_day_service",
    "serviceType": "地域密着型通所介護",
    "capacity": 15,
    "openDays": [
      "平日",
      "土曜日",
      "祝日"
    ],
    "openDaysNote": ""
  },
  {
    "id": "690700349",
    "name": "療養通所介護のぞみの家",
    "kana": "リョウヨウツウショカイゴノゾミノイエ",
    "address": "山形県鶴岡市北茅原町５番５４号",
    "lat": 38.7547941,
    "lng": 139.8427117,
    "tel": "0235-25-8335",
    "url": "http://www.mituwakai.com",
    "pref": "山形県",
    "city": "鶴岡市",
    "category": "community_day_service",
    "serviceType": "地域密着型通所介護",
    "capacity": 9,
    "openDays": [
      "平日",
      "土曜日",
      "祝日"
    ],
    "openDaysNote": "特になし"
  },
  {
    "id": "671600831",
    "name": "ソーレホーム天童デイサービス",
    "kana": "ソーレホームテンドウデイサービス",
    "address": "天童市桜町１番７号",
    "lat": 38.3533186,
    "lng": 140.3850022,
    "tel": "023-674-6600",
    "url": "https://www.sole.ne.jp",
    "pref": "山形県",
    "city": "天童市",
    "category": "community_day_service",
    "serviceType": "地域密着型通所介護",
    "capacity": 18,
    "openDays": [
      "平日",
      "土曜日",
      "祝日"
    ],
    "openDaysNote": ""
  },
  {
    "id": "671600864",
    "name": "ﾃﾞｲｻｰﾋﾞｽお茶のみ大学",
    "kana": "デイサービスオチャノミダイガク",
    "address": "山形県天童市北目4丁目７番22号",
    "lat": 38.3479701118255,
    "lng": 140.376065890213,
    "tel": "023-653-3378",
    "url": "",
    "pref": "山形県",
    "city": "天童市",
    "category": "community_day_service",
    "serviceType": "地域密着型通所介護",
    "capacity": 13,
    "openDays": [
      "平日",
      "土曜日",
      "祝日"
    ],
    "openDaysNote": ""
  },
  {
    "id": "671600807",
    "name": "天童　デイサービス　あさひの家",
    "kana": "テンドウ　デイサービス　アサヒノイエ",
    "address": "山形県天童市五日町1-2-5",
    "lat": 38.3542264,
    "lng": 140.3704588,
    "tel": "023-674-8040",
    "url": "http://asahinoie.care",
    "pref": "山形県",
    "city": "天童市",
    "category": "community_day_service",
    "serviceType": "地域密着型通所介護",
    "capacity": 0,
    "openDays": [
      "平日",
      "土曜日",
      "祝日"
    ],
    "openDaysNote": ""
  },
  {
    "id": "691700116",
    "name": "デイサービス　和っしょい",
    "kana": "デイサービス　ワッショイ",
    "address": "山形県東根市本丸南1-7-1",
    "lat": 38.4417615869718,
    "lng": 140.400748235582,
    "tel": "0237-53-8677",
    "url": "wasshoi.biz",
    "pref": "山形県",
    "city": "東根市",
    "category": "community_day_service",
    "serviceType": "地域密着型通所介護",
    "capacity": null,
    "openDays": [
      "平日",
      "土曜日",
      "祝日"
    ],
    "openDaysNote": ""
  },
  {
    "id": "691700082",
    "name": "にこにこファミリアデイサービス",
    "kana": "ニコニコファミリアデイサービス",
    "address": "山形県東根市温泉町二丁目1-19",
    "lat": 38.4588488870407,
    "lng": 140.391136759,
    "tel": "0237-53-1140",
    "url": "http://www.nikoniko-life.com",
    "pref": "山形県",
    "city": "東根市",
    "category": "community_day_service",
    "serviceType": "地域密着型通所介護",
    "capacity": 0,
    "openDays": [
      "平日",
      "土曜日",
      "祝日"
    ],
    "openDaysNote": ""
  },
  {
    "id": "671900074",
    "name": "こぶし荘デイサービスセンター",
    "kana": "コブシソウデイサービスセンター",
    "address": "山形県南陽市川樋508番地",
    "lat": 38.0948792,
    "lng": 140.1940284,
    "tel": "0238-49-2460",
    "url": "http://www.kobushiso.jp/",
    "pref": "山形県",
    "city": "南陽市",
    "category": "community_day_service",
    "serviceType": "地域密着型通所介護",
    "capacity": 18,
    "openDays": [
      "平日"
    ],
    "openDaysNote": ""
  },
  {
    "id": "671900249",
    "name": "すがの介護サービス",
    "kana": "スガノカイゴサービス",
    "address": "山形県南陽市若狭郷屋755-1",
    "lat": 38.0546488271792,
    "lng": 140.143421003427,
    "tel": "0238-43-7377",
    "url": "",
    "pref": "山形県",
    "city": "南陽市",
    "category": "community_day_service",
    "serviceType": "地域密着型通所介護",
    "capacity": 0,
    "openDays": [
      "平日",
      "土曜日",
      "祝日"
    ],
    "openDaysNote": ""
  },
  {
    "id": "671900330",
    "name": "セローム　すがの",
    "kana": "セローム　スガノ",
    "address": "山形県南陽市若狭郷屋731-3",
    "lat": 38.0545605,
    "lng": 140.144864,
    "tel": "0238-43-7377",
    "url": "",
    "pref": "山形県",
    "city": "南陽市",
    "category": "community_day_service",
    "serviceType": "地域密着型通所介護",
    "capacity": 0,
    "openDays": [
      "平日",
      "土曜日",
      "祝日"
    ],
    "openDaysNote": ""
  },
  {
    "id": "672700416",
    "name": "リハビリデイサービスすがい",
    "kana": "リハビリデイサービススガイ",
    "address": "山形県西置賜郡白鷹町大字荒砥甲726番地3",
    "lat": 38.1820313,
    "lng": 140.100968,
    "tel": "0238-87-0883",
    "url": "",
    "pref": "山形県",
    "city": "白鷹町",
    "category": "community_day_service",
    "serviceType": "地域密着型通所介護",
    "capacity": 65,
    "openDays": [
      "平日",
      "祝日"
    ],
    "openDaysNote": "（その他年間の休日）お盆8月13日～16日、年末年始12月29日～1月3日"
  },
  {
    "id": "672700366",
    "name": "ディサービスセンターさわやかホーム",
    "kana": "ディサービスセンターサワヤカホーム",
    "address": "山形県西置賜郡飯豊町大字手ノ子１６５１-1番地",
    "lat": 38.0093521,
    "lng": 139.9611756,
    "tel": "0238-75-2021",
    "url": "",
    "pref": "山形県",
    "city": "飯豊町",
    "category": "community_day_service",
    "serviceType": "地域密着型通所介護",
    "capacity": 10,
    "openDays": [
      "平日",
      "土曜日",
      "祝日"
    ],
    "openDaysNote": ""
  },
  {
    "id": "670401736",
    "name": "ココロリビング米沢",
    "kana": "ココロリビングヨネザワ",
    "address": "山形県米沢市下花沢三丁目9-52",
    "lat": 37.9175827,
    "lng": 140.1281164,
    "tel": "0238-40-8548",
    "url": "http://www.care-w.com/",
    "pref": "山形県",
    "city": "米沢市",
    "category": "community_day_service",
    "serviceType": "地域密着型通所介護",
    "capacity": 0,
    "openDays": [
      "平日",
      "祝日"
    ],
    "openDaysNote": ""
  },
  {
    "id": "690400296",
    "name": "デイサービスセンター　　清ら家",
    "kana": "デイサービスセンター　　キヨラカ",
    "address": "山形県米沢市春日1丁目4番27号",
    "lat": 37.9218113,
    "lng": 140.112315,
    "tel": "0238-40-1550",
    "url": "http://y-seiyukai.com",
    "pref": "山形県",
    "city": "米沢市",
    "category": "community_day_service",
    "serviceType": "地域密着型通所介護",
    "capacity": 0,
    "openDays": [
      "平日",
      "土曜日",
      "日曜日",
      "祝日"
    ],
    "openDaysNote": "但し、感染症等が蔓延した場合にはこの限りでない。"
  },
  {
    "id": "670401785",
    "name": "デイサービス奏で館",
    "kana": "デイサービス　カナデカン",
    "address": "山形県米沢市中央7丁目4－37サービス付き高齢者向け住宅　奏で館 サービス付き高齢者向け住宅　奏で館",
    "lat": 37.9206844,
    "lng": 140.1074017,
    "tel": "0238－40－1130",
    "url": "http://care-net.biz/06/touyoukan/",
    "pref": "山形県",
    "city": "米沢市",
    "category": "community_day_service",
    "serviceType": "地域密着型通所介護",
    "capacity": 0,
    "openDays": [
      "平日",
      "土曜日",
      "祝日"
    ],
    "openDaysNote": ""
  },
  {
    "id": "690400213",
    "name": "ひなたぼっこデイサービスセンター",
    "kana": "ヒナタボッコデイサービスセンター",
    "address": "米沢市舘山1丁目２－６－２",
    "lat": 37.9096072,
    "lng": 140.0801801,
    "tel": "0238-37-0781",
    "url": "https://y-hinata.com",
    "pref": "山形県",
    "city": "米沢市",
    "category": "community_day_service",
    "serviceType": "地域密着型通所介護",
    "capacity": 15,
    "openDays": [
      "平日",
      "土曜日",
      "祝日"
    ],
    "openDaysNote": ""
  },
  {
    "id": "670401678",
    "name": "マイウェイデイサービス",
    "kana": "マイウェイデイサービス",
    "address": "山形県米沢市松が岬１丁目１－２６加藤接骨院内 加藤接骨院内",
    "lat": 37.9067276,
    "lng": 140.1012922,
    "tel": "0238-40-1512",
    "url": "https://myway-dayservice.com/",
    "pref": "山形県",
    "city": "米沢市",
    "category": "community_day_service",
    "serviceType": "地域密着型通所介護",
    "capacity": 100,
    "openDays": [
      "平日",
      "祝日"
    ],
    "openDaysNote": ""
  },
  {
    "id": "670401827",
    "name": "リハビリ特化型デイサービスReはーと",
    "kana": "リハビリトッカガタデイサービスリハート",
    "address": "山形県米沢市広幡町成島１０２７番地",
    "lat": 37.9294908,
    "lng": 140.0785374,
    "tel": "０２３８-３３-９４４２",
    "url": "http://rehabili-orafu.com",
    "pref": "山形県",
    "city": "米沢市",
    "category": "community_day_service",
    "serviceType": "地域密着型通所介護",
    "capacity": 10,
    "openDays": [
      "平日",
      "祝日"
    ],
    "openDaysNote": "１単位目：　９時００分～１２時１５分（３時間１５分）（改行）２単位目：１３時３０分～１６時４５分（３時間１５分）"
  },
  {
    "id": "690400239",
    "name": "楽らくケアセンターデイサービス",
    "kana": "ラクラクケアセンターデイサービス",
    "address": "山形県米沢市大町5丁目4－51",
    "lat": 37.9132522,
    "lng": 140.1135461,
    "tel": "0238-26-8680",
    "url": "http://raku-raku.info",
    "pref": "山形県",
    "city": "米沢市",
    "category": "community_day_service",
    "serviceType": "地域密着型通所介護",
    "capacity": null,
    "openDays": [
      "平日",
      "土曜日",
      "祝日"
    ],
    "openDaysNote": ""
  },
  {
    "id": "690400221",
    "name": "楽らくデイサービスやよい",
    "kana": "ラクラクデイサービスヤヨイ",
    "address": "山形県米沢市東3丁目4－57－101",
    "lat": 37.9077866,
    "lng": 140.1269757,
    "tel": "0238-26-1151",
    "url": "http://raku-raku.info",
    "pref": "山形県",
    "city": "米沢市",
    "category": "community_day_service",
    "serviceType": "地域密着型通所介護",
    "capacity": null,
    "openDays": [
      "平日",
      "祝日"
    ],
    "openDaysNote": "なし"
  },
  {
    "id": "673200366",
    "name": "デイサービス燦燦",
    "kana": "デイサービスサンサン",
    "address": "山形県飽海郡遊佐町遊佐字南大坪12-1",
    "lat": 39.0091972,
    "lng": 139.9170594,
    "tel": "0234-72-5235",
    "url": "http://www.msc33.co.jp",
    "pref": "山形県",
    "city": "遊佐町",
    "category": "community_day_service",
    "serviceType": "地域密着型通所介護",
    "capacity": 0,
    "openDays": [
      "平日",
      "土曜日",
      "祝日"
    ],
    "openDaysNote": "特になし"
  }
]