[
  {
    "id": "3578100533",
    "name": "小地域サービス事業所　ひだまりの里",
    "kana": "ショウチイキサービスジギョウショ　ヒダマリノサト",
    "address": "山口県阿武郡阿武町大字宇田２２５１",
    "lat": 34.5677241,
    "lng": 131.54541,
    "tel": "08388-4-0787",
    "url": "http://abufukushi.com",
    "pref": "山口県",
    "city": "阿武町",
    "category": "community_day_service",
    "serviceType": "地域密着型通所介護",
    "capacity": 0,
    "openDays": [
      "平日",
      "土曜日",
      "祝日"
    ],
    "openDaysNote": "特になし"
  },
  {
    "id": "3570400519",
    "name": "清ヶ浜デイサービスセンター",
    "kana": "キヨガハマデイサービスセンター",
    "address": "山口県阿武郡阿武町大字木与10037番地3",
    "lat": 34.5346498,
    "lng": 131.5162761,
    "tel": "08388-2-3314",
    "url": "http://abufukushi.com",
    "pref": "山口県",
    "city": "阿武町",
    "category": "community_day_service",
    "serviceType": "地域密着型通所介護",
    "capacity": null,
    "openDays": [
      "平日",
      "土曜日",
      "祝日"
    ],
    "openDaysNote": "特になし"
  },
  {
    "id": "3590200477",
    "name": "（有）てご屋デイサービスセンター",
    "kana": "ユウゲンガイシャテゴヤデイサービスセンター",
    "address": "宇部市常盤台1丁目2576番2",
    "lat": 33.9581944,
    "lng": 131.2674815,
    "tel": "0836-21-8761",
    "url": "http://www.tegoya.in/",
    "pref": "山口県",
    "city": "宇部市",
    "category": "community_day_service",
    "serviceType": "地域密着型通所介護",
    "capacity": 0,
    "openDays": [
      "平日",
      "土曜日"
    ],
    "openDaysNote": ""
  },
  {
    "id": "3570203053",
    "name": "デイサービス　いやし",
    "kana": "デイサービス　イヤシ",
    "address": "山口県宇部市大字沖宇部６２－４",
    "lat": 33.9602419,
    "lng": 131.2941243,
    "tel": "0836-51-6700",
    "url": "iyashi-ube@cap.ocn.ne.jp",
    "pref": "山口県",
    "city": "宇部市",
    "category": "community_day_service",
    "serviceType": "地域密着型通所介護",
    "capacity": 10,
    "openDays": [
      "平日",
      "土曜日",
      "日曜日",
      "祝日"
    ],
    "openDaysNote": "・送迎時間の連絡（改行）・体調管理（改行）・体調不良などによるサービスの中止・変更・時間変更"
  },
  {
    "id": "3570203152",
    "name": "デイサービス　クローバー",
    "kana": "デイサービス　クローバー",
    "address": "山口県宇部市大字中野開作１８０番４ハートライフ　クローバー ハートライフ　クローバー",
    "lat": 33.9883016,
    "lng": 131.2191892,
    "tel": "０８３６－４３－６５００",
    "url": "",
    "pref": "山口県",
    "city": "宇部市",
    "category": "community_day_service",
    "serviceType": "地域密着型通所介護",
    "capacity": 0,
    "openDays": [
      "平日",
      "祝日"
    ],
    "openDaysNote": "８月１４日１５日　１２月３１日、１月１日２日３日　休み"
  },
  {
    "id": "3570202345",
    "name": "デイサービス　波雁ヶ浜",
    "kana": "デイサービス　ハカリガハマ",
    "address": "宇部市大字東岐波1466-6",
    "lat": 33.98331,
    "lng": 131.3484557,
    "tel": "0836-59-0050",
    "url": "https://katakura-day.com/",
    "pref": "山口県",
    "city": "宇部市",
    "category": "community_day_service",
    "serviceType": "地域密着型通所介護",
    "capacity": 0,
    "openDays": [
      "平日",
      "祝日"
    ],
    "openDaysNote": "但し、毎年のカレンダーにより若干の変更あり"
  },
  {
    "id": "3590200543",
    "name": "デイサービスSOUTHSUN",
    "kana": "デイサービスサウスサン",
    "address": "宇部市妻崎開作2046-12",
    "lat": 33.9822276,
    "lng": 131.2031223,
    "tel": "0836-45-3030",
    "url": "https://south10.biz/",
    "pref": "山口県",
    "city": "宇部市",
    "category": "community_day_service",
    "serviceType": "地域密着型通所介護",
    "capacity": 10,
    "openDays": [
      "平日",
      "土曜日"
    ],
    "openDaysNote": ""
  },
  {
    "id": "3590200642",
    "name": "デイサービスいろは",
    "kana": "デイサービスイロハ",
    "address": "山口県宇部市文京台三丁目17番7号",
    "lat": 33.9808081,
    "lng": 131.2297569,
    "tel": "0836-37-3900",
    "url": "http://hp.kaipoke.biz/z9a/",
    "pref": "山口県",
    "city": "宇部市",
    "category": "community_day_service",
    "serviceType": "地域密着型通所介護",
    "capacity": 10,
    "openDays": [
      "平日",
      "土曜日",
      "祝日"
    ],
    "openDaysNote": ""
  },
  {
    "id": "3570202261",
    "name": "デイサービスかもめ",
    "kana": "デイサービスカモメ",
    "address": "山口県宇部市大字上宇部３９番地７",
    "lat": 33.9640998,
    "lng": 131.28983,
    "tel": "０８３６－３７－４１６５",
    "url": "http://www2.ocn.ne.jp/~kamome-u/",
    "pref": "山口県",
    "city": "宇部市",
    "category": "community_day_service",
    "serviceType": "地域密着型通所介護",
    "capacity": 12,
    "openDays": [
      "平日",
      "土曜日",
      "祝日"
    ],
    "openDaysNote": ""
  },
  {
    "id": "3590200238",
    "name": "デイサービスかもめ３",
    "kana": "デイサービスカモメサン",
    "address": "山口県宇部市大字西岐波４９５３番地６",
    "lat": 33.9661504761556,
    "lng": 131.294749184864,
    "tel": "0836-39-8888",
    "url": "",
    "pref": "山口県",
    "city": "宇部市",
    "category": "community_day_service",
    "serviceType": "地域密着型通所介護",
    "capacity": 5,
    "openDays": [
      "平日",
      "土曜日",
      "祝日"
    ],
    "openDaysNote": ""
  },
  {
    "id": "3590200329",
    "name": "デイサービスさち",
    "kana": "デイサービスサチ",
    "address": "山口県宇部市大字車地４３番地１",
    "lat": 34.0595893,
    "lng": 131.2927431,
    "tel": "0836-62-0557",
    "url": "",
    "pref": "山口県",
    "city": "宇部市",
    "category": "community_day_service",
    "serviceType": "地域密着型通所介護",
    "capacity": 0,
    "openDays": [
      "平日"
    ],
    "openDaysNote": ""
  },
  {
    "id": "3570203491",
    "name": "デイサービスセンターみのり",
    "kana": "デイサービスセンターミノリ",
    "address": "宇部市大字際波1704-1住宅型有料老人ホームみのり内 住宅型有料老人ホームみのり内",
    "lat": 34.0065846575387,
    "lng": 131.220243648132,
    "tel": "0836-44-6193",
    "url": "http://www.minori-ube.jp",
    "pref": "山口県",
    "city": "宇部市",
    "category": "community_day_service",
    "serviceType": "地域密着型通所介護",
    "capacity": 14,
    "openDays": [
      "平日",
      "祝日"
    ],
    "openDaysNote": "居宅介護サービス計画により、休業日及び営業時間外であってもサービスを提供する場合があります。"
  },
  {
    "id": "3590200691",
    "name": "デイサービスセンター未来",
    "kana": "デイサービスセンターミライ",
    "address": "山口県宇部市大字船木1017番地3",
    "lat": 34.0415075,
    "lng": 131.2220436,
    "tel": "0836-67-3012",
    "url": "https://aiyuukai-mirai.jp/",
    "pref": "山口県",
    "city": "宇部市",
    "category": "community_day_service",
    "serviceType": "地域密着型通所介護",
    "capacity": null,
    "openDays": [
      "平日",
      "土曜日",
      "祝日"
    ],
    "openDaysNote": ""
  },
  {
    "id": "3570203111",
    "name": "デイサービスなごみ",
    "kana": "デイサービスナゴミ",
    "address": "草江２丁目5-1",
    "lat": 33.939418,
    "lng": 131.2747202,
    "tel": "0836-35-7530",
    "url": "http://www.nagominokai.com/",
    "pref": "山口県",
    "city": "宇部市",
    "category": "community_day_service",
    "serviceType": "地域密着型通所介護",
    "capacity": 15,
    "openDays": [
      "平日",
      "土曜日",
      "祝日"
    ],
    "openDaysNote": ""
  },
  {
    "id": "3570203269",
    "name": "デイサービスひまわりの家",
    "kana": "デイサービスヒマワリノイエ",
    "address": "山口県宇部市野中5丁目5番1",
    "lat": 33.9461358845783,
    "lng": 131.275816450493,
    "tel": "0836-35-2356",
    "url": "",
    "pref": "山口県",
    "city": "宇部市",
    "category": "community_day_service",
    "serviceType": "地域密着型通所介護",
    "capacity": 10,
    "openDays": [
      "平日",
      "土曜日",
      "祝日"
    ],
    "openDaysNote": "利用時間の延長相談に応じます。"
  },
  {
    "id": "3570202089",
    "name": "デイサービス釜さん家",
    "kana": "デイサービスカマサンチ",
    "address": "宇部市岬町１丁目６番１７号",
    "lat": 33.9328028,
    "lng": 131.2624242,
    "tel": "0836-39-5269",
    "url": "",
    "pref": "山口県",
    "city": "宇部市",
    "category": "community_day_service",
    "serviceType": "地域密着型通所介護",
    "capacity": 0,
    "openDays": [
      "平日",
      "土曜日"
    ],
    "openDaysNote": "特に無し"
  },
  {
    "id": "3570202022",
    "name": "デイサービス小野湖畔リゾート",
    "kana": "デイサービスオノコハンリゾート",
    "address": "宇部市小野10352-8",
    "lat": 34.0867287,
    "lng": 131.3051312,
    "tel": "0836-64-5080",
    "url": "https://katakura-day.com/",
    "pref": "山口県",
    "city": "宇部市",
    "category": "community_day_service",
    "serviceType": "地域密着型通所介護",
    "capacity": 0,
    "openDays": [
      "平日",
      "祝日"
    ],
    "openDaysNote": "特になし"
  },
  {
    "id": "3570202568",
    "name": "デイサービス美咲",
    "kana": "デイサービスミサキ",
    "address": "宇部市昭和町4丁目2番1号",
    "lat": 33.9356247,
    "lng": 131.2583189,
    "tel": "0836－33－1007",
    "url": "",
    "pref": "山口県",
    "city": "宇部市",
    "category": "community_day_service",
    "serviceType": "地域密着型通所介護",
    "capacity": 10,
    "openDays": [
      "平日",
      "祝日"
    ],
    "openDaysNote": "希望があれば短時間の利用も出来ます"
  },
  {
    "id": "3590200469",
    "name": "デイサービス歩夢",
    "kana": "デイサービスアユム",
    "address": "大字船木1017番地1",
    "lat": 34.0422378,
    "lng": 131.2214736,
    "tel": "0836-67-3016",
    "url": "https://aiyuukai-mirai.jp/",
    "pref": "山口県",
    "city": "宇部市",
    "category": "community_day_service",
    "serviceType": "地域密着型通所介護",
    "capacity": 10,
    "openDays": [
      "平日"
    ],
    "openDaysNote": ""
  },
  {
    "id": "3570201560",
    "name": "デイサービス万倉健康センター",
    "kana": "デイサービスマグラケンコウセンター",
    "address": "宇部市大字西万倉伏付２０７４－２",
    "lat": 34.0654966,
    "lng": 131.2366866,
    "tel": "0836-67-3436",
    "url": "",
    "pref": "山口県",
    "city": "宇部市",
    "category": "community_day_service",
    "serviceType": "地域密着型通所介護",
    "capacity": 0,
    "openDays": [
      "平日",
      "土曜日",
      "祝日"
    ],
    "openDaysNote": "特になし"
  },
  {
    "id": "3570202550",
    "name": "デイサービス絆",
    "kana": "デイサービスキズナ",
    "address": "宇部市八王子町１２－１４",
    "lat": 33.9271729,
    "lng": 131.2629241,
    "tel": "0836-33-7060",
    "url": "",
    "pref": "山口県",
    "city": "宇部市",
    "category": "community_day_service",
    "serviceType": "地域密着型通所介護",
    "capacity": 10,
    "openDays": [
      "平日",
      "土曜日",
      "日曜日",
      "祝日"
    ],
    "openDaysNote": ""
  },
  {
    "id": "3590200683",
    "name": "フィットネスデイミココロ",
    "kana": "フィットネスデイミココロ",
    "address": "山口県宇部市上宇部142-8",
    "lat": 33.9715616,
    "lng": 131.283228,
    "tel": "0836-52-9555",
    "url": "https://micocoro-yell.com/",
    "pref": "山口県",
    "city": "宇部市",
    "category": "community_day_service",
    "serviceType": "地域密着型通所介護",
    "capacity": 0,
    "openDays": [
      "平日",
      "祝日"
    ],
    "openDaysNote": "祝日営業"
  },
  {
    "id": "3570202865",
    "name": "ほほ笑み　デイサービスセンター",
    "kana": "ホホエミ　デイサービスセンター",
    "address": "宇部市大字西岐波229番地の327",
    "lat": 33.9682134,
    "lng": 131.2995126,
    "tel": "0836-39-7748",
    "url": "alt-care.net",
    "pref": "山口県",
    "city": "宇部市",
    "category": "community_day_service",
    "serviceType": "地域密着型通所介護",
    "capacity": 0,
    "openDays": [
      "平日",
      "土曜日",
      "日曜日",
      "祝日"
    ],
    "openDaysNote": ""
  },
  {
    "id": "3570202915",
    "name": "リハビリサポート　ｃａｎｏｎ　常盤店",
    "kana": "リハビリサポート　カノン　トキワテン",
    "address": "宇部市西岐波４７５９－１",
    "lat": 33.9510634448956,
    "lng": 131.292794405557,
    "tel": "０８３６－３８－８１８６",
    "url": "https://hp.kaipoke.biz/t75/165333/base_0004.html",
    "pref": "山口県",
    "city": "宇部市",
    "category": "community_day_service",
    "serviceType": "地域密着型通所介護",
    "capacity": 15,
    "openDays": [
      "平日",
      "祝日"
    ],
    "openDaysNote": "その他会社が指定する日"
  },
  {
    "id": "3590200444",
    "name": "リハビリサポートcanon藤山店",
    "kana": "リハビリサポートカノンフジヤマテン",
    "address": "山口県宇部市居能町３丁目２番１１－１号",
    "lat": 33.9686429,
    "lng": 131.2300474,
    "tel": "0836-38-8186",
    "url": "https://hp.kaipoke.biz/t75/165332/base_0004.html",
    "pref": "山口県",
    "city": "宇部市",
    "category": "community_day_service",
    "serviceType": "地域密着型通所介護",
    "capacity": 0,
    "openDays": [
      "平日"
    ],
    "openDaysNote": ""
  },
  {
    "id": "3590200451",
    "name": "リハビリ特化型デイサービスFuntoLife",
    "kana": "リハビリトッカガタデイサービスファントゥライフ",
    "address": "山口県宇部市西岐波4470-8",
    "lat": 33.9431128,
    "lng": 131.2946136,
    "tel": "0836-51-6665",
    "url": "http://hacnamatata.com",
    "pref": "山口県",
    "city": "宇部市",
    "category": "community_day_service",
    "serviceType": "地域密着型通所介護",
    "capacity": 0,
    "openDays": [
      "平日",
      "祝日"
    ],
    "openDaysNote": "定休日以外の祝日は営業しております。"
  },
  {
    "id": "3570202600",
    "name": "リハビリ特化型半日ケア　健幸村",
    "kana": "リハビリトッカガタハンニチケア　ケンコウムラ",
    "address": "宇部市新天町二丁目３番７号",
    "lat": 33.9482314,
    "lng": 131.2504579,
    "tel": "0836-48-0044",
    "url": "https://suenaga-genki.com/healthvillage/",
    "pref": "山口県",
    "city": "宇部市",
    "category": "community_day_service",
    "serviceType": "地域密着型通所介護",
    "capacity": 15,
    "openDays": [
      "平日"
    ],
    "openDaysNote": "１２月３０日から１月３日は年末年始のためお休み。"
  },
  {
    "id": "3570202733",
    "name": "喜笑苑デイサービスセンター",
    "kana": "キショウエンデイサービスセンター",
    "address": "山口県宇部市大字805番地",
    "lat": 22.5879991,
    "lng": 120.2873266,
    "tel": "0836-38-6663",
    "url": "alt-care.net",
    "pref": "山口県",
    "city": "宇部市",
    "category": "community_day_service",
    "serviceType": "地域密着型通所介護",
    "capacity": 0,
    "openDays": [
      "平日",
      "土曜日",
      "日曜日",
      "祝日"
    ],
    "openDaysNote": ""
  },
  {
    "id": "3570202881",
    "name": "上宇部デイサービスセンター和喜あいあい",
    "kana": "カミウベデイサービスセンターワキアイアイ",
    "address": "宇部市中村1丁目3-58",
    "lat": 33.9658711,
    "lng": 131.2589596,
    "tel": "0836-43-9933",
    "url": "http://waraku.tyanoyu.net/",
    "pref": "山口県",
    "city": "宇部市",
    "category": "community_day_service",
    "serviceType": "地域密着型通所介護",
    "capacity": 10,
    "openDays": [
      "平日",
      "土曜日",
      "祝日"
    ],
    "openDaysNote": "年始1日～3日　休業"
  },
  {
    "id": "3570200752",
    "name": "神原苑新川デイサービスセンター",
    "kana": "カミハラエンシンカワデイサービスセンター",
    "address": "宇部市大字小串６５番地の１７",
    "lat": 33.9684707,
    "lng": 131.2533515,
    "tel": "0836-38-3233",
    "url": "http://www.ocn.nejp/kamihara",
    "pref": "山口県",
    "city": "宇部市",
    "category": "community_day_service",
    "serviceType": "地域密着型通所介護",
    "capacity": 15,
    "openDays": [
      "平日",
      "土曜日",
      "祝日"
    ],
    "openDaysNote": "風水雪により開催が困難な場合、事業所の行事開催日等での休業日あり"
  },
  {
    "id": "3590200485",
    "name": "西日本デイサービス　いきいき参宮通り",
    "kana": "ニシニホンデイサービス　イキイキサングウトオリ",
    "address": "山口県宇部市海南町16-27",
    "lat": 33.9580554,
    "lng": 131.2607514,
    "tel": "0836-21-2233",
    "url": "",
    "pref": "山口県",
    "city": "宇部市",
    "category": "community_day_service",
    "serviceType": "地域密着型通所介護",
    "capacity": null,
    "openDays": [
      "平日",
      "祝日"
    ],
    "openDaysNote": ""
  },
  {
    "id": "3590200493",
    "name": "西日本デイサービス　トライ西宇部",
    "kana": "ニシニホンデイサービス　トライニシウベ",
    "address": "山口県宇部市西宇部南4丁目5-26",
    "lat": 34.0024361,
    "lng": 131.2218941,
    "tel": "0836-41-1136",
    "url": "",
    "pref": "山口県",
    "city": "宇部市",
    "category": "community_day_service",
    "serviceType": "地域密着型通所介護",
    "capacity": null,
    "openDays": [
      "平日"
    ],
    "openDaysNote": "特になし"
  },
  {
    "id": "3590200352",
    "name": "第２宅老所　喜楽苑",
    "kana": "ダイ２タクロウショ　キラクエン",
    "address": "山口県宇部市大字西岐波５２２５番地５",
    "lat": 33.9682271549834,
    "lng": 131.305114527322,
    "tel": "0836-54-3445",
    "url": "http//ｍ-kirakuen.com/",
    "pref": "山口県",
    "city": "宇部市",
    "category": "community_day_service",
    "serviceType": "地域密着型通所介護",
    "capacity": 0,
    "openDays": [
      "平日",
      "土曜日",
      "日曜日",
      "祝日"
    ],
    "openDaysNote": "なし"
  },
  {
    "id": "3570202360",
    "name": "茶話本舗デイサービス陽",
    "kana": "サワホンポデイサービスハル",
    "address": "宇部市常盤台1丁目20－2",
    "lat": 33.959659487971,
    "lng": 131.268354641418,
    "tel": "0836-43-9458",
    "url": "",
    "pref": "山口県",
    "city": "宇部市",
    "category": "community_day_service",
    "serviceType": "地域密着型通所介護",
    "capacity": 18,
    "openDays": [
      "平日",
      "土曜日",
      "日曜日",
      "祝日"
    ],
    "openDaysNote": "特になし"
  },
  {
    "id": "3570203079",
    "name": "日和庵",
    "kana": "ヒヨリアン",
    "address": "山口県宇部市沼１丁目２－１８",
    "lat": 33.9637737936081,
    "lng": 131.26473163373,
    "tel": "0836-35-0077",
    "url": "http://hiyorian.net/",
    "pref": "山口県",
    "city": "宇部市",
    "category": "community_day_service",
    "serviceType": "地域密着型通所介護",
    "capacity": 15,
    "openDays": [
      "平日",
      "祝日"
    ],
    "openDaysNote": "月火水木金ならば祝祭日も営業。"
  },
  {
    "id": "3570203012",
    "name": "万倉の郷デイサービス",
    "kana": "マグラノサトデイサービス",
    "address": "山口県宇部市大字西万倉宮ノ下１６９０－２",
    "lat": 34.0694977358674,
    "lng": 131.241043583467,
    "tel": "0836-39-9850",
    "url": "",
    "pref": "山口県",
    "city": "宇部市",
    "category": "community_day_service",
    "serviceType": "地域密着型通所介護",
    "capacity": null,
    "openDays": [
      "平日",
      "土曜日",
      "祝日"
    ],
    "openDaysNote": "特になし"
  },
  {
    "id": "3571600349",
    "name": "陽だまりのいえデイサービスセンター",
    "kana": "ヒダマリノイエデイサービスセンター",
    "address": "山口県宇部市厚南北三丁目１０番１５－１",
    "lat": 34.0006363,
    "lng": 131.2122228,
    "tel": "0836-39-2401",
    "url": "",
    "pref": "山口県",
    "city": "宇部市",
    "category": "community_day_service",
    "serviceType": "地域密着型通所介護",
    "capacity": 15,
    "openDays": [
      "平日",
      "土曜日",
      "日曜日",
      "祝日"
    ],
    "openDaysNote": ""
  },
  {
    "id": "3590109249",
    "name": "DSスマートリハ",
    "kana": "ディーエススマートリハ",
    "address": "山口県下関市川中豊町5丁目1番3号アスリートビル アスリートビル",
    "lat": 33.9954111,
    "lng": 130.9404417,
    "tel": "083-265-2369",
    "url": "ds-s-riha.com",
    "pref": "山口県",
    "city": "下関市",
    "category": "community_day_service",
    "serviceType": "地域密着型通所介護",
    "capacity": 0,
    "openDays": [
      "平日",
      "土曜日"
    ],
    "openDaysNote": "年末年始・夏季休業あり"
  },
  {
    "id": "3590109470",
    "name": "DSスマートリハくまの店",
    "kana": "ディーエススマートリハクマノテン",
    "address": "熊野町1-7-15リヴィエール熊野101号室 リヴィエール熊野101号室",
    "lat": 34.3357937,
    "lng": 132.5845718,
    "tel": "083-291-5416",
    "url": "ds-s-riha.com",
    "pref": "山口県",
    "city": "下関市",
    "category": "community_day_service",
    "serviceType": "地域密着型通所介護",
    "capacity": null,
    "openDays": [
      "平日"
    ],
    "openDaysNote": ""
  },
  {
    "id": "3590109389",
    "name": "KaKa＋こんぴらデイサービス",
    "kana": "カカプラスコンピラデイサービス",
    "address": "下関市金比羅町5番13号KaKa＋こんぴらデイサービス KaKa＋こんぴらデイサービス",
    "lat": 33.9673705980239,
    "lng": 130.918925771164,
    "tel": "083ｰ242ｰ2865",
    "url": "https://www.kakaplus.co.jp",
    "pref": "山口県",
    "city": "下関市",
    "category": "community_day_service",
    "serviceType": "地域密着型通所介護",
    "capacity": 0,
    "openDays": [
      "平日",
      "土曜日",
      "祝日"
    ],
    "openDaysNote": "お盆（カレンダーによる）、年末年始（12月30日～1月3日）"
  },
  {
    "id": "3570102297",
    "name": "アイユウの苑　デイサービスセンター　しおはま",
    "kana": "アイユウノソノ　デイサービスセンター　シオハマ",
    "address": "山口県下関市彦島田の首町一丁目１番３２号",
    "lat": 33.9196732,
    "lng": 130.9160868,
    "tel": "083-266-5362",
    "url": "http://www.shoubikai.or.jp",
    "pref": "山口県",
    "city": "下関市",
    "category": "community_day_service",
    "serviceType": "地域密着型通所介護",
    "capacity": 0,
    "openDays": [
      "平日",
      "土曜日",
      "祝日"
    ],
    "openDaysNote": "特になし"
  },
  {
    "id": "3570105209",
    "name": "アイユウ長府デイサービス『憩いサロン』",
    "kana": "アイユウチョウフデイサービス『イコイサロン』",
    "address": "山口県下関市長府南之町1番1号アイユウ城下町長府 アイユウ城下町長府",
    "lat": 33.997786549557,
    "lng": 130.990856030689,
    "tel": "083-246-6430",
    "url": "http://www.shoueikai-aiyuu.com/",
    "pref": "山口県",
    "city": "下関市",
    "category": "community_day_service",
    "serviceType": "地域密着型通所介護",
    "capacity": 0,
    "openDays": [
      "平日",
      "祝日"
    ],
    "openDaysNote": ""
  },
  {
    "id": "3590109413",
    "name": "アクティブリハビリセンター　カノア",
    "kana": "アクティブリハビリセンター　カノア",
    "address": "山口県下関市王司川端1−4−45",
    "lat": 34.0473282,
    "lng": 131.0174619,
    "tel": "083-248-1173",
    "url": "https://www.kanoa-rehapis.com/",
    "pref": "山口県",
    "city": "下関市",
    "category": "community_day_service",
    "serviceType": "地域密着型通所介護",
    "capacity": null,
    "openDays": [
      "平日",
      "祝日"
    ],
    "openDaysNote": "8/13～15、12/31～1/3は除く"
  },
  {
    "id": "3570103006",
    "name": "あみいデイサービス",
    "kana": "アミイデイサービス",
    "address": "山口県下関市丸山町2-1-23　2F松井外科整形　２F 松井外科整形　２F",
    "lat": 33.9599832,
    "lng": 130.932882,
    "tel": "083-228-0128",
    "url": "",
    "pref": "山口県",
    "city": "下関市",
    "category": "community_day_service",
    "serviceType": "地域密着型通所介護",
    "capacity": 10,
    "openDays": [
      "平日",
      "土曜日"
    ],
    "openDaysNote": ""
  },
  {
    "id": "3570102735",
    "name": "あみいデイサービス新下関",
    "kana": "アミイデイサービスシンシモノセキ",
    "address": "山口県下関市秋根東町6-14甲斐ビル2F 甲斐ビル2F",
    "lat": 33.9891944,
    "lng": 130.9259292,
    "tel": "083-227-3527",
    "url": "",
    "pref": "山口県",
    "city": "下関市",
    "category": "community_day_service",
    "serviceType": "地域密着型通所介護",
    "capacity": 0,
    "openDays": [
      "平日",
      "土曜日"
    ],
    "openDaysNote": ""
  },
  {
    "id": "3570105019",
    "name": "あやリハ長府店",
    "kana": "アヤリハチョウフテン",
    "address": "下関市長府中浜町4-18",
    "lat": 33.998170625695,
    "lng": 130.989260784656,
    "tel": "083-245-9900",
    "url": "",
    "pref": "山口県",
    "city": "下関市",
    "category": "community_day_service",
    "serviceType": "地域密着型通所介護",
    "capacity": 120,
    "openDays": [
      "平日",
      "土曜日",
      "祝日"
    ],
    "openDaysNote": "GW、夏季、年末年始の11日間は休み"
  },
  {
    "id": "3570101091",
    "name": "いろは詩デイサービスセンター",
    "kana": "イロハウタデイサービスセンター",
    "address": "山口県下関市椋野町一丁目１８－５４",
    "lat": 33.971804442319,
    "lng": 130.941379956011,
    "tel": "０８３－２２８－４９３３",
    "url": "http://www.irohauta.jp",
    "pref": "山口県",
    "city": "下関市",
    "category": "community_day_service",
    "serviceType": "地域密着型通所介護",
    "capacity": 0,
    "openDays": [
      "平日",
      "土曜日",
      "祝日"
    ],
    "openDaysNote": ""
  },
  {
    "id": "3570105068",
    "name": "おとなの学校下関小月デイサービスセンター",
    "kana": "オトナノガッコウシモノセキオヅキコウデイサービスセンター",
    "address": "山口県下関市小月茶屋３-4-26学校法人下関学院内　海響館1階 学校法人下関学院内　海響館1階",
    "lat": 34.0694233,
    "lng": 131.0278938,
    "tel": "083-227-2208",
    "url": "http://www.otona-gakkou.com/",
    "pref": "山口県",
    "city": "下関市",
    "category": "community_day_service",
    "serviceType": "地域密着型通所介護",
    "capacity": 18,
    "openDays": [
      "平日"
    ],
    "openDaysNote": "自然災害等で臨時休校になる場合があります。"
  },
  {
    "id": "3590109322",
    "name": "おとなの学校下関未来校",
    "kana": "オトナノガッコウシモノセキミライコウ",
    "address": "山口県下関市小月茶屋3丁目4番7号",
    "lat": 34.0698326,
    "lng": 131.0277727,
    "tel": "083-227-3345",
    "url": "https:otona-gakkou.com",
    "pref": "山口県",
    "city": "下関市",
    "category": "community_day_service",
    "serviceType": "地域密着型通所介護",
    "capacity": 10,
    "openDays": [
      "平日"
    ],
    "openDaysNote": "その他の休日（改行）年末年始12/30～1/4（改行）お盆　8/13～8/16"
  },
  {
    "id": "3570104863",
    "name": "かよさんのいえ",
    "kana": "カヨサンノイエ",
    "address": "山口県下関市王司本町4-6-18",
    "lat": 34.0380066,
    "lng": 131.0147902,
    "tel": "083-248-2532",
    "url": "",
    "pref": "山口県",
    "city": "下関市",
    "category": "community_day_service",
    "serviceType": "地域密着型通所介護",
    "capacity": 9,
    "openDays": [
      "平日",
      "土曜日",
      "祝日"
    ],
    "openDaysNote": ""
  },
  {
    "id": "3590109439",
    "name": "こころリハ",
    "kana": "ココロリハ",
    "address": "山口県下関市山の田本町20－4ひがきビル ひがきビル",
    "lat": 33.9878804,
    "lng": 130.9307961,
    "tel": "832370701",
    "url": "",
    "pref": "山口県",
    "city": "下関市",
    "category": "community_day_service",
    "serviceType": "地域密着型通所介護",
    "capacity": null,
    "openDays": [
      "平日"
    ],
    "openDaysNote": ""
  },
  {
    "id": "3570101331",
    "name": "さくらデイサービス下関",
    "kana": "サクラデイサービスシモノセキ",
    "address": "山口県下関市長府浜浦西町13-3",
    "lat": 33.9853899698042,
    "lng": 130.978031773094,
    "tel": "083-265-5077",
    "url": "",
    "pref": "山口県",
    "city": "下関市",
    "category": "community_day_service",
    "serviceType": "地域密着型通所介護",
    "capacity": 0,
    "openDays": [
      "平日",
      "土曜日",
      "祝日"
    ],
    "openDaysNote": ""
  },
  {
    "id": "3570101380",
    "name": "さくらデイサービス長府",
    "kana": "サクラデイサービスチョウフ",
    "address": "山口県下関市長府浜浦町２９-８",
    "lat": 33.982045,
    "lng": 130.9797241,
    "tel": "083-245-7760",
    "url": "",
    "pref": "山口県",
    "city": "下関市",
    "category": "community_day_service",
    "serviceType": "地域密着型通所介護",
    "capacity": 0,
    "openDays": [
      "平日",
      "土曜日",
      "祝日"
    ],
    "openDaysNote": ""
  },
  {
    "id": "3577800430",
    "name": "シャンバラ　デイサービスセンター",
    "kana": "シャンバラ　デイサービスセンター",
    "address": "下関市小月茶屋２丁目8－27シャンバラ　デイサービスセンター シャンバラ　デイサービスセンター",
    "lat": 34.1226769,
    "lng": 131.0321357,
    "tel": "083－242－5678",
    "url": "",
    "pref": "山口県",
    "city": "下関市",
    "category": "community_day_service",
    "serviceType": "地域密着型通所介護",
    "capacity": 0,
    "openDays": [
      "平日",
      "土曜日",
      "祝日"
    ],
    "openDaysNote": "特になし"
  },
  {
    "id": "3590109207",
    "name": "スマートエイジングラボそらおと",
    "kana": "スマートエイジングラボソラオト",
    "address": "山口県下関市中之町8番13号",
    "lat": 33.957634,
    "lng": 130.9460224,
    "tel": "083-250-8992",
    "url": "https://www.smart-sora.com/",
    "pref": "山口県",
    "city": "下関市",
    "category": "community_day_service",
    "serviceType": "地域密着型通所介護",
    "capacity": 10,
    "openDays": [
      "平日"
    ],
    "openDaysNote": "12月30日から1月3日まで年末年始休業"
  },
  {
    "id": "3590109355",
    "name": "つくしんぼデイサービス",
    "kana": "ツクシンボデイサービス",
    "address": "山口県下関市小月本町一丁目１番４号",
    "lat": 34.073674177203,
    "lng": 131.035417724606,
    "tel": "083-242-2535",
    "url": "https://tukushinnbo.com/",
    "pref": "山口県",
    "city": "下関市",
    "category": "community_day_service",
    "serviceType": "地域密着型通所介護",
    "capacity": 3,
    "openDays": [
      "平日",
      "祝日"
    ],
    "openDaysNote": "平日が祝日の場合であっても営業"
  },
  {
    "id": "3570102636",
    "name": "つくしん坊デイサービス",
    "kana": "ツクシンボウデイサービス",
    "address": "下関市古屋町１丁目6番20号",
    "lat": 33.998638,
    "lng": 130.922732,
    "tel": "083-291-2940",
    "url": "",
    "pref": "山口県",
    "city": "下関市",
    "category": "community_day_service",
    "serviceType": "地域密着型通所介護",
    "capacity": 0,
    "openDays": [
      "平日",
      "祝日"
    ],
    "openDaysNote": "特になし"
  },
  {
    "id": "3570105621",
    "name": "デイサービス　かしの木",
    "kana": "デイサービス　カシノキ",
    "address": "綾羅木本町3丁目10番22号",
    "lat": 34.0011978,
    "lng": 130.9232801,
    "tel": "083-265-4672",
    "url": "",
    "pref": "山口県",
    "city": "下関市",
    "category": "community_day_service",
    "serviceType": "地域密着型通所介護",
    "capacity": 0,
    "openDays": [
      "平日",
      "土曜日",
      "日曜日",
      "祝日"
    ],
    "openDaysNote": "サービス提供時間は8:15～17:30（改行）（改行）台風や雨や雪の状況を見ながら対応していく。（改行）（改行）夕食を食べて帰る事も出来ます"
  },
  {
    "id": "3590109033",
    "name": "デイサービス　せいれん",
    "kana": "デイサービス　セイレン",
    "address": "山口県下関市吉見里町2丁目7番1号",
    "lat": 34.074764,
    "lng": 130.9044812,
    "tel": "083-294-0163",
    "url": "",
    "pref": "山口県",
    "city": "下関市",
    "category": "community_day_service",
    "serviceType": "地域密着型通所介護",
    "capacity": 0,
    "openDays": [
      "平日",
      "土曜日",
      "祝日"
    ],
    "openDaysNote": "台風接近時や災害等により、安全を考慮しやむを得ず休業する場合は、利用者様・ご家族様へお知らせします"
  },
  {
    "id": "3570105282",
    "name": "デイサービス　はまぐり",
    "kana": "デイサービス　ハマグリ",
    "address": "山口県下関市豊浦町大字小串字大先２３７４番地",
    "lat": 34.1749525129169,
    "lng": 130.929735455434,
    "tel": "083-227-2874",
    "url": "",
    "pref": "山口県",
    "city": "下関市",
    "category": "community_day_service",
    "serviceType": "地域密着型通所介護",
    "capacity": 0,
    "openDays": [
      "平日",
      "土曜日",
      "日曜日",
      "祝日"
    ],
    "openDaysNote": ""
  },
  {
    "id": "3570104350",
    "name": "デイサービス　もみじ",
    "kana": "デイサービス　モミジ",
    "address": "山口県下関市大字植田９３７番地",
    "lat": 34.1116473290532,
    "lng": 130.976484519049,
    "tel": "０８３－２８９－２０４３",
    "url": "http://momijinosato.jimdo.com/",
    "pref": "山口県",
    "city": "下関市",
    "category": "community_day_service",
    "serviceType": "地域密着型通所介護",
    "capacity": 8,
    "openDays": [
      "平日",
      "土曜日",
      "日曜日",
      "祝日"
    ],
    "openDaysNote": "相談に応じる。"
  },
  {
    "id": "3590109454",
    "name": "デイサービス　リアン",
    "kana": "デイサービス　リアン",
    "address": "山口県下関市川中本町一丁目10番38号サンフィット川中101 サンフィット川中101",
    "lat": 33.9989147,
    "lng": 130.933883,
    "tel": "083‐249‐5720",
    "url": "https://www.care-innovation.net/",
    "pref": "山口県",
    "city": "下関市",
    "category": "community_day_service",
    "serviceType": "地域密着型通所介護",
    "capacity": 1,
    "openDays": [
      "平日",
      "土曜日"
    ],
    "openDaysNote": ""
  },
  {
    "id": "3570105233",
    "name": "デイサービス　華",
    "kana": "デイサービス　ハナ",
    "address": "山口県下関市彦島本村町６丁目12-15",
    "lat": 33.9384264,
    "lng": 130.9125424,
    "tel": "083-227-2885",
    "url": "",
    "pref": "山口県",
    "city": "下関市",
    "category": "community_day_service",
    "serviceType": "地域密着型通所介護",
    "capacity": 10,
    "openDays": [
      "平日",
      "土曜日",
      "祝日"
    ],
    "openDaysNote": "元旦・ゴールデンウイークは休む場合あり。"
  },
  {
    "id": "3590109165",
    "name": "デイサービス　杉の木",
    "kana": "デイサービス　スギノキ",
    "address": "新椋野1丁目1-6",
    "lat": 33.9848758,
    "lng": 130.9480076,
    "tel": "083-223-5020",
    "url": "https://www.oneforall-inc.co.jp/",
    "pref": "山口県",
    "city": "下関市",
    "category": "community_day_service",
    "serviceType": "地域密着型通所介護",
    "capacity": null,
    "openDays": [
      "平日",
      "祝日"
    ],
    "openDaysNote": ""
  },
  {
    "id": "3570104459",
    "name": "デイサービス　日野",
    "kana": "デイサービス　ヒノ",
    "address": "下関市豊田町大字浮石2202番地1",
    "lat": 34.2471431,
    "lng": 131.0380163,
    "tel": "083-767-0001",
    "url": "",
    "pref": "山口県",
    "city": "下関市",
    "category": "community_day_service",
    "serviceType": "地域密着型通所介護",
    "capacity": 10,
    "openDays": [
      "平日",
      "土曜日",
      "祝日"
    ],
    "openDaysNote": "年末12月30・31日　翌年1月3日までお休みです。"
  },
  {
    "id": "3577800471",
    "name": "デイサービスあじさい",
    "kana": "デイサービスアジサイ",
    "address": "山口県下関市豊浦町大字室津下１４４３－１",
    "lat": 34.1370398607631,
    "lng": 130.882422722667,
    "tel": "083-772-2511",
    "url": "http://takurousyo-ajisai.com",
    "pref": "山口県",
    "city": "下関市",
    "category": "community_day_service",
    "serviceType": "地域密着型通所介護",
    "capacity": 0,
    "openDays": [
      "平日",
      "土曜日",
      "祝日"
    ],
    "openDaysNote": "特別な事例がある場合と、１２月３１日、１月１日は休み"
  },
  {
    "id": "3570105431",
    "name": "デイサービスありすの丘",
    "kana": "デイサービスアリスノオカ",
    "address": "山口県下関市東向山町13-9",
    "lat": 33.9672658,
    "lng": 130.9283574,
    "tel": "083-232-3377",
    "url": "",
    "pref": "山口県",
    "city": "下関市",
    "category": "community_day_service",
    "serviceType": "地域密着型通所介護",
    "capacity": 0,
    "openDays": [
      "平日",
      "土曜日",
      "祝日"
    ],
    "openDaysNote": "12/30～1/3,8/14～8/16はお休み"
  },
  {
    "id": "3570103626",
    "name": "デイサービスセンター　さんぽ道",
    "kana": "デイサービスセンターサンポミチ",
    "address": "下関市三河町15-10",
    "lat": 33.9861487867993,
    "lng": 130.942697268558,
    "tel": "083-252-2500",
    "url": "you-hodo.co.jp",
    "pref": "山口県",
    "city": "下関市",
    "category": "community_day_service",
    "serviceType": "地域密着型通所介護",
    "capacity": 0,
    "openDays": [
      "平日",
      "土曜日",
      "日曜日",
      "祝日"
    ],
    "openDaysNote": "３６５日年中無休"
  },
  {
    "id": "3570103527",
    "name": "デイサービスセンターふきのとう",
    "kana": "デイサービスセンターフキノトウ",
    "address": "下関市生野町1丁目５－２７",
    "lat": 33.9816839,
    "lng": 130.9352869,
    "tel": "083-251-2018",
    "url": "",
    "pref": "山口県",
    "city": "下関市",
    "category": "community_day_service",
    "serviceType": "地域密着型通所介護",
    "capacity": 10,
    "openDays": [
      "平日",
      "土曜日",
      "祝日"
    ],
    "openDaysNote": ""
  },
  {
    "id": "3570104517",
    "name": "デイサービスセンター向日葵の里",
    "kana": "デイサービスセンターヒマワリノサト",
    "address": "下関市豊北町神田上891-28",
    "lat": 34.2947363360821,
    "lng": 130.883474449043,
    "tel": "０８３－７８８－５８３１",
    "url": "",
    "pref": "山口県",
    "city": "下関市",
    "category": "community_day_service",
    "serviceType": "地域密着型通所介護",
    "capacity": 0,
    "openDays": [
      "平日",
      "土曜日",
      "祝日"
    ],
    "openDaysNote": ""
  },
  {
    "id": "3570103410",
    "name": "デイサービスセンター向日葵館",
    "kana": "デイサービスセンターヒマワリカン",
    "address": "下関市豊北町大字神田字大久保東３１６２－６",
    "lat": 34.3545743,
    "lng": 130.9031377,
    "tel": "083-786-5232",
    "url": "",
    "pref": "山口県",
    "city": "下関市",
    "category": "community_day_service",
    "serviceType": "地域密着型通所介護",
    "capacity": 0,
    "openDays": [
      "平日",
      "土曜日",
      "祝日"
    ],
    "openDaysNote": ""
  },
  {
    "id": "3590109298",
    "name": "デイサービスてんてん",
    "kana": "デイサービステンテン",
    "address": "山口県下関市形山町4-17",
    "lat": 34.014061,
    "lng": 130.9592131,
    "tel": "083-265-1335",
    "url": "",
    "pref": "山口県",
    "city": "下関市",
    "category": "community_day_service",
    "serviceType": "地域密着型通所介護",
    "capacity": 10,
    "openDays": [
      "平日",
      "土曜日",
      "祝日"
    ],
    "openDaysNote": "サービス提供時間は９時から１６時"
  },
  {
    "id": "3590109140",
    "name": "デイサービスぱれっと",
    "kana": "デイサービスパレット",
    "address": "山口県下関市一の宮住吉2丁目10番11号シニアハウスぱれっと住吉 シニアハウスぱれっと住吉",
    "lat": 33.9977908,
    "lng": 130.9541292,
    "tel": "083-263-1100",
    "url": "",
    "pref": "山口県",
    "city": "下関市",
    "category": "community_day_service",
    "serviceType": "地域密着型通所介護",
    "capacity": null,
    "openDays": [
      "平日",
      "土曜日",
      "祝日"
    ],
    "openDaysNote": "特になし"
  },
  {
    "id": "3590109306",
    "name": "デイサービスフェリーチェ",
    "kana": "デイサービスフェリーチェ",
    "address": "山口県下関市新地西町10-9",
    "lat": 33.9552936,
    "lng": 130.9200322,
    "tel": "083-232-8811",
    "url": "www.e-saving.jp",
    "pref": "山口県",
    "city": "下関市",
    "category": "community_day_service",
    "serviceType": "地域密着型通所介護",
    "capacity": null,
    "openDays": [
      "平日",
      "土曜日",
      "祝日"
    ],
    "openDaysNote": ""
  },
  {
    "id": "3590109256",
    "name": "デイサービスぽぷり",
    "kana": "デイサービスポプリ",
    "address": "後田町4-4-3",
    "lat": 33.9698775,
    "lng": 130.9274039,
    "tel": "083-222-8127",
    "url": "https://www.e-saving.jp/",
    "pref": "山口県",
    "city": "下関市",
    "category": "community_day_service",
    "serviceType": "地域密着型通所介護",
    "capacity": null,
    "openDays": [
      "平日",
      "土曜日",
      "祝日"
    ],
    "openDaysNote": ""
  },
  {
    "id": "3590109116",
    "name": "デイサービスまいホーム",
    "kana": "デイサービスマイホーム",
    "address": "川中本町７－１９",
    "lat": 34.0014183,
    "lng": 130.9307729,
    "tel": "083-242-2021",
    "url": "",
    "pref": "山口県",
    "city": "下関市",
    "category": "community_day_service",
    "serviceType": "地域密着型通所介護",
    "capacity": 0,
    "openDays": [
      "平日",
      "土曜日",
      "日曜日",
      "祝日"
    ],
    "openDaysNote": ""
  },
  {
    "id": "3590109330",
    "name": "デイサービスみなみ風",
    "kana": "デイサービスミナミカゼ",
    "address": "山口県下関市豊田町大字宇内684番地",
    "lat": 34.231752,
    "lng": 131.0649106,
    "tel": "090⁻6996⁻2852",
    "url": "",
    "pref": "山口県",
    "city": "下関市",
    "category": "community_day_service",
    "serviceType": "地域密着型通所介護",
    "capacity": 3,
    "openDays": [
      "平日",
      "日曜日",
      "祝日"
    ],
    "openDaysNote": "天候不順、悪化時には休業する場合がある。"
  },
  {
    "id": "3570104590",
    "name": "デイサービスもん",
    "kana": "デイサービスモン",
    "address": "下関市安岡町４丁目１４－２２",
    "lat": 34.0300397,
    "lng": 130.9155484,
    "tel": "０８３－２２７－４７１３",
    "url": "kayo",
    "pref": "山口県",
    "city": "下関市",
    "category": "community_day_service",
    "serviceType": "地域密着型通所介護",
    "capacity": 10,
    "openDays": [
      "平日",
      "土曜日",
      "祝日"
    ],
    "openDaysNote": ""
  },
  {
    "id": "3570105571",
    "name": "デイサービス月見草",
    "kana": "デイサービスツキミソウ",
    "address": "豊浦町川棚1545-24",
    "lat": 34.1606485537536,
    "lng": 130.922174129824,
    "tel": "083-227-2895",
    "url": "",
    "pref": "山口県",
    "city": "下関市",
    "category": "community_day_service",
    "serviceType": "地域密着型通所介護",
    "capacity": 0,
    "openDays": [
      "平日",
      "土曜日",
      "日曜日",
      "祝日"
    ],
    "openDaysNote": ""
  },
  {
    "id": "3590109348",
    "name": "デイサービス杉の森",
    "kana": "デイサービススギノモリ",
    "address": "山口県下関市宝町3-17",
    "lat": 33.979708373889,
    "lng": 130.93913832314,
    "tel": "083-292-0302",
    "url": "",
    "pref": "山口県",
    "city": "下関市",
    "category": "community_day_service",
    "serviceType": "地域密着型通所介護",
    "capacity": null,
    "openDays": [
      "平日",
      "祝日"
    ],
    "openDaysNote": ""
  },
  {
    "id": "3590109181",
    "name": "デイサービス夢乃舎",
    "kana": "デイサービスユメノヤ",
    "address": "山口県下関市彦島福浦町３－2－10",
    "lat": 33.9274416,
    "lng": 130.9129953,
    "tel": "083-250-9021",
    "url": "http://reiwakai.com/",
    "pref": "山口県",
    "city": "下関市",
    "category": "community_day_service",
    "serviceType": "地域密着型通所介護",
    "capacity": 0,
    "openDays": [
      "平日",
      "土曜日",
      "祝日"
    ],
    "openDaysNote": ""
  },
  {
    "id": "3570104913",
    "name": "デイサービス陽だまり",
    "kana": "デイサービスヒダマリ",
    "address": "綾羅木新町1丁目16-15サービス付き高齢者向け住宅あやらぎ サービス付き高齢者向け住宅あやらぎ",
    "lat": 34.0111858,
    "lng": 130.9213579,
    "tel": "083ー227ー4321",
    "url": "",
    "pref": "山口県",
    "city": "下関市",
    "category": "community_day_service",
    "serviceType": "地域密着型通所介護",
    "capacity": null,
    "openDays": [
      "平日",
      "土曜日",
      "祝日"
    ],
    "openDaysNote": ""
  },
  {
    "id": "3570105027",
    "name": "デイサービス隣ご縁　唐戸",
    "kana": "デイサービスリンゴエン　カラト",
    "address": "山口県下関市幸町11-1",
    "lat": 33.9604332,
    "lng": 130.9438837,
    "tel": "083-233-7750",
    "url": "https://www.ckksp.co.jp/facilities/dayservice_ringoen-karato/#contentsmain",
    "pref": "山口県",
    "city": "下関市",
    "category": "community_day_service",
    "serviceType": "地域密着型通所介護",
    "capacity": 42,
    "openDays": [
      "平日",
      "土曜日",
      "日曜日",
      "祝日"
    ],
    "openDaysNote": "「延長要望があれば可能」"
  },
  {
    "id": "3570104780",
    "name": "デイハウスうちん家",
    "kana": "デイハウスウチンチ",
    "address": "下関市南大坪町2-9",
    "lat": 33.9602857,
    "lng": 130.9178223,
    "tel": "083-250-8152",
    "url": "www.kokoroe-ueo.com",
    "pref": "山口県",
    "city": "下関市",
    "category": "community_day_service",
    "serviceType": "地域密着型通所介護",
    "capacity": 102,
    "openDays": [
      "平日",
      "土曜日",
      "祝日"
    ],
    "openDaysNote": ""
  },
  {
    "id": "3570104475",
    "name": "どうしんデイサービス",
    "kana": "ドウシンデイサービス",
    "address": "下関市豊北町大字滝部字中山1185-3",
    "lat": 34.2841727398775,
    "lng": 130.944751751451,
    "tel": "０８３－７８２－００３２",
    "url": "https://momotose-home/net",
    "pref": "山口県",
    "city": "下関市",
    "category": "community_day_service",
    "serviceType": "地域密着型通所介護",
    "capacity": 10,
    "openDays": [
      "平日",
      "土曜日",
      "祝日"
    ],
    "openDaysNote": ""
  },
  {
    "id": "3590109397",
    "name": "ハートケアデイサービス",
    "kana": "ハートケアデイサービス",
    "address": "山口県下関市神田町1丁目14-26",
    "lat": 33.9644032,
    "lng": 130.9233061,
    "tel": "083-228-0016",
    "url": "",
    "pref": "山口県",
    "city": "下関市",
    "category": "community_day_service",
    "serviceType": "地域密着型通所介護",
    "capacity": 0,
    "openDays": [
      "平日",
      "土曜日",
      "祝日"
    ],
    "openDaysNote": ""
  },
  {
    "id": "3570103865",
    "name": "フィットネススタジオサンテココア",
    "kana": "フィットネススタジオ　サンテココア",
    "address": "山口県長府南之町6－5",
    "lat": 33.99647,
    "lng": 130.988121,
    "tel": "070‐5817‐2654",
    "url": "https://ghpinc.co/",
    "pref": "山口県",
    "city": "下関市",
    "category": "community_day_service",
    "serviceType": "地域密着型通所介護",
    "capacity": 80,
    "openDays": [
      "平日"
    ],
    "openDaysNote": ""
  },
  {
    "id": "3570103238",
    "name": "よつば富任デイサービスセンター",
    "kana": "ヨツバトミトウデイサービスセンター",
    "address": "下関市富任町八丁目１４番６号",
    "lat": 34.0218186,
    "lng": 130.9264644,
    "tel": "083-262-1033",
    "url": "",
    "pref": "山口県",
    "city": "下関市",
    "category": "community_day_service",
    "serviceType": "地域密着型通所介護",
    "capacity": 10,
    "openDays": [
      "平日",
      "土曜日",
      "祝日"
    ],
    "openDaysNote": "特になし"
  },
  {
    "id": "3590109199",
    "name": "リハトレケアサポート",
    "kana": "リハトレケアサポート",
    "address": "山口県下関市菊川町大字田部1151-3",
    "lat": 34.1149717334683,
    "lng": 131.032291765968,
    "tel": "083-287-0833",
    "url": "",
    "pref": "山口県",
    "city": "下関市",
    "category": "community_day_service",
    "serviceType": "地域密着型通所介護",
    "capacity": 0,
    "openDays": [
      "平日",
      "土曜日",
      "祝日"
    ],
    "openDaysNote": ""
  },
  {
    "id": "3590109231",
    "name": "リハプライド下関長府",
    "kana": "リハプライドシモノセキチョウフ",
    "address": "山口県下関市長府松小田本町5‐16‐1FSKビル SKビル",
    "lat": 34.0195005,
    "lng": 131.0006953,
    "tel": "832421314",
    "url": "https://www.rehapride.co.jp/",
    "pref": "山口県",
    "city": "下関市",
    "category": "community_day_service",
    "serviceType": "地域密着型通所介護",
    "capacity": 0,
    "openDays": [
      "平日"
    ],
    "openDaysNote": ""
  },
  {
    "id": "3590109025",
    "name": "リラックスデイ　唐楽",
    "kana": "リラックスデイ　カラク",
    "address": "山口県下関市唐戸町３-１４白鳥ビル１階 白鳥ビル１階",
    "lat": 33.9573863,
    "lng": 130.9428477,
    "tel": "０８３－２４２－５０６５",
    "url": "",
    "pref": "山口県",
    "city": "下関市",
    "category": "community_day_service",
    "serviceType": "地域密着型通所介護",
    "capacity": 10,
    "openDays": [
      "平日",
      "土曜日",
      "祝日"
    ],
    "openDaysNote": "休業日：１２月３０日～１月３日、８月１３日～１５日"
  },
  {
    "id": "3570103899",
    "name": "わくわくハウス",
    "kana": "ワクワクハウス",
    "address": "下関市長府才川２－４－２７",
    "lat": 34.023994,
    "lng": 131.0046828,
    "tel": "083-249-0308",
    "url": "",
    "pref": "山口県",
    "city": "下関市",
    "category": "community_day_service",
    "serviceType": "地域密着型通所介護",
    "capacity": 0,
    "openDays": [
      "平日",
      "土曜日",
      "祝日"
    ],
    "openDaysNote": ""
  },
  {
    "id": "3570104699",
    "name": "安夢住デイサービス緑香園",
    "kana": "アムズデイサービスリョッコウエン",
    "address": "下関市長府新松原町３番３０号",
    "lat": 33.9921052,
    "lng": 130.9891648,
    "tel": "083-227-4179",
    "url": "",
    "pref": "山口県",
    "city": "下関市",
    "category": "community_day_service",
    "serviceType": "地域密着型通所介護",
    "capacity": 0,
    "openDays": [
      "平日",
      "土曜日"
    ],
    "openDaysNote": ""
  },
  {
    "id": "3570103394",
    "name": "安夢住椿館デイサービスセンター",
    "kana": "アムズツバキカンデイサービスセンター",
    "address": "山口県下関市長府惣社町２番３９号",
    "lat": 33.9968909,
    "lng": 130.9862789,
    "tel": "083-245-8811",
    "url": "",
    "pref": "山口県",
    "city": "下関市",
    "category": "community_day_service",
    "serviceType": "地域密着型通所介護",
    "capacity": 0,
    "openDays": [
      "平日",
      "祝日"
    ],
    "openDaysNote": "豪雨、豪雪、強風等悪天候時休みの場合あり。"
  },
  {
    "id": "3570102891",
    "name": "下関市社協　豊田デイサービスセンター　おいでんか",
    "kana": "シモノセキシシャキョウ　トヨタデイサービスセンター　オイデンカ",
    "address": "山口県下関市豊田町大字手洗345番1",
    "lat": 34.203732,
    "lng": 131.0752008,
    "tel": "083-766-3987",
    "url": "",
    "pref": "山口県",
    "city": "下関市",
    "category": "community_day_service",
    "serviceType": "地域密着型通所介護",
    "capacity": 18,
    "openDays": [
      "平日",
      "土曜日",
      "祝日"
    ],
    "openDaysNote": ""
  },
  {
    "id": "3570101976",
    "name": "下関市社協　豊北デイサービスセンターわくわく苑",
    "kana": "シモノセキシシャキョウ　ホウホクデイサービスセンターワクワクエン",
    "address": "下関市豊北町大字神田上141-3下関市和久生きがいﾃﾞｲｻｰﾋﾞｽｾﾝﾀｰ 下関市和久生きがいﾃﾞｲｻｰﾋﾞｽｾﾝﾀｰ",
    "lat": 34.3058172,
    "lng": 130.8844567,
    "tel": "083-786-0136",
    "url": "http://www.shimoshakyo.or.jp",
    "pref": "山口県",
    "city": "下関市",
    "category": "community_day_service",
    "serviceType": "地域密着型通所介護",
    "capacity": 0,
    "openDays": [
      "平日"
    ],
    "openDaysNote": "特になし"
  },
  {
    "id": "3570103055",
    "name": "株式会社ナーシングケア　デイサービスセンター向日葵",
    "kana": "カブシキガイシャナーシングケア　デイサービスセンターヒマワリ",
    "address": "山口県下関市豊北町大字神田上８９１－２５向日葵 向日葵",
    "lat": 34.2945654,
    "lng": 130.8839848,
    "tel": "０８３－７８８－０６８８",
    "url": "",
    "pref": "山口県",
    "city": "下関市",
    "category": "community_day_service",
    "serviceType": "地域密着型通所介護",
    "capacity": 0,
    "openDays": [
      "平日",
      "土曜日",
      "祝日"
    ],
    "openDaysNote": ""
  },
  {
    "id": "3590109488",
    "name": "菊川デイサービス　ひかり",
    "kana": "キクガワデイサービス　ヒカリ",
    "address": "山口県下関市菊川町下岡枝389-1",
    "lat": 34.1223501,
    "lng": 131.0324708,
    "tel": "083-288-2024",
    "url": "https://r.goope.jp/kaien/",
    "pref": "山口県",
    "city": "下関市",
    "category": "community_day_service",
    "serviceType": "地域密着型通所介護",
    "capacity": null,
    "openDays": [
      "平日",
      "土曜日",
      "日曜日",
      "祝日"
    ],
    "openDaysNote": ""
  },
  {
    "id": "3570105423",
    "name": "功栄サービスさくらえん",
    "kana": "コウエイサ－ビスサクラエン",
    "address": "山口県下関市生野町1-4-17",
    "lat": 33.9817711,
    "lng": 130.9343877,
    "tel": "083-294-0123",
    "url": "http://hp.kaipoke.biz/mx9/",
    "pref": "山口県",
    "city": "下関市",
    "category": "community_day_service",
    "serviceType": "地域密着型通所介護",
    "capacity": 13,
    "openDays": [
      "平日",
      "土曜日"
    ],
    "openDaysNote": "台風、積雪など送迎が難しい場合は臨時休業の場合あり（改行）延長サービスあり（要相談）"
  },
  {
    "id": "3590109066",
    "name": "済生会貴船福祉ケアセンター貴船園デイサービスセンター",
    "kana": "サイセイカイキフネフクシケアセンターキフネエンデイサービスセンター",
    "address": "山口県下関市貴船町3丁目4番1号",
    "lat": 33.9692601,
    "lng": 130.9425922,
    "tel": "083-223-0265",
    "url": "http://www.kifuneen.saiseikai.or.jp",
    "pref": "山口県",
    "city": "下関市",
    "category": "community_day_service",
    "serviceType": "地域密着型通所介護",
    "capacity": 18,
    "openDays": [
      "平日",
      "土曜日",
      "祝日"
    ],
    "openDaysNote": ""
  },
  {
    "id": "3590109124",
    "name": "山口県下関市秋根北町5-7　Ａ-102",
    "kana": "咲クロード",
    "address": "山口県下関市秋根北町5-7ノビリティ新下関Ａ102 ノビリティ新下関Ａ102",
    "lat": 34.014039,
    "lng": 130.9522486,
    "tel": "083-242-1607",
    "url": "https://itp.ne.jp/info/352701713168581530/",
    "pref": "山口県",
    "city": "下関市",
    "category": "community_day_service",
    "serviceType": "地域密着型通所介護",
    "capacity": 216,
    "openDays": [
      "平日",
      "土曜日",
      "祝日"
    ],
    "openDaysNote": "祝日およびお盆も営業しております。"
  },
  {
    "id": "3570104236",
    "name": "紫苑デイサービス",
    "kana": "シオンデイサービス",
    "address": "山口県下関市幡生町２丁目１６番１２号",
    "lat": 33.9780287,
    "lng": 130.934651,
    "tel": "０８３－２６５－４５２２",
    "url": "",
    "pref": "山口県",
    "city": "下関市",
    "category": "community_day_service",
    "serviceType": "地域密着型通所介護",
    "capacity": 0,
    "openDays": [
      "平日",
      "土曜日",
      "日曜日",
      "祝日"
    ],
    "openDaysNote": "年末年始休業（１２月30日～１月３日）"
  },
  {
    "id": "3570100614",
    "name": "寿海荘デイサービスセンター",
    "kana": "ジュカイソウデイサービスセンター",
    "address": "下関市武久町二丁目５３番８号",
    "lat": 33.9805493789123,
    "lng": 130.91699835159,
    "tel": "083-253-9914",
    "url": "http://syoujuen.jp",
    "pref": "山口県",
    "city": "下関市",
    "category": "community_day_service",
    "serviceType": "地域密着型通所介護",
    "capacity": 0,
    "openDays": [
      "平日",
      "土曜日",
      "祝日"
    ],
    "openDaysNote": ""
  },
  {
    "id": "3570104335",
    "name": "前田接骨院デイサービス機能回復センター",
    "kana": "マエダセッコツインデイサービスキノウカイフクセンター",
    "address": "山口県下関市長府中土居本町15-26",
    "lat": 34.0040634002849,
    "lng": 130.989590174205,
    "tel": "083-245-8488",
    "url": "",
    "pref": "山口県",
    "city": "下関市",
    "category": "community_day_service",
    "serviceType": "地域密着型通所介護",
    "capacity": 0,
    "openDays": [
      "平日"
    ],
    "openDaysNote": ""
  },
  {
    "id": "3590109496",
    "name": "早稲田イーライフ新下関",
    "kana": "ワセダイーライフシンシモノセキ",
    "address": "山口県下関市一の宮町2-6-14",
    "lat": 34.0045921352528,
    "lng": 130.949794780951,
    "tel": "083-250-6880",
    "url": "waseda-e-life.co.jp",
    "pref": "山口県",
    "city": "下関市",
    "category": "community_day_service",
    "serviceType": "地域密着型通所介護",
    "capacity": 0,
    "openDays": [
      "平日",
      "祝日"
    ],
    "openDaysNote": "12月29日～1月3日は休業"
  },
  {
    "id": "3590109058",
    "name": "早稲田イーライフ彦島",
    "kana": "ワセダイーライフヒコシマ",
    "address": "下関市彦島角倉町1-11-30早稲田イーライフ彦島 早稲田イーライフ彦島",
    "lat": 33.9262307,
    "lng": 130.9146091,
    "tel": "083-250-9301",
    "url": "e-life_hikoshima@extra.ocn.ne.jp",
    "pref": "山口県",
    "city": "下関市",
    "category": "community_day_service",
    "serviceType": "地域密着型通所介護",
    "capacity": 100,
    "openDays": [
      "平日",
      "祝日"
    ],
    "openDaysNote": "12月31日〜1月3日"
  },
  {
    "id": "3570104400",
    "name": "地域共生ホーム　デイサービスうたたね",
    "kana": "チイキキョウセイホームデイサービスウタタネ",
    "address": "清末大門１２番４３号",
    "lat": 34.0603323,
    "lng": 131.0172671,
    "tel": "０８３－２８２－０２２２",
    "url": "hitomati＠ｂｚ01.plala.or.jp",
    "pref": "山口県",
    "city": "下関市",
    "category": "community_day_service",
    "serviceType": "地域密着型通所介護",
    "capacity": 10,
    "openDays": [
      "平日",
      "土曜日",
      "祝日"
    ],
    "openDaysNote": ""
  },
  {
    "id": "3570103113",
    "name": "地域共生ホーム　デイサービスおかげさん",
    "kana": "チイキキョウセイホームデイサービスオカゲサン",
    "address": "下関市清末大門12番43号",
    "lat": 34.0603323,
    "lng": 131.0172671,
    "tel": "083-281-3111",
    "url": "hitomati@bz01.plala.or.jp",
    "pref": "山口県",
    "city": "下関市",
    "category": "community_day_service",
    "serviceType": "地域密着型通所介護",
    "capacity": 18,
    "openDays": [
      "平日",
      "土曜日",
      "祝日"
    ],
    "openDaysNote": "特になし"
  },
  {
    "id": "3570104897",
    "name": "通い所　歩き道",
    "kana": "カヨイドコロ　アルキミチ",
    "address": "下関市赤間町3-24八光ビル　１Ｆ 八光ビル　１Ｆ",
    "lat": 33.9589639,
    "lng": 130.9424172,
    "tel": "083-249-5308",
    "url": "www.you-hodo.co.jp/sp/",
    "pref": "山口県",
    "city": "下関市",
    "category": "community_day_service",
    "serviceType": "地域密着型通所介護",
    "capacity": 0,
    "openDays": [
      "平日",
      "土曜日",
      "日曜日",
      "祝日"
    ],
    "openDaysNote": ""
  },
  {
    "id": "3590109421",
    "name": "灯りやデイサービス",
    "kana": "アカリヤデイサービス",
    "address": "山口県下関市菊川町上田部343-2",
    "lat": 34.1089463104794,
    "lng": 131.023117198181,
    "tel": "083-227-3270",
    "url": "https://morinotoudai.jp",
    "pref": "山口県",
    "city": "下関市",
    "category": "community_day_service",
    "serviceType": "地域密着型通所介護",
    "capacity": null,
    "openDays": [
      "平日",
      "土曜日",
      "祝日"
    ],
    "openDaysNote": ""
  },
  {
    "id": "3570103196",
    "name": "特定非営利活動法人さくらんぼデイサービスセンター",
    "kana": "トクテイヒエイリカツドウホウジンサクランボデイサービスセンター",
    "address": "山口県下関市長府中土居北町６番１８号",
    "lat": 34.0082788,
    "lng": 130.9891509,
    "tel": "083-245-5080",
    "url": "https://www.nposakuranbo.com",
    "pref": "山口県",
    "city": "下関市",
    "category": "community_day_service",
    "serviceType": "地域密着型通所介護",
    "capacity": 16,
    "openDays": [
      "平日",
      "祝日"
    ],
    "openDaysNote": "特になし"
  },
  {
    "id": "3570104582",
    "name": "特定非営利活動法人さくらんぼデイサービス笑家",
    "kana": "トクテイヒエイリカツドウホウジンサクランボデイサービスショウヤ",
    "address": "下関市勝谷新町４丁目13番27号",
    "lat": 34.0047402,
    "lng": 130.9721469,
    "tel": "083－227－4871",
    "url": "https://nposakuranbo.com",
    "pref": "山口県",
    "city": "下関市",
    "category": "community_day_service",
    "serviceType": "地域密着型通所介護",
    "capacity": 10,
    "openDays": [
      "平日",
      "土曜日",
      "祝日"
    ],
    "openDaysNote": "令和5年9月より土曜日も営業開始"
  },
  {
    "id": "3570104020",
    "name": "福浦リハビリデイサービス",
    "kana": "フクウラリハビリデイサービス",
    "address": "山口県下関市彦島福浦町3-6-22",
    "lat": 33.9277026,
    "lng": 130.9124315,
    "tel": "083-261-5533",
    "url": "",
    "pref": "山口県",
    "city": "下関市",
    "category": "community_day_service",
    "serviceType": "地域密着型通所介護",
    "capacity": 0,
    "openDays": [
      "平日",
      "土曜日"
    ],
    "openDaysNote": ""
  },
  {
    "id": "3590109462",
    "name": "歩行リハビリセンターテクラ新下関店",
    "kana": "ホコウリハビリセンターテクラシンシモノセキテン",
    "address": "山口県下関市熊野西町1-11",
    "lat": 33.9953968,
    "lng": 130.944687,
    "tel": "083-242-0109",
    "url": "https://rehapis.com/",
    "pref": "山口県",
    "city": "下関市",
    "category": "community_day_service",
    "serviceType": "地域密着型通所介護",
    "capacity": null,
    "openDays": [
      "平日",
      "祝日"
    ],
    "openDaysNote": "夏季休暇：8/13～8/15（改行）年末年始：12/31～1/3"
  },
  {
    "id": "3570104954",
    "name": "本村リハビリデイサービス",
    "kana": "ホンムラリハビリデイサービス",
    "address": "山口県下関市彦島本村町6-2-6",
    "lat": 33.9386515,
    "lng": 130.9144172,
    "tel": "083-261-0777",
    "url": "",
    "pref": "山口県",
    "city": "下関市",
    "category": "community_day_service",
    "serviceType": "地域密着型通所介護",
    "capacity": 0,
    "openDays": [
      "平日",
      "土曜日"
    ],
    "openDaysNote": ""
  },
  {
    "id": "3590109280",
    "name": "夢里デイサービス",
    "kana": "ユメサトデイサービス",
    "address": "山口県下関市大字内日下833-1",
    "lat": 34.0984407,
    "lng": 130.96504,
    "tel": "083-289-2213",
    "url": "",
    "pref": "山口県",
    "city": "下関市",
    "category": "community_day_service",
    "serviceType": "地域密着型通所介護",
    "capacity": null,
    "openDays": [
      "平日",
      "土曜日",
      "祝日"
    ],
    "openDaysNote": "特になし"
  },
  {
    "id": "3570100572",
    "name": "陽光苑デイサービスセンター",
    "kana": "ヨウコウエンデイサービスセンター",
    "address": "下関市大字永田郷158－1",
    "lat": 34.0995993,
    "lng": 130.8986666,
    "tel": "083-286-2125",
    "url": "http://92.ds-subb5.com/shimonoseki/",
    "pref": "山口県",
    "city": "下関市",
    "category": "community_day_service",
    "serviceType": "地域密着型通所介護",
    "capacity": 0,
    "openDays": [
      "平日",
      "土曜日",
      "祝日"
    ],
    "openDaysNote": "特になし"
  },
  {
    "id": "3570104202",
    "name": "林田クリニックデイサービスセンターそよ風",
    "kana": "ハヤシダクリニックデイサービスセンターソヨカゼ",
    "address": "下関市山の口町１－３０",
    "lat": 33.9685407,
    "lng": 130.9355206,
    "tel": "083-242-5810",
    "url": "",
    "pref": "山口県",
    "city": "下関市",
    "category": "community_day_service",
    "serviceType": "地域密着型通所介護",
    "capacity": 0,
    "openDays": [
      "平日",
      "土曜日",
      "祝日"
    ],
    "openDaysNote": ""
  },
  {
    "id": "3570700892",
    "name": "ディサービス　和",
    "kana": "ディサービス　ヤワラカ",
    "address": "下松市望町３丁目４－２４",
    "lat": 34.0274312,
    "lng": 131.8590566,
    "tel": "0833-48-9579",
    "url": "",
    "pref": "山口県",
    "city": "下松市",
    "category": "community_day_service",
    "serviceType": "地域密着型通所介護",
    "capacity": 7,
    "openDays": [
      "平日",
      "土曜日",
      "日曜日",
      "祝日"
    ],
    "openDaysNote": ""
  },
  {
    "id": "3590700237",
    "name": "デイホーム土屋下松",
    "kana": "デイホームツチヤクダマツ",
    "address": "山口県下松市藤光町1丁目19－4",
    "lat": 34.0251651,
    "lng": 131.8671581,
    "tel": "0833-48‐8272",
    "url": "https://day-tsuchiya.com/day-kudamatsu/",
    "pref": "山口県",
    "city": "下松市",
    "category": "community_day_service",
    "serviceType": "地域密着型通所介護",
    "capacity": 0,
    "openDays": [
      "平日",
      "土曜日",
      "日曜日",
      "祝日"
    ],
    "openDaysNote": "年末年始は営業"
  },
  {
    "id": "3570801880",
    "name": "いこいふじ",
    "kana": "イコイフジ",
    "address": "岩国市室の木町4丁目1－1",
    "lat": 34.169701145608,
    "lng": 132.210130989549,
    "tel": "(0827)28-0505",
    "url": "icoifuji1@yahoo.co.jp",
    "pref": "山口県",
    "city": "岩国市",
    "category": "community_day_service",
    "serviceType": "地域密着型通所介護",
    "capacity": 10,
    "openDays": [
      "平日",
      "土曜日",
      "日曜日",
      "祝日"
    ],
    "openDaysNote": "特になし"
  },
  {
    "id": "3590800425",
    "name": "エブリデイサービス",
    "kana": "エブリデイサービス",
    "address": "御庄1丁目107番6",
    "lat": 34.1659213,
    "lng": 132.1489535,
    "tel": "0827-28-6668",
    "url": "",
    "pref": "山口県",
    "city": "岩国市",
    "category": "community_day_service",
    "serviceType": "地域密着型通所介護",
    "capacity": null,
    "openDays": [
      "平日",
      "土曜日"
    ],
    "openDaysNote": ""
  },
  {
    "id": "3577200763",
    "name": "ケアホーム　といろ",
    "kana": "ケアホーム　トイロ",
    "address": "山口県岩国市玖珂町９９２",
    "lat": 34.0954199,
    "lng": 132.0854539,
    "tel": "0827-82-7733",
    "url": "",
    "pref": "山口県",
    "city": "岩国市",
    "category": "community_day_service",
    "serviceType": "地域密着型通所介護",
    "capacity": 0,
    "openDays": [
      "平日",
      "祝日"
    ],
    "openDaysNote": ""
  },
  {
    "id": "3590800490",
    "name": "ささみ園",
    "kana": "ササミエン",
    "address": "玖珂町4981-1",
    "lat": 34.0918234,
    "lng": 132.0851693,
    "tel": "0827-82-4931",
    "url": "",
    "pref": "山口県",
    "city": "岩国市",
    "category": "community_day_service",
    "serviceType": "地域密着型通所介護",
    "capacity": 0,
    "openDays": [
      "平日"
    ],
    "openDaysNote": ""
  },
  {
    "id": "3570801732",
    "name": "デイグリーンいわくに",
    "kana": "デイグリーン　イワクニ",
    "address": "岩国市錦見8丁目２３－１",
    "lat": 34.1625482,
    "lng": 132.2019268,
    "tel": "（０８２７）３５－４３２６",
    "url": "http://www.fukushi-greencoop.or.jp/",
    "pref": "山口県",
    "city": "岩国市",
    "category": "community_day_service",
    "serviceType": "地域密着型通所介護",
    "capacity": 0,
    "openDays": [
      "平日",
      "土曜日",
      "祝日"
    ],
    "openDaysNote": "5月5日、8月13日～8月15日、12月30日～1月3日は休み"
  },
  {
    "id": "3570801542",
    "name": "ﾃﾞｲｻｰﾋﾞｽきらら",
    "kana": "デイサービスキララ",
    "address": "岩国市岩国2-7-4",
    "lat": 34.1634784,
    "lng": 132.1799979,
    "tel": "0827-28-2840",
    "url": "",
    "pref": "山口県",
    "city": "岩国市",
    "category": "community_day_service",
    "serviceType": "地域密着型通所介護",
    "capacity": 0,
    "openDays": [
      "平日",
      "土曜日",
      "祝日"
    ],
    "openDaysNote": ""
  },
  {
    "id": "3570801807",
    "name": "デイサービス　ただいま",
    "kana": "デイサービス　タダイマ",
    "address": "岩国市玖珂町4991-1",
    "lat": 34.0932646,
    "lng": 132.0864733,
    "tel": "0827-82-4245",
    "url": "",
    "pref": "山口県",
    "city": "岩国市",
    "category": "community_day_service",
    "serviceType": "地域密着型通所介護",
    "capacity": 10,
    "openDays": [
      "平日",
      "土曜日",
      "祝日"
    ],
    "openDaysNote": "その他の休日　12月31日から1月3日"
  },
  {
    "id": "3577200771",
    "name": "デイサービスきらく",
    "kana": "デイサービスキラク",
    "address": "岩国市美和町渋前603番地2",
    "lat": 34.2241679,
    "lng": 132.1008226,
    "tel": "0827-96-0667",
    "url": "http://www15.plala.or.jp/nagomi/",
    "pref": "山口県",
    "city": "岩国市",
    "category": "community_day_service",
    "serviceType": "地域密着型通所介護",
    "capacity": 10,
    "openDays": [
      "平日",
      "土曜日",
      "祝日"
    ],
    "openDaysNote": "特になし"
  },
  {
    "id": "3570801252",
    "name": "デイサービスセンター　ティエラ",
    "kana": "デイサービスセンター　ティエラ",
    "address": "岩国市多田三丁目１０４－２",
    "lat": 34.1809067,
    "lng": 132.1689707,
    "tel": "0827-44-2711",
    "url": "なし",
    "pref": "山口県",
    "city": "岩国市",
    "category": "community_day_service",
    "serviceType": "地域密着型通所介護",
    "capacity": 10,
    "openDays": [
      "平日",
      "祝日"
    ],
    "openDaysNote": ""
  },
  {
    "id": "3570801757",
    "name": "デイサービスセンターはーと・ふれんど関戸",
    "kana": "デイサービスセンタアハアトフレンドセキド",
    "address": "関戸一丁目１０５番地２９",
    "lat": 34.1858405,
    "lng": 132.1729467,
    "tel": "0827-28-0231",
    "url": "",
    "pref": "山口県",
    "city": "岩国市",
    "category": "community_day_service",
    "serviceType": "地域密着型通所介護",
    "capacity": 0,
    "openDays": [
      "平日"
    ],
    "openDaysNote": ""
  },
  {
    "id": "3570801872",
    "name": "デイサービスセンター灘海園",
    "kana": "デイサービスセンターナダミエン",
    "address": "山口県岩国市愛宕町一丁目５番１号",
    "lat": 34.1458438397701,
    "lng": 132.199479824848,
    "tel": "0827-28-0316",
    "url": "https://jigyodan-yg.jp/nadami/",
    "pref": "山口県",
    "city": "岩国市",
    "category": "community_day_service",
    "serviceType": "地域密着型通所介護",
    "capacity": 0,
    "openDays": [
      "平日",
      "祝日"
    ],
    "openDaysNote": "１２月２９日から１月３日は休業"
  },
  {
    "id": "3570801559",
    "name": "ゆの里デイサービスセンター",
    "kana": "ユノサトデイサービスセンター",
    "address": "山口県岩国市由宇町南沖１丁目１０－２５",
    "lat": 34.0406684,
    "lng": 132.2152067,
    "tel": "0827-63-2827",
    "url": "younosato2827@canvas.ocn.ne.jp",
    "pref": "山口県",
    "city": "岩国市",
    "category": "community_day_service",
    "serviceType": "地域密着型通所介護",
    "capacity": 8,
    "openDays": [
      "平日",
      "土曜日",
      "祝日"
    ],
    "openDaysNote": ""
  },
  {
    "id": "3570802052",
    "name": "リハビリデイサービスにしいわくに",
    "kana": "リハビリデイサービスニシイワクニ",
    "address": "山口県岩国市岩国３－１３－５クラール１Ｆ クラール１Ｆ",
    "lat": 34.1627064,
    "lng": 132.1848836,
    "tel": "0827-28-5732",
    "url": "",
    "pref": "山口県",
    "city": "岩国市",
    "category": "community_day_service",
    "serviceType": "地域密着型通所介護",
    "capacity": 10,
    "openDays": [
      "平日",
      "土曜日",
      "祝日"
    ],
    "openDaysNote": "夏季休暇８月１３日～８月１６日、冬期休暇１２月２９日～１月３日"
  },
  {
    "id": "3590800532",
    "name": "運動特化型デイサービスさんて",
    "kana": "ウンドウトッカガタデイサービスサンテ",
    "address": "山口県岩国市南岩国町1丁目24-59-1",
    "lat": 34.1341264,
    "lng": 132.2014565,
    "tel": "0827-93-4798",
    "url": "https://sante-iwakuni.com",
    "pref": "山口県",
    "city": "岩国市",
    "category": "community_day_service",
    "serviceType": "地域密着型通所介護",
    "capacity": null,
    "openDays": [
      "平日"
    ],
    "openDaysNote": ""
  },
  {
    "id": "3570801989",
    "name": "運動特化型デイサービスふぁいと",
    "kana": "ウンドウトッカカタデイサービスファイト",
    "address": "岩国２－７－４",
    "lat": 34.1636381940219,
    "lng": 132.179879882803,
    "tel": "0827-28-2840",
    "url": "http://www.kirara2828.com/",
    "pref": "山口県",
    "city": "岩国市",
    "category": "community_day_service",
    "serviceType": "地域密着型通所介護",
    "capacity": 15,
    "openDays": [
      "平日",
      "土曜日",
      "祝日"
    ],
    "openDaysNote": ""
  },
  {
    "id": "3570800965",
    "name": "宅老所　風の便り",
    "kana": "タクロウショ　カゼノタヨリ",
    "address": "岩国市平田２－１８－１２",
    "lat": 34.1445083,
    "lng": 132.1755131,
    "tel": "0827-32-1118",
    "url": "http://kaze2005.com/",
    "pref": "山口県",
    "city": "岩国市",
    "category": "community_day_service",
    "serviceType": "地域密着型通所介護",
    "capacity": 10,
    "openDays": [
      "平日",
      "土曜日",
      "祝日"
    ],
    "openDaysNote": "その他臨時休業あり"
  },
  {
    "id": "3590800417",
    "name": "通所介護事業所ハートフラワー岩国",
    "kana": "ツウショカイゴジギョウショハートフラワーイワクニ",
    "address": "山口県岩国市柱野832-1",
    "lat": 34.1349505,
    "lng": 132.1486026,
    "tel": "0827-45-1355",
    "url": "http://www.heart-lc.com/",
    "pref": "山口県",
    "city": "岩国市",
    "category": "community_day_service",
    "serviceType": "地域密着型通所介護",
    "capacity": 0,
    "openDays": [
      "平日",
      "祝日"
    ],
    "openDaysNote": ""
  },
  {
    "id": "3577200334",
    "name": "美川苑デイサービスセンター",
    "kana": "ミカワエンデイサービスセンター",
    "address": "山口県岩国市美川町小川437-1",
    "lat": 34.2422228,
    "lng": 132.000744,
    "tel": "0827-76-5008",
    "url": "http://mikawa-en.com/",
    "pref": "山口県",
    "city": "岩国市",
    "category": "community_day_service",
    "serviceType": "地域密着型通所介護",
    "capacity": 0,
    "openDays": [
      "平日"
    ],
    "openDaysNote": "特になし"
  },
  {
    "id": "3570801179",
    "name": "本郷デイサービスセンター",
    "kana": "ホンゴウデイサービスセンター",
    "address": "岩国市本郷町本郷2090",
    "lat": 34.2936346,
    "lng": 132.0393985,
    "tel": "0827-75-2500",
    "url": "",
    "pref": "山口県",
    "city": "岩国市",
    "category": "community_day_service",
    "serviceType": "地域密着型通所介護",
    "capacity": 5,
    "openDays": [
      "平日"
    ],
    "openDaysNote": "毎週木曜日については、職員不足のためサービスの提供は実施しない。"
  },
  {
    "id": "3571000748",
    "name": "デイサービス　古き良き一丁目",
    "kana": "デイサービス　フルキヨキイッチョウメ",
    "address": "山口県光市虹ケ丘３丁目２２－３６",
    "lat": 33.9782349,
    "lng": 131.9109173,
    "tel": "０８３３－４８－９９１４",
    "url": "http://goodandlives.com/",
    "pref": "山口県",
    "city": "光市",
    "category": "community_day_service",
    "serviceType": "地域密着型通所介護",
    "capacity": 60,
    "openDays": [
      "平日",
      "土曜日",
      "祝日"
    ],
    "openDaysNote": ""
  },
  {
    "id": "3571000755",
    "name": "デイサービスセンター　やまとの光",
    "kana": "デイサービスセンター　ヤマトノヒカリ",
    "address": "山口県光市岩田２２８０番地５",
    "lat": 33.985458766349,
    "lng": 131.992929351247,
    "tel": "０８２０-４８-８０１０",
    "url": "http://yamatonohikari.clinic-yamaguchi.com",
    "pref": "山口県",
    "city": "光市",
    "category": "community_day_service",
    "serviceType": "地域密着型通所介護",
    "capacity": 0,
    "openDays": [
      "平日",
      "土曜日"
    ],
    "openDaysNote": ""
  },
  {
    "id": "3571000797",
    "name": "デイサービス光の郷",
    "kana": "デイサービスヒカリノサト",
    "address": "山口県光市大字浅江3028-3",
    "lat": 33.9819596,
    "lng": 131.9115338,
    "tel": "0833　74-0339",
    "url": "",
    "pref": "山口県",
    "city": "光市",
    "category": "community_day_service",
    "serviceType": "地域密着型通所介護",
    "capacity": 8,
    "openDays": [
      "平日"
    ],
    "openDaysNote": ""
  },
  {
    "id": "3591000249",
    "name": "リバーサイド",
    "kana": "リバーサイド",
    "address": "山口県光市三井6丁目１８番1号",
    "lat": 33.9881878,
    "lng": 131.9527778,
    "tel": "0833-76-0161",
    "url": "https://www.yayoi-km.jp",
    "pref": "山口県",
    "city": "光市",
    "category": "community_day_service",
    "serviceType": "地域密着型通所介護",
    "capacity": 3,
    "openDays": [
      "平日",
      "土曜日",
      "日曜日",
      "祝日"
    ],
    "openDaysNote": ""
  },
  {
    "id": "3571000524",
    "name": "介護予防デイサービス　ふれまち虹の家",
    "kana": "カイゴヨボウデイサービス　フレマチニジノイエ",
    "address": "光市虹ヶ丘3丁目3-15",
    "lat": 33.9782434,
    "lng": 131.9141809,
    "tel": "0833-71-7716",
    "url": "",
    "pref": "山口県",
    "city": "光市",
    "category": "community_day_service",
    "serviceType": "地域密着型通所介護",
    "capacity": 0,
    "openDays": [
      "平日"
    ],
    "openDaysNote": "特になし"
  },
  {
    "id": "3571000441",
    "name": "光デイサービスセンター",
    "kana": "ヒカリデイサービスセンター",
    "address": "山口県光市虹ヶ丘2丁目21番22号",
    "lat": 33.9743771,
    "lng": 131.9127034,
    "tel": "0833-74-3477",
    "url": "http://www12.ocn.ne.jp/~kaigoya/",
    "pref": "山口県",
    "city": "光市",
    "category": "community_day_service",
    "serviceType": "地域密着型通所介護",
    "capacity": 9,
    "openDays": [
      "平日",
      "土曜日",
      "祝日"
    ],
    "openDaysNote": "特になし"
  },
  {
    "id": "3571000078",
    "name": "市川デイサービスセンターサポートひかり",
    "kana": "イチカワデイサービスセンターサポートヒカリ",
    "address": "光市中央3丁目2番13号",
    "lat": 33.9590971,
    "lng": 131.9459037,
    "tel": "0833-72-5700",
    "url": "http://koujinkai-ichikawaiin.jimdo.com/",
    "pref": "山口県",
    "city": "光市",
    "category": "community_day_service",
    "serviceType": "地域密着型通所介護",
    "capacity": 18,
    "openDays": [
      "平日",
      "土曜日",
      "祝日"
    ],
    "openDaysNote": ""
  },
  {
    "id": "3591000280",
    "name": "地域密着型デイサービスきらら光3号館",
    "kana": "チイキミッチャクガタデイサービスキララサンゴウカン",
    "address": "山口県光市小周防1658−1",
    "lat": 34.0180386,
    "lng": 131.9783385,
    "tel": "0833-76-0550",
    "url": "http://yu-kikai.org/",
    "pref": "山口県",
    "city": "光市",
    "category": "community_day_service",
    "serviceType": "地域密着型通所介護",
    "capacity": null,
    "openDays": [
      "平日",
      "祝日"
    ],
    "openDaysNote": ""
  },
  {
    "id": "3591000199",
    "name": "地域密着型デイサービスセンターきらら光",
    "kana": "チイキミッチャクガタデイサービスセンターキララヒカリ",
    "address": "山口県光市小周防1656−8",
    "lat": 34.0188587,
    "lng": 131.9779998,
    "tel": "0833-76-0550",
    "url": "http://yu-kikai.org/",
    "pref": "山口県",
    "city": "光市",
    "category": "community_day_service",
    "serviceType": "地域密着型通所介護",
    "capacity": 0,
    "openDays": [
      "平日",
      "土曜日",
      "日曜日",
      "祝日"
    ],
    "openDaysNote": ""
  },
  {
    "id": "3591000173",
    "name": "地域密着型デイサービスセンターひかり苑",
    "kana": "チイキミッチャクガタデイサービスセンターヒカリエン",
    "address": "山口県光市大字三井１０４６番地１",
    "lat": 33.9927152,
    "lng": 131.9509161,
    "tel": "０８３３－７６－１１７０",
    "url": "http://www.hikari-en.jp",
    "pref": "山口県",
    "city": "光市",
    "category": "community_day_service",
    "serviceType": "地域密着型通所介護",
    "capacity": null,
    "openDays": [
      "平日",
      "土曜日",
      "祝日"
    ],
    "openDaysNote": ""
  },
  {
    "id": "3591000298",
    "name": "地域密着型通所介護　デイサービス自由きまま",
    "kana": "チイキミッチャクガタツウショカイゴ　デイサービスジユウキママ",
    "address": "山口県光市上島田7丁目11-17",
    "lat": 33.9926258,
    "lng": 131.9657464,
    "tel": "0833-57-4485",
    "url": "",
    "pref": "山口県",
    "city": "光市",
    "category": "community_day_service",
    "serviceType": "地域密着型通所介護",
    "capacity": null,
    "openDays": [
      "平日",
      "土曜日",
      "祝日"
    ],
    "openDaysNote": ""
  },
  {
    "id": "3571000243",
    "name": "和光苑デイサービスセンター",
    "kana": "ワコウエンデイサービスセンター",
    "address": "光市大字立野字花ノ木826",
    "lat": 33.9976153,
    "lng": 131.972564,
    "tel": "0833-76-1050",
    "url": "https://wakouen-hikari.jp",
    "pref": "山口県",
    "city": "光市",
    "category": "community_day_service",
    "serviceType": "地域密着型通所介護",
    "capacity": 0,
    "openDays": [
      "平日"
    ],
    "openDaysNote": "特になし"
  },
  {
    "id": "3570301832",
    "name": "HotSpring",
    "kana": "ホットスプリング",
    "address": "山口市湯田温泉一丁目１番３号ReLife湯田温泉　１F ReLife湯田温泉　１F",
    "lat": 34.1662297254762,
    "lng": 131.460160076502,
    "tel": "083-941-5782",
    "url": "http://www.suiseikai.org",
    "pref": "山口県",
    "city": "山口市",
    "category": "community_day_service",
    "serviceType": "地域密着型通所介護",
    "capacity": 18,
    "openDays": [
      "平日",
      "土曜日",
      "祝日"
    ],
    "openDaysNote": "集中豪雨や台風、大雪等により休業する場合がございます。"
  },
  {
    "id": "3570303077",
    "name": "ウィンズタウン大内　喜郷デイサービスセンター",
    "kana": "ウィンズタウンオオウチ　ヨロコビノサトデイサービスセンター",
    "address": "山口県山口市大内長野1558-1ウィンズタウン大内　喜郷 ウィンズタウン大内　喜郷",
    "lat": 34.1637059,
    "lng": 131.517249147885,
    "tel": "083-941-6636",
    "url": "http：//wins-town.com/",
    "pref": "山口県",
    "city": "山口市",
    "category": "community_day_service",
    "serviceType": "地域密着型通所介護",
    "capacity": 0,
    "openDays": [
      "平日",
      "土曜日",
      "祝日"
    ],
    "openDaysNote": ""
  },
  {
    "id": "3570302467",
    "name": "ウィンズタウン大内デイサービスセンター",
    "kana": "ウィンズタウンオオウチデイサービスセンター",
    "address": "山口市大内長野８１４－１ウインズタウン大内 ウインズタウン大内",
    "lat": 34.1588507,
    "lng": 131.5160289,
    "tel": "０８３－９４１－６２３８",
    "url": "http://wins-town.com/",
    "pref": "山口県",
    "city": "山口市",
    "category": "community_day_service",
    "serviceType": "地域密着型通所介護",
    "capacity": 0,
    "openDays": [
      "平日",
      "土曜日",
      "祝日"
    ],
    "openDaysNote": ""
  },
  {
    "id": "3590300327",
    "name": "デイサービス・さんコープ湯田",
    "kana": "デイサービスサンコープユダ",
    "address": "山口県山口市熊野町5番17号",
    "lat": 34.1681409,
    "lng": 131.4590652,
    "tel": "０８３－９０２－６２７０",
    "url": "http://www.san-coop.jp",
    "pref": "山口県",
    "city": "山口市",
    "category": "community_day_service",
    "serviceType": "地域密着型通所介護",
    "capacity": null,
    "openDays": [
      "平日",
      "土曜日",
      "日曜日",
      "祝日"
    ],
    "openDaysNote": ""
  },
  {
    "id": "3570301287",
    "name": "デイサービスあいお",
    "kana": "デイサービス　アイオ",
    "address": "山口県山口市秋穂西３３２３番地",
    "lat": 34.0150833,
    "lng": 131.4159287,
    "tel": "083-984-5620",
    "url": "http://shiosai-aio.com/",
    "pref": "山口県",
    "city": "山口市",
    "category": "community_day_service",
    "serviceType": "地域密着型通所介護",
    "capacity": 0,
    "openDays": [
      "平日",
      "祝日"
    ],
    "openDaysNote": "特になし。"
  },
  {
    "id": "3590300525",
    "name": "デイサービスきたえるーむ山口中央",
    "kana": "デイサービスキタエルームヤマグチチュウオウ",
    "address": "山口市黄金町12-7",
    "lat": 34.1702762,
    "lng": 131.4754743,
    "tel": "083-9022626",
    "url": "https://kitaeroom.com/",
    "pref": "山口県",
    "city": "山口市",
    "category": "community_day_service",
    "serviceType": "地域密着型通所介護",
    "capacity": null,
    "openDays": [
      "平日",
      "土曜日"
    ],
    "openDaysNote": ""
  },
  {
    "id": "3570302210",
    "name": "デイサービスこうなん温泉",
    "kana": "デイサービスコウナンオンセン",
    "address": "山口市楠木町４番４２号",
    "lat": 34.1691962,
    "lng": 131.4539657,
    "tel": "０８３－９２８－４３０９",
    "url": "",
    "pref": "山口県",
    "city": "山口市",
    "category": "community_day_service",
    "serviceType": "地域密着型通所介護",
    "capacity": 10,
    "openDays": [
      "平日",
      "土曜日",
      "日曜日",
      "祝日"
    ],
    "openDaysNote": ""
  },
  {
    "id": "3590300558",
    "name": "デイサービスしばちゃん",
    "kana": "デイサービスシバチャン",
    "address": "山口県山口市阿東地福下879-1",
    "lat": 34.350091,
    "lng": 131.640584,
    "tel": "083-952-0221",
    "url": "https://d-shibachan.com/",
    "pref": "山口県",
    "city": "山口市",
    "category": "community_day_service",
    "serviceType": "地域密着型通所介護",
    "capacity": null,
    "openDays": [
      "平日",
      "土曜日"
    ],
    "openDaysNote": ""
  },
  {
    "id": "3570302723",
    "name": "デイサービスセンター　カイゴのチカラ　泉都町",
    "kana": "デイサービスセンター　カイゴノチカラ　セントチョウ",
    "address": "山口県山口市泉都町8番31号",
    "lat": 34.1661867,
    "lng": 131.4631048,
    "tel": "083-902-5967",
    "url": "http:/kaigonochikara.jp/",
    "pref": "山口県",
    "city": "山口市",
    "category": "community_day_service",
    "serviceType": "地域密着型通所介護",
    "capacity": 0,
    "openDays": [
      "平日",
      "土曜日",
      "日曜日",
      "祝日"
    ],
    "openDaysNote": ""
  },
  {
    "id": "3570302897",
    "name": "デイサービスセンター　にじの滝",
    "kana": "デイサービスセンター　ニジノタキ",
    "address": "山口県山口市下小鯖1339番地16高齢者・障がい者・福祉複合施設にじの滝 高齢者・障がい者・福祉複合施設にじの滝",
    "lat": 34.1204376,
    "lng": 131.5327402,
    "tel": "083-902-6271",
    "url": "nijinotaki@mx.tiki.ne.jp",
    "pref": "山口県",
    "city": "山口市",
    "category": "community_day_service",
    "serviceType": "地域密着型通所介護",
    "capacity": 0,
    "openDays": [
      "平日",
      "土曜日"
    ],
    "openDaysNote": ""
  },
  {
    "id": "3570302780",
    "name": "デイサービスゆうの里あったか館",
    "kana": "デイサービスユウノサトアッタカカン",
    "address": "山口県山口市大内千坊一丁目6番14号",
    "lat": 34.1629507773751,
    "lng": 131.480638035582,
    "tel": "083-929-3386",
    "url": "",
    "pref": "山口県",
    "city": "山口市",
    "category": "community_day_service",
    "serviceType": "地域密着型通所介護",
    "capacity": 0,
    "openDays": [
      "平日",
      "土曜日",
      "日曜日",
      "祝日"
    ],
    "openDaysNote": "地震、台風等自然災害発生時は安全を考慮して休業する場合があります。"
  },
  {
    "id": "3590300582",
    "name": "デイサービスゆうの里こもれび館",
    "kana": "デイサービスユウノサトコモレビカン",
    "address": "山口県山口市大内御堀3302-3",
    "lat": 34.1422906931347,
    "lng": 131.498463022615,
    "tel": "083-929-3386",
    "url": "",
    "pref": "山口県",
    "city": "山口市",
    "category": "community_day_service",
    "serviceType": "地域密着型通所介護",
    "capacity": null,
    "openDays": [
      "平日",
      "土曜日"
    ],
    "openDaysNote": "台風、大雨、大雪などの災害時、安全のため休業することがあります。"
  },
  {
    "id": "3570302178",
    "name": "デイサービスゆうの里なごみ館",
    "kana": "デイサービスユウノサトナゴミカン",
    "address": "山口市大内千坊一丁目8番8号",
    "lat": 34.1628963387578,
    "lng": 131.481395178396,
    "tel": "083-929-3386",
    "url": "",
    "pref": "山口県",
    "city": "山口市",
    "category": "community_day_service",
    "serviceType": "地域密着型通所介護",
    "capacity": 0,
    "openDays": [
      "平日",
      "土曜日",
      "祝日"
    ],
    "openDaysNote": "地震、台風など自然災害でやむを得ない場合は休業することがあります。"
  },
  {
    "id": "3590300301",
    "name": "デイサービスゆうの里ぬくもり館",
    "kana": "デイサービスユウノサトヌクモリカン",
    "address": "大内千坊一丁目6番33号",
    "lat": 34.1630691375497,
    "lng": 131.48062773817,
    "tel": "083-929-3386",
    "url": "",
    "pref": "山口県",
    "city": "山口市",
    "category": "community_day_service",
    "serviceType": "地域密着型通所介護",
    "capacity": 0,
    "openDays": [
      "平日",
      "土曜日",
      "祝日"
    ],
    "openDaysNote": "台風、大雪などの災害により臨時休業する場合があります。"
  },
  {
    "id": "3590300491",
    "name": "デイサービスゆうの里ひだまり館",
    "kana": "デイサービスユウノサトヒダマリカン",
    "address": "山口県山口市大内御堀5－10－5ブレストハウスV ブレストハウスV",
    "lat": 34.1635901,
    "lng": 131.4879778,
    "tel": "083－929-3386",
    "url": "",
    "pref": "山口県",
    "city": "山口市",
    "category": "community_day_service",
    "serviceType": "地域密着型通所介護",
    "capacity": 0,
    "openDays": [
      "平日",
      "土曜日",
      "祝日"
    ],
    "openDaysNote": "災害等で休業する場合があります。"
  },
  {
    "id": "3570302111",
    "name": "デイサービスられる",
    "kana": "デイサービスラレル",
    "address": "山口市道場門前2丁目2－32",
    "lat": 34.174527,
    "lng": 131.4760879,
    "tel": "083-929-3232",
    "url": "",
    "pref": "山口県",
    "city": "山口市",
    "category": "community_day_service",
    "serviceType": "地域密着型通所介護",
    "capacity": 0,
    "openDays": [
      "平日",
      "土曜日"
    ],
    "openDaysNote": "祝祭日、夏季および年末年始に休業日あり"
  },
  {
    "id": "3570302947",
    "name": "デイサービス湯のまち倶楽部",
    "kana": "デイサービスユノマチクラブ",
    "address": "山口県山口市湯田温泉4-6-13",
    "lat": 34.1634212352566,
    "lng": 131.454179827509,
    "tel": "083-902-5568",
    "url": "http://veryhuman.jp/",
    "pref": "山口県",
    "city": "山口市",
    "category": "community_day_service",
    "serviceType": "地域密着型通所介護",
    "capacity": 0,
    "openDays": [
      "平日",
      "土曜日"
    ],
    "openDaysNote": ""
  },
  {
    "id": "3570302848",
    "name": "デイズみぎわ",
    "kana": "デイズミギワ",
    "address": "山口県山口市秋穂東4710−1ホームみぎわ ホームみぎわ",
    "lat": 33.996198701663,
    "lng": 131.447520725253,
    "tel": "083−984−5320",
    "url": "saesay-iic.co.jp",
    "pref": "山口県",
    "city": "山口市",
    "category": "community_day_service",
    "serviceType": "地域密着型通所介護",
    "capacity": 15,
    "openDays": [
      "平日",
      "土曜日",
      "日曜日",
      "祝日"
    ],
    "openDaysNote": ""
  },
  {
    "id": "3570302194",
    "name": "はるかぜデイサービスセンター",
    "kana": "ハルカゼデイサービスセンター",
    "address": "山口市嘉川4471",
    "lat": 34.0644829,
    "lng": 131.3705183,
    "tel": "083-988-0030",
    "url": "http://www.shinjin-kai.org",
    "pref": "山口県",
    "city": "山口市",
    "category": "community_day_service",
    "serviceType": "地域密着型通所介護",
    "capacity": 18,
    "openDays": [
      "平日",
      "土曜日",
      "祝日"
    ],
    "openDaysNote": "台風、自然災害発生時、感染症の流行等の状況によっては中止のアナウンスをする事があります。"
  },
  {
    "id": "3570301600",
    "name": "まごころの家デイサービスセンター",
    "kana": "マゴコロノイエデイサービスセンター",
    "address": "山口市江崎2471番地8",
    "lat": 34.0633873041651,
    "lng": 131.366058376057,
    "tel": "083-988-1155",
    "url": "http://www.shinjin-kai.org/",
    "pref": "山口県",
    "city": "山口市",
    "category": "community_day_service",
    "serviceType": "地域密着型通所介護",
    "capacity": 18,
    "openDays": [
      "平日",
      "土曜日",
      "祝日"
    ],
    "openDaysNote": "悪天候（豪雨・大雪）又は自然災害（地震等）により営業時間の変更を行うことがあります。"
  },
  {
    "id": "3570301741",
    "name": "ゆうらく園通所介護事業所",
    "kana": "ユウラクエンツウショカイゴジギョウショ",
    "address": "山口市楠木町1-26",
    "lat": 34.1703434,
    "lng": 131.4558626,
    "tel": "083-941-5700",
    "url": "http://yuurakuen@jimdo.com",
    "pref": "山口県",
    "city": "山口市",
    "category": "community_day_service",
    "serviceType": "地域密着型通所介護",
    "capacity": 12,
    "openDays": [
      "平日",
      "土曜日",
      "日曜日",
      "祝日"
    ],
    "openDaysNote": ""
  },
  {
    "id": "3570300255",
    "name": "よしき悠々苑デイサービスセンター",
    "kana": "ヨシキユウユウエンデイサービスセンター",
    "address": "山口市吉敷佐畑四丁目8番1号",
    "lat": 34.1687066,
    "lng": 131.4282438,
    "tel": "083-932-0232",
    "url": "yuujukai.hp.peraichi.com",
    "pref": "山口県",
    "city": "山口市",
    "category": "community_day_service",
    "serviceType": "地域密着型通所介護",
    "capacity": null,
    "openDays": [
      "平日",
      "土曜日",
      "祝日"
    ],
    "openDaysNote": "雪や台風で送迎不可能な場合は、営業中止又は、短時間営業になることがあります。（改行）新型コロナウイルス感染対策のため、営業中止になる場合があります。"
  },
  {
    "id": "3570302145",
    "name": "ライフケアデイサービス",
    "kana": "ライフケアデイサービス",
    "address": "山口県山口市黒川81-2",
    "lat": 34.1373596,
    "lng": 131.4329695,
    "tel": "083-941-6100",
    "url": "http://www.yumesanyo.jp/",
    "pref": "山口県",
    "city": "山口市",
    "category": "community_day_service",
    "serviceType": "地域密着型通所介護",
    "capacity": 0,
    "openDays": [
      "平日",
      "祝日"
    ],
    "openDaysNote": "年末12/31～年始1/3まで休み"
  },
  {
    "id": "3570302434",
    "name": "ライフケアデイサービスあじす",
    "kana": "ライフケアデイサービスアジス",
    "address": "山口市阿知須浜表南5312-1住宅型有料老人ホーム　ゆめの里あじす　ライフケアデイサービスあじす 住宅型有料老人ホーム　ゆめの里あじす　ライフケアデイサービスあじす",
    "lat": 34.0106963,
    "lng": 131.349402,
    "tel": "0836-65-0306",
    "url": "http://www.yumesanyo.jp/",
    "pref": "山口県",
    "city": "山口市",
    "category": "community_day_service",
    "serviceType": "地域密着型通所介護",
    "capacity": 17,
    "openDays": [
      "平日",
      "祝日"
    ],
    "openDaysNote": ""
  },
  {
    "id": "3590300459",
    "name": "リハビリ特化型デイサービス　クローバーライフ",
    "kana": "リハビリトッカガタデイサービス　クローバーライフ",
    "address": "山口県山口市小郡上郷１７４５番地５",
    "lat": 34.1299299,
    "lng": 131.4165526,
    "tel": "０８３－９４１－５５２３",
    "url": "",
    "pref": "山口県",
    "city": "山口市",
    "category": "community_day_service",
    "serviceType": "地域密着型通所介護",
    "capacity": 150,
    "openDays": [
      "平日",
      "祝日"
    ],
    "openDaysNote": ""
  },
  {
    "id": "3590300574",
    "name": "阿東リハ",
    "kana": "アトウリハ",
    "address": "山口県山口市阿東徳佐中3434-1",
    "lat": 34.397737,
    "lng": 131.7218066,
    "tel": "070-9342-7826",
    "url": "https://kokomate.org/dayservice/",
    "pref": "山口県",
    "city": "山口市",
    "category": "community_day_service",
    "serviceType": "地域密着型通所介護",
    "capacity": null,
    "openDays": [
      "平日"
    ],
    "openDaysNote": ""
  },
  {
    "id": "3590300442",
    "name": "一の坂デイサービスセンター（離れ）",
    "kana": "イチノサカデイサービスセンター（ハナレ）",
    "address": "山口県山口市後河原155番地",
    "lat": 34.1813804,
    "lng": 131.4773598,
    "tel": "083-941-6338",
    "url": "http//www.kizuna-y.jp",
    "pref": "山口県",
    "city": "山口市",
    "category": "community_day_service",
    "serviceType": "地域密着型通所介護",
    "capacity": 0,
    "openDays": [
      "平日",
      "土曜日",
      "日曜日",
      "祝日"
    ],
    "openDaysNote": ""
  },
  {
    "id": "3570301386",
    "name": "賀宝の里白松苑デイサービスセンター",
    "kana": "カガホノサトハクショウエンデイサービスセンター",
    "address": "山口市佐山158番地",
    "lat": 34.0496921,
    "lng": 131.3502007,
    "tel": "083-988-2555",
    "url": "https://www.hakusyoen.jp/sayama/kagaho",
    "pref": "山口県",
    "city": "山口市",
    "category": "community_day_service",
    "serviceType": "地域密着型通所介護",
    "capacity": 18,
    "openDays": [
      "平日",
      "土曜日",
      "祝日"
    ],
    "openDaysNote": "〇土砂災害警戒区域にて、警戒レベル４が発令された場合には、営業を直ちに終了いたします。（改行）〇台風や大雪に時は休業にする場合があります。"
  },
  {
    "id": "3570302350",
    "name": "株式会社きんもくせい",
    "kana": "カブシキガイシャキンモクセイ",
    "address": "山口県山口市大内御堀4331番地23",
    "lat": 34.1338176,
    "lng": 131.4972695,
    "tel": "839413800",
    "url": "http://kinmokusei-yamaguchi.jp/",
    "pref": "山口県",
    "city": "山口市",
    "category": "community_day_service",
    "serviceType": "地域密着型通所介護",
    "capacity": 18,
    "openDays": [
      "平日",
      "土曜日",
      "日曜日",
      "祝日"
    ],
    "openDaysNote": "1月1日休み"
  },
  {
    "id": "3570301543",
    "name": "若菜デイサービス",
    "kana": "ワカナデイサービス",
    "address": "山口市小郡下郷３０７－２",
    "lat": 34.1062953,
    "lng": 131.3986235,
    "tel": "０８３－９７３－７２４７",
    "url": "http://www.kamura-clinic.com",
    "pref": "山口県",
    "city": "山口市",
    "category": "community_day_service",
    "serviceType": "地域密着型通所介護",
    "capacity": 0,
    "openDays": [
      "平日",
      "土曜日"
    ],
    "openDaysNote": ""
  },
  {
    "id": "3570303010",
    "name": "相川医院デイサービス",
    "kana": "アイカワイインデイサービス",
    "address": "山口県山口市鋳銭司6000-１",
    "lat": 34.0856231,
    "lng": 131.4662707,
    "tel": "083-985-1661",
    "url": "",
    "pref": "山口県",
    "city": "山口市",
    "category": "community_day_service",
    "serviceType": "地域密着型通所介護",
    "capacity": null,
    "openDays": [
      "平日",
      "土曜日",
      "祝日"
    ],
    "openDaysNote": ""
  },
  {
    "id": "3570301782",
    "name": "大市デイサービスセンター",
    "kana": "オオイチデイサービスセンター",
    "address": "山口県山口市大市町1－28",
    "lat": 34.1793905,
    "lng": 131.4792429,
    "tel": "083－934－1294",
    "url": "",
    "pref": "山口県",
    "city": "山口市",
    "category": "community_day_service",
    "serviceType": "地域密着型通所介護",
    "capacity": 0,
    "openDays": [
      "平日",
      "祝日"
    ],
    "openDaysNote": ""
  },
  {
    "id": "3570302137",
    "name": "宅老所あじす喜楽苑",
    "kana": "タクロウショアジスキラクエン",
    "address": "山口市阿知須３２５７－２１",
    "lat": 34.0105189,
    "lng": 131.3634646,
    "tel": "0836-66-2233",
    "url": "",
    "pref": "山口県",
    "city": "山口市",
    "category": "community_day_service",
    "serviceType": "地域密着型通所介護",
    "capacity": null,
    "openDays": [
      "平日",
      "土曜日",
      "日曜日",
      "祝日"
    ],
    "openDaysNote": "正月1日は、送迎がありません。"
  },
  {
    "id": "3570302855",
    "name": "脳活性化デイサービス　ポインセチア",
    "kana": "ノウカッセイカデイサービス　ポインセチア",
    "address": "山口市駅通り二丁目３番２４号",
    "lat": 34.1746658999999,
    "lng": 131.4787903,
    "tel": "083-922-1191",
    "url": "http://www.yamaguchibyouin.jp/",
    "pref": "山口県",
    "city": "山口市",
    "category": "community_day_service",
    "serviceType": "地域密着型通所介護",
    "capacity": 10,
    "openDays": [
      "平日",
      "土曜日"
    ],
    "openDaysNote": ""
  },
  {
    "id": "3571600315",
    "name": "あさひデイサービスセンター",
    "kana": "アサヒデイサービスセンター",
    "address": "山陽小野田市大字小野田字入道石1135-46",
    "lat": 33.9606714932851,
    "lng": 131.159867234773,
    "tel": "0836-89-0187",
    "url": "",
    "pref": "山口県",
    "city": "山陽小野田市",
    "category": "community_day_service",
    "serviceType": "地域密着型通所介護",
    "capacity": 13,
    "openDays": [
      "平日",
      "土曜日",
      "祝日"
    ],
    "openDaysNote": "営業時間：8時30分～17時30分（改行）サービス提供時間：9時15分～16時30分/延長サービスを希望される方のサービス提供時間：8時00分～19時00分/延長時間：8時00分～9時15分及び16時30分～19時00分"
  },
  {
    "id": "3571600430",
    "name": "こころデイサービスセンター",
    "kana": "ココロデイサービスセンター",
    "address": "山陽小野田市大字小野田字入道石1135番63",
    "lat": 33.9608498818235,
    "lng": 131.159920290785,
    "tel": "0836-39-6845",
    "url": "http://kawamura-fs.com/asahi02.html",
    "pref": "山口県",
    "city": "山陽小野田市",
    "category": "community_day_service",
    "serviceType": "地域密着型通所介護",
    "capacity": 15,
    "openDays": [
      "平日",
      "土曜日",
      "祝日"
    ],
    "openDaysNote": "営業時間：8時30分～17時30分/サービス提供時間：9時15分～16時30分"
  },
  {
    "id": "3571600448",
    "name": "セカンドハウス陽だまりのいえ",
    "kana": "セカンドハウスヒダマリノイエ",
    "address": "山口県山陽小野田市大字小野田１１３１５番４７",
    "lat": 33.9461435,
    "lng": 131.1715879,
    "tel": "０８３６－８３－１８６８",
    "url": "",
    "pref": "山口県",
    "city": "山陽小野田市",
    "category": "community_day_service",
    "serviceType": "地域密着型通所介護",
    "capacity": 16,
    "openDays": [
      "平日",
      "土曜日",
      "日曜日",
      "祝日"
    ],
    "openDaysNote": ""
  },
  {
    "id": "3571600562",
    "name": "デイサービス　あすか",
    "kana": "デイサービス　アスカ",
    "address": "山陽小野田市鴨庄７６番地3",
    "lat": 34.0597904,
    "lng": 131.1596368,
    "tel": "0836-72-1061",
    "url": "",
    "pref": "山口県",
    "city": "山陽小野田市",
    "category": "community_day_service",
    "serviceType": "地域密着型通所介護",
    "capacity": 0,
    "openDays": [
      "平日",
      "土曜日",
      "日曜日",
      "祝日"
    ],
    "openDaysNote": "年中無休とする"
  },
  {
    "id": "3571600687",
    "name": "デイサービス　そらり",
    "kana": "デイサービス　ソラリ",
    "address": "山口県山陽小野田市大字西高泊1334番地1",
    "lat": 34.0020352099719,
    "lng": 131.17069121468,
    "tel": "0836-39-9101",
    "url": "http://hayakawanaika.com/",
    "pref": "山口県",
    "city": "山陽小野田市",
    "category": "community_day_service",
    "serviceType": "地域密着型通所介護",
    "capacity": 18,
    "openDays": [
      "平日",
      "土曜日",
      "祝日"
    ],
    "openDaysNote": ""
  },
  {
    "id": "3591600311",
    "name": "デイサービス　ライフ",
    "kana": "デイサービスライフ",
    "address": "旭町　１丁目5-1デイサービス　ライフ デイサービス　ライフ",
    "lat": 33.9985808588017,
    "lng": 131.181747954142,
    "tel": "0836-52-7960",
    "url": "",
    "pref": "山口県",
    "city": "山陽小野田市",
    "category": "community_day_service",
    "serviceType": "地域密着型通所介護",
    "capacity": 0,
    "openDays": [
      "平日",
      "土曜日",
      "祝日"
    ],
    "openDaysNote": "8/15（夏季休暇）（改行）12/31、1/1、1/2、1/3（年末年始休暇）"
  },
  {
    "id": "3571600570",
    "name": "デイサービス　晴",
    "kana": "デイサービス　ハル",
    "address": "山陽小野田市大字西高泊１４６７番",
    "lat": 34.0051544,
    "lng": 131.1617931,
    "tel": "０８３６－３９－５２８０",
    "url": "http://care-service-you.com/day.service.haru/index.html",
    "pref": "山口県",
    "city": "山陽小野田市",
    "category": "community_day_service",
    "serviceType": "地域密着型通所介護",
    "capacity": 0,
    "openDays": [
      "平日",
      "土曜日",
      "祝日"
    ],
    "openDaysNote": ""
  },
  {
    "id": "3571600778",
    "name": "デイサービスあさひ",
    "kana": "デイサービスアサヒ",
    "address": "山陽小野田市大字小野田743-1",
    "lat": 33.9482172315045,
    "lng": 131.166641906577,
    "tel": "0836-43-6398",
    "url": "",
    "pref": "山口県",
    "city": "山陽小野田市",
    "category": "community_day_service",
    "serviceType": "地域密着型通所介護",
    "capacity": 0,
    "openDays": [
      "平日",
      "土曜日",
      "日曜日",
      "祝日"
    ],
    "openDaysNote": "サービス提供時間　9：15～16：30（改行）延長サービスを希望されるかたへのサービス提供時間　8：00～20：00/延長時間　8：00～9：15及び16：30～20：00"
  },
  {
    "id": "3571600760",
    "name": "デイサービスいこい",
    "kana": "デイサービスイコイ",
    "address": "山口県山陽小野田市中央2－5－9",
    "lat": 33.9785386,
    "lng": 131.177647,
    "tel": "0836－81－3722",
    "url": "",
    "pref": "山口県",
    "city": "山陽小野田市",
    "category": "community_day_service",
    "serviceType": "地域密着型通所介護",
    "capacity": 0,
    "openDays": [
      "平日",
      "祝日"
    ],
    "openDaysNote": ""
  },
  {
    "id": "3570900211",
    "name": "デイサービスセンターきらら",
    "kana": "デイサービスセンターキララ",
    "address": "山口県山陽小野田市有帆662-11",
    "lat": 34.0267611,
    "lng": 131.1956318,
    "tel": "0836-83-7530",
    "url": "http://41kaigo.com",
    "pref": "山口県",
    "city": "山陽小野田市",
    "category": "community_day_service",
    "serviceType": "地域密着型通所介護",
    "capacity": 0,
    "openDays": [
      "平日",
      "土曜日",
      "祝日"
    ],
    "openDaysNote": "営業日は月曜日～土曜日。祝日営業　年末年始の定休日は（12/31～1/3迄）"
  },
  {
    "id": "3571600869",
    "name": "デイサービスセンターであい",
    "kana": "デイサービスセンターデアイ",
    "address": "大字山川1338-8",
    "lat": 34.059832,
    "lng": 131.1532401,
    "tel": "0836-39-5262",
    "url": "",
    "pref": "山口県",
    "city": "山陽小野田市",
    "category": "community_day_service",
    "serviceType": "地域密着型通所介護",
    "capacity": 0,
    "openDays": [
      "平日",
      "土曜日",
      "祝日"
    ],
    "openDaysNote": ""
  },
  {
    "id": "3591600287",
    "name": "デイサービスゆう",
    "kana": "デイサービスユウ",
    "address": "山口県山陽小野田市西高泊758-1",
    "lat": 34.0087696376135,
    "lng": 131.168285533699,
    "tel": "836437882",
    "url": "https://www.yuyukai-llc.com",
    "pref": "山口県",
    "city": "山陽小野田市",
    "category": "community_day_service",
    "serviceType": "地域密着型通所介護",
    "capacity": 10,
    "openDays": [
      "平日",
      "土曜日",
      "祝日"
    ],
    "openDaysNote": "デイサービス通所利用困難で利用者の状況が確認できない場合、訪問介護と連携し安否確認など対応します。"
  },
  {
    "id": "3591600295",
    "name": "デイサービスゆうあい",
    "kana": "デイサービスユウアイ",
    "address": "山口県山陽小野田市大字小野田4046デイサービスゆうあい デイサービスゆうあい",
    "lat": 33.9549886,
    "lng": 131.1763505,
    "tel": "0836-88-2300",
    "url": "yuuai030301.com",
    "pref": "山口県",
    "city": "山陽小野田市",
    "category": "community_day_service",
    "serviceType": "地域密着型通所介護",
    "capacity": 0,
    "openDays": [
      "平日",
      "土曜日",
      "祝日"
    ],
    "openDaysNote": "台風や大雪などのときに　送迎に事故のリスクが高まるような時には休業します"
  },
  {
    "id": "3571600513",
    "name": "よりあい処焼野デイサービスセンター",
    "kana": "ヨリアイドコロヤケノデイサービスセンター",
    "address": "山陽小野田市大字小野田3208-1",
    "lat": 33.9522650262656,
    "lng": 131.177147499204,
    "tel": "0836-39-8280",
    "url": "",
    "pref": "山口県",
    "city": "山陽小野田市",
    "category": "community_day_service",
    "serviceType": "地域密着型通所介護",
    "capacity": 10,
    "openDays": [
      "平日",
      "土曜日",
      "日曜日",
      "祝日"
    ],
    "openDaysNote": ""
  },
  {
    "id": "3571600372",
    "name": "よりあい処本山デイサービスセンター",
    "kana": "ヨリアイドコロモトヤマデイサービスセンター",
    "address": "山口県山陽小野田市大字小野田726-1",
    "lat": 33.9472490839498,
    "lng": 131.16665487675,
    "tel": "0836-39-5606",
    "url": "",
    "pref": "山口県",
    "city": "山陽小野田市",
    "category": "community_day_service",
    "serviceType": "地域密着型通所介護",
    "capacity": 10,
    "openDays": [
      "平日",
      "土曜日",
      "日曜日",
      "祝日"
    ],
    "openDaysNote": ""
  },
  {
    "id": "3571600737",
    "name": "よりあい処岬デイサービスセンター",
    "kana": "ヨリアイドコロミサキデイサービスセンター",
    "address": "山口県山陽小野田市大字小野田字1ノ薄笹36-10",
    "lat": 33.9352056441989,
    "lng": 131.178231532539,
    "tel": "0836-88-1577",
    "url": "",
    "pref": "山口県",
    "city": "山陽小野田市",
    "category": "community_day_service",
    "serviceType": "地域密着型通所介護",
    "capacity": 10,
    "openDays": [
      "平日",
      "土曜日",
      "日曜日",
      "祝日"
    ],
    "openDaysNote": ""
  },
  {
    "id": "3571600323",
    "name": "リハビリデイサービスたんぽぽ",
    "kana": "リハビリデイサービスタンポポ",
    "address": "山口県山陽小野田市くし山1-17-20",
    "lat": 34.0111941225625,
    "lng": 131.182348920968,
    "tel": "0836-38-5775",
    "url": "kenbunkai-yamaguchi.jp",
    "pref": "山口県",
    "city": "山陽小野田市",
    "category": "community_day_service",
    "serviceType": "地域密着型通所介護",
    "capacity": 0,
    "openDays": [
      "平日",
      "祝日"
    ],
    "openDaysNote": "祝日とお盆（8/13～15）は1日コースだけのご利用となります。"
  },
  {
    "id": "3591600303",
    "name": "株式会社要会",
    "kana": "カブシキガイシャカナメカイ",
    "address": "山口県山陽小野田市大字郡3191-1",
    "lat": 34.0228865,
    "lng": 131.1436926,
    "tel": "090-2341-0301",
    "url": "",
    "pref": "山口県",
    "city": "山陽小野田市",
    "category": "community_day_service",
    "serviceType": "地域密着型通所介護",
    "capacity": null,
    "openDays": [
      "平日",
      "土曜日"
    ],
    "openDaysNote": ""
  },
  {
    "id": "3591600238",
    "name": "訪問介護　エガオ",
    "kana": "ホウモンカイゴ　エガオ",
    "address": "大字小野田4839-1健幸ホーム 健幸ホーム",
    "lat": 33.9626607,
    "lng": 131.1807892,
    "tel": "0836-43-9556",
    "url": "",
    "pref": "山口県",
    "city": "山陽小野田市",
    "category": "community_day_service",
    "serviceType": "地域密着型通所介護",
    "capacity": null,
    "openDays": [
      "平日",
      "土曜日",
      "祝日"
    ],
    "openDaysNote": ""
  },
  {
    "id": "3571501448",
    "name": "ＪＡﾃﾞｲｻｰﾋﾞｽ須々万ぺんぎん",
    "kana": "ジェイエイデイサービスススマペンギン",
    "address": "山口県周南市須々万本郷２５０２番地",
    "lat": 34.1153202,
    "lng": 131.8608521,
    "tel": "0834-87-0025",
    "url": "http://www.ｊａ-ｓｙｕｎａｎ.ｏｒ.ｊｐ",
    "pref": "山口県",
    "city": "周南市",
    "category": "community_day_service",
    "serviceType": "地域密着型通所介護",
    "capacity": null,
    "openDays": [
      "平日",
      "土曜日",
      "祝日"
    ],
    "openDaysNote": "台風、積雪その他の自然災害等によりやむを得ずご利用時間の変更、または、中止とさせて頂く事があります。"
  },
  {
    "id": "3591500446",
    "name": "あゆむデイサービスセンター",
    "kana": "アユムデイサービスセンター",
    "address": "下上976-8",
    "lat": 34.0830163,
    "lng": 131.771434,
    "tel": "0834-33-9195",
    "url": "http://www.egao-1day.com/",
    "pref": "山口県",
    "city": "周南市",
    "category": "community_day_service",
    "serviceType": "地域密着型通所介護",
    "capacity": null,
    "openDays": [
      "平日",
      "土曜日",
      "祝日"
    ],
    "openDaysNote": "年末年始（12/31～1/3）はお休み"
  },
  {
    "id": "3571501513",
    "name": "えがおデイサービスセンター",
    "kana": "エガオデイサービスセンター",
    "address": "山口県周南市室尾2丁目8-33",
    "lat": 34.0648879,
    "lng": 131.7299776,
    "tel": "0834-39-6216",
    "url": "https://www.egao-1day.com/",
    "pref": "山口県",
    "city": "周南市",
    "category": "community_day_service",
    "serviceType": "地域密着型通所介護",
    "capacity": null,
    "openDays": [
      "平日",
      "土曜日",
      "祝日"
    ],
    "openDaysNote": ""
  },
  {
    "id": "3571500457",
    "name": "デイサービス　さわやか",
    "kana": "デイサービス　サワヤカ",
    "address": "周南市大字下上133番地の17",
    "lat": 34.090129,
    "lng": 131.7862817,
    "tel": "0834-61-0577",
    "url": "",
    "pref": "山口県",
    "city": "周南市",
    "category": "community_day_service",
    "serviceType": "地域密着型通所介護",
    "capacity": 0,
    "openDays": [
      "平日",
      "土曜日",
      "日曜日",
      "祝日"
    ],
    "openDaysNote": "特になし"
  },
  {
    "id": "3591500438",
    "name": "デイサービス　とーか",
    "kana": "デイサービス　トーカ",
    "address": "政所四丁目10番21号",
    "lat": 34.0746443,
    "lng": 131.7728526,
    "tel": "0834-61-1501",
    "url": "http://www.to-ka.co.jp",
    "pref": "山口県",
    "city": "周南市",
    "category": "community_day_service",
    "serviceType": "地域密着型通所介護",
    "capacity": null,
    "openDays": [
      "平日",
      "土曜日",
      "祝日"
    ],
    "openDaysNote": "営業日　火曜日　木曜日　土曜日"
  },
  {
    "id": "3571501554",
    "name": "デイサービス　湯野温泉",
    "kana": "デイサービス　ユノオンセン",
    "address": "山口県周南市大字湯野4203番地の6サービス付き高齢者向け住宅　湯野温泉 サービス付き高齢者向け住宅　湯野温泉",
    "lat": 34.0940568,
    "lng": 131.6749365,
    "tel": "0834-82-1001",
    "url": "http://www.chitokukai.com",
    "pref": "山口県",
    "city": "周南市",
    "category": "community_day_service",
    "serviceType": "地域密着型通所介護",
    "capacity": 0,
    "openDays": [
      "平日",
      "土曜日"
    ],
    "openDaysNote": "お盆8/14～8/16・年末年始12/29～1/3は休み"
  },
  {
    "id": "3571501042",
    "name": "デイサービスセンターあとらす",
    "kana": "デイサービスセンターアトラス",
    "address": "山口県周南市大字久米４４７番地",
    "lat": 34.0405528789754,
    "lng": 131.856376332771,
    "tel": "０８３４－２８－５８１１",
    "url": "",
    "pref": "山口県",
    "city": "周南市",
    "category": "community_day_service",
    "serviceType": "地域密着型通所介護",
    "capacity": 0,
    "openDays": [
      "平日",
      "土曜日",
      "日曜日",
      "祝日"
    ],
    "openDaysNote": ""
  },
  {
    "id": "3591500339",
    "name": "デイサービスセンターきらら",
    "kana": "デイサービスセンターキララ",
    "address": "山口県周南市櫛ヶ浜字下塩田463－5",
    "lat": 34.0244598800238,
    "lng": 131.83044080636,
    "tel": "０８３４－３４－３２３２",
    "url": "https://www.yuusei0801.co.jp/index.html",
    "pref": "山口県",
    "city": "周南市",
    "category": "community_day_service",
    "serviceType": "地域密着型通所介護",
    "capacity": 0,
    "openDays": [
      "平日",
      "土曜日",
      "日曜日",
      "祝日"
    ],
    "openDaysNote": ""
  },
  {
    "id": "3571501539",
    "name": "デイサービスセンターくすのき",
    "kana": "デイサービスセンタークスノキ",
    "address": "山口県周南市城ヶ丘三丁目6番1号",
    "lat": 34.0431182,
    "lng": 131.8415245,
    "tel": "0834-33-8883",
    "url": "http://koujinkai-tokuyou.jimdo.com/",
    "pref": "山口県",
    "city": "周南市",
    "category": "community_day_service",
    "serviceType": "地域密着型通所介護",
    "capacity": 0,
    "openDays": [
      "平日",
      "土曜日",
      "祝日"
    ],
    "openDaysNote": ""
  },
  {
    "id": "3591500404",
    "name": "デイサービスセンターぜろ庵",
    "kana": "デイサービスセンターゼロアン",
    "address": "須々万本郷687-7",
    "lat": 34.1186716523652,
    "lng": 131.872925058951,
    "tel": "0834-87-0353",
    "url": "",
    "pref": "山口県",
    "city": "周南市",
    "category": "community_day_service",
    "serviceType": "地域密着型通所介護",
    "capacity": null,
    "openDays": [
      "平日",
      "土曜日",
      "祝日"
    ],
    "openDaysNote": "要望に応じて日曜日に営業することがある"
  },
  {
    "id": "3571500382",
    "name": "デイサービスセンター春",
    "kana": "デイサービスセンターハル",
    "address": "周南市新清光台４丁目１番１３号",
    "lat": 34.0340612,
    "lng": 131.9509795,
    "tel": "0833-92-0404",
    "url": "",
    "pref": "山口県",
    "city": "周南市",
    "category": "community_day_service",
    "serviceType": "地域密着型通所介護",
    "capacity": null,
    "openDays": [
      "平日",
      "土曜日",
      "祝日"
    ],
    "openDaysNote": ""
  },
  {
    "id": "3571500762",
    "name": "デイサービスセンター須々万",
    "kana": "デイサービスセンターススマ",
    "address": "周南市大字須々万本郷６８８－１",
    "lat": 34.1181367,
    "lng": 131.8728815,
    "tel": "0834-87-0353",
    "url": "",
    "pref": "山口県",
    "city": "周南市",
    "category": "community_day_service",
    "serviceType": "地域密着型通所介護",
    "capacity": 0,
    "openDays": [
      "平日",
      "土曜日",
      "祝日"
    ],
    "openDaysNote": ""
  },
  {
    "id": "3570301311",
    "name": "デイサービスであい",
    "kana": "デイサービスデアイ",
    "address": "山口県周南市福川中市町8番32号",
    "lat": 34.074155195559,
    "lng": 131.734324297064,
    "tel": "0834-33-8811",
    "url": "http://tokuseikai.or.jp/fukugawadayori1/",
    "pref": "山口県",
    "city": "周南市",
    "category": "community_day_service",
    "serviceType": "地域密着型通所介護",
    "capacity": 0,
    "openDays": [
      "平日",
      "土曜日",
      "祝日"
    ],
    "openDaysNote": ""
  },
  {
    "id": "3591500370",
    "name": "デイサービス絆　周南",
    "kana": "デイサービスキズナ　シュウナン",
    "address": "山口県周南市大字須々万奥544番地8",
    "lat": 34.1177146,
    "lng": 131.8845721,
    "tel": "0834-88-1288",
    "url": "",
    "pref": "山口県",
    "city": "周南市",
    "category": "community_day_service",
    "serviceType": "地域密着型通所介護",
    "capacity": 10,
    "openDays": [
      "平日",
      "土曜日",
      "日曜日",
      "祝日"
    ],
    "openDaysNote": ""
  },
  {
    "id": "3571500267",
    "name": "まんてんデイサービスセンター",
    "kana": "マンテンデイサービスセンター",
    "address": "山口県周南市呼坂字東下馬場1194番地",
    "lat": 34.0425846196244,
    "lng": 131.95449318306,
    "tel": "0833-91-1016",
    "url": "",
    "pref": "山口県",
    "city": "周南市",
    "category": "community_day_service",
    "serviceType": "地域密着型通所介護",
    "capacity": 10,
    "openDays": [
      "平日",
      "土曜日",
      "日曜日",
      "祝日"
    ],
    "openDaysNote": ""
  },
  {
    "id": "3570500334",
    "name": "周南市須金老人デイサービスセンター",
    "kana": "シュウナンシスガネロウジンデイサービスセンター",
    "address": "山口県周南市大字須万2488",
    "lat": 34.2010021923098,
    "lng": 131.923741582863,
    "tel": "0834-86-2825",
    "url": "",
    "pref": "山口県",
    "city": "周南市",
    "category": "community_day_service",
    "serviceType": "地域密着型通所介護",
    "capacity": 0,
    "openDays": [
      "平日"
    ],
    "openDaysNote": "特になし"
  },
  {
    "id": "3570500326",
    "name": "周南市大津島老人デイサービスセンター",
    "kana": "シュウナンシオオヅシマロウジンデイサービスセンター",
    "address": "周南市大字大津島221番地",
    "lat": 34.0070034,
    "lng": 131.7043595,
    "tel": "0834-85-2138",
    "url": "https://www.shunan-jiyoudan.jp",
    "pref": "山口県",
    "city": "周南市",
    "category": "community_day_service",
    "serviceType": "地域密着型通所介護",
    "capacity": 0,
    "openDays": [
      "平日"
    ],
    "openDaysNote": ""
  },
  {
    "id": "3571400047",
    "name": "福寿荘デイサービスセンター",
    "kana": "フクジュソウデイサービスセンター",
    "address": "山口県周南市大字米光361番地福寿荘デイサービスセンター 福寿荘デイサービスセンター",
    "lat": 34.1369534,
    "lng": 131.7220452,
    "tel": "0834-67-2120",
    "url": "http://www.shinnanyofukushi.com",
    "pref": "山口県",
    "city": "周南市",
    "category": "community_day_service",
    "serviceType": "地域密着型通所介護",
    "capacity": 18,
    "openDays": [
      "平日",
      "土曜日"
    ],
    "openDaysNote": "なし"
  },
  {
    "id": "3577100500",
    "name": "デイサービス　たすけあい　いい日の里",
    "kana": "デイサービス　タスケアイ　イイヒノサト",
    "address": "大島郡周防大島町大字椋野1338番地1",
    "lat": 33.9561038,
    "lng": 132.2306501,
    "tel": "0820-79-0120",
    "url": "",
    "pref": "山口県",
    "city": "周防大島町",
    "category": "community_day_service",
    "serviceType": "地域密着型通所介護",
    "capacity": 0,
    "openDays": [
      "平日"
    ],
    "openDaysNote": "利用者の緊急、特別の事情によっては定休日も営業日とする。"
  },
  {
    "id": "3577100633",
    "name": "デイサービス　ひまわり",
    "kana": "デイサービス　ヒマワリ",
    "address": "山口県大島郡周防大島町小松開作　143-27",
    "lat": 33.9299194,
    "lng": 132.1889958,
    "tel": "0820-74-1125",
    "url": "",
    "pref": "山口県",
    "city": "周防大島町",
    "category": "community_day_service",
    "serviceType": "地域密着型通所介護",
    "capacity": 0,
    "openDays": [
      "平日",
      "土曜日",
      "祝日"
    ],
    "openDaysNote": ""
  },
  {
    "id": "3597100100",
    "name": "デイサービスこんぺいとう",
    "kana": "デイサービスコンペイトウ",
    "address": "山口県大島郡周防大島町大字小松９１-４おげんきハグニティ おげんきハグニティ",
    "lat": 33.9275146,
    "lng": 132.1904712,
    "tel": "0820-79-2228",
    "url": "http://hugnity.com/",
    "pref": "山口県",
    "city": "周防大島町",
    "category": "community_day_service",
    "serviceType": "地域密着型通所介護",
    "capacity": 0,
    "openDays": [
      "平日",
      "土曜日",
      "祝日"
    ],
    "openDaysNote": ""
  },
  {
    "id": "3577100542",
    "name": "デイサービスセンター　山王苑",
    "kana": "デイサービスセンターサンノウエン",
    "address": "大島郡周防大島町大字地家室163－1",
    "lat": 33.8647111,
    "lng": 132.3609884,
    "tel": "0820-78-0898",
    "url": "",
    "pref": "山口県",
    "city": "周防大島町",
    "category": "community_day_service",
    "serviceType": "地域密着型通所介護",
    "capacity": 0,
    "openDays": [
      "平日",
      "祝日"
    ],
    "openDaysNote": "風水害、震災等非常災害などの状況により、休苑となる場合あり。"
  },
  {
    "id": "3577100120",
    "name": "デイサービスセンターいこい苑",
    "kana": "デイサービスセンターイコイエン",
    "address": "大島郡周防大島町大字小松133番地1",
    "lat": 33.9275143,
    "lng": 132.1963563,
    "tel": "0820-74-2100",
    "url": "http://satsukikai-oshima.com/ikoien/",
    "pref": "山口県",
    "city": "周防大島町",
    "category": "community_day_service",
    "serviceType": "地域密着型通所介護",
    "capacity": 0,
    "openDays": [
      "平日",
      "祝日"
    ],
    "openDaysNote": "特になし"
  },
  {
    "id": "3577100526",
    "name": "デイサービスセンターしらとり苑",
    "kana": "デイサービスセンターシラトリエン",
    "address": "大島郡周防大島町大字日前1932-32",
    "lat": 33.9216558,
    "lng": 132.3010245,
    "tel": "0820-73-0070",
    "url": "",
    "pref": "山口県",
    "city": "周防大島町",
    "category": "community_day_service",
    "serviceType": "地域密着型通所介護",
    "capacity": 0,
    "openDays": [
      "平日",
      "祝日"
    ],
    "openDaysNote": "風水害、震災等非常災害などの状況により、休苑となる場合あり。"
  },
  {
    "id": "3597100118",
    "name": "デイサービスセンター松福",
    "kana": "デイサービスセンターマツフク",
    "address": "山口県大島郡周防大島町小松開作1202-7",
    "lat": 33.9273428,
    "lng": 132.182097,
    "tel": "0820-72-4105",
    "url": "",
    "pref": "山口県",
    "city": "周防大島町",
    "category": "community_day_service",
    "serviceType": "地域密着型通所介護",
    "capacity": 0,
    "openDays": [
      "平日",
      "土曜日",
      "日曜日",
      "祝日"
    ],
    "openDaysNote": "ただし、お客様のご要望、必要に応じて介護報酬算定範囲内において延長可能。"
  },
  {
    "id": "3577100534",
    "name": "デイサービスセンター和田苑",
    "kana": "デイサービスセンターワダエン",
    "address": "大島郡周防大島町大字和田1089-2",
    "lat": 33.9296409,
    "lng": 132.4058106,
    "tel": "0820-75-5015",
    "url": "",
    "pref": "山口県",
    "city": "周防大島町",
    "category": "community_day_service",
    "serviceType": "地域密着型通所介護",
    "capacity": 18,
    "openDays": [
      "平日",
      "土曜日",
      "祝日"
    ],
    "openDaysNote": "風水害、震災等非常災害などの状況により、休苑となる場合あり。"
  },
  {
    "id": "3597100126",
    "name": "はなまるデイサービス",
    "kana": "ハナマルデイサービス",
    "address": "山口県大島郡周防大島町大字西方835-1",
    "lat": 33.8935557,
    "lng": 132.3201679,
    "tel": "0820-78-1115",
    "url": "",
    "pref": "山口県",
    "city": "周防大島町",
    "category": "community_day_service",
    "serviceType": "地域密着型通所介護",
    "capacity": 0,
    "openDays": [
      "平日",
      "祝日"
    ],
    "openDaysNote": "お盆休み（8月15日）・年末年始（12月30日～1月3日）は休み"
  },
  {
    "id": "3577100682",
    "name": "ふれあい汐風の家デイサービスセンター",
    "kana": "フレアイシオカゼノイエデイサービスセンター",
    "address": "山口県大島郡周防大島町大字西三蒲６８－１",
    "lat": 33.9530457726963,
    "lng": 132.194240769172,
    "tel": "0820-79-2055",
    "url": "",
    "pref": "山口県",
    "city": "周防大島町",
    "category": "community_day_service",
    "serviceType": "地域密着型通所介護",
    "capacity": 0,
    "openDays": [
      "平日",
      "土曜日",
      "日曜日",
      "祝日"
    ],
    "openDaysNote": "お盆と祝日は通常営業しております。"
  },
  {
    "id": "3577100310",
    "name": "有限会社　しらき",
    "kana": "ユウゲンガイシャ　シラキ",
    "address": "山口県大島郡周防大島町大字西方１４番地",
    "lat": 33.9038443,
    "lng": 132.3274609,
    "tel": "0820-78-2626",
    "url": "https://kaigonoshiraki.localinfo.jp",
    "pref": "山口県",
    "city": "周防大島町",
    "category": "community_day_service",
    "serviceType": "地域密着型通所介護",
    "capacity": 12,
    "openDays": [
      "平日",
      "土曜日",
      "祝日"
    ],
    "openDaysNote": "令和5年1月より、定休日を毎週火曜・年末年始から、毎週日曜日・年末年始に変更した。"
  },
  {
    "id": "3577300258",
    "name": "上関町デイサービスセンター",
    "kana": "カミノセキチョウデイサービスセンター",
    "address": "山口県熊毛郡上関町大字長島1561-1",
    "lat": 33.8152633,
    "lng": 132.0737511,
    "tel": "0820-65-5110",
    "url": "https://kaminoseki-fukushikai.com/",
    "pref": "山口県",
    "city": "上関町",
    "category": "community_day_service",
    "serviceType": "地域密着型通所介護",
    "capacity": 15,
    "openDays": [
      "平日",
      "祝日"
    ],
    "openDaysNote": ""
  },
  {
    "id": "3571100548",
    "name": "いそしばデイサービス",
    "kana": "イソシバデイサービス",
    "address": "山口県長門市東深川５２５番地１",
    "lat": 34.3823216,
    "lng": 131.191399,
    "tel": "0837-26-3558",
    "url": "https://ouka.life/",
    "pref": "山口県",
    "city": "長門市",
    "category": "community_day_service",
    "serviceType": "地域密着型通所介護",
    "capacity": 10,
    "openDays": [
      "平日",
      "土曜日",
      "祝日"
    ],
    "openDaysNote": "12月31日～1月3日年末年始休業。"
  },
  {
    "id": "3591100107",
    "name": "デイサービス　ハナトツキ",
    "kana": "デイサービス花ト月",
    "address": "山口県長門市西深川1761番地1",
    "lat": 34.3702728348727,
    "lng": 131.166891164418,
    "tel": "0837-27-0371",
    "url": "https://ouka.life/",
    "pref": "山口県",
    "city": "長門市",
    "category": "community_day_service",
    "serviceType": "地域密着型通所介護",
    "capacity": null,
    "openDays": [
      "平日",
      "土曜日",
      "祝日"
    ],
    "openDaysNote": "12/31～1/3お休みします。"
  },
  {
    "id": "3571100423",
    "name": "デイサービス　ゆったり",
    "kana": "デイサービス　ユッタリ",
    "address": "長門市渋木1503番地",
    "lat": 34.306703831183,
    "lng": 131.201133949074,
    "tel": "0837-25-4266",
    "url": "",
    "pref": "山口県",
    "city": "長門市",
    "category": "community_day_service",
    "serviceType": "地域密着型通所介護",
    "capacity": 0,
    "openDays": [
      "平日",
      "祝日"
    ],
    "openDaysNote": ""
  },
  {
    "id": "3571100308",
    "name": "ひとやすみ",
    "kana": "ヒトヤスミ",
    "address": "長門市西深川４２９－２",
    "lat": 34.3713006,
    "lng": 131.1659929,
    "tel": "0837-22-3116",
    "url": "",
    "pref": "山口県",
    "city": "長門市",
    "category": "community_day_service",
    "serviceType": "地域密着型通所介護",
    "capacity": 0,
    "openDays": [
      "平日",
      "土曜日",
      "祝日"
    ],
    "openDaysNote": ""
  },
  {
    "id": "3571100365",
    "name": "小規模デイサービス　虹",
    "kana": "ショウキボデイサービス　ニジ",
    "address": "山口県長門市油谷久富1867番地",
    "lat": 34.364790841407,
    "lng": 131.078231471963,
    "tel": "0837-32-2838",
    "url": "",
    "pref": "山口県",
    "city": "長門市",
    "category": "community_day_service",
    "serviceType": "地域密着型通所介護",
    "capacity": 0,
    "openDays": [
      "平日",
      "祝日"
    ],
    "openDaysNote": ""
  },
  {
    "id": "3571100530",
    "name": "長門市社協かよいデイサービスセンター",
    "kana": "ナガトシシャキョウカヨイデイサービスセンター",
    "address": "山口県長門市通８３０番地",
    "lat": 34.4225742,
    "lng": 131.2551622,
    "tel": "0837-28-0111",
    "url": "http://www.nagatoshakyo.jp",
    "pref": "山口県",
    "city": "長門市",
    "category": "community_day_service",
    "serviceType": "地域密着型通所介護",
    "capacity": 14,
    "openDays": [
      "平日",
      "土曜日",
      "祝日"
    ],
    "openDaysNote": ""
  },
  {
    "id": "3571100274",
    "name": "長門市社協ゆやデイサービスセンター",
    "kana": "ナガトシシャキョウユヤデイサービスセンター",
    "address": "山口県長門市油谷河原1998番地15",
    "lat": 34.3735257725709,
    "lng": 131.036821538287,
    "tel": "0837-32-0950",
    "url": "http://www.nagatoshakyo.jp",
    "pref": "山口県",
    "city": "長門市",
    "category": "community_day_service",
    "serviceType": "地域密着型通所介護",
    "capacity": 18,
    "openDays": [
      "平日",
      "土曜日",
      "祝日"
    ],
    "openDaysNote": "緊急な理由で利用者や家族から希望があれば時間延長に応じる"
  },
  {
    "id": "3597330038",
    "name": "くろがねもちデイサービスセンター",
    "kana": "クロガネモチデイサービスセンター",
    "address": "山口県熊毛郡田布施町中央南１８－９くろがねもちデイサービスセンター くろがねもちデイサービスセンター",
    "lat": 33.9506087,
    "lng": 132.0465867,
    "tel": "０８２０－５１－１５００",
    "url": "",
    "pref": "山口県",
    "city": "田布施町",
    "category": "community_day_service",
    "serviceType": "地域密着型通所介護",
    "capacity": null,
    "openDays": [
      "平日",
      "土曜日",
      "祝日"
    ],
    "openDaysNote": "お盆、年末年始の休業日は、年によって変更する場合があります。"
  },
  {
    "id": "3577300662",
    "name": "デイサービス“はぁ～との樹”",
    "kana": "デイサービス“ハァ～トノキ”",
    "address": "山口県熊毛郡田布施町中央南１－１１",
    "lat": 33.9538555,
    "lng": 132.0425619,
    "tel": "0820-51-0810",
    "url": "",
    "pref": "山口県",
    "city": "田布施町",
    "category": "community_day_service",
    "serviceType": "地域密着型通所介護",
    "capacity": 1,
    "openDays": [
      "平日"
    ],
    "openDaysNote": "会社が定める休日あり（夏期休暇２日）"
  },
  {
    "id": "3577300753",
    "name": "デイサービスもよん",
    "kana": "デイサーイスモヨン",
    "address": "田布施町麻郷2932－13",
    "lat": 33.9223807,
    "lng": 132.0486476,
    "tel": "0820－55－5501",
    "url": "",
    "pref": "山口県",
    "city": "田布施町",
    "category": "community_day_service",
    "serviceType": "地域密着型通所介護",
    "capacity": 13,
    "openDays": [
      "平日",
      "土曜日",
      "日曜日",
      "祝日"
    ],
    "openDaysNote": ""
  },
  {
    "id": "3577300530",
    "name": "リハビリ介護“ひだまり”デイサービスセンター",
    "kana": "リハビリカイゴ“ヒダマリ”デイサービスセンター",
    "address": "熊毛郡田布施町大字下田布施６５０－１０",
    "lat": 33.9538634977527,
    "lng": 132.049365076057,
    "tel": "0820-52-8686",
    "url": "",
    "pref": "山口県",
    "city": "田布施町",
    "category": "community_day_service",
    "serviceType": "地域密着型通所介護",
    "capacity": 0,
    "openDays": [
      "平日"
    ],
    "openDaysNote": "会社が定める日（夏期休暇２日あり）"
  },
  {
    "id": "3578100319",
    "name": "ちはるえんデイサービスセンター",
    "kana": "チハルエンデイサービスセンター",
    "address": "萩市大字明木４７８１番地の１",
    "lat": 34.3596736,
    "lng": 131.420324,
    "tel": "0838-55-0333",
    "url": "",
    "pref": "山口県",
    "city": "萩市",
    "category": "community_day_service",
    "serviceType": "地域密着型通所介護",
    "capacity": 0,
    "openDays": [
      "平日"
    ],
    "openDaysNote": "火曜・水曜・金曜が祝日と重なる場合は営業日とする。"
  },
  {
    "id": "3570400725",
    "name": "デイサービス　旭の郷",
    "kana": "デイサービス　アサヒノサト",
    "address": "萩市佐々並2494-1",
    "lat": 34.2844016,
    "lng": 131.4580567,
    "tel": "0838-56-0880",
    "url": "",
    "pref": "山口県",
    "city": "萩市",
    "category": "community_day_service",
    "serviceType": "地域密着型通所介護",
    "capacity": 0,
    "openDays": [
      "平日",
      "土曜日"
    ],
    "openDaysNote": ""
  },
  {
    "id": "3578100210",
    "name": "デイサービスセンターかわかみ苑",
    "kana": "デイサービスセンターカワカミエン",
    "address": "山口県萩市川上４９２１番地の１",
    "lat": 34.3587996,
    "lng": 131.4775039,
    "tel": "０８３８－５４－２０００",
    "url": "https://kawakamien.jp/",
    "pref": "山口県",
    "city": "萩市",
    "category": "community_day_service",
    "serviceType": "地域密着型通所介護",
    "capacity": null,
    "openDays": [
      "平日",
      "祝日"
    ],
    "openDaysNote": "特になし"
  },
  {
    "id": "3590400135",
    "name": "デイサービス健・康の郷",
    "kana": "デイサービスケン・コウノサト",
    "address": "山口県萩市大字椿東11189-18",
    "lat": 34.4180187,
    "lng": 131.43124,
    "tel": "0838-26-2222",
    "url": "",
    "pref": "山口県",
    "city": "萩市",
    "category": "community_day_service",
    "serviceType": "地域密着型通所介護",
    "capacity": null,
    "openDays": [
      "平日",
      "土曜日"
    ],
    "openDaysNote": "なし。"
  },
  {
    "id": "3570400683",
    "name": "ライフケアデイサービス　はぎ",
    "kana": "ライフケアデイサービス　ハギ",
    "address": "萩市椿東2942－13",
    "lat": 34.4144542,
    "lng": 131.4120423,
    "tel": "0838-21-7638",
    "url": "http://www.yumesanyo.jp/",
    "pref": "山口県",
    "city": "萩市",
    "category": "community_day_service",
    "serviceType": "地域密着型通所介護",
    "capacity": 0,
    "openDays": [
      "平日",
      "祝日"
    ],
    "openDaysNote": "年末年始は12月31日～1月3日"
  },
  {
    "id": "3570400741",
    "name": "リハビリ型デイサービスステップ",
    "kana": "リハビリガタデイサービスステップ",
    "address": "山口県萩市大字椿東２６３７番地１",
    "lat": 34.4114617256475,
    "lng": 131.411760754631,
    "tel": "0838-26-3440",
    "url": "",
    "pref": "山口県",
    "city": "萩市",
    "category": "community_day_service",
    "serviceType": "地域密着型通所介護",
    "capacity": 0,
    "openDays": [
      "平日",
      "土曜日"
    ],
    "openDaysNote": ""
  },
  {
    "id": "3570400402",
    "name": "萩市デイサービスセンターみしま",
    "kana": "ハギシデイサービスセンターミシマ",
    "address": "山口県萩市見島35-1",
    "lat": 34.7627222,
    "lng": 131.1501831,
    "tel": "0838-23-2828",
    "url": "http://hagi-kagayaki.or.jp",
    "pref": "山口県",
    "city": "萩市",
    "category": "community_day_service",
    "serviceType": "地域密着型通所介護",
    "capacity": 2,
    "openDays": [
      "平日"
    ],
    "openDaysNote": "特になし"
  },
  {
    "id": "3591300102",
    "name": "デイサービス　幸せの時間",
    "kana": "デイサービス　シアワセノトキ",
    "address": "山口県美祢市大嶺町東分2916番地1",
    "lat": 34.1654841231818,
    "lng": 131.200990998446,
    "tel": "0837-52-9250",
    "url": "https://yuuyuullc.localinfo.jp/",
    "pref": "山口県",
    "city": "美祢市",
    "category": "community_day_service",
    "serviceType": "地域密着型通所介護",
    "capacity": 18,
    "openDays": [
      "平日"
    ],
    "openDaysNote": ""
  },
  {
    "id": "3577900123",
    "name": "デイサービス　慈愛の里",
    "kana": "デイサービス　ジアイノサト",
    "address": "美祢市美東町大田5960-5",
    "lat": 34.2241116644635,
    "lng": 131.342271671164,
    "tel": "08396-2-5171",
    "url": "http://www.himawari-co.jp/jiainosato/index.html",
    "pref": "山口県",
    "city": "美祢市",
    "category": "community_day_service",
    "serviceType": "地域密着型通所介護",
    "capacity": 18,
    "openDays": [
      "平日",
      "土曜日",
      "祝日"
    ],
    "openDaysNote": ""
  },
  {
    "id": "3571300403",
    "name": "デイサービスセンター　ありがとう　音館",
    "kana": "デイサービスセンター　アリガトウ　オトカン",
    "address": "山口県美祢市大嶺町東分1003番地1",
    "lat": 34.1803427,
    "lng": 131.2123749,
    "tel": "0837-53-0551",
    "url": "fuki-arigatou.com/",
    "pref": "山口県",
    "city": "美祢市",
    "category": "community_day_service",
    "serviceType": "地域密着型通所介護",
    "capacity": 3,
    "openDays": [
      "平日",
      "土曜日",
      "祝日"
    ],
    "openDaysNote": "特に無し"
  },
  {
    "id": "3571300411",
    "name": "デイサービスセンターどれみ",
    "kana": "デイサービスセンタードレミ",
    "address": "山口県美祢市大嶺町東分３１２９番地１",
    "lat": 34.1694365436232,
    "lng": 131.201564648657,
    "tel": "0837-53-0886",
    "url": "",
    "pref": "山口県",
    "city": "美祢市",
    "category": "community_day_service",
    "serviceType": "地域密着型通所介護",
    "capacity": 15,
    "openDays": [
      "平日",
      "土曜日"
    ],
    "openDaysNote": "延長サービスを希望される方のサービス提供時間　午前9時から午後5時30分までとする。"
  },
  {
    "id": "3577900057",
    "name": "みとう悠々苑デイサービスセンター",
    "kana": "ミトウユウユウエンデイサービスセンター",
    "address": "山口県美祢市美東町大田5378番地1",
    "lat": 34.2217164,
    "lng": 131.3431962,
    "tel": "08396-2-1112",
    "url": "",
    "pref": "山口県",
    "city": "美祢市",
    "category": "community_day_service",
    "serviceType": "地域密着型通所介護",
    "capacity": 18,
    "openDays": [
      "平日",
      "祝日"
    ],
    "openDaysNote": "特になし"
  },
  {
    "id": "3571300049",
    "name": "みのり園デイサービスセンター",
    "kana": "ミノリエンデイサービスセンター",
    "address": "美祢市於福町上4017-1番地",
    "lat": 34.2521472,
    "lng": 131.2066728,
    "tel": "0837-56-1171",
    "url": "https://www.f-doho.com",
    "pref": "山口県",
    "city": "美祢市",
    "category": "community_day_service",
    "serviceType": "地域密着型通所介護",
    "capacity": 0,
    "openDays": [
      "平日",
      "土曜日",
      "祝日"
    ],
    "openDaysNote": "特になし"
  },
  {
    "id": "3591300094",
    "name": "株式会社エス・エス・ケイ",
    "kana": "カブシキガイシャエス・エス・ケイ",
    "address": "山口県美祢市美東町真名11521番地4",
    "lat": 34.1743493,
    "lng": 131.3290491,
    "tel": "08396-5-5155",
    "url": "http//mitounomori.jp",
    "pref": "山口県",
    "city": "美祢市",
    "category": "community_day_service",
    "serviceType": "地域密着型通所介護",
    "capacity": 18,
    "openDays": [
      "平日",
      "土曜日",
      "祝日"
    ],
    "openDaysNote": ""
  },
  {
    "id": "3571300056",
    "name": "幸嶺園デイサービスセンター",
    "kana": "コウリョウエンデイサービスセンター",
    "address": "山口県美祢市伊佐町伊佐字下田5656-1",
    "lat": 34.1641225330274,
    "lng": 131.200095727795,
    "tel": "0837-52-4551",
    "url": "http://www.shubikai.com/shubikai/index.html",
    "pref": "山口県",
    "city": "美祢市",
    "category": "community_day_service",
    "serviceType": "地域密着型通所介護",
    "capacity": 0,
    "openDays": [
      "平日",
      "土曜日",
      "日曜日",
      "祝日"
    ],
    "openDaysNote": ""
  },
  {
    "id": "3577900032",
    "name": "青景園デイサービスセンター",
    "kana": "アオカゲエンデイサービスセンター",
    "address": "美祢市秋芳町青景1873番地",
    "lat": 34.2719531,
    "lng": 131.278329,
    "tel": "0837-65-2244",
    "url": "https://aokage52.jp",
    "pref": "山口県",
    "city": "美祢市",
    "category": "community_day_service",
    "serviceType": "地域密着型通所介護",
    "capacity": 0,
    "openDays": [
      "平日",
      "土曜日",
      "日曜日",
      "祝日"
    ],
    "openDaysNote": "特になし"
  },
  {
    "id": "3577300688",
    "name": "デイサービスセンターサンコート",
    "kana": "デイサービスセンターサンコート",
    "address": "山口県熊毛郡平生町大字平生町5-56",
    "lat": 33.9327804,
    "lng": 132.0685632,
    "tel": "0820-56-6810",
    "url": "http://kouju-kai.com",
    "pref": "山口県",
    "city": "平生町",
    "category": "community_day_service",
    "serviceType": "地域密着型通所介護",
    "capacity": 14,
    "openDays": [
      "平日",
      "土曜日",
      "祝日"
    ],
    "openDaysNote": "特になし"
  },
  {
    "id": "3597340078",
    "name": "はつらつセンター",
    "kana": "ハツラツセンター",
    "address": "山口県熊毛郡平生町平生村618-2",
    "lat": 33.94048,
    "lng": 132.075926,
    "tel": "0820-56-0080",
    "url": "http://www.hirao-shakyo.or.jp",
    "pref": "山口県",
    "city": "平生町",
    "category": "community_day_service",
    "serviceType": "地域密着型通所介護",
    "capacity": null,
    "openDays": [
      "平日",
      "祝日"
    ],
    "openDaysNote": ""
  },
  {
    "id": "3590600320",
    "name": "Ｌapi　あそ兵衛",
    "kana": "ラピ　アソベエ",
    "address": "桑南２丁目　５-４８",
    "lat": 34.0420308,
    "lng": 131.5578712,
    "tel": "0835-28-1182",
    "url": "",
    "pref": "山口県",
    "city": "防府市",
    "category": "community_day_service",
    "serviceType": "地域密着型通所介護",
    "capacity": 0,
    "openDays": [
      "平日"
    ],
    "openDaysNote": ""
  },
  {
    "id": "3570602056",
    "name": "あ・す・もデイサービスセンター",
    "kana": "ア・ス・モデイサービスセンター",
    "address": "山口県防府市酢貝6-7",
    "lat": 34.0574236,
    "lng": 131.5979312,
    "tel": "（0835）２８－８３６８",
    "url": "",
    "pref": "山口県",
    "city": "防府市",
    "category": "community_day_service",
    "serviceType": "地域密着型通所介護",
    "capacity": 18,
    "openDays": [
      "平日",
      "土曜日",
      "祝日"
    ],
    "openDaysNote": ""
  },
  {
    "id": "3570601751",
    "name": "アシストケアクラブこくが",
    "kana": "アシストケアクラブコクガ",
    "address": "山口県防府市国衙4-3-47アシストケアクラブこくが アシストケアクラブこくが",
    "lat": 34.0558385,
    "lng": 131.5909263,
    "tel": "0835-28-8341",
    "url": "",
    "pref": "山口県",
    "city": "防府市",
    "category": "community_day_service",
    "serviceType": "地域密着型通所介護",
    "capacity": 0,
    "openDays": [
      "平日",
      "祝日"
    ],
    "openDaysNote": ""
  },
  {
    "id": "3590600447",
    "name": "きんこうデイサービスセンター",
    "kana": "キンコウデイサービスセンター",
    "address": "山口県防府市大字田島４３３番地",
    "lat": 34.0240206,
    "lng": 131.5517603,
    "tel": "（０８３５）２０－１１２３",
    "url": "",
    "pref": "山口県",
    "city": "防府市",
    "category": "community_day_service",
    "serviceType": "地域密着型通所介護",
    "capacity": null,
    "openDays": [
      "平日",
      "土曜日",
      "祝日"
    ],
    "openDaysNote": ""
  },
  {
    "id": "3570601371",
    "name": "ケアビレッジスワン",
    "kana": "ケアビレッジスワン",
    "address": "防府市真尾735-2ケアビレッジスワン ケアビレッジスワン",
    "lat": 34.1032947,
    "lng": 131.599977,
    "tel": "0835-36-1760",
    "url": "",
    "pref": "山口県",
    "city": "防府市",
    "category": "community_day_service",
    "serviceType": "地域密着型通所介護",
    "capacity": 10,
    "openDays": [
      "平日",
      "土曜日",
      "祝日"
    ],
    "openDaysNote": "年末年始(12月31～1月3日)お盆(8月13日～15日)は休み。"
  },
  {
    "id": "3590600312",
    "name": "さんこーぷ・でいさーびすここえみ",
    "kana": "サンコープ・デイサービスココエミ",
    "address": "山口県防府市西仁井令１－２１－６５",
    "lat": 34.0554705,
    "lng": 131.5685062,
    "tel": "０８３５－２８－７２９３",
    "url": "http:／／ｗｗｗ．san-coop.jp",
    "pref": "山口県",
    "city": "防府市",
    "category": "community_day_service",
    "serviceType": "地域密着型通所介護",
    "capacity": 18,
    "openDays": [
      "平日",
      "土曜日",
      "祝日"
    ],
    "openDaysNote": ""
  },
  {
    "id": "3570601629",
    "name": "デイサービス　えがおの森",
    "kana": "デイサービス　エガオノモリ",
    "address": "防府市大字仁井令668-2",
    "lat": 34.0405116,
    "lng": 131.557723493254,
    "tel": "835288488",
    "url": "",
    "pref": "山口県",
    "city": "防府市",
    "category": "community_day_service",
    "serviceType": "地域密着型通所介護",
    "capacity": 10,
    "openDays": [
      "平日",
      "土曜日",
      "祝日"
    ],
    "openDaysNote": ""
  },
  {
    "id": "3570601280",
    "name": "デイサービス　かがやき",
    "kana": "デイサービス　カガヤキ",
    "address": "山口県防府市大字田島３３７９‐１",
    "lat": 34.0066279,
    "lng": 131.5271334,
    "tel": "0835-29-0009",
    "url": "",
    "pref": "山口県",
    "city": "防府市",
    "category": "community_day_service",
    "serviceType": "地域密着型通所介護",
    "capacity": 15,
    "openDays": [
      "平日",
      "土曜日",
      "祝日"
    ],
    "openDaysNote": ""
  },
  {
    "id": "3570601850",
    "name": "デイサービス　はぴね防府",
    "kana": "デイサービス　ハピネホウフ",
    "address": "防府市大字田島1460番地の4",
    "lat": 34.0228613109294,
    "lng": 131.547025328172,
    "tel": "0835-26-5100",
    "url": "http://www.ｇreenlife-inc.co.jp/",
    "pref": "山口県",
    "city": "防府市",
    "category": "community_day_service",
    "serviceType": "地域密着型通所介護",
    "capacity": 0,
    "openDays": [
      "平日",
      "土曜日",
      "祝日"
    ],
    "openDaysNote": "特になし"
  },
  {
    "id": "3570601272",
    "name": "デイサービス　岩畠",
    "kana": "デイサービス　イワバタケ",
    "address": "防府市岩畠２-４-２３",
    "lat": 34.0608034,
    "lng": 131.5944928,
    "tel": "0835-21-1305",
    "url": "http://carefukuda.com/",
    "pref": "山口県",
    "city": "防府市",
    "category": "community_day_service",
    "serviceType": "地域密着型通所介護",
    "capacity": 15,
    "openDays": [
      "平日",
      "土曜日",
      "日曜日",
      "祝日"
    ],
    "openDaysNote": ""
  },
  {
    "id": "3570601769",
    "name": "デイサービス　真",
    "kana": "デイサービス　シン",
    "address": "防府市中央町2-5岸本ビル２階 岸本ビル２階",
    "lat": 34.0518544,
    "lng": 131.5711977,
    "tel": "0835-28-7259",
    "url": "",
    "pref": "山口県",
    "city": "防府市",
    "category": "community_day_service",
    "serviceType": "地域密着型通所介護",
    "capacity": 15,
    "openDays": [
      "平日"
    ],
    "openDaysNote": ""
  },
  {
    "id": "3590600460",
    "name": "デイサービスセンター　なんてん",
    "kana": "デイサービスセンター　ナンテン",
    "address": "山口県防府市大字下右田1035番地",
    "lat": 34.0765165,
    "lng": 131.5643245,
    "tel": "0835-28-8812",
    "url": "https://tuna-gari.com/",
    "pref": "山口県",
    "city": "防府市",
    "category": "community_day_service",
    "serviceType": "地域密着型通所介護",
    "capacity": null,
    "openDays": [
      "平日",
      "土曜日"
    ],
    "openDaysNote": ""
  },
  {
    "id": "3570602049",
    "name": "デイサービスひだまり",
    "kana": "デイサービス　ヒダマリ",
    "address": "山口県防府市牟礼今宿1丁目11-18",
    "lat": 34.0556489,
    "lng": 131.5988756,
    "tel": "0835-23-5053",
    "url": "http://k-houyuukai.com/",
    "pref": "山口県",
    "city": "防府市",
    "category": "community_day_service",
    "serviceType": "地域密着型通所介護",
    "capacity": 14,
    "openDays": [
      "平日",
      "祝日"
    ],
    "openDaysNote": "祝日は会社カレンダーによる"
  },
  {
    "id": "3570601934",
    "name": "デイサービス宝寿",
    "kana": "デイサービスホウジュ",
    "address": "山口県防府市岩畠２丁目８－３６",
    "lat": 34.0611839,
    "lng": 131.5945206,
    "tel": "０８３５－２１－１３０５",
    "url": "http://www.carefukuda.com/",
    "pref": "山口県",
    "city": "防府市",
    "category": "community_day_service",
    "serviceType": "地域密着型通所介護",
    "capacity": 15,
    "openDays": [
      "平日",
      "土曜日",
      "日曜日",
      "祝日"
    ],
    "openDaysNote": ""
  },
  {
    "id": "3570601736",
    "name": "株式会社　ふれあいの家なかにし",
    "kana": "カブシキカイシャ　フレアイノイエナカニシ",
    "address": "中西１番１７号",
    "lat": 34.0615942,
    "lng": 131.5988615,
    "tel": "0835-24-2318",
    "url": "",
    "pref": "山口県",
    "city": "防府市",
    "category": "community_day_service",
    "serviceType": "地域密着型通所介護",
    "capacity": 0,
    "openDays": [
      "平日",
      "土曜日",
      "祝日"
    ],
    "openDaysNote": "お盆の８月１３日～１５日、１２月３１日～１月２日までは休み"
  },
  {
    "id": "3571501216",
    "name": "憩いの里　　デイサービスセンター",
    "kana": "イコイノサト　デイサービスセンター",
    "address": "防府市千日一丁目5-44",
    "lat": 34.0572868343939,
    "lng": 131.560992681423,
    "tel": "0835-28-7756",
    "url": "",
    "pref": "山口県",
    "city": "防府市",
    "category": "community_day_service",
    "serviceType": "地域密着型通所介護",
    "capacity": 10,
    "openDays": [
      "平日"
    ],
    "openDaysNote": ""
  },
  {
    "id": "3571200694",
    "name": "デイサ－ビスセンタ－ＡＳＯＫＡやない",
    "kana": "デイサ-ビスセンタ-アソカヤナイ",
    "address": "山口県柳井市柳井4896-1",
    "lat": 33.9720924679605,
    "lng": 132.099772135582,
    "tel": "0820-25-3607",
    "url": "http://www.saisyokai.or.jp/",
    "pref": "山口県",
    "city": "柳井市",
    "category": "community_day_service",
    "serviceType": "地域密着型通所介護",
    "capacity": 10,
    "openDays": [
      "平日",
      "土曜日",
      "祝日"
    ],
    "openDaysNote": "なし"
  },
  {
    "id": "3571200652",
    "name": "デイサービス　ほのか",
    "kana": "デイサービス　ホノカ",
    "address": "柳井市新庄1568番地1",
    "lat": 33.9709387072416,
    "lng": 132.081412508737,
    "tel": "0820－23－7000",
    "url": "",
    "pref": "山口県",
    "city": "柳井市",
    "category": "community_day_service",
    "serviceType": "地域密着型通所介護",
    "capacity": 0,
    "openDays": [
      "平日",
      "祝日"
    ],
    "openDaysNote": "特になし。"
  },
  {
    "id": "3571200710",
    "name": "デイサービスセンター一陽",
    "kana": "デイサービスセンターイチヨウ",
    "address": "山口県柳井市南町7丁目9番1号セレネコーワビル1階 セレネコーワビル1階",
    "lat": 33.9631139,
    "lng": 132.0989333,
    "tel": "0820-24-6431",
    "url": "",
    "pref": "山口県",
    "city": "柳井市",
    "category": "community_day_service",
    "serviceType": "地域密着型通所介護",
    "capacity": 10,
    "openDays": [
      "平日",
      "祝日"
    ],
    "openDaysNote": "盆休み8/15、年末年始12/31〜1/3は休業"
  },
  {
    "id": "3591200070",
    "name": "リハプライド柳井",
    "kana": "リハプライドヤナイ",
    "address": "山口県柳井市南町5-1-1",
    "lat": 33.961653927403,
    "lng": 132.104227809262,
    "tel": "0820-24-2080",
    "url": "http://www.rehapride.co.jp/yanai/",
    "pref": "山口県",
    "city": "柳井市",
    "category": "community_day_service",
    "serviceType": "地域密着型通所介護",
    "capacity": 150,
    "openDays": [
      "平日",
      "祝日"
    ],
    "openDaysNote": ""
  },
  {
    "id": "3571200678",
    "name": "山根宅老所　ぼちぼち",
    "kana": "ヤマネタクロウショ　ボチボチ",
    "address": "柳井市山根6番16号",
    "lat": 33.9688908,
    "lng": 132.1175658,
    "tel": "0820-25-3911",
    "url": "http://bochi2.exblog.jp/19252158/",
    "pref": "山口県",
    "city": "柳井市",
    "category": "community_day_service",
    "serviceType": "地域密着型通所介護",
    "capacity": 0,
    "openDays": [
      "平日",
      "土曜日"
    ],
    "openDaysNote": ""
  },
  {
    "id": "3571200447",
    "name": "社会福祉法人柳井市社会福祉協議会平郡デイサービスセンター",
    "kana": "シャカイフクシホウジンヤナイシシャカイフクシキョウギカイヘイグンデイサービスセンター",
    "address": "柳井市平郡1824-2",
    "lat": 33.7810396,
    "lng": 132.2579699,
    "tel": "0820-47-2011",
    "url": "",
    "pref": "山口県",
    "city": "柳井市",
    "category": "community_day_service",
    "serviceType": "地域密着型通所介護",
    "capacity": 10,
    "openDays": [
      "平日"
    ],
    "openDaysNote": ""
  },
  {
    "id": "3577200185",
    "name": "大畠苑デイサービスセンター",
    "kana": "オオバタケエンデイサービスセンター",
    "address": "山口県柳井市遠崎10412-4",
    "lat": 33.9586825,
    "lng": 132.1578172,
    "tel": "0820-45-3838",
    "url": "https://senjukai-oobatakeen.jp/",
    "pref": "山口県",
    "city": "柳井市",
    "category": "community_day_service",
    "serviceType": "地域密着型通所介護",
    "capacity": 0,
    "openDays": [
      "平日",
      "土曜日",
      "祝日"
    ],
    "openDaysNote": "特になし"
  },
  {
    "id": "3577200193",
    "name": "わきあいあい苑　デイサービスセンター",
    "kana": "ワキアイアイエン　デイサービスセンター",
    "address": "山口県玖珂郡和木町瀬田4丁目１－１",
    "lat": 34.1919204,
    "lng": 132.2245524,
    "tel": "0827-54-0345",
    "url": "https://aiaien.hp.gogo.jp",
    "pref": "山口県",
    "city": "和木町",
    "category": "community_day_service",
    "serviceType": "地域密着型通所介護",
    "capacity": 0,
    "openDays": [
      "平日"
    ],
    "openDaysNote": ""
  }
]