[
  {
    "id": "1992200095",
    "name": "ケアハウス花まめ",
    "kana": "ケアハウスハナマメ",
    "address": "山梨県甲州市勝沼町小佐手1015-1",
    "lat": 35.675786,
    "lng": 138.7260638,
    "tel": "0553-34-8739",
    "url": "http://hp.kaipoke..biz/66f/",
    "pref": "山梨県",
    "city": "甲州市",
    "category": "community_day_service",
    "serviceType": "地域密着型通所介護",
    "capacity": 0,
    "openDays": [
      "平日",
      "土曜日",
      "祝日"
    ],
    "openDaysNote": ""
  },
  {
    "id": "1992200145",
    "name": "サンクシア甲州デイサービスセンター",
    "kana": "サンクシアコウシュウデイサービスセンター",
    "address": "山梨県甲州市塩山小屋敷1589-1サンクシア甲州デイサービスセンター サンクシア甲州デイサービスセンター",
    "lat": 35.7273433912938,
    "lng": 138.713829692031,
    "tel": "0553-34-6223",
    "url": "https://www.big-advance.site/s/158/1334/company",
    "pref": "山梨県",
    "city": "甲州市",
    "category": "community_day_service",
    "serviceType": "地域密着型通所介護",
    "capacity": 0,
    "openDays": [
      "平日",
      "土曜日",
      "祝日"
    ],
    "openDaysNote": ""
  },
  {
    "id": "1992200103",
    "name": "デイサービスセンター　こもれび",
    "kana": "デイサービスセンター　コモレビ",
    "address": "山梨県甲州市勝沼町等々力１４９９",
    "lat": 35.6660339,
    "lng": 138.7161113,
    "tel": "0553-39-8683",
    "url": "",
    "pref": "山梨県",
    "city": "甲州市",
    "category": "community_day_service",
    "serviceType": "地域密着型通所介護",
    "capacity": 10,
    "openDays": [
      "平日",
      "土曜日",
      "祝日"
    ],
    "openDaysNote": "5月5日と12月31日から1月3日まで休み"
  },
  {
    "id": "1972200198",
    "name": "デイサービス甲斐路",
    "kana": "デイサービス　カイジ",
    "address": "山梨県甲州市勝沼町休息1300-1",
    "lat": 35.6741672,
    "lng": 138.7150249,
    "tel": "0553-44-6500",
    "url": "http://keisen-budou.or.jp/",
    "pref": "山梨県",
    "city": "甲州市",
    "category": "community_day_service",
    "serviceType": "地域密着型通所介護",
    "capacity": null,
    "openDays": [
      "平日",
      "土曜日",
      "祝日"
    ],
    "openDaysNote": "営業日は、月曜日から土曜日までとする。ただし、１２月２９日、１２月３１日から１月３日までを除く。"
  },
  {
    "id": "1992200152",
    "name": "やさしい手　甲州事業所",
    "kana": "ヤサシイテ　コウシュウジギョウショ",
    "address": "甲州市勝沼町山1110番1",
    "lat": 35.6814989,
    "lng": 138.7254367,
    "tel": "0553-44-4116",
    "url": "",
    "pref": "山梨県",
    "city": "甲州市",
    "category": "community_day_service",
    "serviceType": "地域密着型通所介護",
    "capacity": 0,
    "openDays": [
      "平日",
      "土曜日",
      "日曜日",
      "祝日"
    ],
    "openDaysNote": "基本的には、年中無休だが職員研修等による休み（年1回～2回）"
  },
  {
    "id": "1991700087",
    "name": "あい駅裏",
    "kana": "アイエキウラ",
    "address": "山梨県甲斐市竜王新町1066番地1",
    "lat": 35.672819,
    "lng": 138.5200591,
    "tel": "055-269-9441",
    "url": "",
    "pref": "山梨県",
    "city": "甲斐市",
    "category": "community_day_service",
    "serviceType": "地域密着型通所介護",
    "capacity": null,
    "openDays": [
      "平日"
    ],
    "openDaysNote": ""
  },
  {
    "id": "1971700586",
    "name": "あい下今井",
    "kana": "アイシモイマイ",
    "address": "山梨県甲斐市下今井2689番地3",
    "lat": 35.6800042,
    "lng": 138.5027971,
    "tel": "0551-45-7755",
    "url": "",
    "pref": "山梨県",
    "city": "甲斐市",
    "category": "community_day_service",
    "serviceType": "地域密着型通所介護",
    "capacity": null,
    "openDays": [
      "平日"
    ],
    "openDaysNote": ""
  },
  {
    "id": "1971700594",
    "name": "あい響が丘",
    "kana": "アイヒビキガオカ",
    "address": "山梨県甲斐市龍地3066番地1",
    "lat": 35.6852369,
    "lng": 138.5103516,
    "tel": "0551-45-7333",
    "url": "",
    "pref": "山梨県",
    "city": "甲斐市",
    "category": "community_day_service",
    "serviceType": "地域密着型通所介護",
    "capacity": null,
    "openDays": [
      "平日"
    ],
    "openDaysNote": ""
  },
  {
    "id": "1971700735",
    "name": "あい竜王丘",
    "kana": "アイリュウオウオカ",
    "address": "山梨県甲斐市西八幡869番地",
    "lat": 35.6480586,
    "lng": 138.5188461,
    "tel": "055-287-8488",
    "url": "",
    "pref": "山梨県",
    "city": "甲斐市",
    "category": "community_day_service",
    "serviceType": "地域密着型通所介護",
    "capacity": null,
    "openDays": [
      "平日"
    ],
    "openDaysNote": ""
  },
  {
    "id": "1971700776",
    "name": "デイサービス　リハビリテーションこんね中下条",
    "kana": "デイサービス　リハビリテーションコンネナカシモジョウ",
    "address": "山梨県甲斐市中下条１９２８－１",
    "lat": 35.6790223475376,
    "lng": 138.533268635582,
    "tel": "０５５－２８８－９９６１",
    "url": "https://www.rehaconne.com",
    "pref": "山梨県",
    "city": "甲斐市",
    "category": "community_day_service",
    "serviceType": "地域密着型通所介護",
    "capacity": 0,
    "openDays": [
      "平日",
      "祝日"
    ],
    "openDaysNote": "※月曜日～金曜日が祝日の場合は営業しています。"
  },
  {
    "id": "1971700305",
    "name": "デイサービスセンター　げんき甲斐",
    "kana": "デイサービスセンター　ゲンキカイ",
    "address": "山梨県甲斐市大下条956-1げんき甲斐 げんき甲斐",
    "lat": 35.6757381,
    "lng": 138.5226393,
    "tel": "055-267-8800",
    "url": "https://nursing-agency-1608.business.site/",
    "pref": "山梨県",
    "city": "甲斐市",
    "category": "community_day_service",
    "serviceType": "地域密着型通所介護",
    "capacity": 0,
    "openDays": [
      "平日",
      "土曜日",
      "祝日"
    ],
    "openDaysNote": ""
  },
  {
    "id": "1991600196",
    "name": "デイサービスセンターつづく",
    "kana": "デイサービスセンターツヅク",
    "address": "山梨県甲斐市玉川718",
    "lat": 35.6346394,
    "lng": 138.528629,
    "tel": "055-215-8001",
    "url": "",
    "pref": "山梨県",
    "city": "甲斐市",
    "category": "community_day_service",
    "serviceType": "地域密着型通所介護",
    "capacity": 0,
    "openDays": [
      "平日",
      "土曜日",
      "日曜日",
      "祝日"
    ],
    "openDaysNote": ""
  },
  {
    "id": "1971700362",
    "name": "デイサービスセンターふるさと敷島",
    "kana": "デイサービスセンターフルサトシキシマ",
    "address": "山梨県甲斐市大下条425-1",
    "lat": 35.672733,
    "lng": 138.5255362,
    "tel": "055-287-9059",
    "url": "",
    "pref": "山梨県",
    "city": "甲斐市",
    "category": "community_day_service",
    "serviceType": "地域密着型通所介護",
    "capacity": 0,
    "openDays": [
      "平日",
      "祝日"
    ],
    "openDaysNote": ""
  },
  {
    "id": "1991700202",
    "name": "デイサービスつくし乃",
    "kana": "デイサービスツクシノ",
    "address": "山梨県甲斐市岩森1392-2",
    "lat": 35.6894853,
    "lng": 138.4898667,
    "tel": "0551-45‐6736",
    "url": "tsukushi-no.com",
    "pref": "山梨県",
    "city": "甲斐市",
    "category": "community_day_service",
    "serviceType": "地域密着型通所介護",
    "capacity": null,
    "openDays": [
      "平日",
      "祝日"
    ],
    "openDaysNote": ""
  },
  {
    "id": "1971700123",
    "name": "デイサービスリハかのん",
    "kana": "デイサービスリハカノン",
    "address": "山梨県甲斐市西八幡903",
    "lat": 35.6491001,
    "lng": 138.5172156,
    "tel": "055-279-2510",
    "url": "http://yfs-kanon.com",
    "pref": "山梨県",
    "city": "甲斐市",
    "category": "community_day_service",
    "serviceType": "地域密着型通所介護",
    "capacity": null,
    "openDays": [
      "平日",
      "土曜日"
    ],
    "openDaysNote": ""
  },
  {
    "id": "1991700095",
    "name": "リハビリサロン　げんき甲斐",
    "kana": "リハビリサロン　ゲンキカイ",
    "address": "大下条956-1",
    "lat": 35.675754,
    "lng": 138.5226906,
    "tel": "055-267-8800",
    "url": "https://nursing-agency-1608.business.site/",
    "pref": "山梨県",
    "city": "甲斐市",
    "category": "community_day_service",
    "serviceType": "地域密着型通所介護",
    "capacity": 15,
    "openDays": [
      "平日",
      "祝日"
    ],
    "openDaysNote": ""
  },
  {
    "id": "1991700194",
    "name": "リハビリ道　甲斐事業所",
    "kana": "リハビリドウ　カイジギョウショ",
    "address": "山梨県甲斐市篠原845-1",
    "lat": 35.6471024,
    "lng": 138.5267141,
    "tel": "055-270-0063",
    "url": "rehabilido.com",
    "pref": "山梨県",
    "city": "甲斐市",
    "category": "community_day_service",
    "serviceType": "地域密着型通所介護",
    "capacity": 0,
    "openDays": [
      "平日",
      "祝日"
    ],
    "openDaysNote": "12/30～1/3は年末年始の休み"
  },
  {
    "id": "1971700529",
    "name": "甲斐の家ゆい",
    "kana": "カイノイエユイ",
    "address": "山梨県甲斐市龍地4320番地3",
    "lat": 35.6881032,
    "lng": 138.4995222,
    "tel": "0551-28-2711",
    "url": "",
    "pref": "山梨県",
    "city": "甲斐市",
    "category": "community_day_service",
    "serviceType": "地域密着型通所介護",
    "capacity": 0,
    "openDays": [
      "平日",
      "土曜日"
    ],
    "openDaysNote": ""
  },
  {
    "id": "1991700079",
    "name": "合同会社　おれんじ",
    "kana": "ゴウドウカイシャ　オレンジ",
    "address": "富竹新田９２－６",
    "lat": 35.6615144569853,
    "lng": 138.5301466295,
    "tel": "055-287-9581",
    "url": "orange_kaigo/net",
    "pref": "山梨県",
    "city": "甲斐市",
    "category": "community_day_service",
    "serviceType": "地域密着型通所介護",
    "capacity": 0,
    "openDays": [
      "平日",
      "土曜日",
      "祝日"
    ],
    "openDaysNote": "ゴールデンウイーク・お盆・年末年始に休みあり"
  },
  {
    "id": "1971700172",
    "name": "老人功労者　デイサービス　かおり",
    "kana": "ロウジンコウロウシャ　デイサービス　カオリ",
    "address": "山梨県甲斐市竜王新町２０５７番地１２",
    "lat": 35.6732161,
    "lng": 138.5112268,
    "tel": "０５５－２６９－７５５３",
    "url": "",
    "pref": "山梨県",
    "city": "甲斐市",
    "category": "community_day_service",
    "serviceType": "地域密着型通所介護",
    "capacity": 15,
    "openDays": [
      "平日",
      "日曜日",
      "祝日"
    ],
    "openDaysNote": "年末年始５日間はお休みします。"
  },
  {
    "id": "1970102891",
    "name": "ＮＰＯ法人　デイサービスかんむら",
    "kana": "エヌピーオーホウジン　デイサービスカンムラ",
    "address": "山梨県甲府市上町177-1",
    "lat": 35.6291938240658,
    "lng": 138.584970453195,
    "tel": "055-287-9972",
    "url": "https://kanmura.or.jp/",
    "pref": "山梨県",
    "city": "甲府市",
    "category": "community_day_service",
    "serviceType": "地域密着型通所介護",
    "capacity": 18,
    "openDays": [
      "平日",
      "土曜日",
      "日曜日",
      "祝日"
    ],
    "openDaysNote": ""
  },
  {
    "id": "1990100909",
    "name": "SORAFIT",
    "kana": "ソラフィット",
    "address": "山梨県甲府市上阿原町416-1MPイーストビル１F MPイーストビル１F",
    "lat": 35.6465051,
    "lng": 138.6104072,
    "tel": "055-267-6270",
    "url": "https://sorafit.net",
    "pref": "山梨県",
    "city": "甲府市",
    "category": "community_day_service",
    "serviceType": "地域密着型通所介護",
    "capacity": 135,
    "openDays": [
      "平日",
      "祝日"
    ],
    "openDaysNote": ""
  },
  {
    "id": "1970103832",
    "name": "あかしＪＯＹデイサービス",
    "kana": "アカシジョイデイサービス",
    "address": "住吉本町１４０７番地",
    "lat": 35.6373307,
    "lng": 138.5865847,
    "tel": "055-225-5373",
    "url": "http://www.akashi.or.jp",
    "pref": "山梨県",
    "city": "甲府市",
    "category": "community_day_service",
    "serviceType": "地域密着型通所介護",
    "capacity": 0,
    "openDays": [
      "平日",
      "土曜日",
      "日曜日",
      "祝日"
    ],
    "openDaysNote": "サービス提供時間：①９：００～１２：０５　②１２：５５～１８：００"
  },
  {
    "id": "1990101014",
    "name": "アルファケア南甲府介護施設",
    "kana": "アルファケアミナミコウフカイゴシセツ",
    "address": "山梨県甲府市南口町２番７号",
    "lat": 35.6467658,
    "lng": 138.579977,
    "tel": "552237511",
    "url": "https://www.alphacare.joto-group.com",
    "pref": "山梨県",
    "city": "甲府市",
    "category": "community_day_service",
    "serviceType": "地域密着型通所介護",
    "capacity": 0,
    "openDays": [
      "平日",
      "祝日"
    ],
    "openDaysNote": ""
  },
  {
    "id": "1970103964",
    "name": "オアゾＳやましろデイサービスセンター",
    "kana": "オアゾエスヤマシロデイサービスセンター",
    "address": "山梨県甲府市上町９１６－２",
    "lat": 35.6290514,
    "lng": 138.5935343,
    "tel": "055-225-5630",
    "url": "http://fuurinsou.com",
    "pref": "山梨県",
    "city": "甲府市",
    "category": "community_day_service",
    "serviceType": "地域密着型通所介護",
    "capacity": 10,
    "openDays": [
      "平日",
      "土曜日",
      "祝日"
    ],
    "openDaysNote": ""
  },
  {
    "id": "1970103253",
    "name": "ケア・コスモス",
    "kana": "ケア・コスモス",
    "address": "山梨県甲府市増坪町457-1",
    "lat": 35.6368396,
    "lng": 138.5933868,
    "tel": "055-269-7777",
    "url": "http://carecosmos.jp",
    "pref": "山梨県",
    "city": "甲府市",
    "category": "community_day_service",
    "serviceType": "地域密着型通所介護",
    "capacity": 1,
    "openDays": [
      "平日",
      "土曜日",
      "日曜日",
      "祝日"
    ],
    "openDaysNote": ""
  },
  {
    "id": "1990101055",
    "name": "さいデイサービスセンターこうふ",
    "kana": "サイデイサービスセンターコウフ",
    "address": "山梨県甲府市上阿原町５２６－７",
    "lat": 35.6442755,
    "lng": 138.6064381,
    "tel": "055-269-5465",
    "url": "",
    "pref": "山梨県",
    "city": "甲府市",
    "category": "community_day_service",
    "serviceType": "地域密着型通所介護",
    "capacity": 20,
    "openDays": [
      "平日",
      "祝日"
    ],
    "openDaysNote": ""
  },
  {
    "id": "1970104061",
    "name": "サテライト尚古園デイサービスセンター",
    "kana": "サテライトショウコウエンデイサービスセンター",
    "address": "山梨県甲府市中央1-16-2",
    "lat": 35.6591165,
    "lng": 138.570021,
    "tel": "055-287-6010",
    "url": "zenrinkai.or.jp",
    "pref": "山梨県",
    "city": "甲府市",
    "category": "community_day_service",
    "serviceType": "地域密着型通所介護",
    "capacity": null,
    "openDays": [
      "平日",
      "土曜日",
      "祝日"
    ],
    "openDaysNote": ""
  },
  {
    "id": "1970103345",
    "name": "ショート＆デイサービスセンター「桜森荘」",
    "kana": "ショートアンドデイサービスセンター「オウモリソウ」",
    "address": "山梨県甲府市上石田1-3-14",
    "lat": 35.6591544828287,
    "lng": 138.552292201852,
    "tel": "055-288-8165",
    "url": "http://oumorisou.jp/",
    "pref": "山梨県",
    "city": "甲府市",
    "category": "community_day_service",
    "serviceType": "地域密着型通所介護",
    "capacity": null,
    "openDays": [
      "平日",
      "土曜日",
      "祝日"
    ],
    "openDaysNote": "年末年始　12月30日～1月3日"
  },
  {
    "id": "1990100883",
    "name": "ソーシャルデイひと花",
    "kana": "ソーシャルデイヒトハナ",
    "address": "城東5丁目10-11",
    "lat": 36.3777774,
    "lng": 140.4991073,
    "tel": "055-228-0022",
    "url": "",
    "pref": "山梨県",
    "city": "甲府市",
    "category": "community_day_service",
    "serviceType": "地域密着型通所介護",
    "capacity": 0,
    "openDays": [
      "平日"
    ],
    "openDaysNote": ""
  },
  {
    "id": "1990100867",
    "name": "だんらんの家　山宮",
    "kana": "ダンランノイエ　ヤマミヤ",
    "address": "山梨県甲府市山宮町3336",
    "lat": 35.6933447,
    "lng": 138.5376574,
    "tel": "055-209-0540",
    "url": "https://danrannoie.com/home/shinyurigaoka.html",
    "pref": "山梨県",
    "city": "甲府市",
    "category": "community_day_service",
    "serviceType": "地域密着型通所介護",
    "capacity": 10,
    "openDays": [
      "平日",
      "土曜日",
      "日曜日",
      "祝日"
    ],
    "openDaysNote": "午前7時～9時、午後17時～21時は、延長サービスとしての対応となります。"
  },
  {
    "id": "1990100974",
    "name": "つぼみ茶屋",
    "kana": "ツボミヂャヤ",
    "address": "山梨県甲府市上今井町1498-3",
    "lat": 35.6194509,
    "lng": 138.5750374,
    "tel": "055-244-8520",
    "url": "",
    "pref": "山梨県",
    "city": "甲府市",
    "category": "community_day_service",
    "serviceType": "地域密着型通所介護",
    "capacity": 0,
    "openDays": [
      "平日",
      "土曜日",
      "祝日"
    ],
    "openDaysNote": ""
  },
  {
    "id": "1970103162",
    "name": "デイサービあっとほーむ1号館",
    "kana": "デイサービスアットホームイチゴウカン",
    "address": "山梨県甲府市住吉4丁目20-15",
    "lat": 35.6381332,
    "lng": 138.5798963,
    "tel": "055-269-8715",
    "url": "https://www.athome-kofu.com/",
    "pref": "山梨県",
    "city": "甲府市",
    "category": "community_day_service",
    "serviceType": "地域密着型通所介護",
    "capacity": 45,
    "openDays": [
      "平日",
      "土曜日",
      "祝日"
    ],
    "openDaysNote": "祝祭日は営業いたします。"
  },
  {
    "id": "1970103014",
    "name": "デイサービス　ソレアード",
    "kana": "デイサービス　ソレアード",
    "address": "山梨県甲府市貢川2丁目8-11",
    "lat": 35.6614181,
    "lng": 138.5353772,
    "tel": "055-287-7195",
    "url": "https://www.day-soleado.com/",
    "pref": "山梨県",
    "city": "甲府市",
    "category": "community_day_service",
    "serviceType": "地域密着型通所介護",
    "capacity": 18,
    "openDays": [
      "平日",
      "祝日"
    ],
    "openDaysNote": ""
  },
  {
    "id": "1990101089",
    "name": "デイサービス　にこにこ　One　day",
    "kana": "デイサービス　ニコニコ　ワンデイ",
    "address": "住吉３丁目22-2",
    "lat": 35.6415732482969,
    "lng": 138.582489258896,
    "tel": "055-244-6255",
    "url": "https://gep-kh.com",
    "pref": "山梨県",
    "city": "甲府市",
    "category": "community_day_service",
    "serviceType": "地域密着型通所介護",
    "capacity": null,
    "openDays": [
      "平日",
      "祝日"
    ],
    "openDaysNote": ""
  },
  {
    "id": "1970102032",
    "name": "デイサービス　ほのか",
    "kana": "デイサービス　ホノカ",
    "address": "山梨県甲府市小瀬町573-2",
    "lat": 35.6274099,
    "lng": 138.5830242,
    "tel": "055-241-3356",
    "url": "",
    "pref": "山梨県",
    "city": "甲府市",
    "category": "community_day_service",
    "serviceType": "地域密着型通所介護",
    "capacity": 0,
    "openDays": [
      "平日",
      "土曜日",
      "祝日"
    ],
    "openDaysNote": "元旦は休みになります。"
  },
  {
    "id": "1990100784",
    "name": "デイサービス　リハビリテーションこんね千塚",
    "kana": "デイサービス　リハビリテーションコンネチヅカ",
    "address": "山梨県甲府市千塚３丁目１－４３",
    "lat": 35.6815599,
    "lng": 138.5398659,
    "tel": "０５５－２６９－８５７５",
    "url": "https://www.rehaconne.com",
    "pref": "山梨県",
    "city": "甲府市",
    "category": "community_day_service",
    "serviceType": "地域密着型通所介護",
    "capacity": 0,
    "openDays": [
      "平日",
      "祝日"
    ],
    "openDaysNote": "月曜日～金曜日（１２月２９日～１月３日の年末年始を除く）（改行）（改行）（改行）※月曜日～金曜日が祝日の場合は営業しています。"
  },
  {
    "id": "1990100685",
    "name": "デイサービスPeakAssistance甲府丸の内",
    "kana": "デイサービス　ピークアシスタンス　コウフマルノウチ",
    "address": "山梨県甲府市丸の内2-35-9丸の内スクエア1F 丸の内スクエア1F",
    "lat": 35.6624047,
    "lng": 138.5644777,
    "tel": "055-244-6016",
    "url": "https://peak.3eee.co.jp/",
    "pref": "山梨県",
    "city": "甲府市",
    "category": "community_day_service",
    "serviceType": "地域密着型通所介護",
    "capacity": 18,
    "openDays": [
      "平日",
      "土曜日",
      "祝日"
    ],
    "openDaysNote": "年末年始（１２月３１日～１月３日）を除く"
  },
  {
    "id": "1970104236",
    "name": "デイサービスあっとほーむ2号館",
    "kana": "デイサービスアットホームニゴウカン",
    "address": "山梨県甲府市住吉4-20-15",
    "lat": 35.6381332,
    "lng": 138.5798963,
    "tel": "055-269-8072",
    "url": "https://www.athome-kofu.com/",
    "pref": "山梨県",
    "city": "甲府市",
    "category": "community_day_service",
    "serviceType": "地域密着型通所介護",
    "capacity": 25,
    "openDays": [
      "平日",
      "土曜日",
      "祝日"
    ],
    "openDaysNote": "祝祭日は営業いたします。"
  },
  {
    "id": "1990100651",
    "name": "デイサービスあっとほーむ甲府伊勢",
    "kana": "デイサービスアットホームコウフイセ",
    "address": "山梨県甲府市伊勢3丁目5-10",
    "lat": 35.6435043,
    "lng": 138.5653556,
    "tel": "055-236-9551",
    "url": "https://www.athome-kofu.com/",
    "pref": "山梨県",
    "city": "甲府市",
    "category": "community_day_service",
    "serviceType": "地域密着型通所介護",
    "capacity": 45,
    "openDays": [
      "平日",
      "土曜日",
      "祝日"
    ],
    "openDaysNote": ""
  },
  {
    "id": "1970103642",
    "name": "デイサービスあづまや",
    "kana": "デイサービスアヅマヤ",
    "address": "山梨県甲府市和田町755番地2",
    "lat": 35.6833241,
    "lng": 138.5619013,
    "tel": "055-288-8886",
    "url": "",
    "pref": "山梨県",
    "city": "甲府市",
    "category": "community_day_service",
    "serviceType": "地域密着型通所介護",
    "capacity": 6,
    "openDays": [
      "平日",
      "土曜日"
    ],
    "openDaysNote": ""
  },
  {
    "id": "1970104111",
    "name": "デイサービスセンター　輝",
    "kana": "デイサービスセンター　カガヤキ",
    "address": "山梨県甲府市下石田２丁目７－１０サービス付高齢者住宅・志庵併設 サービス付高齢者住宅・志庵併設",
    "lat": 35.647473,
    "lng": 138.5531704,
    "tel": "055-232-5700",
    "url": "",
    "pref": "山梨県",
    "city": "甲府市",
    "category": "community_day_service",
    "serviceType": "地域密着型通所介護",
    "capacity": 2,
    "openDays": [
      "平日",
      "土曜日",
      "日曜日",
      "祝日"
    ],
    "openDaysNote": "年中無休"
  },
  {
    "id": "1970104350",
    "name": "デイサービスセンター「すみよし」",
    "kana": "デイサービスセンター「スミヨシ」",
    "address": "山梨県甲府市住吉5-21-1",
    "lat": 35.6343114,
    "lng": 138.5764857,
    "tel": "055-242-3113",
    "url": "http://www.goodcare-kaigo.com/",
    "pref": "山梨県",
    "city": "甲府市",
    "category": "community_day_service",
    "serviceType": "地域密着型通所介護",
    "capacity": 0,
    "openDays": [
      "平日",
      "祝日"
    ],
    "openDaysNote": "祝祭日営業"
  },
  {
    "id": "1970102065",
    "name": "デイサービスセンター「よつ葉」",
    "kana": "デイサービスセンター「ヨツバ」",
    "address": "山梨県甲府市東光寺2-19-29",
    "lat": 35.6623167,
    "lng": 138.5877858,
    "tel": "055-236-6344",
    "url": "http://www.goodcare-kaigo.com/",
    "pref": "山梨県",
    "city": "甲府市",
    "category": "community_day_service",
    "serviceType": "地域密着型通所介護",
    "capacity": 0,
    "openDays": [
      "平日",
      "土曜日",
      "祝日"
    ],
    "openDaysNote": "祝祭日営業"
  },
  {
    "id": "1970101612",
    "name": "デイサービスセンター「笑くぼ」",
    "kana": "デイサービスセンター「エクボ」",
    "address": "山梨県甲府市住吉3-21-16",
    "lat": 35.6402084,
    "lng": 138.5810612,
    "tel": "055-236-6336",
    "url": "http://www.goodcare-kaigo.com/",
    "pref": "山梨県",
    "city": "甲府市",
    "category": "community_day_service",
    "serviceType": "地域密着型通所介護",
    "capacity": 0,
    "openDays": [
      "平日",
      "祝日"
    ],
    "openDaysNote": "祝祭日営業"
  },
  {
    "id": "1970104749",
    "name": "デイサービスセンターレモンハート",
    "kana": "デイサービスセンターレモンハート",
    "address": "山梨県甲府市千塚3丁目9番3号ルネマンション千塚103号 ルネマンション千塚103号",
    "lat": 35.6836544,
    "lng": 138.5387714,
    "tel": "055-288-8800",
    "url": "http://www.kaigo-lemon-heart.com",
    "pref": "山梨県",
    "city": "甲府市",
    "category": "community_day_service",
    "serviceType": "地域密着型通所介護",
    "capacity": 50,
    "openDays": [
      "平日",
      "祝日"
    ],
    "openDaysNote": "※平日の祝日は営業"
  },
  {
    "id": "1990100933",
    "name": "デイサービスセンターレモンハート　リハビリテーションジャスミン",
    "kana": "デイサービスセンターレモンハート",
    "address": "山梨県甲府市千塚3-9-13",
    "lat": 35.6840280182612,
    "lng": 138.538956898811,
    "tel": "055-251-5090",
    "url": "http://www.kaigo-lemon-heart.com",
    "pref": "山梨県",
    "city": "甲府市",
    "category": "community_day_service",
    "serviceType": "地域密着型通所介護",
    "capacity": null,
    "openDays": [
      "平日",
      "祝日"
    ],
    "openDaysNote": "※平日の祝日は営業です（改行）※年末年始12/29～1/3は休みです"
  },
  {
    "id": "1970104624",
    "name": "デイサービスやすらぎの家",
    "kana": "デイサービスヤスラギノイエ",
    "address": "山梨県甲府市丸の内二丁目１１－１",
    "lat": 35.6654378,
    "lng": 138.5648822,
    "tel": "055-222-9220",
    "url": "",
    "pref": "山梨県",
    "city": "甲府市",
    "category": "community_day_service",
    "serviceType": "地域密着型通所介護",
    "capacity": 10,
    "openDays": [
      "平日",
      "祝日"
    ],
    "openDaysNote": "希望者には送迎も可能です。"
  },
  {
    "id": "1970102503",
    "name": "なでしこの家",
    "kana": "ナデシコノイエ",
    "address": "山梨県甲府市上今井町659-3",
    "lat": 35.6257841,
    "lng": 138.5726124,
    "tel": "055-243-5176",
    "url": "",
    "pref": "山梨県",
    "city": "甲府市",
    "category": "community_day_service",
    "serviceType": "地域密着型通所介護",
    "capacity": 3,
    "openDays": [
      "平日",
      "土曜日",
      "日曜日",
      "祝日"
    ],
    "openDaysNote": ""
  },
  {
    "id": "1970103501",
    "name": "ハートデイサービス大国",
    "kana": "ハートデイサービスオオクニ",
    "address": "山梨県甲府市後屋町40-1",
    "lat": 35.6269899,
    "lng": 138.563626,
    "tel": "055-288-9603",
    "url": "http://heart-service.co.jp/",
    "pref": "山梨県",
    "city": "甲府市",
    "category": "community_day_service",
    "serviceType": "地域密着型通所介護",
    "capacity": 0,
    "openDays": [
      "平日",
      "土曜日",
      "日曜日",
      "祝日"
    ],
    "openDaysNote": ""
  },
  {
    "id": "1990100925",
    "name": "ハートデイサービス湯村",
    "kana": "ハートデイサービスユムラ",
    "address": "山梨県甲府市湯村3-18-12",
    "lat": 35.6844339,
    "lng": 138.5469023,
    "tel": "055-244-7360",
    "url": "http://heart-service.co.jp/",
    "pref": "山梨県",
    "city": "甲府市",
    "category": "community_day_service",
    "serviceType": "地域密着型通所介護",
    "capacity": null,
    "openDays": [
      "平日",
      "土曜日",
      "日曜日",
      "祝日"
    ],
    "openDaysNote": "12/31.1/1を除く"
  },
  {
    "id": "1990100693",
    "name": "フィットネスデイサービス　にこにこ",
    "kana": "フィットネスデイサービス　ニコニコ",
    "address": "上今井町763-3",
    "lat": 35.6246974,
    "lng": 138.5721137,
    "tel": "055-269-9680",
    "url": "https://www.fir.gr.jpnikoniko",
    "pref": "山梨県",
    "city": "甲府市",
    "category": "community_day_service",
    "serviceType": "地域密着型通所介護",
    "capacity": 15,
    "openDays": [
      "平日"
    ],
    "openDaysNote": ""
  },
  {
    "id": "1970104129",
    "name": "フォーリーブス甲府",
    "kana": "フォーリーブスコウフ",
    "address": "山梨県甲府市東下条町107番地フォーリーブス甲府 フォーリーブス甲府",
    "lat": 35.6126674,
    "lng": 138.5745087,
    "tel": "055－243－4800",
    "url": "http://yotsuba-k.or.jp/",
    "pref": "山梨県",
    "city": "甲府市",
    "category": "community_day_service",
    "serviceType": "地域密着型通所介護",
    "capacity": null,
    "openDays": [
      "平日",
      "土曜日",
      "祝日"
    ],
    "openDaysNote": "年末年始12月30日から1月3日は休業"
  },
  {
    "id": "1970104053",
    "name": "ほっとるーむｋ",
    "kana": "ホットルームケイ",
    "address": "国母２－８－２",
    "lat": 35.6401139,
    "lng": 138.5628353,
    "tel": "055-228-5553",
    "url": "",
    "pref": "山梨県",
    "city": "甲府市",
    "category": "community_day_service",
    "serviceType": "地域密着型通所介護",
    "capacity": 0,
    "openDays": [
      "平日"
    ],
    "openDaysNote": ""
  },
  {
    "id": "1970104673",
    "name": "みつばやあんき",
    "kana": "ミツバヤアンキ",
    "address": "山梨県甲府市宝２丁目１７番８号",
    "lat": 35.6604605,
    "lng": 138.5616077,
    "tel": "055-215-6290",
    "url": "http://mitsubaya.wixsite.com/mitsubaya",
    "pref": "山梨県",
    "city": "甲府市",
    "category": "community_day_service",
    "serviceType": "地域密着型通所介護",
    "capacity": 1,
    "openDays": [
      "平日",
      "祝日"
    ],
    "openDaysNote": "相談に応じます。"
  },
  {
    "id": "1970104194",
    "name": "リハビリスタジオあさかわ",
    "kana": "リハビリスタジオアサカワ",
    "address": "山梨県甲府市上石田4-1-18一瀬グランドパレ 一瀬グランドパレ",
    "lat": 35.6505642,
    "lng": 138.5506344,
    "tel": "055-269-5735",
    "url": "http://www.kofu-asakawa.com/",
    "pref": "山梨県",
    "city": "甲府市",
    "category": "community_day_service",
    "serviceType": "地域密着型通所介護",
    "capacity": 0,
    "openDays": [
      "平日"
    ],
    "openDaysNote": "夏期休暇、年末年始"
  },
  {
    "id": "1990100818",
    "name": "リハビリスタジオあさかわ　貢川スタジオ",
    "kana": "リハビリスタジオアサカワ　クガワスタジオ",
    "address": "山梨県甲府市貢川本町1-6",
    "lat": 35.6552561945874,
    "lng": 138.552907794369,
    "tel": "055-267-6447",
    "url": "http://www.kofu-asakawa.com/",
    "pref": "山梨県",
    "city": "甲府市",
    "category": "community_day_service",
    "serviceType": "地域密着型通所介護",
    "capacity": 10,
    "openDays": [
      "平日",
      "祝日"
    ],
    "openDaysNote": ""
  },
  {
    "id": "1990100537",
    "name": "リハビリスタジオあさかわ　湯村スタジオ",
    "kana": "リハビリスタジオアサカワ　ユムラスタジオ",
    "address": "山梨県甲府市千塚1丁目9番8号第二ヤマカワビル 第二ヤマカワビル",
    "lat": 35.6809768,
    "lng": 138.544181,
    "tel": "055-288-1110",
    "url": "http://www.kofu-asakawa.com/",
    "pref": "山梨県",
    "city": "甲府市",
    "category": "community_day_service",
    "serviceType": "地域密着型通所介護",
    "capacity": 0,
    "openDays": [
      "平日",
      "祝日"
    ],
    "openDaysNote": "夏期休暇(8月)、年末年始の休業あり"
  },
  {
    "id": "1990100594",
    "name": "レコードブック甲府貢川",
    "kana": "レコードブックコウフクガワ",
    "address": "貢川本町4-26ビブレ21　西館1F ビブレ21　西館1F",
    "lat": 35.6554394,
    "lng": 138.5502861,
    "tel": "055-242-8128",
    "url": "http://www.recordbook.jp/facility/koufukugawa/",
    "pref": "山梨県",
    "city": "甲府市",
    "category": "community_day_service",
    "serviceType": "地域密着型通所介護",
    "capacity": 18,
    "openDays": [
      "平日",
      "祝日"
    ],
    "openDaysNote": "年末年始12月30日～1月3日まで"
  },
  {
    "id": "1970102289",
    "name": "医療法人正寿会　デイサービス倖せ",
    "kana": "イリョウホウジンショウジュカイ　デイサービスシアワセ",
    "address": "城東4丁目２－２３医療法人正寿会　デイサービス倖せ 医療法人正寿会　デイサービス倖せ",
    "lat": 35.6579684,
    "lng": 138.5845037,
    "tel": "０５５－２２７－７３３２",
    "url": "",
    "pref": "山梨県",
    "city": "甲府市",
    "category": "community_day_service",
    "serviceType": "地域密着型通所介護",
    "capacity": 18,
    "openDays": [
      "平日",
      "土曜日"
    ],
    "openDaysNote": "土曜日のみ定員10名"
  },
  {
    "id": "1970103881",
    "name": "郁の家甲府小瀬",
    "kana": "フミノイエコウフコセ",
    "address": "山梨県甲府市小瀬町３７９－１",
    "lat": 35.6270515,
    "lng": 138.5797773,
    "tel": "055-220-2323",
    "url": "http://www.39kaigo.jp",
    "pref": "山梨県",
    "city": "甲府市",
    "category": "community_day_service",
    "serviceType": "地域密着型通所介護",
    "capacity": 2,
    "openDays": [
      "平日",
      "土曜日",
      "日曜日",
      "祝日"
    ],
    "openDaysNote": ""
  },
  {
    "id": "1970103428",
    "name": "縁広場",
    "kana": "エンヒロバ",
    "address": "山梨県甲府市下積翠寺町1534",
    "lat": 35.6919157,
    "lng": 138.5839951,
    "tel": "055-269-5001",
    "url": "",
    "pref": "山梨県",
    "city": "甲府市",
    "category": "community_day_service",
    "serviceType": "地域密着型通所介護",
    "capacity": 0,
    "openDays": [
      "平日",
      "祝日"
    ],
    "openDaysNote": "上記によらず、電話などにより２４時間常時連絡が可能な体制を整えております。"
  },
  {
    "id": "1990100958",
    "name": "株式会社　日医調剤　デイサービスけやきの郷",
    "kana": "カブシキガイシャ　ニチイチョウザイ　デイサービスケヤキノサト",
    "address": "山梨県甲府市上町1866番地3",
    "lat": 35.6308126,
    "lng": 138.5850318,
    "tel": "055-241-6060",
    "url": "www.nichiiko-yamanashi.co.jp",
    "pref": "山梨県",
    "city": "甲府市",
    "category": "community_day_service",
    "serviceType": "地域密着型通所介護",
    "capacity": 0,
    "openDays": [
      "平日",
      "祝日"
    ],
    "openDaysNote": ""
  },
  {
    "id": "1970103543",
    "name": "株式会社栄光",
    "kana": "カブシキガイシャエイコウ",
    "address": "徳行1-3-22",
    "lat": 35.6547859,
    "lng": 138.5463263,
    "tel": "055-288-1077",
    "url": "",
    "pref": "山梨県",
    "city": "甲府市",
    "category": "community_day_service",
    "serviceType": "地域密着型通所介護",
    "capacity": 0,
    "openDays": [
      "平日",
      "土曜日",
      "日曜日",
      "祝日"
    ],
    "openDaysNote": ""
  },
  {
    "id": "1970104475",
    "name": "機能訓練型デイサロン　リーベンモア",
    "kana": "キノウクンレンガタデイサロン　リーベンモア",
    "address": "山梨県甲府市愛宕町３３",
    "lat": 35.6690849,
    "lng": 138.5745227,
    "tel": "055-287-8602",
    "url": "http://www.lieben.me.more/",
    "pref": "山梨県",
    "city": "甲府市",
    "category": "community_day_service",
    "serviceType": "地域密着型通所介護",
    "capacity": 0,
    "openDays": [
      "平日",
      "祝日"
    ],
    "openDaysNote": ""
  },
  {
    "id": "1990101048",
    "name": "憩いホーム　湯田の里",
    "kana": "イコイホーム　ユダノサト",
    "address": "甲府市幸町15-10",
    "lat": 35.645783,
    "lng": 138.5720254,
    "tel": "055-269-6464",
    "url": "https://shoju.or.jp/",
    "pref": "山梨県",
    "city": "甲府市",
    "category": "community_day_service",
    "serviceType": "地域密着型通所介護",
    "capacity": 0,
    "openDays": [
      "平日",
      "祝日"
    ],
    "openDaysNote": ""
  },
  {
    "id": "1970103352",
    "name": "憩いホーム緑町",
    "kana": "イコイホームミドリマチ",
    "address": "若松町4-15",
    "lat": 35.6565716252125,
    "lng": 138.570722441189,
    "tel": "055-269-7808",
    "url": "",
    "pref": "山梨県",
    "city": "甲府市",
    "category": "community_day_service",
    "serviceType": "地域密着型通所介護",
    "capacity": null,
    "openDays": [
      "平日",
      "祝日"
    ],
    "openDaysNote": ""
  },
  {
    "id": "1990100727",
    "name": "甲州デイサービスセンターきぼう甲府中央事業所",
    "kana": "コウシュウデイサービスセンターキボウコウフチュウオウジギョウショ",
    "address": "山梨県甲府市中央2丁目10-8シマヅビル１階 シマヅビル１階",
    "lat": 35.661996,
    "lng": 138.5735122,
    "tel": "055-221-6111",
    "url": "https://www.krg.ne.jp/care/",
    "pref": "山梨県",
    "city": "甲府市",
    "category": "community_day_service",
    "serviceType": "地域密着型通所介護",
    "capacity": 18,
    "openDays": [
      "平日",
      "祝日"
    ],
    "openDaysNote": "当事業所は半日型のデイサービスです。（改行）午前（9時～12時間）または午後（13時～16時）のご利用となります。"
  },
  {
    "id": "1990100826",
    "name": "甲州デイサービスセンターきぼう甲府南事業所",
    "kana": "コウシュウデイサービスセンターキボウコウフミナミジギョウショ",
    "address": "山梨県甲府市高畑1丁目22-14",
    "lat": 35.6493768,
    "lng": 138.5628646,
    "tel": "055-231-6700",
    "url": "https://www.krg.ne.jp/care/",
    "pref": "山梨県",
    "city": "甲府市",
    "category": "community_day_service",
    "serviceType": "地域密着型通所介護",
    "capacity": 18,
    "openDays": [
      "平日",
      "祝日"
    ],
    "openDaysNote": "当事業所は半日型のデイサービスです。（改行）午前（９時～１２時）、または午後（１３時～１６時）のご利用となります。"
  },
  {
    "id": "1970102081",
    "name": "甲府市中道デイサービスセンター",
    "kana": "コウフシナカミチデイサービスセンター",
    "address": "甲府市下向山町９１０",
    "lat": 35.5854028,
    "lng": 138.5864007,
    "tel": "055-266-6699",
    "url": "http://www.kofu-syakyo.or.jp/zaitaku/tusyo.htm",
    "pref": "山梨県",
    "city": "甲府市",
    "category": "community_day_service",
    "serviceType": "地域密着型通所介護",
    "capacity": 0,
    "openDays": [
      "平日",
      "土曜日",
      "祝日"
    ],
    "openDaysNote": "日曜日が祝日の場合は休業とする。"
  },
  {
    "id": "1990100834",
    "name": "山梨ＹＭＣＡデイサービスセンターオリーブの木",
    "kana": "ヤマナシワイエムシーエーデイサービスセンターオリーブノキ",
    "address": "山梨県甲府市中央３丁目１０－７",
    "lat": 35.6620034011832,
    "lng": 138.575772999336,
    "tel": "055-234-5321",
    "url": "https://yamanashi-ymca-olive.jimdosite.com/",
    "pref": "山梨県",
    "city": "甲府市",
    "category": "community_day_service",
    "serviceType": "地域密着型通所介護",
    "capacity": 10,
    "openDays": [
      "平日",
      "土曜日",
      "祝日"
    ],
    "openDaysNote": "上記に加え、山梨YMCAの定める日を休日とする"
  },
  {
    "id": "1990101071",
    "name": "山梨県甲府市宝二丁目12番16号",
    "kana": "ヤマナシケンコウフシタカラニチョウメ12バン16ゴウ",
    "address": "山梨県甲府市宝二丁目12番16号",
    "lat": 35.6616344,
    "lng": 138.559683,
    "tel": "055-215-4476",
    "url": "",
    "pref": "山梨県",
    "city": "甲府市",
    "category": "community_day_service",
    "serviceType": "地域密着型通所介護",
    "capacity": null,
    "openDays": [
      "平日",
      "祝日"
    ],
    "openDaysNote": ""
  },
  {
    "id": "1970101588",
    "name": "社会福祉法人旭寿会",
    "kana": "シャカイフクシホウジンキョクジュカイ",
    "address": "山梨県甲府市堀之内町8-1あけぼのディサービスセンター あけぼのディサービスセンター",
    "lat": 35.6299197,
    "lng": 138.5864206,
    "tel": "055-243-3362",
    "url": "http://www.akebono-kofu.com/",
    "pref": "山梨県",
    "city": "甲府市",
    "category": "community_day_service",
    "serviceType": "地域密着型通所介護",
    "capacity": 18,
    "openDays": [
      "平日",
      "土曜日",
      "祝日"
    ],
    "openDaysNote": "年末年始の１２月２９日から１月３日までの間は、１月１日を休み、他は曜日に関係なく営業する。"
  },
  {
    "id": "1990100800",
    "name": "地域密着型通所介護「みっちゃん家」",
    "kana": "チイキミッチャクガタツウショカイゴ「ミッチャンチ」",
    "address": "山梨県甲府市中町145－1",
    "lat": 35.6152565,
    "lng": 138.5732382,
    "tel": "０５５－２４２－２３２３",
    "url": "",
    "pref": "山梨県",
    "city": "甲府市",
    "category": "community_day_service",
    "serviceType": "地域密着型通所介護",
    "capacity": 7,
    "openDays": [
      "平日",
      "土曜日",
      "日曜日",
      "祝日"
    ],
    "openDaysNote": ""
  },
  {
    "id": "1970104343",
    "name": "通所介護「庵　雅楽」",
    "kana": "ツウショカイゴ　「イオリ　ガラク」",
    "address": "山梨県甲府市中小河原町1608-1",
    "lat": 35.630659,
    "lng": 138.5690087,
    "tel": "055-242-3000",
    "url": "koharubi-kaigo.com",
    "pref": "山梨県",
    "city": "甲府市",
    "category": "community_day_service",
    "serviceType": "地域密着型通所介護",
    "capacity": 20,
    "openDays": [
      "平日",
      "土曜日",
      "祝日"
    ],
    "openDaysNote": ""
  },
  {
    "id": "1991300052",
    "name": "社会福祉法人博友会指定地域密着型通所介護事業所",
    "kana": "シャカイフクシホウジンハクユウカイシテイチイキミッチャクガタツウショカイゴジギョウショ",
    "address": "山梨県南都留郡山中湖村平野１４５０山中湖村デイサービスセンター 山中湖村デイサービスセンター",
    "lat": 35.4352032,
    "lng": 138.909114,
    "tel": "０５５５－２８－１０２５",
    "url": "",
    "pref": "山梨県",
    "city": "山中湖村",
    "category": "community_day_service",
    "serviceType": "地域密着型通所介護",
    "capacity": null,
    "openDays": [
      "平日",
      "土曜日",
      "祝日"
    ],
    "openDaysNote": "休日　年末年始（12/31～1/3）（改行）事業所の指定する日"
  },
  {
    "id": "1970200497",
    "name": "デイサービス　あさひ",
    "kana": "デイサービス　アサヒ",
    "address": "山梨県山梨市万力726-3",
    "lat": 35.6897459,
    "lng": 138.6699874,
    "tel": "0553-39-9303",
    "url": "r.goope.jp/sr-19-192051s0096",
    "pref": "山梨県",
    "city": "山梨市",
    "category": "community_day_service",
    "serviceType": "地域密着型通所介護",
    "capacity": 0,
    "openDays": [
      "平日",
      "祝日"
    ],
    "openDaysNote": ""
  },
  {
    "id": "1970200638",
    "name": "デイサービスリアン",
    "kana": "デイサービスリアン",
    "address": "山梨県山梨市七日市場710-1コミュニティサポートリアン コミュニティサポートリアン",
    "lat": 35.6999872,
    "lng": 138.6994207,
    "tel": "0553-20-1081",
    "url": "http://www.fruits.jp/~jyukokai/",
    "pref": "山梨県",
    "city": "山梨市",
    "category": "community_day_service",
    "serviceType": "地域密着型通所介護",
    "capacity": null,
    "openDays": [
      "平日",
      "祝日"
    ],
    "openDaysNote": ""
  },
  {
    "id": "1970200489",
    "name": "デイサービス日和",
    "kana": "デイサービスヒヨリ",
    "address": "山梨県山梨市南1006-5",
    "lat": 35.7001707,
    "lng": 138.688969,
    "tel": "0553-22-2210",
    "url": "",
    "pref": "山梨県",
    "city": "山梨市",
    "category": "community_day_service",
    "serviceType": "地域密着型通所介護",
    "capacity": null,
    "openDays": [
      "平日",
      "祝日"
    ],
    "openDaysNote": ""
  },
  {
    "id": "1970600514",
    "name": "デイサービス　はなもも",
    "kana": "デイサービス　ハナモモ",
    "address": "山梨県西八代郡市川三郷町市川大門２０３５番地１",
    "lat": 35.5666107,
    "lng": 138.4961233,
    "tel": "055-272-6262",
    "url": "",
    "pref": "山梨県",
    "city": "市川三郷町",
    "category": "community_day_service",
    "serviceType": "地域密着型通所介護",
    "capacity": null,
    "openDays": [
      "平日",
      "土曜日",
      "祝日"
    ],
    "openDaysNote": ""
  },
  {
    "id": "1970600456",
    "name": "デイサービスふじざくら",
    "kana": "デイサービスフジザクラ",
    "address": "山梨県市川三郷町市川大門706",
    "lat": 35.5636311,
    "lng": 138.5008417,
    "tel": "055-272-2827",
    "url": "",
    "pref": "山梨県",
    "city": "市川三郷町",
    "category": "community_day_service",
    "serviceType": "地域密着型通所介護",
    "capacity": 0,
    "openDays": [
      "平日",
      "土曜日",
      "日曜日",
      "祝日"
    ],
    "openDaysNote": "延長のご希望時は朝8：00～18：00まで対応可（要相談）"
  },
  {
    "id": "1990600064",
    "name": "デイサービスほほえみ",
    "kana": "デイサービスホホエミ",
    "address": "山梨県西八代郡市川三郷町岩間2083",
    "lat": 35.4955653,
    "lng": 138.4622312,
    "tel": "0556-32-5000",
    "url": "",
    "pref": "山梨県",
    "city": "市川三郷町",
    "category": "community_day_service",
    "serviceType": "地域密着型通所介護",
    "capacity": 0,
    "openDays": [
      "平日",
      "土曜日"
    ],
    "openDaysNote": ""
  },
  {
    "id": "1990600056",
    "name": "デイサービス飛鳥Ⅱ",
    "kana": "デイサービスアスカツー",
    "address": "山梨県西八代郡市川三郷町上野2670-5",
    "lat": 35.5660519,
    "lng": 138.5127645,
    "tel": "055-267-5129",
    "url": "",
    "pref": "山梨県",
    "city": "市川三郷町",
    "category": "community_day_service",
    "serviceType": "地域密着型通所介護",
    "capacity": 0,
    "openDays": [
      "平日",
      "祝日"
    ],
    "openDaysNote": ""
  },
  {
    "id": "1991500016",
    "name": "小菅村指定地域密着型通所介護事業所",
    "kana": "コスゲムラシテイチイキミッチャクガタツウショカイゴジギョウショ",
    "address": "山梨県北都留郡小菅村6027番地",
    "lat": 35.7608823,
    "lng": 138.9366891,
    "tel": "0428-87-0431",
    "url": "",
    "pref": "山梨県",
    "city": "小菅村",
    "category": "community_day_service",
    "serviceType": "地域密着型通所介護",
    "capacity": null,
    "openDays": [
      "平日"
    ],
    "openDaysNote": ""
  },
  {
    "id": "1970800635",
    "name": "まごころ指定通所介護事業所（デイサービスセンターまごころ）",
    "kana": "マゴコロシテイツウショカイゴジギョウショ",
    "address": "山梨県　中巨摩郡　昭和町　西条新田　３６６の５",
    "lat": 35.639674301758,
    "lng": 138.532902186508,
    "tel": "０５５－２４０－７６６５",
    "url": "http://nttbj.itp.ne.jp/0552407665",
    "pref": "山梨県",
    "city": "昭和町",
    "category": "community_day_service",
    "serviceType": "地域密着型通所介護",
    "capacity": 10,
    "openDays": [
      "平日",
      "土曜日",
      "祝日"
    ],
    "openDaysNote": "日曜日および年末年始休暇日を除いては、毎日営業しています。"
  },
  {
    "id": "1970801161",
    "name": "ゆらぎデイサービス",
    "kana": "ユラギデイサービス",
    "address": "山梨県中巨摩郡昭和町西条30-1",
    "lat": 35.6361494188949,
    "lng": 138.545232553967,
    "tel": "055-275-1072",
    "url": "",
    "pref": "山梨県",
    "city": "昭和町",
    "category": "community_day_service",
    "serviceType": "地域密着型通所介護",
    "capacity": 0,
    "openDays": [
      "平日",
      "土曜日",
      "祝日"
    ],
    "openDaysNote": ""
  },
  {
    "id": "1972000275",
    "name": "こつぶデイサービス",
    "kana": "コツブデイサービス",
    "address": "山梨県上野原市松留22－4",
    "lat": 35.6148026,
    "lng": 139.1057937,
    "tel": "0554－62－2860",
    "url": "",
    "pref": "山梨県",
    "city": "上野原市",
    "category": "community_day_service",
    "serviceType": "地域密着型通所介護",
    "capacity": null,
    "openDays": [
      "平日",
      "土曜日",
      "祝日"
    ],
    "openDaysNote": ""
  },
  {
    "id": "1972000242",
    "name": "デイサービス　あお葉",
    "kana": "デイサービス　アオバ",
    "address": "山梨県上野原市上野原7380番地２",
    "lat": 35.6474564,
    "lng": 139.1213317,
    "tel": "0554-56-8380",
    "url": "",
    "pref": "山梨県",
    "city": "上野原市",
    "category": "community_day_service",
    "serviceType": "地域密着型通所介護",
    "capacity": 10,
    "openDays": [
      "平日",
      "土曜日",
      "祝日"
    ],
    "openDaysNote": ""
  },
  {
    "id": "1972000341",
    "name": "デイサービスらくっと",
    "kana": "デイサービスラクット",
    "address": "山梨県上野原市上野原3584",
    "lat": 35.6293843,
    "lng": 139.1119761,
    "tel": "554567678",
    "url": "",
    "pref": "山梨県",
    "city": "上野原市",
    "category": "community_day_service",
    "serviceType": "地域密着型通所介護",
    "capacity": 0,
    "openDays": [
      "平日",
      "土曜日",
      "祝日"
    ],
    "openDaysNote": ""
  },
  {
    "id": "1992000057",
    "name": "ホエールデイサービス",
    "kana": "ホエールデイサービス",
    "address": "山梨県上野原市新田1140",
    "lat": 35.6169633,
    "lng": 139.1122091,
    "tel": "0554-63-3588",
    "url": "https://whale-day-service.com/",
    "pref": "山梨県",
    "city": "上野原市",
    "category": "community_day_service",
    "serviceType": "地域密着型通所介護",
    "capacity": 0,
    "openDays": [
      "平日"
    ],
    "openDaysNote": ""
  },
  {
    "id": "1972000366",
    "name": "談合坂デイサービスひまわり",
    "kana": "ダンゴウザカデイサービスヒマワリ",
    "address": "山梨県上野原市大野4813番地",
    "lat": 35.6263328,
    "lng": 139.0468265,
    "tel": "0554-66-3067",
    "url": "",
    "pref": "山梨県",
    "city": "上野原市",
    "category": "community_day_service",
    "serviceType": "地域密着型通所介護",
    "capacity": 10,
    "openDays": [
      "平日",
      "土曜日",
      "祝日"
    ],
    "openDaysNote": ""
  },
  {
    "id": "1970701197",
    "name": "さいデイサービスセンターみのぶ波木井",
    "kana": "サイデイサービスセンターミノブハキイ",
    "address": "山梨県南巨摩郡身延町波木井１５０７－１",
    "lat": 35.3766926,
    "lng": 138.446721,
    "tel": "0556-62-6530",
    "url": "",
    "pref": "山梨県",
    "city": "身延町",
    "category": "community_day_service",
    "serviceType": "地域密着型通所介護",
    "capacity": 5,
    "openDays": [
      "平日",
      "土曜日",
      "祝日"
    ],
    "openDaysNote": "延長利用のご希望がある場合には８：３０～２０：００までの対応は可能です。"
  },
  {
    "id": "1970701189",
    "name": "リハビリオアシスデイサービスみのぶ",
    "kana": "リハビリオアシスデイサービスミノブ",
    "address": "山梨県南巨摩郡身延町丸滝466番地",
    "lat": 35.368098,
    "lng": 138.4548844,
    "tel": "0556-64-8677",
    "url": "",
    "pref": "山梨県",
    "city": "身延町",
    "category": "community_day_service",
    "serviceType": "地域密着型通所介護",
    "capacity": 0,
    "openDays": [
      "平日",
      "土曜日",
      "祝日"
    ],
    "openDaysNote": ""
  },
  {
    "id": "1990700112",
    "name": "デイサー-ビスセンターはやかわ",
    "kana": "デイサービスセンターハヤカワ",
    "address": "山梨県南巨摩郡早川町草塩88",
    "lat": 35.4280008,
    "lng": 138.3418205,
    "tel": "0556-45-2211",
    "url": "www.fujikoseikai.or.jp/",
    "pref": "山梨県",
    "city": "早川町",
    "category": "community_day_service",
    "serviceType": "地域密着型通所介護",
    "capacity": null,
    "openDays": [
      "平日",
      "祝日"
    ],
    "openDaysNote": ""
  },
  {
    "id": "1971400567",
    "name": "デイサービスセンター「ハッピーサークル」",
    "kana": "デイサービスセンター　「ハッピーサークル」",
    "address": "山梨県大月市七保町葛野１５７４番地２",
    "lat": 35.6297446,
    "lng": 138.9576947,
    "tel": "0554-22-2770",
    "url": "",
    "pref": "山梨県",
    "city": "大月市",
    "category": "community_day_service",
    "serviceType": "地域密着型通所介護",
    "capacity": 15,
    "openDays": [
      "平日",
      "祝日"
    ],
    "openDaysNote": ""
  },
  {
    "id": "1991400068",
    "name": "大月富士見苑",
    "kana": "オオツキフジミエン",
    "address": "大月町真木４６６０番地",
    "lat": 35.6188681,
    "lng": 138.9066281,
    "tel": "0554-23-0294",
    "url": "http://www.heisei294.org",
    "pref": "山梨県",
    "city": "大月市",
    "category": "community_day_service",
    "serviceType": "地域密着型通所介護",
    "capacity": null,
    "openDays": [
      "平日",
      "土曜日",
      "祝日"
    ],
    "openDaysNote": ""
  },
  {
    "id": "1971500077",
    "name": "丹波山村地域密着型通所介護事業所",
    "kana": "タバヤマムラチイキミッチャクガタツウショカイゴジギョウショ",
    "address": "山梨県北都留郡丹波山村2901高齢者生活福祉センター 高齢者生活福祉センター",
    "lat": 35.7893738,
    "lng": 138.9240264,
    "tel": "0428-88-0480",
    "url": "",
    "pref": "山梨県",
    "city": "丹波山村",
    "category": "community_day_service",
    "serviceType": "地域密着型通所介護",
    "capacity": 0,
    "openDays": [
      "平日"
    ],
    "openDaysNote": ""
  },
  {
    "id": "1972300162",
    "name": "デイサービスセンター　ゆたんぽⅡ",
    "kana": "デイサービスセンター　ユタンポⅡ",
    "address": "山梨県中央市浅利1003-7",
    "lat": 35.5844092,
    "lng": 138.5456676,
    "tel": "055-269-3755",
    "url": "",
    "pref": "山梨県",
    "city": "中央市",
    "category": "community_day_service",
    "serviceType": "地域密着型通所介護",
    "capacity": 0,
    "openDays": [
      "平日",
      "土曜日",
      "日曜日",
      "祝日"
    ],
    "openDaysNote": ""
  },
  {
    "id": "1972300071",
    "name": "デイサービス散歩道",
    "kana": "デイサービスサンポミチ",
    "address": "山之神94－41",
    "lat": 35.6201039,
    "lng": 138.5102945,
    "tel": "055-242-6183",
    "url": "",
    "pref": "山梨県",
    "city": "中央市",
    "category": "community_day_service",
    "serviceType": "地域密着型通所介護",
    "capacity": null,
    "openDays": [
      "平日",
      "土曜日",
      "祝日"
    ],
    "openDaysNote": ""
  },
  {
    "id": "1972300170",
    "name": "デイサービス飛鳥Ⅰ",
    "kana": "デイサービスアスカワン",
    "address": "山梨県中央市馬籠９３３－１",
    "lat": 35.5799557534202,
    "lng": 138.521299583319,
    "tel": "０５５－２７８－５８３０",
    "url": "",
    "pref": "山梨県",
    "city": "中央市",
    "category": "community_day_service",
    "serviceType": "地域密着型通所介護",
    "capacity": 0,
    "openDays": [
      "平日",
      "土曜日"
    ],
    "openDaysNote": ""
  },
  {
    "id": "1992300077",
    "name": "ぴーすデイサービス",
    "kana": "ピースデイサービス",
    "address": "山梨県中央市西花輪2737－7",
    "lat": 35.5944939,
    "lng": 138.5142572,
    "tel": "055－242－7655",
    "url": "",
    "pref": "山梨県",
    "city": "中央市",
    "category": "community_day_service",
    "serviceType": "地域密着型通所介護",
    "capacity": 0,
    "openDays": [
      "平日",
      "土曜日",
      "祝日"
    ],
    "openDaysNote": "年末年始は休業（12/30～1/3（改行））"
  },
  {
    "id": "1991800135",
    "name": "あい熊野堂",
    "kana": "アイクマノドウ",
    "address": "山梨県笛吹市春日居町熊野堂437番地",
    "lat": 35.67291,
    "lng": 138.6544284,
    "tel": "0553-34-5419",
    "url": "",
    "pref": "山梨県",
    "city": "笛吹市",
    "category": "community_day_service",
    "serviceType": "地域密着型通所介護",
    "capacity": null,
    "openDays": [
      "平日"
    ],
    "openDaysNote": ""
  },
  {
    "id": "1971800451",
    "name": "かすがいの家",
    "kana": "カスガイノイエ",
    "address": "山梨県笛吹市春日居町小松1013",
    "lat": 35.6651026,
    "lng": 138.6571368,
    "tel": "0553-26-3621",
    "url": "https://kasugai-house.com/",
    "pref": "山梨県",
    "city": "笛吹市",
    "category": "community_day_service",
    "serviceType": "地域密着型通所介護",
    "capacity": 15,
    "openDays": [
      "平日",
      "土曜日",
      "祝日"
    ],
    "openDaysNote": ""
  },
  {
    "id": "1971800816",
    "name": "デイサービスセンターきたじま苑　お伊勢の杜",
    "kana": "デイサービスセンターキタジマエン　オ伊勢ノ杜",
    "address": "笛吹市八代町北字伊勢之宮1290－1",
    "lat": null,
    "lng": null,
    "tel": "055－265－1039",
    "url": "kitajimaen.com",
    "pref": "山梨県",
    "city": "笛吹市",
    "category": "community_day_service",
    "serviceType": "地域密着型通所介護",
    "capacity": 0,
    "openDays": [
      "平日",
      "土曜日",
      "日曜日",
      "祝日"
    ],
    "openDaysNote": ""
  },
  {
    "id": "1971800535",
    "name": "デイサービスセンターのぞみ",
    "kana": "デイサービスセンターノゾミ",
    "address": "山梨県笛吹市石和町唐柏538-2",
    "lat": 35.63467,
    "lng": 138.6148739,
    "tel": "055-263-2288",
    "url": "",
    "pref": "山梨県",
    "city": "笛吹市",
    "category": "community_day_service",
    "serviceType": "地域密着型通所介護",
    "capacity": 0,
    "openDays": [
      "平日",
      "土曜日",
      "祝日"
    ],
    "openDaysNote": ""
  },
  {
    "id": "1971800964",
    "name": "ファミーユ",
    "kana": "ファミーユ",
    "address": "笛吹市春日居町鎮目714-1",
    "lat": 35.663646,
    "lng": 138.6423787,
    "tel": "0553-26-5046",
    "url": "",
    "pref": "山梨県",
    "city": "笛吹市",
    "category": "community_day_service",
    "serviceType": "地域密着型通所介護",
    "capacity": 0,
    "openDays": [
      "平日",
      "祝日"
    ],
    "openDaysNote": ""
  },
  {
    "id": "1991800218",
    "name": "指定通所介護事業所　絆　森の上",
    "kana": "シテイツウショカイゴジギョウショ　キズナ　モリノウエ",
    "address": "山梨県笛吹市八代町南346-3高齢者生活支援施設　絆 高齢者生活支援施設　絆",
    "lat": 35.6147511,
    "lng": 138.6457214,
    "tel": "055-288-9001",
    "url": "http://kizuna.social",
    "pref": "山梨県",
    "city": "笛吹市",
    "category": "community_day_service",
    "serviceType": "地域密着型通所介護",
    "capacity": 18,
    "openDays": [
      "平日",
      "土曜日",
      "日曜日",
      "祝日"
    ],
    "openDaysNote": "現状、職員不足で日曜日開設に着手できない状況。体制が整い次第開設予定。"
  },
  {
    "id": "1970500102",
    "name": "小山荘デイサービスセンター",
    "kana": "コヤマソウデイサービスセンター",
    "address": "山梨県笛吹市八代町北760",
    "lat": 35.6191011,
    "lng": 138.6520206,
    "tel": "055-265-4700",
    "url": "http://misakikai.ec-net.jp",
    "pref": "山梨県",
    "city": "笛吹市",
    "category": "community_day_service",
    "serviceType": "地域密着型通所介護",
    "capacity": null,
    "openDays": [
      "平日",
      "土曜日",
      "祝日"
    ],
    "openDaysNote": ""
  },
  {
    "id": "1971100266",
    "name": "デイサービスこわた",
    "kana": "デイサービスコワタ",
    "address": "山梨県都留市鹿留２１９３",
    "lat": 35.5317514,
    "lng": 138.878035,
    "tel": "0554-45-7677",
    "url": "www.jsp.co.jp",
    "pref": "山梨県",
    "city": "都留市",
    "category": "community_day_service",
    "serviceType": "地域密着型通所介護",
    "capacity": 0,
    "openDays": [
      "平日",
      "土曜日",
      "日曜日",
      "祝日"
    ],
    "openDaysNote": "1年365日年中無休"
  },
  {
    "id": "1991100148",
    "name": "よこぶきデイ",
    "kana": "ヨコブキデイ",
    "address": "山梨県都留市川茂328-4",
    "lat": 35.5516369,
    "lng": 138.9055266,
    "tel": "0554-45-4165",
    "url": "http://www.yokobukiso.or.jp",
    "pref": "山梨県",
    "city": "都留市",
    "category": "community_day_service",
    "serviceType": "地域密着型通所介護",
    "capacity": null,
    "openDays": [
      "平日"
    ],
    "openDaysNote": ""
  },
  {
    "id": "1971100258",
    "name": "優しい時間夏狩",
    "kana": "ヤサシイジカンナツガリ",
    "address": "山梨県都留市夏狩２１１７番地5",
    "lat": 35.5413253,
    "lng": 138.8733019,
    "tel": "0554-46-0294",
    "url": "http://www.heisei294.org",
    "pref": "山梨県",
    "city": "都留市",
    "category": "community_day_service",
    "serviceType": "地域密着型通所介護",
    "capacity": null,
    "openDays": [
      "平日",
      "祝日"
    ],
    "openDaysNote": ""
  },
  {
    "id": "1971601107",
    "name": "アルプスデイサービス",
    "kana": "アルプスデイサービス",
    "address": "飯野3453",
    "lat": 35.6374427,
    "lng": 138.4651929,
    "tel": "055-269-8511",
    "url": "",
    "pref": "山梨県",
    "city": "南アルプス市",
    "category": "community_day_service",
    "serviceType": "地域密着型通所介護",
    "capacity": 0,
    "openDays": [
      "平日",
      "土曜日",
      "祝日"
    ],
    "openDaysNote": ""
  },
  {
    "id": "1971600588",
    "name": "デイサービス　あんず",
    "kana": "デイサービス　アンズ",
    "address": "山梨県南アルプス市曲輪田２６２０",
    "lat": 35.6264859,
    "lng": 138.4382432,
    "tel": "０５５－２８８－６１１１",
    "url": "",
    "pref": "山梨県",
    "city": "南アルプス市",
    "category": "community_day_service",
    "serviceType": "地域密着型通所介護",
    "capacity": 11,
    "openDays": [
      "平日",
      "土曜日",
      "祝日"
    ],
    "openDaysNote": ""
  },
  {
    "id": "1971600968",
    "name": "デイサービス　にじ",
    "kana": "デイサービス　ニジ",
    "address": "山梨県南アルプス市曲輪田711-2",
    "lat": 35.6325711,
    "lng": 138.4500334,
    "tel": "055-280-8810",
    "url": "",
    "pref": "山梨県",
    "city": "南アルプス市",
    "category": "community_day_service",
    "serviceType": "地域密着型通所介護",
    "capacity": 11,
    "openDays": [
      "平日",
      "土曜日",
      "日曜日",
      "祝日"
    ],
    "openDaysNote": ""
  },
  {
    "id": "1971600729",
    "name": "デイサービスあゆみ指定通所介護事業所",
    "kana": "デイサービスアユミシテイツウショカイゴジギョウショ",
    "address": "山梨県南アルプス市有野3370番地1",
    "lat": 35.6614544600064,
    "lng": 138.441738386508,
    "tel": "055-285-1938",
    "url": "http://will-ayumi.com/",
    "pref": "山梨県",
    "city": "南アルプス市",
    "category": "community_day_service",
    "serviceType": "地域密着型通所介護",
    "capacity": 0,
    "openDays": [
      "平日",
      "土曜日",
      "祝日"
    ],
    "openDaysNote": ""
  },
  {
    "id": "1971600539",
    "name": "デイサービスお茶の間",
    "kana": "デイサービスオチャノマ",
    "address": "山梨県南アルプス市上宮地251-1",
    "lat": 35.6218422,
    "lng": 138.4475589,
    "tel": "055-282-5720",
    "url": "",
    "pref": "山梨県",
    "city": "南アルプス市",
    "category": "community_day_service",
    "serviceType": "地域密着型通所介護",
    "capacity": null,
    "openDays": [
      "平日",
      "土曜日",
      "日曜日",
      "祝日"
    ],
    "openDaysNote": ""
  },
  {
    "id": "1971600885",
    "name": "デイサービスすごろく",
    "kana": "デイサービススゴロク",
    "address": "山梨県南アルプス市江原203-4",
    "lat": 35.5998288,
    "lng": 138.4753208,
    "tel": "055-284-5515",
    "url": "",
    "pref": "山梨県",
    "city": "南アルプス市",
    "category": "community_day_service",
    "serviceType": "地域密着型通所介護",
    "capacity": null,
    "openDays": [
      "平日"
    ],
    "openDaysNote": ""
  },
  {
    "id": "1971601263",
    "name": "デイサービスとりじん",
    "kana": "デイサービストリジン",
    "address": "小笠原４９１",
    "lat": 35.611494525288,
    "lng": 138.463385878037,
    "tel": "０５５－２６９－８１０９",
    "url": "http://hp.kaipoke.biz/426/",
    "pref": "山梨県",
    "city": "南アルプス市",
    "category": "community_day_service",
    "serviceType": "地域密着型通所介護",
    "capacity": 18,
    "openDays": [
      "平日",
      "土曜日",
      "祝日"
    ],
    "openDaysNote": "年末年始（１２月３１日～１月３日）は休み"
  },
  {
    "id": "1971600547",
    "name": "デイサービスみかん",
    "kana": "デイサービスミカン",
    "address": "山梨県南アルプス市飯野３５９４",
    "lat": 35.633671,
    "lng": 138.4645402,
    "tel": "０５５－２８２－３１０８",
    "url": "",
    "pref": "山梨県",
    "city": "南アルプス市",
    "category": "community_day_service",
    "serviceType": "地域密着型通所介護",
    "capacity": 0,
    "openDays": [
      "平日",
      "土曜日",
      "祝日"
    ],
    "openDaysNote": "１２月３０日から１月３日まで休み"
  },
  {
    "id": "1971700420",
    "name": "デイサービスリハかのん若草",
    "kana": "デイサービスリハカノンワカクサ",
    "address": "山梨県南アルプス市浅原240",
    "lat": 35.591494,
    "lng": 138.5016573,
    "tel": "055-242-7343",
    "url": "ｈｔｐｐ：//ｙｆｓ-kanon.com",
    "pref": "山梨県",
    "city": "南アルプス市",
    "category": "community_day_service",
    "serviceType": "地域密着型通所介護",
    "capacity": null,
    "openDays": [
      "平日",
      "土曜日",
      "祝日"
    ],
    "openDaysNote": ""
  },
  {
    "id": "1991600188",
    "name": "デイサービスリハかのん白根",
    "kana": "デイサービスリハカノンシラネ",
    "address": "南アルプス市飯野2954－１",
    "lat": 35.6393449,
    "lng": 138.4603189,
    "tel": "552792510",
    "url": "yfs-kanon.com",
    "pref": "山梨県",
    "city": "南アルプス市",
    "category": "community_day_service",
    "serviceType": "地域密着型通所介護",
    "capacity": null,
    "openDays": [
      "平日",
      "土曜日",
      "祝日"
    ],
    "openDaysNote": ""
  },
  {
    "id": "1971601040",
    "name": "デイサービス在家塚福栄荘",
    "kana": "デイサービスザイケツカフクエイソウ",
    "address": "山梨県南アルプス市在家塚603－1",
    "lat": 35.6385682,
    "lng": 138.4720896,
    "tel": "055-284-6656",
    "url": "http://www.shiraneseimeikai.com/",
    "pref": "山梨県",
    "city": "南アルプス市",
    "category": "community_day_service",
    "serviceType": "地域密着型通所介護",
    "capacity": 10,
    "openDays": [
      "平日"
    ],
    "openDaysNote": ""
  },
  {
    "id": "1991600246",
    "name": "ハートデイサービス　甲西",
    "kana": "ハートデイサービス　甲西",
    "address": "山梨県南アルプス市大師671番地2",
    "lat": 35.586925,
    "lng": 138.466491,
    "tel": "055-249-8315",
    "url": "http://heart-service.co.jp/",
    "pref": "山梨県",
    "city": "南アルプス市",
    "category": "community_day_service",
    "serviceType": "地域密着型通所介護",
    "capacity": null,
    "openDays": [
      "平日",
      "土曜日",
      "日曜日",
      "祝日"
    ],
    "openDaysNote": ""
  },
  {
    "id": "1991600212",
    "name": "リハビリ空間　ゆたか",
    "kana": "リハビリクウカン　ユタカ",
    "address": "山梨県南アルプス市飯野2937-1",
    "lat": 35.6402268,
    "lng": 138.4601823,
    "tel": "055-268-2797",
    "url": "https://www.rihabili-yutaka.com/",
    "pref": "山梨県",
    "city": "南アルプス市",
    "category": "community_day_service",
    "serviceType": "地域密着型通所介護",
    "capacity": 18,
    "openDays": [
      "平日",
      "祝日"
    ],
    "openDaysNote": "8月13日、14日、15日、　お盆休み（改行）12月30日31日　1月1日2日3日　年末年始"
  },
  {
    "id": "1971601123",
    "name": "リハビリ特化型デイサービス　カラダラボ南アルプス",
    "kana": "リハビリトッカガタデイサービス　カラダラボミナミアルプス",
    "address": "山梨県南アルプス市下宮地261",
    "lat": 35.6018076,
    "lng": 138.4651769,
    "tel": "055-225-5451",
    "url": "https://www.karadalabo.com/",
    "pref": "山梨県",
    "city": "南アルプス市",
    "category": "community_day_service",
    "serviceType": "地域密着型通所介護",
    "capacity": 0,
    "openDays": [
      "平日",
      "祝日"
    ],
    "openDaysNote": "年末年始（１２月３１日～１月３日）を除く"
  },
  {
    "id": "1971601164",
    "name": "郁の家南アルプス",
    "kana": "フミノイエミナミアルプス",
    "address": "山梨県南アルプス市藤田２６０７－２",
    "lat": 35.5964793,
    "lng": 138.5046873,
    "tel": "055-283-3923",
    "url": "http://www.39kaigo.jp",
    "pref": "山梨県",
    "city": "南アルプス市",
    "category": "community_day_service",
    "serviceType": "地域密着型通所介護",
    "capacity": null,
    "openDays": [
      "平日",
      "土曜日",
      "日曜日",
      "祝日"
    ],
    "openDaysNote": ""
  },
  {
    "id": "1970800775",
    "name": "株式会社　やさしい手甲府　南アルプスデイサービスセンター",
    "kana": "カブシキギシャ　ヤサシイテコウフ　ミナミアルプスデイサービスセンター",
    "address": "山梨県　南アルプス市　百々　3011-6",
    "lat": 35.6550267,
    "lng": 138.4643818,
    "tel": "055-280-0330",
    "url": "",
    "pref": "山梨県",
    "city": "南アルプス市",
    "category": "community_day_service",
    "serviceType": "地域密着型通所介護",
    "capacity": 0,
    "openDays": [
      "平日",
      "土曜日",
      "日曜日",
      "祝日"
    ],
    "openDaysNote": ""
  },
  {
    "id": "1971600455",
    "name": "寄りあいどころきらら",
    "kana": "ヨリアイドコロキララ",
    "address": "南アルプス市百々1329",
    "lat": 35.657005,
    "lng": 138.4598256,
    "tel": "055-285-2736",
    "url": "",
    "pref": "山梨県",
    "city": "南アルプス市",
    "category": "community_day_service",
    "serviceType": "地域密着型通所介護",
    "capacity": 0,
    "openDays": [
      "平日",
      "土曜日",
      "日曜日",
      "祝日"
    ],
    "openDaysNote": ""
  },
  {
    "id": "1970800478",
    "name": "櫛形荘通所介護事業所",
    "kana": "クシガタソウツウショカイゴジギョウショ",
    "address": "山梨県南アルプス市上宮地1408",
    "lat": 35.6141961,
    "lng": 138.4440511,
    "tel": "055-284-0020",
    "url": "kushigatasou.coｍ",
    "pref": "山梨県",
    "city": "南アルプス市",
    "category": "community_day_service",
    "serviceType": "地域密着型通所介護",
    "capacity": null,
    "openDays": [
      "平日",
      "土曜日",
      "祝日"
    ],
    "openDaysNote": ""
  },
  {
    "id": "1991600154",
    "name": "甲州デイサービスセンターきぼう南アルプス事業所",
    "kana": "コウシュウデイサービスセンターキボウミナミアルプスジギョウショ",
    "address": "山梨県南アルプス市上今諏訪461-3",
    "lat": 35.6371014,
    "lng": 138.5015804,
    "tel": "055-288-6700",
    "url": "https://www.krg.ne.jp/care/",
    "pref": "山梨県",
    "city": "南アルプス市",
    "category": "community_day_service",
    "serviceType": "地域密着型通所介護",
    "capacity": 18,
    "openDays": [
      "平日",
      "祝日"
    ],
    "openDaysNote": "当事業所は半日型のデイサービスです。（改行）午前（9時～12時）または午後（13時～16時）のご利用となります。"
  },
  {
    "id": "1971601198",
    "name": "南アルプスデイサービスセンターはしゅこ",
    "kana": "ミナミアルプスデイサービスセンターハシュコ",
    "address": "在家塚1409",
    "lat": 35.6399035,
    "lng": 138.4710868,
    "tel": "055-283-3383",
    "url": "",
    "pref": "山梨県",
    "city": "南アルプス市",
    "category": "community_day_service",
    "serviceType": "地域密着型通所介護",
    "capacity": 0,
    "openDays": [
      "平日"
    ],
    "openDaysNote": ""
  },
  {
    "id": "1990700179",
    "name": "たすけあいきららデイサービス",
    "kana": "タスケアイキララデイサービス",
    "address": "山梨県南巨摩郡南部町福士2815",
    "lat": 35.2474273161856,
    "lng": 138.480394834969,
    "tel": "0556-64-8009",
    "url": "",
    "pref": "山梨県",
    "city": "南部町",
    "category": "community_day_service",
    "serviceType": "地域密着型通所介護",
    "capacity": 10,
    "openDays": [
      "平日",
      "土曜日",
      "祝日"
    ],
    "openDaysNote": "朝7時30分から夕5時まで職員出勤しています。それ以外は電話は携帯に転送されます。（改行）朝7時30分から夕6時まで延長サービス（自費）行っています。（改行）自宅で着替えの洗濯が困難なかたは、施設で洗濯します。（自費）"
  },
  {
    "id": "1990700211",
    "name": "なないろデイサービス",
    "kana": "ナナイロデイサービス",
    "address": "山梨県南巨摩郡南部町福士4599",
    "lat": 35.2369477260494,
    "lng": 138.481790206746,
    "tel": "0556-66-3676",
    "url": "",
    "pref": "山梨県",
    "city": "南部町",
    "category": "community_day_service",
    "serviceType": "地域密着型通所介護",
    "capacity": 0,
    "openDays": [
      "平日",
      "土曜日",
      "祝日"
    ],
    "openDaysNote": ""
  },
  {
    "id": "1970701213",
    "name": "リハビリオアシスデイサービスなんぶ",
    "kana": "リハビリオアシスデイサービスナンブ",
    "address": "山梨県南巨摩郡南部町南部9438",
    "lat": 35.2845096,
    "lng": 138.4488758,
    "tel": "0556-64-8277",
    "url": "",
    "pref": "山梨県",
    "city": "南部町",
    "category": "community_day_service",
    "serviceType": "地域密着型通所介護",
    "capacity": 0,
    "openDays": [
      "平日",
      "土曜日",
      "祝日"
    ],
    "openDaysNote": "台風や豪雪等災害時及び感染症の蔓延等においては臨時休業とする。"
  },
  {
    "id": "1970900328",
    "name": "デイサービス　リハビリテーションこんね藤井",
    "kana": "デイサービス　リハビリテーションコンネフジイ",
    "address": "山梨県韮崎市藤井町駒井２６５８－１- -",
    "lat": 35.7318553,
    "lng": 138.4469785,
    "tel": "０５５１－４５－７８１７",
    "url": "https://www.rehaconne.com",
    "pref": "山梨県",
    "city": "韮崎市",
    "category": "community_day_service",
    "serviceType": "地域密着型通所介護",
    "capacity": 0,
    "openDays": [
      "平日",
      "祝日"
    ],
    "openDaysNote": ""
  },
  {
    "id": "1990900134",
    "name": "リハビリサロンフルリール",
    "kana": "リハビリサロンフルリール",
    "address": "山梨県韮崎市一ツ谷1596-1",
    "lat": 35.7150127,
    "lng": 138.4394796,
    "tel": "0551-45-8451",
    "url": "https://fluriru.flurirurehasalon.com/",
    "pref": "山梨県",
    "city": "韮崎市",
    "category": "community_day_service",
    "serviceType": "地域密着型通所介護",
    "capacity": 18,
    "openDays": [
      "平日",
      "祝日"
    ],
    "openDaysNote": ""
  },
  {
    "id": "1970900260",
    "name": "山梨県韮崎市一ツ谷１５９６－１",
    "kana": "ヤマナシケンニラサキシヒトツヤ",
    "address": "山梨県韮崎市一ツ谷１５９６－１",
    "lat": 35.7149712,
    "lng": 138.4394437,
    "tel": "0551-45-8451",
    "url": "http://ii-nirasaki.com",
    "pref": "山梨県",
    "city": "韮崎市",
    "category": "community_day_service",
    "serviceType": "地域密着型通所介護",
    "capacity": 15,
    "openDays": [
      "平日",
      "祝日"
    ],
    "openDaysNote": ""
  },
  {
    "id": "1970900039",
    "name": "有限会社ひだまり",
    "kana": "ユウゲンガイシャ",
    "address": "山梨県韮崎市旭町上条北割2757-1",
    "lat": 35.6911837273505,
    "lng": 138.437275100664,
    "tel": "0551‐22‐8831",
    "url": "http://www.hidamarikaigo.info",
    "pref": "山梨県",
    "city": "韮崎市",
    "category": "community_day_service",
    "serviceType": "地域密着型通所介護",
    "capacity": 18,
    "openDays": [
      "平日",
      "土曜日",
      "祝日"
    ],
    "openDaysNote": "年末年始（12/31～1/3）休業（改行）他　年二回休業日あり"
  },
  {
    "id": "1991300169",
    "name": "デイサービス　まごころ",
    "kana": "デイサービス　マゴコロ",
    "address": "山梨県南都留郡忍野村内野３４０６－２",
    "lat": 35.4579867,
    "lng": 138.8758483,
    "tel": "０５５５ー２８－５３６３",
    "url": "",
    "pref": "山梨県",
    "city": "忍野村",
    "category": "community_day_service",
    "serviceType": "地域密着型通所介護",
    "capacity": 10,
    "openDays": [
      "平日",
      "土曜日",
      "日曜日",
      "祝日"
    ],
    "openDaysNote": ""
  },
  {
    "id": "1991300060",
    "name": "デイサービスセンター　ぽかぽか",
    "kana": "デイサービスセンター　ポカポカ",
    "address": "山梨県南都留郡忍野村忍草200番地",
    "lat": 35.4578395,
    "lng": 138.831324,
    "tel": "0555-84-8222",
    "url": "",
    "pref": "山梨県",
    "city": "忍野村",
    "category": "community_day_service",
    "serviceType": "地域密着型通所介護",
    "capacity": 0,
    "openDays": [
      "平日",
      "土曜日",
      "日曜日",
      "祝日"
    ],
    "openDaysNote": ""
  },
  {
    "id": "1971300932",
    "name": "ブルーゾーン心愛",
    "kana": "ブルーゾーンココア",
    "address": "山梨県南都留郡忍野忍忍草1083",
    "lat": 35.4552284913559,
    "lng": 138.834485553967,
    "tel": "0555-84-2625",
    "url": "https://uoyoshi.org/cocoa.php",
    "pref": "山梨県",
    "city": "忍野村",
    "category": "community_day_service",
    "serviceType": "地域密着型通所介護",
    "capacity": 0,
    "openDays": [
      "平日",
      "土曜日",
      "日曜日",
      "祝日"
    ],
    "openDaysNote": ""
  },
  {
    "id": "1991300151",
    "name": "あおばデイサービスセンター",
    "kana": "アオバデイサービスセンター",
    "address": "山梨県南都留郡富士河口湖町船津6809-1",
    "lat": 35.4885578,
    "lng": 138.7637994,
    "tel": "0555-73-8750",
    "url": "",
    "pref": "山梨県",
    "city": "富士河口湖町",
    "category": "community_day_service",
    "serviceType": "地域密着型通所介護",
    "capacity": 0,
    "openDays": [
      "平日",
      "土曜日",
      "祝日"
    ],
    "openDaysNote": ""
  },
  {
    "id": "1991300094",
    "name": "デイサービスセンターはるみさん家",
    "kana": "デイサービスセンターハルミサンチ",
    "address": "山梨県南都留郡富士河口湖町船津1190-3",
    "lat": 35.501257,
    "lng": 138.7576254,
    "tel": "0555-72-0803",
    "url": "",
    "pref": "山梨県",
    "city": "富士河口湖町",
    "category": "community_day_service",
    "serviceType": "地域密着型通所介護",
    "capacity": 0,
    "openDays": [
      "平日",
      "土曜日",
      "祝日"
    ],
    "openDaysNote": "年末年始　12月30日より1月3日まで休業（改行）お盆　　　8月14日より8月16日まで休業"
  },
  {
    "id": "1971300718",
    "name": "デイサービス四つ葉のクローバー",
    "kana": "デイサービスヨツバノクローバー",
    "address": "河口2818",
    "lat": null,
    "lng": null,
    "tel": "0555-73-9011",
    "url": "https://yotsuba-clover.jp",
    "pref": "山梨県",
    "city": "富士河口湖町",
    "category": "community_day_service",
    "serviceType": "地域密着型通所介護",
    "capacity": 0,
    "openDays": [
      "平日",
      "土曜日",
      "祝日"
    ],
    "openDaysNote": ""
  },
  {
    "id": "1991300136",
    "name": "共生型サービス　あおぞら",
    "kana": "キョウセイガタサービス　アオゾラ",
    "address": "山梨県南都留郡富士河口湖町小立2322-6",
    "lat": 35.5037306,
    "lng": 138.7497655,
    "tel": "0555-28-5280",
    "url": "",
    "pref": "山梨県",
    "city": "富士河口湖町",
    "category": "community_day_service",
    "serviceType": "地域密着型通所介護",
    "capacity": null,
    "openDays": [
      "平日",
      "土曜日",
      "日曜日",
      "祝日"
    ],
    "openDaysNote": ""
  },
  {
    "id": "1991200237",
    "name": "クローバーケアフィットネス",
    "kana": "クローバーケアフィットネス",
    "address": "山梨県富士吉田市上暮地1-17-23",
    "lat": 35.5081838,
    "lng": 138.8254408,
    "tel": "0555-73-8611",
    "url": "https://clovercare.co.jp/",
    "pref": "山梨県",
    "city": "富士吉田市",
    "category": "community_day_service",
    "serviceType": "地域密着型通所介護",
    "capacity": null,
    "openDays": [
      "平日",
      "祝日"
    ],
    "openDaysNote": ""
  },
  {
    "id": "1971200496",
    "name": "デイサービスあかふじ",
    "kana": "デイサービスアカフジ",
    "address": "上吉田東１－１－３２",
    "lat": 35.4740921,
    "lng": 138.8020256,
    "tel": "0555-22-7555",
    "url": "https://jsp.co.jp/about/",
    "pref": "山梨県",
    "city": "富士吉田市",
    "category": "community_day_service",
    "serviceType": "地域密着型通所介護",
    "capacity": 0,
    "openDays": [
      "平日",
      "土曜日",
      "日曜日",
      "祝日"
    ],
    "openDaysNote": ""
  },
  {
    "id": "1971200066",
    "name": "デイサービスセンターぽぷら・時乃家",
    "kana": "デイサービスセンターポプラ・トキノヤ",
    "address": "山梨県富士吉田市中曽根1-8-24",
    "lat": 35.4855687,
    "lng": 138.8012205,
    "tel": "0555-22-6635",
    "url": "",
    "pref": "山梨県",
    "city": "富士吉田市",
    "category": "community_day_service",
    "serviceType": "地域密着型通所介護",
    "capacity": 18,
    "openDays": [
      "平日",
      "土曜日",
      "祝日"
    ],
    "openDaysNote": ""
  },
  {
    "id": "1971200306",
    "name": "デイサービスセンター慶和荘",
    "kana": "デイサービスセンターケイワソウ",
    "address": "山梨県富士吉田市上吉田字熊穴4584",
    "lat": 35.4719931585485,
    "lng": 138.776184591202,
    "tel": "0555-23-3000",
    "url": "http://www.mswc.or.jp",
    "pref": "山梨県",
    "city": "富士吉田市",
    "category": "community_day_service",
    "serviceType": "地域密着型通所介護",
    "capacity": 0,
    "openDays": [
      "平日"
    ],
    "openDaysNote": ""
  },
  {
    "id": "1971200629",
    "name": "デイサービス愛歩里",
    "kana": "デイサービスアイボリ",
    "address": "山梨県富士吉田市富士見1-3-8",
    "lat": 35.4965653,
    "lng": 138.808565,
    "tel": "0555-22-1411",
    "url": "",
    "pref": "山梨県",
    "city": "富士吉田市",
    "category": "community_day_service",
    "serviceType": "地域密着型通所介護",
    "capacity": 3,
    "openDays": [
      "平日",
      "土曜日",
      "祝日"
    ],
    "openDaysNote": ""
  },
  {
    "id": "1991200245",
    "name": "地域密着型デイサービス　めぐみ",
    "kana": "チイキミッチャクガタデイサービス　メグミ",
    "address": "山梨県富士吉田市上暮地4-15-11",
    "lat": 35.5165108757851,
    "lng": 138.832147589024,
    "tel": "0555-23-1277",
    "url": "",
    "pref": "山梨県",
    "city": "富士吉田市",
    "category": "community_day_service",
    "serviceType": "地域密着型通所介護",
    "capacity": null,
    "openDays": [
      "平日",
      "土曜日",
      "日曜日",
      "祝日"
    ],
    "openDaysNote": ""
  },
  {
    "id": "1971200553",
    "name": "地域密着型デイサービスしおん",
    "kana": "チイキミッチャクガタデイサービスシオン",
    "address": "山梨県富士吉田市中曽根3－6－31",
    "lat": 35.4823394241529,
    "lng": 138.806419784656,
    "tel": "0555－22－8121",
    "url": "http://wakatuki-shou.com/NewFolder",
    "pref": "山梨県",
    "city": "富士吉田市",
    "category": "community_day_service",
    "serviceType": "地域密着型通所介護",
    "capacity": null,
    "openDays": [
      "平日",
      "土曜日",
      "祝日"
    ],
    "openDaysNote": ""
  },
  {
    "id": "1970701080",
    "name": "デイサービス富士川",
    "kana": "デイサービスフジカワ",
    "address": "山梨県南巨摩郡富士川町最勝寺1190",
    "lat": 35.5571756,
    "lng": 138.4624169,
    "tel": "0556-20-6088",
    "url": "",
    "pref": "山梨県",
    "city": "富士川町",
    "category": "community_day_service",
    "serviceType": "地域密着型通所介護",
    "capacity": 10,
    "openDays": [
      "平日",
      "土曜日",
      "祝日"
    ],
    "openDaysNote": ""
  },
  {
    "id": "1970700314",
    "name": "ヒューマンサービス山梨いきいきくらぶ",
    "kana": "ヒューマンサービスヤマナシイキイキクラブ",
    "address": "山梨県南巨摩郡富士川町最勝寺１４６６－１",
    "lat": 35.5721073601628,
    "lng": 138.467849230688,
    "tel": "０５５６－２０－７０８０",
    "url": "http://www.ar.7wakwak.com/~human-service",
    "pref": "山梨県",
    "city": "富士川町",
    "category": "community_day_service",
    "serviceType": "地域密着型通所介護",
    "capacity": 0,
    "openDays": [
      "平日",
      "土曜日",
      "祝日"
    ],
    "openDaysNote": ""
  },
  {
    "id": "1990700120",
    "name": "リハビリオアシス　デイサービスますほ",
    "kana": "リハビリオアシス　デイサービスマスホ",
    "address": "山梨県南巨摩郡富士川町青柳町983-2",
    "lat": 35.5583427,
    "lng": 138.4676575,
    "tel": "0556-42-8020",
    "url": "",
    "pref": "山梨県",
    "city": "富士川町",
    "category": "community_day_service",
    "serviceType": "地域密着型通所介護",
    "capacity": 0,
    "openDays": [
      "平日",
      "土曜日",
      "祝日"
    ],
    "openDaysNote": ""
  },
  {
    "id": "1990700203",
    "name": "リハビリオアシスデイサービスあおやぎ",
    "kana": "リハビリオアシスデイサービスアオヤギ",
    "address": "山梨県南巨摩郡富士川町青柳町508番地",
    "lat": 35.5572392,
    "lng": 138.4642412,
    "tel": "0556-22-8732",
    "url": "",
    "pref": "山梨県",
    "city": "富士川町",
    "category": "community_day_service",
    "serviceType": "地域密着型通所介護",
    "capacity": 0,
    "openDays": [
      "平日",
      "土曜日"
    ],
    "openDaysNote": ""
  },
  {
    "id": "1990700187",
    "name": "鰍沢デイサービス",
    "kana": "カジカザワデイサービス",
    "address": "山梨県南巨摩郡富士川町駅前通2-3776",
    "lat": 35.5405391,
    "lng": 138.4644705,
    "tel": "0556-20-6188",
    "url": "",
    "pref": "山梨県",
    "city": "富士川町",
    "category": "community_day_service",
    "serviceType": "地域密着型通所介護",
    "capacity": 0,
    "openDays": [
      "平日",
      "土曜日",
      "祝日"
    ],
    "openDaysNote": "祝日が日曜日の場合は休業、また年末年始は12/31～1/3まで休業"
  },
  {
    "id": "1990700161",
    "name": "共生型デイサービスまたあした富士川",
    "kana": "キョウセイガタデイサービスマタアシタフジカワ",
    "address": "山梨県南巨摩郡富士川町鰍沢1586",
    "lat": 35.5460009,
    "lng": 138.4595908,
    "tel": "0556-48-8588",
    "url": "",
    "pref": "山梨県",
    "city": "富士川町",
    "category": "community_day_service",
    "serviceType": "地域密着型通所介護",
    "capacity": 0,
    "openDays": [
      "平日",
      "土曜日",
      "祝日"
    ],
    "openDaysNote": ""
  },
  {
    "id": "1990700146",
    "name": "甲州デイサービスセンターきぼう富士川事業所",
    "kana": "コウシュウデイサービスセンターキボウフジカワジギョウショ",
    "address": "山梨県南巨摩郡富士川町長澤2165",
    "lat": 35.5771781,
    "lng": 138.4641833,
    "tel": "0556-20-6700",
    "url": "https://www.krg.ne.jp/care/",
    "pref": "山梨県",
    "city": "富士川町",
    "category": "community_day_service",
    "serviceType": "地域密着型通所介護",
    "capacity": 18,
    "openDays": [
      "平日",
      "祝日"
    ],
    "openDaysNote": "当事業所は半日型のデイサービスです。（改行）午前（9時～12時）または午後（13時～16時）のご利用となります。"
  },
  {
    "id": "1971900509",
    "name": "みどりの杜ながさか",
    "kana": "ミドリノモリナガサカ",
    "address": "山梨県北杜市長坂町長坂上条436番地4",
    "lat": 35.8152991,
    "lng": 138.3672235,
    "tel": "551323325",
    "url": "",
    "pref": "山梨県",
    "city": "北杜市",
    "category": "community_day_service",
    "serviceType": "地域密着型通所介護",
    "capacity": null,
    "openDays": [
      "平日"
    ],
    "openDaysNote": "夏季休暇、年末年始休暇"
  },
  {
    "id": "1971900350",
    "name": "よりあいどころ・ほくと・さくら苑",
    "kana": "ヨリアイドコロ・ホクト・サクラエン",
    "address": "長坂町白井沢1172-19長坂町白井沢1172-19 長坂町白井沢1172-19",
    "lat": 35.8533665,
    "lng": 138.3674553,
    "tel": "0551-32-8301",
    "url": "http：//www.fluriru.com",
    "pref": "山梨県",
    "city": "北杜市",
    "category": "community_day_service",
    "serviceType": "地域密着型通所介護",
    "capacity": 0,
    "openDays": [
      "平日",
      "祝日"
    ],
    "openDaysNote": ""
  },
  {
    "id": "1991900158",
    "name": "リハ特化半日デイるんるん",
    "kana": "リハトッカハンニチデイルンルン",
    "address": "長坂町長坂上条435",
    "lat": 35.8210605,
    "lng": 138.3713774,
    "tel": "551309251",
    "url": "info@dandankai.com",
    "pref": "山梨県",
    "city": "北杜市",
    "category": "community_day_service",
    "serviceType": "地域密着型通所介護",
    "capacity": null,
    "openDays": [
      "平日"
    ],
    "openDaysNote": ""
  },
  {
    "id": "1971300445",
    "name": "合資会社　デイサービスふきのとう",
    "kana": "ゴウシガイシャ　デイサービスフキノトウ",
    "address": "山梨県南都留郡鳴沢村5855-1デイサービスふきのとう デイサービスふきのとう",
    "lat": 35.4799772215042,
    "lng": 138.709683463043,
    "tel": "0555-85-2280",
    "url": "",
    "pref": "山梨県",
    "city": "鳴沢村",
    "category": "community_day_service",
    "serviceType": "地域密着型通所介護",
    "capacity": 3,
    "openDays": [
      "平日",
      "土曜日",
      "日曜日",
      "祝日"
    ],
    "openDaysNote": ""
  }
]