[
  {
    "id": "2170400978",
    "name": "ケアセンタージョイ",
    "kana": "ケアセンタージョイ",
    "address": "岐阜県羽島市舟橋町7丁目39番地",
    "lat": 35.3124885144501,
    "lng": 136.690102960748,
    "tel": "058-227-5268",
    "url": "",
    "pref": "岐阜県",
    "city": "羽島市",
    "category": "community_day_service",
    "serviceType": "地域密着型通所介護",
    "capacity": 10,
    "openDays": [
      "平日",
      "土曜日",
      "祝日"
    ],
    "openDaysNote": "営業時間は、利用者のニーズに応じて8:00～20:00までの間で延長することがあります。"
  },
  {
    "id": "2190400115",
    "name": "デイサービス　リハ屋",
    "kana": "デイサービス　リハヤ",
    "address": "岐阜県羽島市正木町須賀小松588",
    "lat": 35.3383925,
    "lng": 136.7316022,
    "tel": "058-338-8024",
    "url": "https://kai-thg.com",
    "pref": "岐阜県",
    "city": "羽島市",
    "category": "community_day_service",
    "serviceType": "地域密着型通所介護",
    "capacity": 12,
    "openDays": [
      "平日",
      "土曜日",
      "祝日"
    ],
    "openDaysNote": "定休日は事前に説明いたします。"
  },
  {
    "id": "2190400149",
    "name": "デイサービス　花りん",
    "kana": "デイサービス　カリン",
    "address": "岐阜県羽島市竹鼻町３６２番地1",
    "lat": 35.322296738625,
    "lng": 136.697271919049,
    "tel": "058-216-8558",
    "url": "",
    "pref": "岐阜県",
    "city": "羽島市",
    "category": "community_day_service",
    "serviceType": "地域密着型通所介護",
    "capacity": 0,
    "openDays": [
      "平日",
      "土曜日",
      "祝日"
    ],
    "openDaysNote": "年末年始12/30～1/3休業日"
  },
  {
    "id": "2190400131",
    "name": "デイサービス　黒舩",
    "kana": "デイサービス　クロフネ",
    "address": "岐阜県羽島市正木町曲利字才勝１３７５番地",
    "lat": 35.324897953293,
    "lng": 136.721109942883,
    "tel": "058-374-7500",
    "url": "https://kai-kurofune.com/",
    "pref": "岐阜県",
    "city": "羽島市",
    "category": "community_day_service",
    "serviceType": "地域密着型通所介護",
    "capacity": 0,
    "openDays": [
      "平日",
      "祝日"
    ],
    "openDaysNote": "お盆休みは営業していることもあります。（利用者様の身体状態に配慮）"
  },
  {
    "id": "2190400107",
    "name": "デイサービスセンター　ジョイフル羽島",
    "kana": "デイサービスセンター　ジョイフルハシマ",
    "address": "岐阜県羽島市下中町城屋敷318-5",
    "lat": 35.2874288,
    "lng": 136.7041445,
    "tel": "058-397-1911",
    "url": "http://sun-vision.or.jp/",
    "pref": "岐阜県",
    "city": "羽島市",
    "category": "community_day_service",
    "serviceType": "地域密着型通所介護",
    "capacity": 0,
    "openDays": [
      "平日",
      "祝日"
    ],
    "openDaysNote": "事業所が特に指定する日を休日とすることがある。"
  },
  {
    "id": "2170400523",
    "name": "デイサービスセンターぬくもり",
    "kana": "デイサービスセンターヌクモリ",
    "address": "岐阜県羽島市竹鼻町新町2504番地１",
    "lat": 35.3253483,
    "lng": 136.7031993,
    "tel": "058-392-3962",
    "url": "https://www.nuku-mori.net/",
    "pref": "岐阜県",
    "city": "羽島市",
    "category": "community_day_service",
    "serviceType": "地域密着型通所介護",
    "capacity": 15,
    "openDays": [
      "平日",
      "土曜日",
      "祝日"
    ],
    "openDaysNote": "現在は、土日お休みとさせていただいております。"
  },
  {
    "id": "2170400887",
    "name": "デイサービスママーズ　まさき",
    "kana": "デイサービスママーズ　マサキ",
    "address": "岐阜県羽島市正木町須賀２５６３－１",
    "lat": 35.3356366,
    "lng": 136.7312624,
    "tel": "058-393-1015",
    "url": "http://www.hashimakikaku.com",
    "pref": "岐阜県",
    "city": "羽島市",
    "category": "community_day_service",
    "serviceType": "地域密着型通所介護",
    "capacity": 0,
    "openDays": [
      "平日",
      "土曜日",
      "祝日"
    ],
    "openDaysNote": ""
  },
  {
    "id": "2170400804",
    "name": "デイサービス長島",
    "kana": "デイサービスナガシマ",
    "address": "岐阜県羽島市竹鼻町２５６",
    "lat": 35.3202043,
    "lng": 136.6990861,
    "tel": "058-393-3570",
    "url": "",
    "pref": "岐阜県",
    "city": "羽島市",
    "category": "community_day_service",
    "serviceType": "地域密着型通所介護",
    "capacity": 0,
    "openDays": [
      "平日",
      "土曜日",
      "祝日"
    ],
    "openDaysNote": ""
  },
  {
    "id": "2170401026",
    "name": "ハピネスクラブ",
    "kana": "ハピネスクラブ",
    "address": "岐阜県羽島市江吉良町909番地",
    "lat": 35.3150510640584,
    "lng": 136.700676714121,
    "tel": "058-337-2277",
    "url": "http://hp.kaipoke.biz/h58/",
    "pref": "岐阜県",
    "city": "羽島市",
    "category": "community_day_service",
    "serviceType": "地域密着型通所介護",
    "capacity": 0,
    "openDays": [
      "平日"
    ],
    "openDaysNote": "午前の部9：00～12：00（改行）午後の部13：30～16：30"
  },
  {
    "id": "2170401091",
    "name": "リハビリデイサービスちあき",
    "kana": "リハビリデイサービスチアキ",
    "address": "岐阜県羽島市竹鼻町狐穴2992-2",
    "lat": 35.3224084888407,
    "lng": 136.706223861688,
    "tel": "058-216-5120",
    "url": "http://www.mirai.ne.jp/~char/",
    "pref": "岐阜県",
    "city": "羽島市",
    "category": "community_day_service",
    "serviceType": "地域密着型通所介護",
    "capacity": 0,
    "openDays": [
      "平日",
      "土曜日",
      "祝日"
    ],
    "openDaysNote": ""
  },
  {
    "id": "2170401133",
    "name": "リハプライド岐阜羽島",
    "kana": "リハプライドギフハシマ",
    "address": "岐阜県羽島市竹鼻町狐穴1133-1",
    "lat": 35.3150996,
    "lng": 136.7211664,
    "tel": "058-394-0720",
    "url": "https://www.rehapride.co.jp/gifuhashima/",
    "pref": "岐阜県",
    "city": "羽島市",
    "category": "community_day_service",
    "serviceType": "地域密着型通所介護",
    "capacity": 0,
    "openDays": [
      "平日",
      "土曜日",
      "祝日"
    ],
    "openDaysNote": "年末年始を除く"
  },
  {
    "id": "2190400156",
    "name": "光デイサービス",
    "kana": "ヒカリデイサービス",
    "address": "岐阜県羽島市竹鼻町錦町57番地",
    "lat": 35.3213049713702,
    "lng": 136.695799088361,
    "tel": "058-392-7801",
    "url": "",
    "pref": "岐阜県",
    "city": "羽島市",
    "category": "community_day_service",
    "serviceType": "地域密着型通所介護",
    "capacity": 0,
    "openDays": [
      "平日"
    ],
    "openDaysNote": ""
  },
  {
    "id": "2192800163",
    "name": "コミュニティベース讃照庵",
    "kana": "コミュニティベースサンショウアン",
    "address": "岐阜県下呂市金山町金山3479-2",
    "lat": 35.6458953,
    "lng": 137.1663974,
    "tel": "0576-34-0025",
    "url": "",
    "pref": "岐阜県",
    "city": "下呂市",
    "category": "community_day_service",
    "serviceType": "地域密着型通所介護",
    "capacity": 0,
    "openDays": [
      "平日"
    ],
    "openDaysNote": "感染症や自然災害等安全に事業実施ができない場合は休業することがあります。"
  },
  {
    "id": "2192800197",
    "name": "デイサービスおかげ庵下呂",
    "kana": "デイサービスオカゲ庵下呂",
    "address": "岐阜県下呂市森２１１番地",
    "lat": 35.8014932,
    "lng": 137.2466333,
    "tel": "0576-23-3165",
    "url": "https://a-lifesupport.co.jp/elder/happiness_gero/",
    "pref": "岐阜県",
    "city": "下呂市",
    "category": "community_day_service",
    "serviceType": "地域密着型通所介護",
    "capacity": 16,
    "openDays": [
      "平日",
      "土曜日",
      "日曜日",
      "祝日"
    ],
    "openDaysNote": "年末年始は入浴サービスなし"
  },
  {
    "id": "2192800148",
    "name": "デイサービスセンター　つつじ苑",
    "kana": "デイサービスセンター　ツツジエン",
    "address": "岐阜県下呂市馬瀬名丸1041番地",
    "lat": 35.8700575,
    "lng": 137.1752722,
    "tel": "0576-47-2108",
    "url": "http://gero-city-syakyo.jp/shisetsu/maze_day.html",
    "pref": "岐阜県",
    "city": "下呂市",
    "category": "community_day_service",
    "serviceType": "地域密着型通所介護",
    "capacity": 18,
    "openDays": [
      "平日",
      "祝日"
    ],
    "openDaysNote": "天災等により臨時休業あり"
  },
  {
    "id": "2172800787",
    "name": "ファミリア下呂デイサービス",
    "kana": "ファミリアゲロデイサービス",
    "address": "岐阜県下呂市森2273ファミリア下呂 ファミリア下呂",
    "lat": 35.8058631702445,
    "lng": 137.250770298578,
    "tel": "0576-25-7272",
    "url": "http://www.yuzankai.com",
    "pref": "岐阜県",
    "city": "下呂市",
    "category": "community_day_service",
    "serviceType": "地域密着型通所介護",
    "capacity": null,
    "openDays": [
      "平日",
      "祝日"
    ],
    "openDaysNote": "年末年始休み"
  },
  {
    "id": "2192800122",
    "name": "リハビリデイサービス　ウイル",
    "kana": "リハビリデイサービス　ウイル",
    "address": "岐阜県下呂市萩原町西上田248-1",
    "lat": 35.8409691042625,
    "lng": 137.226973267749,
    "tel": "0576-20-4450",
    "url": "",
    "pref": "岐阜県",
    "city": "下呂市",
    "category": "community_day_service",
    "serviceType": "地域密着型通所介護",
    "capacity": 0,
    "openDays": [
      "平日",
      "祝日"
    ],
    "openDaysNote": ""
  },
  {
    "id": "2192800114",
    "name": "リハビリデイサービス　ケアリハ",
    "kana": "リハビリデイサービスケアリハ",
    "address": "岐阜県下呂市萩原町花池２９３番地",
    "lat": 35.862976,
    "lng": 137.222114,
    "tel": "0576-74-1325",
    "url": "https://keariha.hp.peraichi.com/rihabili",
    "pref": "岐阜県",
    "city": "下呂市",
    "category": "community_day_service",
    "serviceType": "地域密着型通所介護",
    "capacity": 0,
    "openDays": [
      "平日"
    ],
    "openDaysNote": ""
  },
  {
    "id": "2192800106",
    "name": "リハビリデイサービス　街のからだクラス",
    "kana": "リハビリデイサービス　マチノカラダクラス",
    "address": "岐阜県下呂市湯之島496番地3",
    "lat": 35.8114554549431,
    "lng": 137.239474211639,
    "tel": "0576-25-7211",
    "url": "",
    "pref": "岐阜県",
    "city": "下呂市",
    "category": "community_day_service",
    "serviceType": "地域密着型通所介護",
    "capacity": null,
    "openDays": [
      "平日"
    ],
    "openDaysNote": ""
  },
  {
    "id": "2172800753",
    "name": "レッツ倶楽部　下呂白樺",
    "kana": "レッツクラブ　ゲロシラカバ",
    "address": "岐阜県下呂市萩原町上呂８５０－１",
    "lat": 35.908312,
    "lng": 137.2043735,
    "tel": "0576-56-1025",
    "url": "http://www.lets-club.jp/shop/geroshirakaba/",
    "pref": "岐阜県",
    "city": "下呂市",
    "category": "community_day_service",
    "serviceType": "地域密着型通所介護",
    "capacity": 15,
    "openDays": [
      "平日",
      "祝日"
    ],
    "openDaysNote": "半日型リハビリフィットネス　　1単位目　8:55～12:00　　2単位目　13:25～16:30　（改行）祝日は営業を行っている。"
  },
  {
    "id": "2192800155",
    "name": "元気デイ小川谷",
    "kana": "ゲンキデイオガワダニ",
    "address": "岐阜県下呂市小川281-1",
    "lat": 35.7943279,
    "lng": 137.2679555,
    "tel": "0576-23-2555",
    "url": "",
    "pref": "岐阜県",
    "city": "下呂市",
    "category": "community_day_service",
    "serviceType": "地域密着型通所介護",
    "capacity": null,
    "openDays": [
      "平日"
    ],
    "openDaysNote": ""
  },
  {
    "id": "2192800171",
    "name": "上原デイサービスセンター",
    "kana": "カミハラデイサービスセンター",
    "address": "岐阜県下呂市田口678-2",
    "lat": 35.7311538862243,
    "lng": 137.289789774869,
    "tel": "0576-27-2010",
    "url": "http://www.gero-city-syakyo.jp",
    "pref": "岐阜県",
    "city": "下呂市",
    "category": "community_day_service",
    "serviceType": "地域密着型通所介護",
    "capacity": null,
    "openDays": [
      "平日",
      "祝日"
    ],
    "openDaysNote": "天災等により臨時休業する場合あり。"
  },
  {
    "id": "2173101094",
    "name": "グリーンテラスデイサービス",
    "kana": "グリーンテラスデイサービス",
    "address": "岐阜県可児市下恵土4061ｻｰﾋﾞｽ付き高齢者向け住宅グリーングリーン２階 ｻｰﾋﾞｽ付き高齢者向け住宅グリーングリーン２階",
    "lat": 35.4267489404524,
    "lng": 137.044037977538,
    "tel": "0574-48-8858",
    "url": "",
    "pref": "岐阜県",
    "city": "可児市",
    "category": "community_day_service",
    "serviceType": "地域密着型通所介護",
    "capacity": 0,
    "openDays": [
      "平日",
      "土曜日",
      "祝日"
    ],
    "openDaysNote": ""
  },
  {
    "id": "2173100914",
    "name": "けあらーず可児指定通所介護事業所",
    "kana": "ケアラーズカニシテイツウショカイゴジギョウショ",
    "address": "岐阜県可児市川合北2-115",
    "lat": 35.4422450586783,
    "lng": 137.052445241664,
    "tel": "0574-48-8071",
    "url": "https://www.seramu.com/",
    "pref": "岐阜県",
    "city": "可児市",
    "category": "community_day_service",
    "serviceType": "地域密着型通所介護",
    "capacity": 10,
    "openDays": [
      "平日",
      "土曜日",
      "日曜日",
      "祝日"
    ],
    "openDaysNote": "12月29日～1月3日を除く。"
  },
  {
    "id": "2193100258",
    "name": "デイサービスmana",
    "kana": "デイサービス　マナ",
    "address": "岐阜県可児市広見６丁目110-2",
    "lat": 35.4214106689194,
    "lng": 137.065497406746,
    "tel": "0574-60-6060",
    "url": "",
    "pref": "岐阜県",
    "city": "可児市",
    "category": "community_day_service",
    "serviceType": "地域密着型通所介護",
    "capacity": null,
    "openDays": [
      "平日"
    ],
    "openDaysNote": ""
  },
  {
    "id": "2193100241",
    "name": "デイサービスセンター太陽",
    "kana": "デイサービスセンタータイヨウ",
    "address": "岐阜県可児市土田4497-1",
    "lat": 35.4228225715923,
    "lng": 137.009445206746,
    "tel": "0574-42-9999",
    "url": "https://hp.kaipoke.biz/6nm/169146/base_0004.html",
    "pref": "岐阜県",
    "city": "可児市",
    "category": "community_day_service",
    "serviceType": "地域密着型通所介護",
    "capacity": 15,
    "openDays": [
      "平日",
      "祝日"
    ],
    "openDaysNote": ""
  },
  {
    "id": "2173100856",
    "name": "デイサービスセンター野のはな",
    "kana": "デイサービスセンターノノハナ",
    "address": "岐阜県可児市若葉台5丁目100番地",
    "lat": 35.4036169003043,
    "lng": 137.017272070725,
    "tel": "0574-50-8655",
    "url": "https://dayservice-nonohana.com",
    "pref": "岐阜県",
    "city": "可児市",
    "category": "community_day_service",
    "serviceType": "地域密着型通所介護",
    "capacity": 0,
    "openDays": [
      "平日",
      "祝日"
    ],
    "openDaysNote": "土、日曜日は休止"
  },
  {
    "id": "2173101045",
    "name": "デイサービス夢香",
    "kana": "デイサービスユノカ",
    "address": "岐阜県可児市今渡2751番地スワーヴ今渡 スワーヴ今渡",
    "lat": 35.4330943634077,
    "lng": 137.03865414648,
    "tel": "0574-23-1731",
    "url": "https://www.generous.co.jp/facility/yunoka/",
    "pref": "岐阜県",
    "city": "可児市",
    "category": "community_day_service",
    "serviceType": "地域密着型通所介護",
    "capacity": 18,
    "openDays": [
      "平日",
      "土曜日",
      "祝日"
    ],
    "openDaysNote": ""
  },
  {
    "id": "2173101136",
    "name": "デイハウス　みぃーんなげんき",
    "kana": "デイハウス　ミィーンナゲンキ",
    "address": "岐阜県可児市長坂８丁目１９８番地",
    "lat": 35.3863148,
    "lng": 137.0042306,
    "tel": "0574-65-1750",
    "url": "",
    "pref": "岐阜県",
    "city": "可児市",
    "category": "community_day_service",
    "serviceType": "地域密着型通所介護",
    "capacity": 0,
    "openDays": [
      "平日",
      "土曜日",
      "日曜日",
      "祝日"
    ],
    "openDaysNote": ""
  },
  {
    "id": "2173100872",
    "name": "デイハウスみらい",
    "kana": "デイハウスミライ",
    "address": "岐阜県可児市土田５３１１番地",
    "lat": 35.429519911421,
    "lng": 137.029384726817,
    "tel": "0574-50-6500",
    "url": "http://npo-doremimirai.com/",
    "pref": "岐阜県",
    "city": "可児市",
    "category": "community_day_service",
    "serviceType": "地域密着型通所介護",
    "capacity": 8,
    "openDays": [
      "平日",
      "土曜日",
      "祝日"
    ],
    "openDaysNote": "時間外でも対応可"
  },
  {
    "id": "2173101078",
    "name": "リハビリデイサービス　わかば可児",
    "kana": "リハビリデイサービス　ワカバカニ",
    "address": "岐阜県可児市下恵土字豊田５１７６GemThrive1F GemThrive1F",
    "lat": 35.4224163742461,
    "lng": 137.054707542467,
    "tel": "０５７４-５０-２５２８",
    "url": "",
    "pref": "岐阜県",
    "city": "可児市",
    "category": "community_day_service",
    "serviceType": "地域密着型通所介護",
    "capacity": 0,
    "openDays": [
      "平日",
      "土曜日",
      "祝日"
    ],
    "openDaysNote": ""
  },
  {
    "id": "2173101177",
    "name": "レッツ倶楽部にしかに",
    "kana": "レッツクラブニシカニ",
    "address": "岐阜県可児市帷子新町３丁目１８番地東進ビル１階 東進ビル１階",
    "lat": 35.4031907,
    "lng": 137.0100298,
    "tel": "０５７４－６９－１２３０",
    "url": "http://www.lets-club.jp/shop/nishikani/",
    "pref": "岐阜県",
    "city": "可児市",
    "category": "community_day_service",
    "serviceType": "地域密着型通所介護",
    "capacity": 18,
    "openDays": [
      "平日",
      "祝日"
    ],
    "openDaysNote": ""
  },
  {
    "id": "2173100989",
    "name": "久々利苑デイサービスセンター",
    "kana": "ククリエンデイサービスセンター",
    "address": "岐阜県可児市久々利1527番地",
    "lat": 35.4048611,
    "lng": 137.1054661,
    "tel": "0574-50-2930",
    "url": "http://www.harusatoen.or.jp",
    "pref": "岐阜県",
    "city": "可児市",
    "category": "community_day_service",
    "serviceType": "地域密着型通所介護",
    "capacity": 65,
    "openDays": [
      "平日"
    ],
    "openDaysNote": ""
  },
  {
    "id": "2192200091",
    "name": "オレンジ・ライフ",
    "kana": "オレンジ・ライフ",
    "address": "岐阜県海津市海津町札野545番地1",
    "lat": 35.205926,
    "lng": 136.651718,
    "tel": "0584-52-0020",
    "url": "https://orange-t.com",
    "pref": "岐阜県",
    "city": "海津市",
    "category": "community_day_service",
    "serviceType": "地域密着型通所介護",
    "capacity": 18,
    "openDays": [
      "平日",
      "土曜日",
      "祝日"
    ],
    "openDaysNote": ""
  },
  {
    "id": "2172200509",
    "name": "デイサービス　おひさま",
    "kana": "デイサービス　オヒサマ",
    "address": "岐阜県海津市海津町高須町1166-3",
    "lat": 35.224911,
    "lng": 136.6287685,
    "tel": "0584-53-1803",
    "url": "",
    "pref": "岐阜県",
    "city": "海津市",
    "category": "community_day_service",
    "serviceType": "地域密着型通所介護",
    "capacity": 14,
    "openDays": [
      "平日",
      "土曜日",
      "祝日"
    ],
    "openDaysNote": "年末年始12/30～1/3休業"
  },
  {
    "id": "2172200525",
    "name": "リハビリ型ディサービス　ひだまり",
    "kana": "リハビリガタディサービスヒダマリ",
    "address": "岐阜県海津市海津町福江590-2",
    "lat": 35.1763943302438,
    "lng": 136.659621000128,
    "tel": "0584-54-7407",
    "url": "",
    "pref": "岐阜県",
    "city": "海津市",
    "category": "community_day_service",
    "serviceType": "地域密着型通所介護",
    "capacity": 120,
    "openDays": [
      "平日",
      "土曜日",
      "祝日"
    ],
    "openDaysNote": ""
  },
  {
    "id": "2192200109",
    "name": "地域密着型リハビリ特化デイサービス　どんぐりの家海津",
    "kana": "チイキミッチャクガタリハビリトッカデイサービスドングリノイエカイヅ",
    "address": "岐阜県海津市海津町福江845番地の1",
    "lat": 35.1735613,
    "lng": 136.6642581,
    "tel": "0584-51-0447",
    "url": "",
    "pref": "岐阜県",
    "city": "海津市",
    "category": "community_day_service",
    "serviceType": "地域密着型通所介護",
    "capacity": 18,
    "openDays": [
      "平日",
      "祝日"
    ],
    "openDaysNote": "ゴールデンウィーク、お盆は営業。年末年始は12月30日～1月3日は定休日。"
  },
  {
    "id": "2190500435",
    "name": "サフィールうぬま　デイサービスセンター",
    "kana": "サフィールウヌマ　デイサービスセンター",
    "address": "岐阜県各務原市鵜沼羽場町3丁目10番地1号",
    "lat": 35.4037526265173,
    "lng": 136.916487414117,
    "tel": "058-372-8201",
    "url": "http://aliss.co.jp",
    "pref": "岐阜県",
    "city": "各務原市",
    "category": "community_day_service",
    "serviceType": "地域密着型通所介護",
    "capacity": 0,
    "openDays": [
      "平日"
    ],
    "openDaysNote": "祝日がある週は、土曜へ振替えとする。"
  },
  {
    "id": "2190500468",
    "name": "さわやか伝言ばん",
    "kana": "サワヤカデンゴンバン",
    "address": "岐阜県各務原市鵜沼東町八丁目5番地",
    "lat": 35.4033131,
    "lng": 136.9449397,
    "tel": "058-379-5017",
    "url": "https://sawayaka-dengonban.com",
    "pref": "岐阜県",
    "city": "各務原市",
    "category": "community_day_service",
    "serviceType": "地域密着型通所介護",
    "capacity": null,
    "openDays": [
      "平日",
      "土曜日",
      "祝日"
    ],
    "openDaysNote": ""
  },
  {
    "id": "2190500336",
    "name": "シニアフィットネスこもれび　デイサービス川島",
    "kana": "シニアフィットネスコモレビ　デイサービスカワシマ",
    "address": "岐阜県各務原市川島松倉町2370-32",
    "lat": 35.3659544,
    "lng": 136.8343533,
    "tel": "0586-89-6418",
    "url": "http://r.goope.jp/kawashimahigashi/free/komorebi",
    "pref": "岐阜県",
    "city": "各務原市",
    "category": "community_day_service",
    "serviceType": "地域密着型通所介護",
    "capacity": 15,
    "openDays": [
      "平日"
    ],
    "openDaysNote": ""
  },
  {
    "id": "2190500500",
    "name": "デイサ－ビス　さくらんぼ",
    "kana": "デイサービス　サクランボ",
    "address": "岐阜県各務原市尾崎北町７丁目９",
    "lat": 35.424658,
    "lng": 136.8378748,
    "tel": "058-374-7580",
    "url": "https://hourakukai-sakuranbo.com/",
    "pref": "岐阜県",
    "city": "各務原市",
    "category": "community_day_service",
    "serviceType": "地域密着型通所介護",
    "capacity": null,
    "openDays": [
      "平日",
      "土曜日",
      "祝日"
    ],
    "openDaysNote": "お盆　　　8/13～8月16日（改行）年末年始　12/30～1/3"
  },
  {
    "id": "2170501486",
    "name": "デイサービス　庵",
    "kana": "デイサービス　イオリ",
    "address": "岐阜県各務原市須衛町１丁目285番地1",
    "lat": 35.4395677,
    "lng": 136.8817126,
    "tel": "058-322-4157",
    "url": "",
    "pref": "岐阜県",
    "city": "各務原市",
    "category": "community_day_service",
    "serviceType": "地域密着型通所介護",
    "capacity": 0,
    "openDays": [
      "平日",
      "土曜日"
    ],
    "openDaysNote": ""
  },
  {
    "id": "2190500484",
    "name": "デイサービスchallenge",
    "kana": "デイサービスchallenge",
    "address": "岐阜県各務原市蘇原古市場町4丁目97番地１",
    "lat": 35.4170465862259,
    "lng": 136.867489959525,
    "tel": "058-260-6759",
    "url": "https://www.ima21.com/",
    "pref": "岐阜県",
    "city": "各務原市",
    "category": "community_day_service",
    "serviceType": "地域密着型通所介護",
    "capacity": null,
    "openDays": [
      "平日",
      "土曜日",
      "祝日"
    ],
    "openDaysNote": "延長サービス利用の方は家族送迎必須で19時まで可（介護保険適用外）"
  },
  {
    "id": "2190500344",
    "name": "デイサービスCom.Do",
    "kana": "デイサービスコムドゥ",
    "address": "岐阜県各務原市鵜沼各務原町4丁目318番地",
    "lat": 35.4002428,
    "lng": 136.9068087,
    "tel": "058-379-2022",
    "url": "http://phoenix-g.jp",
    "pref": "岐阜県",
    "city": "各務原市",
    "category": "community_day_service",
    "serviceType": "地域密着型通所介護",
    "capacity": null,
    "openDays": [
      "平日",
      "土曜日"
    ],
    "openDaysNote": ""
  },
  {
    "id": "2190500310",
    "name": "デイサービスさくらの里　各務原",
    "kana": "デイサービスサクラノサト　カカミガハラ",
    "address": "岐阜県各務原市那加信長町2-89-1",
    "lat": 35.3989135,
    "lng": 136.8554273,
    "tel": "058-371-1144",
    "url": "",
    "pref": "岐阜県",
    "city": "各務原市",
    "category": "community_day_service",
    "serviceType": "地域密着型通所介護",
    "capacity": null,
    "openDays": [
      "平日",
      "祝日"
    ],
    "openDaysNote": ""
  },
  {
    "id": "2170500405",
    "name": "でいさーびすせんたーわたぼうし",
    "kana": "デイサービスセンター　ワタボウシ",
    "address": "岐阜県各務原市鵜沼三ツ池町5丁目173番地1",
    "lat": 35.3979052,
    "lng": 136.8933831,
    "tel": "058-385-1475",
    "url": "http://npowatabousi.web.fc2.com/",
    "pref": "岐阜県",
    "city": "各務原市",
    "category": "community_day_service",
    "serviceType": "地域密着型通所介護",
    "capacity": 10,
    "openDays": [
      "平日",
      "土曜日"
    ],
    "openDaysNote": "年末年始休業（12月29日から1月5日）及び夏季休業（8月13日から8月16日）は休業します。"
  },
  {
    "id": "2170501536",
    "name": "デイサービスマリアの丘",
    "kana": "デイサービスマリアノオカ",
    "address": "岐阜県各務原市三井町四丁目２６１番",
    "lat": 35.3904916496169,
    "lng": 136.841750592729,
    "tel": "058-383-8837",
    "url": "http://www.marianooka.info",
    "pref": "岐阜県",
    "city": "各務原市",
    "category": "community_day_service",
    "serviceType": "地域密着型通所介護",
    "capacity": 10,
    "openDays": [
      "平日",
      "土曜日",
      "日曜日",
      "祝日"
    ],
    "openDaysNote": ""
  },
  {
    "id": "2190500385",
    "name": "デイサービスゆめ工房",
    "kana": "デイサービスユメコウボウ",
    "address": "岐阜県各務原市鵜沼羽場町5丁目146番地",
    "lat": 35.4041317,
    "lng": 136.9294787,
    "tel": "058-379-3055",
    "url": "https://www.kaigo-ai.com/",
    "pref": "岐阜県",
    "city": "各務原市",
    "category": "community_day_service",
    "serviceType": "地域密着型通所介護",
    "capacity": 10,
    "openDays": [
      "平日",
      "土曜日",
      "祝日"
    ],
    "openDaysNote": ""
  },
  {
    "id": "2190500526",
    "name": "のびのびデイサービス",
    "kana": "ノビノビデイサービス",
    "address": "岐阜県各務原市鵜沼朝日町5丁目238番地6かみお接骨院 かみお接骨院",
    "lat": 35.3888553,
    "lng": 136.9041829,
    "tel": "058-203-9619",
    "url": "",
    "pref": "岐阜県",
    "city": "各務原市",
    "category": "community_day_service",
    "serviceType": "地域密着型通所介護",
    "capacity": 70,
    "openDays": [
      "平日",
      "土曜日",
      "日曜日",
      "祝日"
    ],
    "openDaysNote": "接骨院・ストレッチジムは平日９時-12時及び16時-20時と土曜日9時-12時で診療/営業しております。（接骨院は水曜日は午前診療、午後は予約診療となります）"
  },
  {
    "id": "2170501155",
    "name": "ピッコロデイサービスセンター",
    "kana": "ピッコロデイサービスセンター",
    "address": "岐阜県各務原市鵜沼朝日町3丁目136番地",
    "lat": 35.3885488527108,
    "lng": 136.901088920901,
    "tel": "058-384-6215",
    "url": "http://npopiccolo.web.fc2.com/",
    "pref": "岐阜県",
    "city": "各務原市",
    "category": "community_day_service",
    "serviceType": "地域密着型通所介護",
    "capacity": null,
    "openDays": [
      "平日",
      "祝日"
    ],
    "openDaysNote": ""
  },
  {
    "id": "2170501403",
    "name": "ゆめふる仲間への街",
    "kana": "ユメフルナカマヘノマチ",
    "address": "岐阜県各務原市那加前野町3-133",
    "lat": 35.4078905,
    "lng": 136.8342524,
    "tel": "058-216-8500",
    "url": "http://www.unishis-maeno.com",
    "pref": "岐阜県",
    "city": "各務原市",
    "category": "community_day_service",
    "serviceType": "地域密着型通所介護",
    "capacity": 10,
    "openDays": [
      "平日"
    ],
    "openDaysNote": ""
  },
  {
    "id": "2190500393",
    "name": "リハビリデイサービスCom.Do那加",
    "kana": "リアビリデイサービス　コムドゥナカ",
    "address": "岐阜県各務原市那加栄町10番地",
    "lat": 35.3981997,
    "lng": 136.8397792,
    "tel": "058-322-5757",
    "url": "http://phoenix-g.jp",
    "pref": "岐阜県",
    "city": "各務原市",
    "category": "community_day_service",
    "serviceType": "地域密着型通所介護",
    "capacity": null,
    "openDays": [
      "平日"
    ],
    "openDaysNote": ""
  },
  {
    "id": "2170501478",
    "name": "民家のデイサービス　ひお里苑",
    "kana": "ミンカノデイサービス　ヒオリエン",
    "address": "岐阜県各務原市三井東町1丁目79番地",
    "lat": 35.3943559,
    "lng": 136.8428929,
    "tel": "058-322-6938",
    "url": "https://www.space-union.net",
    "pref": "岐阜県",
    "city": "各務原市",
    "category": "community_day_service",
    "serviceType": "地域密着型通所介護",
    "capacity": 10,
    "openDays": [
      "平日",
      "土曜日",
      "祝日"
    ],
    "openDaysNote": ""
  },
  {
    "id": "2190500450",
    "name": "翼～ウィング～",
    "kana": "ウィング",
    "address": "岐阜県各務原市川島河田町1019-3",
    "lat": 35.3616828,
    "lng": 136.830714,
    "tel": "0586-52-4422",
    "url": "",
    "pref": "岐阜県",
    "city": "各務原市",
    "category": "community_day_service",
    "serviceType": "地域密着型通所介護",
    "capacity": 15,
    "openDays": [
      "平日",
      "土曜日",
      "祝日"
    ],
    "openDaysNote": "夏季休暇（８月１２日～１５日）・年末年始休暇（１２月２９日～１月３日）"
  },
  {
    "id": "2170600890",
    "name": "アクティブトレーニングセンター",
    "kana": "アクティブトレーニングセンター",
    "address": "岐阜県羽島郡笠松町門間46-2アクティブトレーニングセンター アクティブトレーニングセンター",
    "lat": 35.3577479,
    "lng": 136.741975,
    "tel": "058-387-0054",
    "url": "https://active-training.center",
    "pref": "岐阜県",
    "city": "笠松町",
    "category": "community_day_service",
    "serviceType": "地域密着型通所介護",
    "capacity": 0,
    "openDays": [
      "平日",
      "祝日"
    ],
    "openDaysNote": "年末年始の休日12月29日～1月3日"
  },
  {
    "id": "2170601013",
    "name": "デイサービスさくらの里",
    "kana": "デイサービスサクラノサト",
    "address": "岐阜県羽島郡笠松町上本町65-2",
    "lat": 35.3671636,
    "lng": 136.762181,
    "tel": "058-322-2901",
    "url": "",
    "pref": "岐阜県",
    "city": "笠松町",
    "category": "community_day_service",
    "serviceType": "地域密着型通所介護",
    "capacity": null,
    "openDays": [
      "平日",
      "祝日"
    ],
    "openDaysNote": ""
  },
  {
    "id": "2190200226",
    "name": "こがねだ診療所",
    "kana": "コガネダシンリョウジョ",
    "address": "岐阜県関市上白金511番地こがねだ診療所 こがねだ診療所",
    "lat": 35.4825541,
    "lng": 136.8625496,
    "tel": "0575-28-6366",
    "url": "http://gifu-min.jp/koganeda/",
    "pref": "岐阜県",
    "city": "関市",
    "category": "community_day_service",
    "serviceType": "地域密着型通所介護",
    "capacity": 18,
    "openDays": [
      "平日",
      "土曜日",
      "祝日"
    ],
    "openDaysNote": ""
  },
  {
    "id": "2190200275",
    "name": "デイサービスセンター東山",
    "kana": "デイサービスセンター　ヒガシヤマ",
    "address": "岐阜県関市東山4丁目48番地",
    "lat": 35.4915711855562,
    "lng": 136.946749113631,
    "tel": "0575-23-0120",
    "url": "http://www.higashiyama-h.com",
    "pref": "岐阜県",
    "city": "関市",
    "category": "community_day_service",
    "serviceType": "地域密着型通所介護",
    "capacity": 0,
    "openDays": [
      "平日",
      "土曜日",
      "祝日"
    ],
    "openDaysNote": ""
  },
  {
    "id": "2170200717",
    "name": "リハビリステーション美里",
    "kana": "リハビリステーションミサト",
    "address": "岐阜県関市向山町３丁目６－６",
    "lat": 35.4529283,
    "lng": 136.9026857,
    "tel": "0575-21-5638",
    "url": "",
    "pref": "岐阜県",
    "city": "関市",
    "category": "community_day_service",
    "serviceType": "地域密着型通所介護",
    "capacity": 0,
    "openDays": [
      "平日",
      "土曜日",
      "祝日"
    ],
    "openDaysNote": ""
  },
  {
    "id": "2190200259",
    "name": "関市板取デイ・ｻｰﾋﾞｽセンター",
    "kana": "セキシイタドリデイ・サービスセンター",
    "address": "岐阜関市板取６５０３番地",
    "lat": 35.6886011,
    "lng": 136.8115981,
    "tel": "0581-57-6788",
    "url": "http://miwakai.or.jp/",
    "pref": "岐阜県",
    "city": "関市",
    "category": "community_day_service",
    "serviceType": "地域密着型通所介護",
    "capacity": 0,
    "openDays": [
      "平日",
      "土曜日",
      "祝日"
    ],
    "openDaysNote": ""
  },
  {
    "id": "2170201137",
    "name": "優花デイサービス",
    "kana": "ユウカデイサービス",
    "address": "岐阜県関市下有知1656番地",
    "lat": 35.5206559103742,
    "lng": 136.906361953659,
    "tel": "0575-46-8947",
    "url": "",
    "pref": "岐阜県",
    "city": "関市",
    "category": "community_day_service",
    "serviceType": "地域密着型通所介護",
    "capacity": 35,
    "openDays": [
      "平日",
      "土曜日",
      "祝日"
    ],
    "openDaysNote": ""
  },
  {
    "id": "2190103925",
    "name": "あいあい・デイサービスセンター",
    "kana": "アイアイ・デイサービスセンター",
    "address": "岐阜県岐阜市八ツ梅町一丁目１５番地",
    "lat": 35.4229456,
    "lng": 136.7559319,
    "tel": "058-212-2722",
    "url": "https://www.tomoikikai.net/shisetsu/aiai_day.php",
    "pref": "岐阜県",
    "city": "岐阜市",
    "category": "community_day_service",
    "serviceType": "地域密着型通所介護",
    "capacity": 0,
    "openDays": [
      "平日",
      "土曜日",
      "祝日"
    ],
    "openDaysNote": ""
  },
  {
    "id": "2190104493",
    "name": "あいごデイサービスセンター",
    "kana": "アイゴデイサービスセンター",
    "address": "岐阜県岐阜市古市場１８９－９",
    "lat": 35.4638327,
    "lng": 136.7196916,
    "tel": "058-214-8362",
    "url": "",
    "pref": "岐阜県",
    "city": "岐阜市",
    "category": "community_day_service",
    "serviceType": "地域密着型通所介護",
    "capacity": null,
    "openDays": [
      "平日",
      "土曜日",
      "祝日"
    ],
    "openDaysNote": "年末から正月三が日（４日間）お休み"
  },
  {
    "id": "2190100681",
    "name": "あいわデイサービスあかなべ",
    "kana": "アイワデイサービスアカナベ",
    "address": "岐阜県岐阜市茜部中島3丁目31番地8",
    "lat": 35.3895,
    "lng": 136.7504407,
    "tel": "058-273-5561",
    "url": "https://www.aiwakaigo.co.jp/",
    "pref": "岐阜県",
    "city": "岐阜市",
    "category": "community_day_service",
    "serviceType": "地域密着型通所介護",
    "capacity": null,
    "openDays": [
      "平日",
      "土曜日",
      "祝日"
    ],
    "openDaysNote": ""
  },
  {
    "id": "2170104802",
    "name": "あかねデイサービス",
    "kana": "アカネデイサービス",
    "address": "岐阜県岐阜市茜部野瀬３丁目１３６",
    "lat": 35.3742459,
    "lng": 136.7451411,
    "tel": "058-272-1073",
    "url": "https://www.gifu-akanekai.com",
    "pref": "岐阜県",
    "city": "岐阜市",
    "category": "community_day_service",
    "serviceType": "地域密着型通所介護",
    "capacity": 10,
    "openDays": [
      "平日",
      "土曜日",
      "祝日"
    ],
    "openDaysNote": ""
  },
  {
    "id": "2190104238",
    "name": "アスタスデイサービスセンター",
    "kana": "アスタスデイサービスセンター",
    "address": "岐阜県岐阜市芋島2丁目2番40号",
    "lat": 35.394707,
    "lng": 136.808077,
    "tel": "058-213-2835",
    "url": "https://asutasuday.com",
    "pref": "岐阜県",
    "city": "岐阜市",
    "category": "community_day_service",
    "serviceType": "地域密着型通所介護",
    "capacity": 18,
    "openDays": [
      "平日",
      "土曜日",
      "祝日"
    ],
    "openDaysNote": ""
  },
  {
    "id": "2190104386",
    "name": "アネックス　あかね",
    "kana": "アネックス　アカネ",
    "address": "岐阜県岐阜市茜部野瀬3-136",
    "lat": 35.3740336,
    "lng": 136.7451102,
    "tel": "058-272-1073",
    "url": "",
    "pref": "岐阜県",
    "city": "岐阜市",
    "category": "community_day_service",
    "serviceType": "地域密着型通所介護",
    "capacity": 0,
    "openDays": [
      "平日",
      "土曜日",
      "日曜日",
      "祝日"
    ],
    "openDaysNote": ""
  },
  {
    "id": "2170112615",
    "name": "アンシニア敷島デイサービスセンター",
    "kana": "アンシニアシキシマデイサービスセンター",
    "address": "岐阜県岐阜市敷島町３－６",
    "lat": 35.4114191,
    "lng": 136.7433619,
    "tel": "058-214-2772",
    "url": "http://www.ansenior.com",
    "pref": "岐阜県",
    "city": "岐阜市",
    "category": "community_day_service",
    "serviceType": "地域密着型通所介護",
    "capacity": 0,
    "openDays": [
      "平日"
    ],
    "openDaysNote": ""
  },
  {
    "id": "2190104196",
    "name": "いきいきサロン　ひまわり",
    "kana": "イキイキサロン　ヒマワリ",
    "address": "岐阜県岐阜市高河原字道両毛１０１番地１",
    "lat": 35.3817045311131,
    "lng": 136.714974119982,
    "tel": "058-215-9256",
    "url": "https://woman-support-shl.com/",
    "pref": "岐阜県",
    "city": "岐阜市",
    "category": "community_day_service",
    "serviceType": "地域密着型通所介護",
    "capacity": 0,
    "openDays": [
      "平日"
    ],
    "openDaysNote": "午前の部と午後の部に分かれており、午前の部が9:00～12:00、午後の部が13:00～16:00までとなります。"
  },
  {
    "id": "2190104295",
    "name": "エンゼル・ランプデイサービスセンター",
    "kana": "エンゼル・ランプデイサービスセンター",
    "address": "岐阜県岐阜市柳津町高桑1丁目173番地1",
    "lat": 35.3543258,
    "lng": 136.7127731,
    "tel": "058-270-0808",
    "url": "http://angel-lamp.co.jp/",
    "pref": "岐阜県",
    "city": "岐阜市",
    "category": "community_day_service",
    "serviceType": "地域密着型通所介護",
    "capacity": 0,
    "openDays": [
      "平日",
      "土曜日",
      "日曜日",
      "祝日"
    ],
    "openDaysNote": ""
  },
  {
    "id": "2190104360",
    "name": "エンゼル・ランプ南塚デイサービスセンター",
    "kana": "エンゼル・ランプミナミヅカデイサービスセンター",
    "address": "岐阜県岐阜市柳津町南塚2丁目172番地",
    "lat": 35.364231697474,
    "lng": 136.732594274066,
    "tel": "058-388-7755",
    "url": "http://angel-lamp.co.jp/",
    "pref": "岐阜県",
    "city": "岐阜市",
    "category": "community_day_service",
    "serviceType": "地域密着型通所介護",
    "capacity": 0,
    "openDays": [
      "平日",
      "土曜日",
      "日曜日",
      "祝日"
    ],
    "openDaysNote": ""
  },
  {
    "id": "2190104634",
    "name": "エンゼル・ランプ梅松デイサービスセンター",
    "kana": "エンゼル・ランプウメマツデイサービスセンター",
    "address": "岐阜県岐阜市柳津町梅松4丁目86-1",
    "lat": 35.3619147,
    "lng": 136.7393795,
    "tel": "058-388-7575",
    "url": "http://angel-lamp.co.jp",
    "pref": "岐阜県",
    "city": "岐阜市",
    "category": "community_day_service",
    "serviceType": "地域密着型通所介護",
    "capacity": 0,
    "openDays": [
      "平日",
      "土曜日",
      "日曜日",
      "祝日"
    ],
    "openDaysNote": ""
  },
  {
    "id": "2190104410",
    "name": "ぎふ介護デイサービス",
    "kana": "ギフカイゴデイサービス",
    "address": "岐阜県岐阜市太平町１－２",
    "lat": 35.4493249976911,
    "lng": 136.772593021357,
    "tel": "058-233-7702",
    "url": "",
    "pref": "岐阜県",
    "city": "岐阜市",
    "category": "community_day_service",
    "serviceType": "地域密着型通所介護",
    "capacity": 9,
    "openDays": [
      "平日"
    ],
    "openDaysNote": "営業日は当社年間予定により変動あり。"
  },
  {
    "id": "2170111005",
    "name": "くりこデイサービスセンター",
    "kana": "クリコデイサービスセンター",
    "address": "岐阜県岐阜市芥見影山２丁目３５番地",
    "lat": 35.43632,
    "lng": 136.8499573,
    "tel": "058-214-4328",
    "url": "https://kurikoday21.wixsite.com/kuriko-daycare",
    "pref": "岐阜県",
    "city": "岐阜市",
    "category": "community_day_service",
    "serviceType": "地域密着型通所介護",
    "capacity": 10,
    "openDays": [
      "平日",
      "土曜日",
      "祝日"
    ],
    "openDaysNote": "必要に応じて、祝日営業いたします。"
  },
  {
    "id": "2170111740",
    "name": "クローバーデイサービス柳津",
    "kana": "クローバーデイサービスヤナイヅ",
    "address": "岐阜県岐阜市柳津町梅松4丁目109ＳＥＯま・も・る ＳＥＯま・も・る",
    "lat": 35.360834170131,
    "lng": 136.740579570073,
    "tel": "058-388-7790",
    "url": "http://hp.kaipoke.biz/89h/",
    "pref": "岐阜県",
    "city": "岐阜市",
    "category": "community_day_service",
    "serviceType": "地域密着型通所介護",
    "capacity": 24,
    "openDays": [
      "平日",
      "祝日"
    ],
    "openDaysNote": ""
  },
  {
    "id": "2170111229",
    "name": "ソリューションフィットネス＆リハビリテーション　G-star徹明",
    "kana": "ソリューションフィットネス　アンド　リハビリテーション　ジースターテツメイ",
    "address": "岐阜県岐阜市真砂町11-2",
    "lat": 35.4156326,
    "lng": 136.7529214,
    "tel": "058-214-4880",
    "url": "https://www.wakokai.or.jp/search/nursing/g-star-tetsumei/",
    "pref": "岐阜県",
    "city": "岐阜市",
    "category": "community_day_service",
    "serviceType": "地域密着型通所介護",
    "capacity": 0,
    "openDays": [
      "平日",
      "祝日"
    ],
    "openDaysNote": ""
  },
  {
    "id": "2190104568",
    "name": "だんらんの家　岐阜北",
    "kana": "ダンランノイエ　ギフキタ",
    "address": "岐阜県岐阜市鷺山新町4-15",
    "lat": 35.4526675,
    "lng": 136.7505507,
    "tel": "058-213-9770",
    "url": "",
    "pref": "岐阜県",
    "city": "岐阜市",
    "category": "community_day_service",
    "serviceType": "地域密着型通所介護",
    "capacity": null,
    "openDays": [
      "平日",
      "土曜日",
      "日曜日",
      "祝日"
    ],
    "openDaysNote": ""
  },
  {
    "id": "2190104675",
    "name": "つくるんひだまり創",
    "kana": "ツクルンヒダマリソウ",
    "address": "岐阜県岐阜市島新町４番６号",
    "lat": 35.4284759,
    "lng": 136.740664,
    "tel": "058-216-0106",
    "url": "https://hidamarisou.com/",
    "pref": "岐阜県",
    "city": "岐阜市",
    "category": "community_day_service",
    "serviceType": "地域密着型通所介護",
    "capacity": 0,
    "openDays": [
      "平日"
    ],
    "openDaysNote": "水曜日は午前9時30分～午後12時30分"
  },
  {
    "id": "2190103966",
    "name": "デイサービス　おかげ庵長良",
    "kana": "デイサービス　オカゲアンナガラ",
    "address": "岐阜県岐阜市南蝉1丁目8番地",
    "lat": 35.4456375494191,
    "lng": 136.762264473016,
    "tel": "058-296-3188",
    "url": "",
    "pref": "岐阜県",
    "city": "岐阜市",
    "category": "community_day_service",
    "serviceType": "地域密着型通所介護",
    "capacity": 16,
    "openDays": [
      "平日",
      "土曜日",
      "祝日"
    ],
    "openDaysNote": ""
  },
  {
    "id": "2170103945",
    "name": "デイサービス　きねん",
    "kana": "デイサービス　キネン",
    "address": "岐阜県岐阜市祈年町１丁目２４番地の３",
    "lat": 35.4054533,
    "lng": 136.7693645,
    "tel": "058-275-7195",
    "url": "https://gifu-min.jp/kayou/page_422.html",
    "pref": "岐阜県",
    "city": "岐阜市",
    "category": "community_day_service",
    "serviceType": "地域密着型通所介護",
    "capacity": 0,
    "openDays": [
      "平日",
      "土曜日",
      "祝日"
    ],
    "openDaysNote": ""
  },
  {
    "id": "2170112227",
    "name": "デイサービス　ここあ",
    "kana": "デイサービス　ココア",
    "address": "岐阜県岐阜市島栄町1-33シャトーシャルマン1F シャトーシャルマン1F",
    "lat": 35.4325359,
    "lng": 136.7458303,
    "tel": "058-216-1175",
    "url": "",
    "pref": "岐阜県",
    "city": "岐阜市",
    "category": "community_day_service",
    "serviceType": "地域密着型通所介護",
    "capacity": 18,
    "openDays": [
      "平日",
      "祝日"
    ],
    "openDaysNote": "年末年始・GW・お盆に臨時休業日があります"
  },
  {
    "id": "2190104147",
    "name": "デイサービス　ジムズ鹿島",
    "kana": "デイサービス　ジムズカシマ",
    "address": "岐阜県岐阜市鹿島町1-1",
    "lat": 35.4161703,
    "lng": 136.7448836,
    "tel": "058-255-0360",
    "url": "",
    "pref": "岐阜県",
    "city": "岐阜市",
    "category": "community_day_service",
    "serviceType": "地域密着型通所介護",
    "capacity": 0,
    "openDays": [
      "平日",
      "土曜日"
    ],
    "openDaysNote": ""
  },
  {
    "id": "2170110270",
    "name": "デイサービス　たのしみ",
    "kana": "デイサービス　タノシミ",
    "address": "岐阜県岐阜市御望950-3",
    "lat": 35.4748568,
    "lng": 136.7097671,
    "tel": "058-293-5177",
    "url": "http://www1.odn.ne.jp/dei-tanoshimi/",
    "pref": "岐阜県",
    "city": "岐阜市",
    "category": "community_day_service",
    "serviceType": "地域密着型通所介護",
    "capacity": 14,
    "openDays": [
      "平日"
    ],
    "openDaysNote": "但し、応相談によりこの限りでは無い。"
  },
  {
    "id": "2190103875",
    "name": "デイサービス　はる",
    "kana": "デイサービス　ハル",
    "address": "岐阜県岐阜市栄新町2-1",
    "lat": 35.4373864,
    "lng": 136.7596193,
    "tel": "058-233-2903",
    "url": "http://www.kaigo-haru.com",
    "pref": "岐阜県",
    "city": "岐阜市",
    "category": "community_day_service",
    "serviceType": "地域密着型通所介護",
    "capacity": null,
    "openDays": [
      "平日",
      "土曜日",
      "祝日"
    ],
    "openDaysNote": ""
  },
  {
    "id": "2170111831",
    "name": "デイサービス　フェリーチェ",
    "kana": "デイサービス　フェリーチェ",
    "address": "岐阜県岐阜市芥見南山２－５－２０エステート南山TSⅡ１０２．１０３号 エステート南山TSⅡ１０２．１０３号",
    "lat": 35.4561377,
    "lng": 136.8575897,
    "tel": "058-215-5136",
    "url": "",
    "pref": "岐阜県",
    "city": "岐阜市",
    "category": "community_day_service",
    "serviceType": "地域密着型通所介護",
    "capacity": 18,
    "openDays": [
      "平日",
      "祝日"
    ],
    "openDaysNote": "祝日は、営業しております。"
  },
  {
    "id": "2170110387",
    "name": "デイサービス　まごころ",
    "kana": "デイサービス　マゴコロ",
    "address": "岐阜県岐阜市室津町２丁目１３番地",
    "lat": 35.41303716813,
    "lng": 136.750625682279,
    "tel": "０５８－２１４－８３７１",
    "url": "",
    "pref": "岐阜県",
    "city": "岐阜市",
    "category": "community_day_service",
    "serviceType": "地域密着型通所介護",
    "capacity": 0,
    "openDays": [
      "平日",
      "土曜日",
      "祝日"
    ],
    "openDaysNote": ""
  },
  {
    "id": "2170112060",
    "name": "デイサービス　リゾートアロハ　北一色",
    "kana": "デイサービス　リゾートアロハ　キタイッシキ",
    "address": "岐阜県岐阜市北一色5丁目14番21号",
    "lat": 35.4101676033039,
    "lng": 136.791712234393,
    "tel": "058-374-8165",
    "url": "cocochi-gifu.com",
    "pref": "岐阜県",
    "city": "岐阜市",
    "category": "community_day_service",
    "serviceType": "地域密着型通所介護",
    "capacity": 0,
    "openDays": [
      "平日",
      "土曜日"
    ],
    "openDaysNote": ""
  },
  {
    "id": "2170111898",
    "name": "デイサービス・花水木",
    "kana": "デイサービス・ハナミズキ",
    "address": "岐阜県岐阜市西改田川向１８－１",
    "lat": 35.448046526794,
    "lng": 136.707197179237,
    "tel": "058-234-5530",
    "url": "https://www.hanamizuki2014.com",
    "pref": "岐阜県",
    "city": "岐阜市",
    "category": "community_day_service",
    "serviceType": "地域密着型通所介護",
    "capacity": 15,
    "openDays": [
      "平日",
      "土曜日",
      "日曜日",
      "祝日"
    ],
    "openDaysNote": ""
  },
  {
    "id": "2190104329",
    "name": "デイサービスおいで",
    "kana": "デイサービスオイデ",
    "address": "岐阜県岐阜市手力町11番地1",
    "lat": 35.3933625,
    "lng": 136.8015076,
    "tel": "058-201-2946",
    "url": "",
    "pref": "岐阜県",
    "city": "岐阜市",
    "category": "community_day_service",
    "serviceType": "地域密着型通所介護",
    "capacity": 0,
    "openDays": [
      "平日",
      "土曜日",
      "日曜日",
      "祝日"
    ],
    "openDaysNote": ""
  },
  {
    "id": "2190104105",
    "name": "デイサービスかえつ",
    "kana": "デイサービスカエツ",
    "address": "岐阜県岐阜市茜部中島1-28",
    "lat": 35.3935006,
    "lng": 136.7510607,
    "tel": "058-213-1165",
    "url": "http://kaetsukan.cpv.jp/",
    "pref": "岐阜県",
    "city": "岐阜市",
    "category": "community_day_service",
    "serviceType": "地域密着型通所介護",
    "capacity": null,
    "openDays": [
      "平日",
      "土曜日",
      "祝日"
    ],
    "openDaysNote": ""
  },
  {
    "id": "2190104543",
    "name": "デイサービスここあ　前一色店",
    "kana": "デイサービスココア　マエイシキテン",
    "address": "岐阜県岐阜市前一色１丁目９－４",
    "lat": 35.4069964,
    "lng": 136.7978748,
    "tel": "058-213-8530",
    "url": "",
    "pref": "岐阜県",
    "city": "岐阜市",
    "category": "community_day_service",
    "serviceType": "地域密着型通所介護",
    "capacity": 0,
    "openDays": [
      "平日",
      "祝日"
    ],
    "openDaysNote": "年末年始、GW、お盆に臨時休業日があります。"
  },
  {
    "id": "2190103818",
    "name": "デイサービスここあ　長良店",
    "kana": "デイサービスココア　ナガラテン",
    "address": "岐阜県岐阜市長良井田79番",
    "lat": 35.4485172,
    "lng": 136.7848674,
    "tel": "058-297-7701",
    "url": "",
    "pref": "岐阜県",
    "city": "岐阜市",
    "category": "community_day_service",
    "serviceType": "地域密着型通所介護",
    "capacity": 0,
    "openDays": [
      "平日",
      "祝日"
    ],
    "openDaysNote": "年末年始、GW、お盆などに臨時休業日があります。"
  },
  {
    "id": "2190103867",
    "name": "デイサービスセンター　かのん",
    "kana": "デイサービスセンター　カノン",
    "address": "岐阜県岐阜市八代３丁目１９番４号",
    "lat": 35.4616374,
    "lng": 136.7748374,
    "tel": "058-233-3072",
    "url": "",
    "pref": "岐阜県",
    "city": "岐阜市",
    "category": "community_day_service",
    "serviceType": "地域密着型通所介護",
    "capacity": 10,
    "openDays": [
      "平日",
      "土曜日"
    ],
    "openDaysNote": ""
  },
  {
    "id": "2190103834",
    "name": "デイサービスセンター　マグノリア",
    "kana": "デイサービスセンター　マグノリア",
    "address": "岐阜県岐阜市加納御車町３９有料老人ホーム　マグノリア 有料老人ホーム　マグノリア",
    "lat": 35.3964155,
    "lng": 136.7584326,
    "tel": "058-214-6617",
    "url": "http://m-infinity.jp/",
    "pref": "岐阜県",
    "city": "岐阜市",
    "category": "community_day_service",
    "serviceType": "地域密着型通所介護",
    "capacity": 0,
    "openDays": [
      "平日",
      "土曜日",
      "祝日"
    ],
    "openDaysNote": ""
  },
  {
    "id": "2170103895",
    "name": "デイサービスセンター　みたほら苑",
    "kana": "デイソービスセンター　ミタホラエン",
    "address": "岐阜県岐阜市三田洞東4丁目9番1号",
    "lat": 35.4731152,
    "lng": 136.7967255,
    "tel": "058-237-1200",
    "url": "https://gifu-shinwakai.org/",
    "pref": "岐阜県",
    "city": "岐阜市",
    "category": "community_day_service",
    "serviceType": "地域密着型通所介護",
    "capacity": null,
    "openDays": [
      "平日",
      "土曜日",
      "祝日"
    ],
    "openDaysNote": ""
  },
  {
    "id": "2170104968",
    "name": "デイサービスセンター　笑顔",
    "kana": "デイサービスセンター　エガオ",
    "address": "岐阜県岐阜市白菊町二丁目24番地",
    "lat": 35.4325221489571,
    "lng": 136.738374686508,
    "tel": "058-296-5866",
    "url": "http://www.day-service-egao.co.jp/",
    "pref": "岐阜県",
    "city": "岐阜市",
    "category": "community_day_service",
    "serviceType": "地域密着型通所介護",
    "capacity": 18,
    "openDays": [
      "平日",
      "祝日"
    ],
    "openDaysNote": ""
  },
  {
    "id": "2170100933",
    "name": "デイサービスセンター　新生コスモス",
    "kana": "デイサービスセンターシンセイコスモス",
    "address": "岐阜県岐阜市野一色四丁目１５番１２号",
    "lat": 35.4107086,
    "lng": 136.803597,
    "tel": "058-248-6050",
    "url": "kosumosunoisiki@outlook.com",
    "pref": "岐阜県",
    "city": "岐阜市",
    "category": "community_day_service",
    "serviceType": "地域密着型通所介護",
    "capacity": 0,
    "openDays": [
      "平日",
      "土曜日",
      "祝日"
    ],
    "openDaysNote": ""
  },
  {
    "id": "2170110346",
    "name": "デイサービスセンターいわい",
    "kana": "デイサービスセンターイワイ",
    "address": "岐阜県岐阜市岩井4丁目10番1号",
    "lat": 35.4707066,
    "lng": 136.82329,
    "tel": "058-242-3001",
    "url": "http://miwakai.or.jp/",
    "pref": "岐阜県",
    "city": "岐阜市",
    "category": "community_day_service",
    "serviceType": "地域密着型通所介護",
    "capacity": 0,
    "openDays": [
      "平日",
      "祝日"
    ],
    "openDaysNote": "祝日は営業（年末年始を除く）。"
  },
  {
    "id": "2170105361",
    "name": "デイサービスセンターなごみ庵",
    "kana": "デイサービスセンターナゴミアン",
    "address": "岐阜県岐阜市茜部大野1丁目４５－２",
    "lat": 35.3955906,
    "lng": 136.7546248,
    "tel": "058-278-3520",
    "url": "https://nagomi-gifu-sakura.ne.jp",
    "pref": "岐阜県",
    "city": "岐阜市",
    "category": "community_day_service",
    "serviceType": "地域密着型通所介護",
    "capacity": 12,
    "openDays": [
      "平日",
      "土曜日",
      "祝日"
    ],
    "openDaysNote": "サービス内容によって営業時間延長"
  },
  {
    "id": "2190103917",
    "name": "デイサービスセンターハッピー",
    "kana": "デイサービスセンターハッピー",
    "address": "岐阜県岐阜市春近古市場南１９１－２",
    "lat": 35.4898105779421,
    "lng": 136.837192272718,
    "tel": "０５８－３７４－３６３６",
    "url": "",
    "pref": "岐阜県",
    "city": "岐阜市",
    "category": "community_day_service",
    "serviceType": "地域密着型通所介護",
    "capacity": null,
    "openDays": [
      "平日",
      "土曜日",
      "祝日"
    ],
    "openDaysNote": "12/31～1/3　はお休み"
  },
  {
    "id": "2190104394",
    "name": "デイサービスセンターラフティブありっ竹",
    "kana": "デイサービスセンターラフティブアリッタケ",
    "address": "岐阜県岐阜市日野南４丁目１５－９",
    "lat": 35.4299244,
    "lng": 136.8088455,
    "tel": "０５８－２１５－８００９",
    "url": "",
    "pref": "岐阜県",
    "city": "岐阜市",
    "category": "community_day_service",
    "serviceType": "地域密着型通所介護",
    "capacity": null,
    "openDays": [
      "平日",
      "祝日"
    ],
    "openDaysNote": "土曜日には地域の方向けの体操教室を実施しています。"
  },
  {
    "id": "2190104659",
    "name": "デイサービスはぐるま",
    "kana": "デイサービスハグルマ",
    "address": "岐阜県岐阜市又丸20-6",
    "lat": 35.4408947,
    "lng": 136.7036218,
    "tel": "058-239-0230",
    "url": "https://haguruma.life/",
    "pref": "岐阜県",
    "city": "岐阜市",
    "category": "community_day_service",
    "serviceType": "地域密着型通所介護",
    "capacity": null,
    "openDays": [
      "平日"
    ],
    "openDaysNote": ""
  },
  {
    "id": "2190103750",
    "name": "デイサービスふれあいの里薮田",
    "kana": "デイサービスフレアイノサトヤブタ",
    "address": "岐阜県岐阜市薮田南3丁目5番25ふれあいの里　薮田１Ｆ ふれあいの里　薮田１Ｆ",
    "lat": 35.3903365,
    "lng": 136.7241252,
    "tel": "058-215-8000",
    "url": "http://www.fureai-y.com",
    "pref": "岐阜県",
    "city": "岐阜市",
    "category": "community_day_service",
    "serviceType": "地域密着型通所介護",
    "capacity": null,
    "openDays": [
      "平日",
      "土曜日",
      "日曜日",
      "祝日"
    ],
    "openDaysNote": "サービス提供時間9：30～16：15"
  },
  {
    "id": "2170105007",
    "name": "デイサービスほたる",
    "kana": "デイサービスホタル",
    "address": "岐阜県岐阜市萱場東町４丁目２６番地",
    "lat": 35.4374654,
    "lng": 136.7346568,
    "tel": "058-213-7405",
    "url": "",
    "pref": "岐阜県",
    "city": "岐阜市",
    "category": "community_day_service",
    "serviceType": "地域密着型通所介護",
    "capacity": 0,
    "openDays": [
      "平日",
      "土曜日",
      "祝日"
    ],
    "openDaysNote": ""
  },
  {
    "id": "2190104519",
    "name": "デイサービスまごころ参番館",
    "kana": "デイサービスマゴコロサンバンカン",
    "address": "岐阜県岐阜市長住町8丁目12番地スミカビルⅡ1階 スミカビルⅡ1階",
    "lat": 35.4127452,
    "lng": 136.749822,
    "tel": "058-214-3636",
    "url": "",
    "pref": "岐阜県",
    "city": "岐阜市",
    "category": "community_day_service",
    "serviceType": "地域密着型通所介護",
    "capacity": null,
    "openDays": [
      "平日",
      "土曜日",
      "祝日"
    ],
    "openDaysNote": ""
  },
  {
    "id": "2190104170",
    "name": "デイサービスまごころ弐番館",
    "kana": "デイサービスマゴコロニバンカン",
    "address": "岐阜県岐阜市長住町8丁目5－2",
    "lat": 35.4128917133498,
    "lng": 136.750666558597,
    "tel": "058－214－7950",
    "url": "",
    "pref": "岐阜県",
    "city": "岐阜市",
    "category": "community_day_service",
    "serviceType": "地域密着型通所介護",
    "capacity": null,
    "openDays": [
      "平日",
      "土曜日",
      "祝日"
    ],
    "openDaysNote": ""
  },
  {
    "id": "2190104683",
    "name": "デイサービスりのあ",
    "kana": "デイサービスリノア",
    "address": "岐阜県岐阜市日野東1丁目12番30号",
    "lat": 35.4367763,
    "lng": 136.8034313,
    "tel": "058-216-2699",
    "url": "",
    "pref": "岐阜県",
    "city": "岐阜市",
    "category": "community_day_service",
    "serviceType": "地域密着型通所介護",
    "capacity": 18,
    "openDays": [
      "平日",
      "土曜日",
      "祝日"
    ],
    "openDaysNote": "上記は基本であり，随時受付可能です。（営業時間前後のサービス提供もご相談の上対応させていただきます。)"
  },
  {
    "id": "2190103933",
    "name": "デイサービス縁楽切通",
    "kana": "デイサービス　エンラク　キリドオシ",
    "address": "岐阜県岐阜市切通4丁目16－16",
    "lat": 35.3979823,
    "lng": 136.7942401,
    "tel": "058-214-2828",
    "url": "http://www.ds-enraku.com",
    "pref": "岐阜県",
    "city": "岐阜市",
    "category": "community_day_service",
    "serviceType": "地域密着型通所介護",
    "capacity": 10,
    "openDays": [
      "平日",
      "土曜日",
      "日曜日",
      "祝日"
    ],
    "openDaysNote": "毎年12月31日～1月2日は休業"
  },
  {
    "id": "2170112623",
    "name": "デイサービス楽楽",
    "kana": "デイサービスラクラク",
    "address": "岐阜県岐阜市学園町3丁目14",
    "lat": 35.4394110770236,
    "lng": 136.759608225131,
    "tel": "058-214-7804",
    "url": "http://www.wharmcorporation.com/",
    "pref": "岐阜県",
    "city": "岐阜市",
    "category": "community_day_service",
    "serviceType": "地域密着型通所介護",
    "capacity": 0,
    "openDays": [
      "平日",
      "土曜日",
      "祝日"
    ],
    "openDaysNote": ""
  },
  {
    "id": "2190104436",
    "name": "デイサービス胡蝶",
    "kana": "デイサービスコチョウ",
    "address": "岐阜県岐阜市西野町６丁目北町10",
    "lat": 35.4250537737638,
    "lng": 136.749602052122,
    "tel": "058－201－0474",
    "url": "",
    "pref": "岐阜県",
    "city": "岐阜市",
    "category": "community_day_service",
    "serviceType": "地域密着型通所介護",
    "capacity": null,
    "openDays": [
      "平日",
      "土曜日",
      "祝日"
    ],
    "openDaysNote": ""
  },
  {
    "id": "2190104469",
    "name": "デイサロンせら",
    "kana": "デイサロンセラ",
    "address": "岐阜県岐阜市早田東町二丁目１６番地",
    "lat": 35.4373388516397,
    "lng": 136.764264971164,
    "tel": "058-216-5900",
    "url": "",
    "pref": "岐阜県",
    "city": "岐阜市",
    "category": "community_day_service",
    "serviceType": "地域密着型通所介護",
    "capacity": 0,
    "openDays": [
      "平日",
      "祝日"
    ],
    "openDaysNote": ""
  },
  {
    "id": "2170111856",
    "name": "テラスあるてあ",
    "kana": "テラスアルテア",
    "address": "岐阜県岐阜市六条南３丁目２番８号",
    "lat": 35.3953573,
    "lng": 136.7409906,
    "tel": "582155591",
    "url": "http://gifualthea.com",
    "pref": "岐阜県",
    "city": "岐阜市",
    "category": "community_day_service",
    "serviceType": "地域密着型通所介護",
    "capacity": 0,
    "openDays": [
      "平日",
      "土曜日",
      "祝日"
    ],
    "openDaysNote": "12月30日～1月3日は休業"
  },
  {
    "id": "2190103941",
    "name": "トレスタYou&I",
    "kana": "トレスタユーアンドアイ",
    "address": "岐阜県岐阜市北一色2-6-21",
    "lat": 35.4149819347584,
    "lng": 136.787307366795,
    "tel": "058-227-6591",
    "url": "https://yuai-day.jp",
    "pref": "岐阜県",
    "city": "岐阜市",
    "category": "community_day_service",
    "serviceType": "地域密着型通所介護",
    "capacity": null,
    "openDays": [
      "平日",
      "土曜日",
      "祝日"
    ],
    "openDaysNote": "夏季及び年末年始に休業日あり"
  },
  {
    "id": "2190103776",
    "name": "のんびり萱場",
    "kana": "ノンビリカヤバ",
    "address": "岐阜県岐阜市萱場南１丁目１１番１７号",
    "lat": 35.4327883,
    "lng": 136.7345181,
    "tel": "058-214-7905",
    "url": "http://nonbiri.onamae.jp/index.html",
    "pref": "岐阜県",
    "city": "岐阜市",
    "category": "community_day_service",
    "serviceType": "地域密着型通所介護",
    "capacity": 0,
    "openDays": [
      "平日",
      "土曜日",
      "祝日"
    ],
    "openDaysNote": ""
  },
  {
    "id": "2170110783",
    "name": "ゆうあいデイサービス",
    "kana": "ユウアイデイサービス",
    "address": "岐阜県岐阜市北一色2丁目6番地23号",
    "lat": 35.4150243,
    "lng": 136.7871432,
    "tel": "058-227-6591",
    "url": "http://yuai-day.jp",
    "pref": "岐阜県",
    "city": "岐阜市",
    "category": "community_day_service",
    "serviceType": "地域密着型通所介護",
    "capacity": 0,
    "openDays": [
      "平日",
      "土曜日",
      "祝日"
    ],
    "openDaysNote": "年末年始、お盆、その他のお休みあり。"
  },
  {
    "id": "2170103333",
    "name": "リハネスさぎやま",
    "kana": "リハネスサギヤマ",
    "address": "岐阜県岐阜市鷺山2562番地の11",
    "lat": 35.4424736,
    "lng": 136.7587283,
    "tel": "058-231-2282",
    "url": "",
    "pref": "岐阜県",
    "city": "岐阜市",
    "category": "community_day_service",
    "serviceType": "地域密着型通所介護",
    "capacity": 10,
    "openDays": [
      "平日",
      "土曜日",
      "祝日"
    ],
    "openDaysNote": ""
  },
  {
    "id": "2170111641",
    "name": "リハビリデイサービス　げんきサポート",
    "kana": "リハビリデイサービス　ゲンキサポート",
    "address": "岐阜県岐阜市加納立花町11-1コーポグランデ立花101 コーポグランデ立花101",
    "lat": 35.3975153,
    "lng": 136.7486755,
    "tel": "058-214-2542",
    "url": "",
    "pref": "岐阜県",
    "city": "岐阜市",
    "category": "community_day_service",
    "serviceType": "地域密着型通所介護",
    "capacity": 0,
    "openDays": [
      "平日",
      "祝日"
    ],
    "openDaysNote": ""
  },
  {
    "id": "2170111914",
    "name": "華陽のいえデイサービスセンター",
    "kana": "カヨウノイエデイサービスセンター",
    "address": "岐阜県岐阜市東鶉3丁目73-2",
    "lat": 35.3820263106882,
    "lng": 136.741187737712,
    "tel": "058-215-5502",
    "url": "http://www.kayokaigo.co.jp/",
    "pref": "岐阜県",
    "city": "岐阜市",
    "category": "community_day_service",
    "serviceType": "地域密着型通所介護",
    "capacity": 0,
    "openDays": [
      "平日",
      "土曜日",
      "祝日"
    ],
    "openDaysNote": "年末年始12/31～1/３は休日"
  },
  {
    "id": "2190104071",
    "name": "株式会社　継真",
    "kana": "カブシキカイシャ　ケイシン",
    "address": "岐阜県岐阜市西改田米野81番２",
    "lat": 35.4468659,
    "lng": 136.7087803,
    "tel": "０５８－２１３－０２０８",
    "url": "",
    "pref": "岐阜県",
    "city": "岐阜市",
    "category": "community_day_service",
    "serviceType": "地域密着型通所介護",
    "capacity": 0,
    "openDays": [
      "平日",
      "祝日"
    ],
    "openDaysNote": ""
  },
  {
    "id": "2170112458",
    "name": "岐阜リハビリセンターこころｔｏからだ",
    "kana": "ギフリハビリセンターココロトカラダ",
    "address": "岐阜県岐阜市島栄町2丁目11番地1コパン忠節1Ｆ コパン忠節1Ｆ",
    "lat": 35.4318761909738,
    "lng": 136.744671153967,
    "tel": "058-233-0033",
    "url": "http://www.chubu-caresystem.co.jp/",
    "pref": "岐阜県",
    "city": "岐阜市",
    "category": "community_day_service",
    "serviceType": "地域密着型通所介護",
    "capacity": 0,
    "openDays": [
      "平日",
      "祝日"
    ],
    "openDaysNote": ""
  },
  {
    "id": "2190104345",
    "name": "岐阜リラクゼーションセンターこころｔｏからだ",
    "kana": "ギフリラクゼーションセンターココロトカラダ",
    "address": "岐阜県岐阜市島栄町2丁目50番地2",
    "lat": 35.4322631,
    "lng": 136.7443169,
    "tel": "058-216-5267",
    "url": "http://www.chubu-caresystem.co.jp/",
    "pref": "岐阜県",
    "city": "岐阜市",
    "category": "community_day_service",
    "serviceType": "地域密着型通所介護",
    "capacity": null,
    "openDays": [
      "平日",
      "祝日"
    ],
    "openDaysNote": "・8/12～8/14（改行）・12/30～1/3"
  },
  {
    "id": "2170110999",
    "name": "機能訓練型デイサービス　般若堂",
    "kana": "キノウクンレンガタデイサービス　ハンニャドウ",
    "address": "岐阜県岐阜市切通4丁目20-12",
    "lat": 35.3959104,
    "lng": 136.7943013,
    "tel": "058-214-9877",
    "url": "http://forestwin.net/index.html",
    "pref": "岐阜県",
    "city": "岐阜市",
    "category": "community_day_service",
    "serviceType": "地域密着型通所介護",
    "capacity": 50,
    "openDays": [
      "平日"
    ],
    "openDaysNote": "その他、正月、お盆など定休日以外でもお休みすることもございます。"
  },
  {
    "id": "2170100115",
    "name": "高橋接骨院デイサービスひだまり",
    "kana": "タカハシセッコツインデイサービスヒダマリ",
    "address": "岐阜県岐阜市加野２丁目１３番８号",
    "lat": 35.4656128,
    "lng": 136.8217543,
    "tel": "058-241-7904",
    "url": "",
    "pref": "岐阜県",
    "city": "岐阜市",
    "category": "community_day_service",
    "serviceType": "地域密着型通所介護",
    "capacity": 0,
    "openDays": [
      "平日",
      "土曜日"
    ],
    "openDaysNote": "平日は8：45～12：00と13：00～16：15の二部制。"
  },
  {
    "id": "2170112243",
    "name": "樹楽　団らんの家　日野東",
    "kana": "キラク　ダンランノイエ　ヒノヒガシ",
    "address": "岐阜県岐阜市日野東1－16－14",
    "lat": 35.4322145,
    "lng": 136.8075792,
    "tel": "058－247－5232",
    "url": "",
    "pref": "岐阜県",
    "city": "岐阜市",
    "category": "community_day_service",
    "serviceType": "地域密着型通所介護",
    "capacity": 0,
    "openDays": [
      "平日",
      "土曜日",
      "祝日"
    ],
    "openDaysNote": "上記は基本であり、随時受付可能です。（営業時間前後のサービス提供もご相談の上、ご利用可能です）（改行）現在、職員の人員不足の為、毎週日曜日、年末年始をお休みさせて頂いております。（受け入れ体制整い次第、営業再開予定）"
  },
  {
    "id": "2190104444",
    "name": "世界ちゃんとモゲル丸先生の元気なデイサービス",
    "kana": "セカイチャントモゲルマルセンセイノゲンキナデイサービス",
    "address": "岐阜県岐阜市六条南2丁目８番20号",
    "lat": 35.3965245,
    "lng": 136.7412864,
    "tel": "058-277-2112",
    "url": "",
    "pref": "岐阜県",
    "city": "岐阜市",
    "category": "community_day_service",
    "serviceType": "地域密着型通所介護",
    "capacity": null,
    "openDays": [
      "平日",
      "祝日"
    ],
    "openDaysNote": "年末年始、その他法人の定める日を除く。"
  },
  {
    "id": "2190104584",
    "name": "世界ちゃんとモゲル丸先生の元気なデイサービスわんにゃんぶー",
    "kana": "セカイチャントモゲルマルセンセイノゲンキナデイサービスワンニャンブー",
    "address": "岐阜県岐阜市権現町4-3",
    "lat": 35.4145417183143,
    "lng": 136.730577372353,
    "tel": "058-201-3622",
    "url": "https://genkinanakama.com/",
    "pref": "岐阜県",
    "city": "岐阜市",
    "category": "community_day_service",
    "serviceType": "地域密着型通所介護",
    "capacity": 0,
    "openDays": [
      "平日",
      "祝日"
    ],
    "openDaysNote": "年末年始、その他法人の定める日。"
  },
  {
    "id": "2190104204",
    "name": "総合リハビリセンターながら",
    "kana": "ソウゴウリハビリセンターナガラ",
    "address": "岐阜県岐阜市長良竜東町3丁目50番地",
    "lat": 35.4526052,
    "lng": 136.7854309,
    "tel": "058-215-9002",
    "url": "",
    "pref": "岐阜県",
    "city": "岐阜市",
    "category": "community_day_service",
    "serviceType": "地域密着型通所介護",
    "capacity": null,
    "openDays": [
      "平日",
      "土曜日"
    ],
    "openDaysNote": ""
  },
  {
    "id": "2190104121",
    "name": "地域密着型通所介護施設ストレングス",
    "kana": "チイキミッチャクガタツウショカイゴシセツストレングス",
    "address": "岐阜県岐阜市須賀3丁目12番38号",
    "lat": 35.3860049,
    "lng": 136.7188232,
    "tel": "058-213-9534",
    "url": "",
    "pref": "岐阜県",
    "city": "岐阜市",
    "category": "community_day_service",
    "serviceType": "地域密着型通所介護",
    "capacity": 0,
    "openDays": [
      "平日",
      "土曜日",
      "祝日"
    ],
    "openDaysNote": "年末年始（12/31～1/3）、お盆期間（8/15頃三日間）は休みとする。"
  },
  {
    "id": "2190104402",
    "name": "美容特化型デイサービスBouquet",
    "kana": "ビヨウトッカガタデイサービス　ブーケット",
    "address": "岐阜県岐阜市細畑1-8-5C.ISLAND17　1Fテナント C.ISLAND17　1Fテナント",
    "lat": 35.4071994,
    "lng": 136.785629,
    "tel": "058-245-1030",
    "url": "https://trois-smile.com/",
    "pref": "岐阜県",
    "city": "岐阜市",
    "category": "community_day_service",
    "serviceType": "地域密着型通所介護",
    "capacity": 18,
    "openDays": [
      "平日",
      "土曜日",
      "祝日"
    ],
    "openDaysNote": ""
  },
  {
    "id": "2190104188",
    "name": "名鉄レコードブック西岐阜",
    "kana": "メイテツレコードブックニシギフ",
    "address": "岐阜県岐阜市江添2丁目8番17号山田ビル1階南号室 山田ビル1階南号室",
    "lat": 35.393862,
    "lng": 136.7267982,
    "tel": "058-201-0015",
    "url": "https://www.meitetsu-ls.co.jp/shop/view/27/",
    "pref": "岐阜県",
    "city": "岐阜市",
    "category": "community_day_service",
    "serviceType": "地域密着型通所介護",
    "capacity": 0,
    "openDays": [
      "平日",
      "祝日"
    ],
    "openDaysNote": ""
  },
  {
    "id": "2190103974",
    "name": "名鉄レコードブック田神",
    "kana": "メイテツレコードブックタガミ",
    "address": "岐阜県岐阜市東栄町三丁目5番東栄ビル1階 東栄ビル1階",
    "lat": 35.4148688,
    "lng": 136.7775496,
    "tel": "058-201-6315",
    "url": "https://www.meitetsu-ls.co.jp/shop/view/15/",
    "pref": "岐阜県",
    "city": "岐阜市",
    "category": "community_day_service",
    "serviceType": "地域密着型通所介護",
    "capacity": 10,
    "openDays": [
      "平日",
      "祝日"
    ],
    "openDaysNote": ""
  },
  {
    "id": "2170101980",
    "name": "老人デイサービスセンター　コート・スマイル",
    "kana": "ロウジンデイサービスセンター　コート・スマイル",
    "address": "岐阜県岐阜市芥見野畑１丁目２５番地",
    "lat": 35.4406111,
    "lng": 136.8429719,
    "tel": "058-241-2100",
    "url": "http://www.court-smile.jp/index.html",
    "pref": "岐阜県",
    "city": "岐阜市",
    "category": "community_day_service",
    "serviceType": "地域密着型通所介護",
    "capacity": 0,
    "openDays": [
      "平日",
      "土曜日",
      "祝日"
    ],
    "openDaysNote": "1月1日～1月3日の間は休みです。"
  },
  {
    "id": "2170101022",
    "name": "老人デイサービスセンターサンライフ彦坂",
    "kana": "ロウジンデイサービスセンターサンライフヒコサカ",
    "address": "岐阜県岐阜市彦坂川北２３０番地",
    "lat": 35.4992456,
    "lng": 136.7387178,
    "tel": "058-238-8807",
    "url": "http://www.houjyukai.jp/",
    "pref": "岐阜県",
    "city": "岐阜市",
    "category": "community_day_service",
    "serviceType": "地域密着型通所介護",
    "capacity": 18,
    "openDays": [
      "平日"
    ],
    "openDaysNote": ""
  },
  {
    "id": "2191000054",
    "name": "デイサービスキャリーオン",
    "kana": "デイサービスキャリーオン",
    "address": "岐阜県郡上市大和町剣240番地2",
    "lat": 35.8156767603176,
    "lng": 136.898548139703,
    "tel": "0575-88-5312",
    "url": "http://www.carry-on-251210.co.jp",
    "pref": "岐阜県",
    "city": "郡上市",
    "category": "community_day_service",
    "serviceType": "地域密着型通所介護",
    "capacity": 30,
    "openDays": [
      "平日",
      "祝日"
    ],
    "openDaysNote": "祝日は営業（改行）夏季休業(8/13～8/15)（改行）冬季休業(12/30～1/3)"
  },
  {
    "id": "2171000678",
    "name": "デイサービスセンターアットホームしろとり",
    "kana": "デイサービスセンターアットホームシロトリ",
    "address": "岐阜県郡上市白鳥町為真１８７８－１",
    "lat": 35.8735309,
    "lng": 136.8711517,
    "tel": "0575-83-0266",
    "url": "http://attohome.or.jp/",
    "pref": "岐阜県",
    "city": "郡上市",
    "category": "community_day_service",
    "serviceType": "地域密着型通所介護",
    "capacity": 18,
    "openDays": [
      "平日"
    ],
    "openDaysNote": "管理者が定休日に営業を認めた場合は、この限りではない。"
  },
  {
    "id": "2191000138",
    "name": "デイサービスセンターおひさまの大地",
    "kana": "デイサービスセンターオヒサマノダイチ",
    "address": "岐阜県郡上市高鷲町鷲見5390-5",
    "lat": 35.9840846120639,
    "lng": 136.920311172353,
    "tel": "0575-73-2130",
    "url": "http://ohisamanoegao.com/",
    "pref": "岐阜県",
    "city": "郡上市",
    "category": "community_day_service",
    "serviceType": "地域密着型通所介護",
    "capacity": 0,
    "openDays": [
      "平日",
      "土曜日",
      "日曜日",
      "祝日"
    ],
    "openDaysNote": "12/29～1/3は休業"
  },
  {
    "id": "2191000153",
    "name": "高鷲デイサービスセンター",
    "kana": "タカスデイサービスセンター",
    "address": "岐阜県郡上市高鷲町大鷲201番地２高鷲保健福祉センターこぶし苑１階 高鷲保健福祉センターこぶし苑１階",
    "lat": 35.9453366,
    "lng": 136.8721261,
    "tel": "0575-72-5888",
    "url": "",
    "pref": "岐阜県",
    "city": "郡上市",
    "category": "community_day_service",
    "serviceType": "地域密着型通所介護",
    "capacity": null,
    "openDays": [
      "平日",
      "祝日"
    ],
    "openDaysNote": ""
  },
  {
    "id": "2191000088",
    "name": "白鳥東部デイサービスセンター",
    "kana": "シロトリトウブデイサービスセンター",
    "address": "岐阜県郡上市白鳥町中西５０９番地１",
    "lat": 35.8922725,
    "lng": 136.8911729,
    "tel": "0575-84-3010",
    "url": "",
    "pref": "岐阜県",
    "city": "郡上市",
    "category": "community_day_service",
    "serviceType": "地域密着型通所介護",
    "capacity": null,
    "openDays": [
      "平日",
      "祝日"
    ],
    "openDaysNote": ""
  },
  {
    "id": "2191000070",
    "name": "白鳥北部デイサービスセンター",
    "kana": "シロトリホクブデイサービスセンター",
    "address": "岐阜県郡上市白鳥町歩岐島139番地2",
    "lat": 35.9294657,
    "lng": 136.8298573,
    "tel": "0575－85－1010",
    "url": "",
    "pref": "岐阜県",
    "city": "郡上市",
    "category": "community_day_service",
    "serviceType": "地域密着型通所介護",
    "capacity": 0,
    "openDays": [
      "平日",
      "祝日"
    ],
    "openDaysNote": ""
  },
  {
    "id": "2191700281",
    "name": "3rdlife",
    "kana": "サードライフ",
    "address": "岐阜県恵那市長島町正家3丁目8-64-3",
    "lat": 35.4459404262562,
    "lng": 137.415921817197,
    "tel": "0573-20-5065",
    "url": "https://ohisama.group/",
    "pref": "岐阜県",
    "city": "恵那市",
    "category": "community_day_service",
    "serviceType": "地域密着型通所介護",
    "capacity": 0,
    "openDays": [
      "平日"
    ],
    "openDaysNote": ""
  },
  {
    "id": "2171700780",
    "name": "ＧＥＮＫＩ　ＮＥＸＴ恵那",
    "kana": "ゲンキネクストエナ",
    "address": "岐阜県恵那市大井町字本町75番地1",
    "lat": 35.4808266,
    "lng": 137.406756,
    "tel": "0573－25－2533",
    "url": "",
    "pref": "岐阜県",
    "city": "恵那市",
    "category": "community_day_service",
    "serviceType": "地域密着型通所介護",
    "capacity": 10,
    "openDays": [
      "平日"
    ],
    "openDaysNote": ""
  },
  {
    "id": "2191700240",
    "name": "デイサービスセンター福寿苑",
    "kana": "デイサービスセンターフクジュエン",
    "address": "岐阜県恵那市上矢作町下723番地1",
    "lat": 35.27485,
    "lng": 137.4745428,
    "tel": "0573-48-3161",
    "url": "https://keihoku.or.jp/",
    "pref": "岐阜県",
    "city": "恵那市",
    "category": "community_day_service",
    "serviceType": "地域密着型通所介護",
    "capacity": 18,
    "openDays": [
      "平日",
      "土曜日",
      "祝日"
    ],
    "openDaysNote": ""
  },
  {
    "id": "2191700273",
    "name": "デイサービス向日葵永田",
    "kana": "デイサービスヒマワリナガタ",
    "address": "岐阜県恵那市長島町永田673-7",
    "lat": 35.436825,
    "lng": 137.3958074,
    "tel": "0573-59-9500",
    "url": "http://www.solrian.jp/",
    "pref": "岐阜県",
    "city": "恵那市",
    "category": "community_day_service",
    "serviceType": "地域密着型通所介護",
    "capacity": 4,
    "openDays": [
      "平日",
      "土曜日",
      "日曜日",
      "祝日"
    ],
    "openDaysNote": "各種感染症の蔓延、自然災害等にて臨時休業の場合あり"
  },
  {
    "id": "2171701010",
    "name": "デイサービス向日葵三郷",
    "kana": "デイサービスヒマワリミサト",
    "address": "岐阜県恵那市三郷町佐々良木194番地339",
    "lat": 35.4155988,
    "lng": 137.3542312,
    "tel": "0573-28-5027",
    "url": "http://www.solrian.jp/",
    "pref": "岐阜県",
    "city": "恵那市",
    "category": "community_day_service",
    "serviceType": "地域密着型通所介護",
    "capacity": 18,
    "openDays": [
      "平日",
      "土曜日",
      "日曜日",
      "祝日"
    ],
    "openDaysNote": "年末年始も休まず営業しております！"
  },
  {
    "id": "2191700182",
    "name": "リハステーションおひさま",
    "kana": "リハステーションオヒサマ",
    "address": "岐阜県恵那市大井町2693-761",
    "lat": 35.4754996,
    "lng": 137.4089808,
    "tel": "0573-20-5266",
    "url": "https://ohisama.group/",
    "pref": "岐阜県",
    "city": "恵那市",
    "category": "community_day_service",
    "serviceType": "地域密着型通所介護",
    "capacity": 0,
    "openDays": [
      "平日",
      "土曜日",
      "日曜日",
      "祝日"
    ],
    "openDaysNote": ""
  },
  {
    "id": "2171700491",
    "name": "串原デイサービスセンター",
    "kana": "クシハラデイサービスセンター",
    "address": "岐阜県恵那市串原３１７１番地１",
    "lat": 35.2606211,
    "lng": 137.4058712,
    "tel": "0573-52-2230",
    "url": "https://www.ena-shakyo.or.jp",
    "pref": "岐阜県",
    "city": "恵那市",
    "category": "community_day_service",
    "serviceType": "地域密着型通所介護",
    "capacity": 10,
    "openDays": [
      "平日",
      "祝日"
    ],
    "openDaysNote": "2024/4/1より土曜日が定休日となった。"
  },
  {
    "id": "2191700299",
    "name": "中部デイサービスみさと",
    "kana": "チュウブデイサービスミサト",
    "address": "岐阜県恵那市三郷町野井1928ｰ1",
    "lat": 35.4216051857571,
    "lng": 137.383084931283,
    "tel": "0573-32-1727",
    "url": "",
    "pref": "岐阜県",
    "city": "恵那市",
    "category": "community_day_service",
    "serviceType": "地域密着型通所介護",
    "capacity": 0,
    "openDays": [
      "平日"
    ],
    "openDaysNote": ""
  },
  {
    "id": "2171400290",
    "name": "やさしい時間りんごデイサービスセンター",
    "kana": "ヤサシイジカンリンゴデイサービスセンター",
    "address": "岐阜県可児郡御嵩町上恵土６１７番地4",
    "lat": 35.4343762,
    "lng": 137.0792838,
    "tel": "0574-42-7111",
    "url": "http:/www.y-time.jp/ringo/indexhtml",
    "pref": "岐阜県",
    "city": "御嵩町",
    "category": "community_day_service",
    "serviceType": "地域密着型通所介護",
    "capacity": 10,
    "openDays": [
      "平日",
      "土曜日",
      "日曜日",
      "祝日"
    ],
    "openDaysNote": "年末年始12月30日～1月3日"
  },
  {
    "id": "2172701316",
    "name": "Locomo　きりん",
    "kana": "ロコモ　キリン",
    "address": "岐阜県高山市大新町4-175",
    "lat": 36.1530689171169,
    "lng": 137.256783601189,
    "tel": "0577-37-4970",
    "url": "http://kirin3.com/",
    "pref": "岐阜県",
    "city": "高山市",
    "category": "community_day_service",
    "serviceType": "地域密着型通所介護",
    "capacity": 15,
    "openDays": [
      "平日",
      "土曜日",
      "祝日"
    ],
    "openDaysNote": "高山祭（10月9、10日）は時間帯によっては休業の場合がございます。"
  },
  {
    "id": "2172701126",
    "name": "いこいの広場　鉄ちゃん倶楽部",
    "kana": "イコイノヒロバ　テッチャンクラブ",
    "address": "岐阜県高山市西之一色町3丁目８６６",
    "lat": 36.1352249,
    "lng": 137.2402493,
    "tel": "0577-35-5603",
    "url": "",
    "pref": "岐阜県",
    "city": "高山市",
    "category": "community_day_service",
    "serviceType": "地域密着型通所介護",
    "capacity": 12,
    "openDays": [
      "平日",
      "土曜日",
      "日曜日",
      "祝日"
    ],
    "openDaysNote": ""
  },
  {
    "id": "2172700979",
    "name": "うわのデイサービス",
    "kana": "ウワノデイサービス",
    "address": "岐阜県高山市上野町675番地2",
    "lat": 36.1671354,
    "lng": 137.267868,
    "tel": "0577-32-0301",
    "url": "",
    "pref": "岐阜県",
    "city": "高山市",
    "category": "community_day_service",
    "serviceType": "地域密着型通所介護",
    "capacity": 3,
    "openDays": [
      "平日",
      "土曜日",
      "祝日"
    ],
    "openDaysNote": ""
  },
  {
    "id": "2172701217",
    "name": "サロンド　まなか",
    "kana": "サロンド　マナカ",
    "address": "岐阜県高山市上宝町本郷2916番地",
    "lat": 36.285385,
    "lng": 137.3588317,
    "tel": "0578-86-2761",
    "url": "",
    "pref": "岐阜県",
    "city": "高山市",
    "category": "community_day_service",
    "serviceType": "地域密着型通所介護",
    "capacity": 10,
    "openDays": [
      "平日",
      "土曜日",
      "祝日"
    ],
    "openDaysNote": ""
  },
  {
    "id": "2172701340",
    "name": "デイサービスいっぷく",
    "kana": "デイサービスイップク",
    "address": "岐阜県高山市上岡本町1丁目476",
    "lat": 36.1342501,
    "lng": 137.2352831,
    "tel": "577578129",
    "url": "",
    "pref": "岐阜県",
    "city": "高山市",
    "category": "community_day_service",
    "serviceType": "地域密着型通所介護",
    "capacity": 0,
    "openDays": [
      "平日",
      "土曜日",
      "祝日"
    ],
    "openDaysNote": ""
  },
  {
    "id": "2172701175",
    "name": "デイサービスセンターすこやか",
    "kana": "デイサービスセンタースコヤカ",
    "address": "岐阜県高山市三福寺町411-3",
    "lat": 36.153258033475,
    "lng": 137.262123101258,
    "tel": "0577-57-9900",
    "url": "",
    "pref": "岐阜県",
    "city": "高山市",
    "category": "community_day_service",
    "serviceType": "地域密着型通所介護",
    "capacity": 0,
    "openDays": [
      "平日",
      "祝日"
    ],
    "openDaysNote": ""
  },
  {
    "id": "2172700839",
    "name": "デイサービスセンターほのぼのオレンジ",
    "kana": "デイサービスセンターホノボノオレンジ",
    "address": "岐阜県高山市新宮町3781-5",
    "lat": 36.1364659,
    "lng": 137.2226545,
    "tel": "0577-70-8253",
    "url": "https://www.honobonoasahi.com/",
    "pref": "岐阜県",
    "city": "高山市",
    "category": "community_day_service",
    "serviceType": "地域密着型通所介護",
    "capacity": 18,
    "openDays": [
      "平日",
      "祝日"
    ],
    "openDaysNote": "年末12月30日～1月3日まで休業"
  },
  {
    "id": "2192700124",
    "name": "デイサービスセンター清徳会宙",
    "kana": "デイサービスセンターセイトクカイソラ",
    "address": "岐阜県高山市神田町1丁目28番地１",
    "lat": 36.1470040904515,
    "lng": 137.255651241664,
    "tel": "0577-37-5565",
    "url": "http://www.seitokukai.or.jp",
    "pref": "岐阜県",
    "city": "高山市",
    "category": "community_day_service",
    "serviceType": "地域密着型通所介護",
    "capacity": 18,
    "openDays": [
      "平日",
      "土曜日",
      "祝日"
    ],
    "openDaysNote": ""
  },
  {
    "id": "2172700862",
    "name": "デイサービス健幸倶楽部老化予防センター日赤前",
    "kana": "デイサービスケンコウクラブロウカヨボウセンターニッセキマエ",
    "address": "岐阜県高山市名田町２丁目１１２番地",
    "lat": 36.1362165,
    "lng": 137.2553757,
    "tel": "0577-62-9111",
    "url": "",
    "pref": "岐阜県",
    "city": "高山市",
    "category": "community_day_service",
    "serviceType": "地域密着型通所介護",
    "capacity": 0,
    "openDays": [
      "平日",
      "祝日"
    ],
    "openDaysNote": "お盆、年末年始、春の高山祭は休業。"
  },
  {
    "id": "2192700199",
    "name": "みやりは",
    "kana": "ミヤリハ",
    "address": "岐阜県高山市一之宮町4907番地2",
    "lat": 36.084761800479,
    "lng": 137.250811612186,
    "tel": "0577-70-8052",
    "url": "http://www.miya-reha.co.jp",
    "pref": "岐阜県",
    "city": "高山市",
    "category": "community_day_service",
    "serviceType": "地域密着型通所介護",
    "capacity": 0,
    "openDays": [
      "平日"
    ],
    "openDaysNote": "宮祭り：５/２（改行）お盆：２日間（改行）年末年始：１２/２９～１／３"
  },
  {
    "id": "2192700249",
    "name": "みやりはくぐの",
    "kana": "ミヤリハクグノ",
    "address": "岐阜県高山市久々野町山梨６４１番地旧農林産物直売所 旧農林産物直売所",
    "lat": 36.0704055614649,
    "lng": 137.267950165911,
    "tel": "0577‐77‐9997",
    "url": "http://www.miya-reha.co.jp",
    "pref": "岐阜県",
    "city": "高山市",
    "category": "community_day_service",
    "serviceType": "地域密着型通所介護",
    "capacity": 0,
    "openDays": [
      "平日"
    ],
    "openDaysNote": "正月、お盆休業有"
  },
  {
    "id": "2192700140",
    "name": "岐阜県看護協会立ナーシングデイ高山",
    "kana": "ギフケンカンゴキョウカイリツナーシングデイタカヤマ",
    "address": "岐阜県高山市冬頭町588番1",
    "lat": 36.165777740431,
    "lng": 137.241041165329,
    "tel": "0577-57-8566",
    "url": "http://www.gifu-kango.or.jp/",
    "pref": "岐阜県",
    "city": "高山市",
    "category": "community_day_service",
    "serviceType": "地域密着型通所介護",
    "capacity": 0,
    "openDays": [
      "平日"
    ],
    "openDaysNote": ""
  },
  {
    "id": "2192700306",
    "name": "四季の風デイサービスセンター",
    "kana": "シキノカゼデイサービスセンター",
    "address": "岐阜県高山市丹生川町3255-70",
    "lat": 36.1786283,
    "lng": 137.512814,
    "tel": "0577-70-1950",
    "url": "",
    "pref": "岐阜県",
    "city": "高山市",
    "category": "community_day_service",
    "serviceType": "地域密着型通所介護",
    "capacity": 0,
    "openDays": [
      "平日"
    ],
    "openDaysNote": ""
  },
  {
    "id": "2172701274",
    "name": "野の風デイサービスセンター",
    "kana": "ノノカゼデイサービスセンター",
    "address": "岐阜県高山市丹生川町新張3255-71",
    "lat": 36.1719236,
    "lng": 137.2662209,
    "tel": "0577-77-9221",
    "url": "http://annonjyuku.web.fc2.com",
    "pref": "岐阜県",
    "city": "高山市",
    "category": "community_day_service",
    "serviceType": "地域密着型通所介護",
    "capacity": 3,
    "openDays": [
      "平日"
    ],
    "openDaysNote": "年末年始12/29〜1/3"
  },
  {
    "id": "2191300983",
    "name": "デイサービス楽・笑",
    "kana": "デイサービスラクショウ",
    "address": "岐阜県加茂郡坂祝町酒倉1034番地3デイサービス楽・笑 デイサービス楽・笑",
    "lat": 35.4399585,
    "lng": 137.0002698,
    "tel": "0574-66-3333",
    "url": "http://hp.kaipoke.biz/cty/",
    "pref": "岐阜県",
    "city": "坂祝町",
    "category": "community_day_service",
    "serviceType": "地域密着型通所介護",
    "capacity": 10,
    "openDays": [
      "平日",
      "土曜日",
      "祝日"
    ],
    "openDaysNote": "電話受付時間　月曜～日曜日（8：00～17：00）"
  },
  {
    "id": "2170800342",
    "name": "あいデイサービス",
    "kana": "アイデイサービス",
    "address": "岐阜県山県市藤倉576－152",
    "lat": 35.531923247334,
    "lng": 136.731425187966,
    "tel": "0581-36-3466",
    "url": "http://hp.kaipoke.biz/n8k/",
    "pref": "岐阜県",
    "city": "山県市",
    "category": "community_day_service",
    "serviceType": "地域密着型通所介護",
    "capacity": 9,
    "openDays": [
      "平日",
      "土曜日",
      "祝日"
    ],
    "openDaysNote": "年末年始休業あり"
  },
  {
    "id": "2170800409",
    "name": "介護予防ジムきぼう",
    "kana": "カイゴヨボウジムキボウ",
    "address": "岐阜県山県市東深瀬585",
    "lat": 35.5139921,
    "lng": 136.7906454,
    "tel": "0581-22-5151",
    "url": "http://yamauchi-sekkotsu.com",
    "pref": "岐阜県",
    "city": "山県市",
    "category": "community_day_service",
    "serviceType": "地域密着型通所介護",
    "capacity": 0,
    "openDays": [
      "平日"
    ],
    "openDaysNote": ""
  },
  {
    "id": "2191301015",
    "name": "さわやかデイサービスセンター七宗",
    "kana": "サワヤカデイサービスセンターヒチソウ",
    "address": "岐阜県加茂郡七宗町川並６１１番地",
    "lat": 35.537734976007,
    "lng": 137.119801837702,
    "tel": "0574-47-1070",
    "url": "http://www.jikeikai-sawayaka.jp",
    "pref": "岐阜県",
    "city": "七宗町",
    "category": "community_day_service",
    "serviceType": "地域密着型通所介護",
    "capacity": 18,
    "openDays": [
      "平日",
      "土曜日",
      "祝日"
    ],
    "openDaysNote": ""
  },
  {
    "id": "2172400299",
    "name": "デイサービス　ぽかぽかいぶき",
    "kana": "デイサービス　ポカポカイブキ",
    "address": "岐阜県不破郡垂井町府中2527",
    "lat": 35.3796607,
    "lng": 136.5244573,
    "tel": "0584-24-3722",
    "url": "https://www.ibukien.jp",
    "pref": "岐阜県",
    "city": "垂井町",
    "category": "community_day_service",
    "serviceType": "地域密着型通所介護",
    "capacity": 0,
    "openDays": [
      "平日",
      "土曜日",
      "祝日"
    ],
    "openDaysNote": "年間営業カレンダーにより変更あり"
  },
  {
    "id": "2172400323",
    "name": "椿デイサービスセンター",
    "kana": "ツバキデイサービスセンター",
    "address": "岐阜県不破郡垂井町大石字下野745番地",
    "lat": 35.3861645234263,
    "lng": 136.51158138745,
    "tel": "0584-71-8337",
    "url": "https://www.nisimino.com/aiki/",
    "pref": "岐阜県",
    "city": "垂井町",
    "category": "community_day_service",
    "serviceType": "地域密着型通所介護",
    "capacity": 0,
    "openDays": [
      "平日",
      "土曜日",
      "祝日"
    ],
    "openDaysNote": ""
  },
  {
    "id": "2173200417",
    "name": "共生型サービスあこうど",
    "kana": "キョウセイガタサービスアコウド",
    "address": "岐阜県瑞穂市牛牧９０９番地２",
    "lat": 35.3840045,
    "lng": 136.6676502,
    "tel": "058-372-6408",
    "url": "http://www.office-waon.com/",
    "pref": "岐阜県",
    "city": "瑞穂市",
    "category": "community_day_service",
    "serviceType": "地域密着型通所介護",
    "capacity": 26,
    "openDays": [
      "平日",
      "土曜日",
      "祝日"
    ],
    "openDaysNote": ""
  },
  {
    "id": "2193200090",
    "name": "瑞穂デイサービスセンター",
    "kana": "ミズホデイサービスセンター",
    "address": "岐阜県瑞穂市別府1494番地1ファミリーコート瑞穂内 ファミリーコート瑞穂内",
    "lat": 35.3952378830256,
    "lng": 136.684854911809,
    "tel": "058-216-6216",
    "url": "http://www.wakokai.or.jp",
    "pref": "岐阜県",
    "city": "瑞穂市",
    "category": "community_day_service",
    "serviceType": "地域密着型通所介護",
    "capacity": 0,
    "openDays": [
      "平日",
      "祝日"
    ],
    "openDaysNote": ""
  },
  {
    "id": "2171600378",
    "name": "さてらいと日吉　デイサービス",
    "kana": "サテライトヒヨシ　デイサービス",
    "address": "岐阜県瑞浪市日吉町４１１７－４",
    "lat": 35.4061741,
    "lng": 137.2443965,
    "tel": "0572-69-1055",
    "url": "http://www.senjyukai.or.jp/index.html",
    "pref": "岐阜県",
    "city": "瑞浪市",
    "category": "community_day_service",
    "serviceType": "地域密着型通所介護",
    "capacity": 18,
    "openDays": [
      "平日",
      "祝日"
    ],
    "openDaysNote": "祝日は営業"
  },
  {
    "id": "2191600069",
    "name": "デイサービス　いろはカフェ",
    "kana": "デイサービスイロハカフェ",
    "address": "岐阜県瑞浪市日吉町4702",
    "lat": 35.4048067,
    "lng": 137.264278,
    "tel": "0572-51-2952",
    "url": "http://blog.livedoor.jp/irohacafe",
    "pref": "岐阜県",
    "city": "瑞浪市",
    "category": "community_day_service",
    "serviceType": "地域密着型通所介護",
    "capacity": 0,
    "openDays": [
      "平日"
    ],
    "openDaysNote": "平日の2部制（通してのお時間ではありません。）1部、9:00～12:15　2部、13:00～16:15となっています。（改行）祝祭日、営業しております。"
  },
  {
    "id": "2191600085",
    "name": "デイサービス　ゴールドエイジ瑞浪",
    "kana": "デイサービス　ゴールドエイジミズナミ",
    "address": "岐阜県瑞浪市山田町630-1ゴールドエイジ瑞浪 ゴールドエイジ瑞浪",
    "lat": 35.3472307520627,
    "lng": 137.248430149668,
    "tel": "0572-67-1555",
    "url": "",
    "pref": "岐阜県",
    "city": "瑞浪市",
    "category": "community_day_service",
    "serviceType": "地域密着型通所介護",
    "capacity": null,
    "openDays": [
      "平日",
      "土曜日",
      "祝日"
    ],
    "openDaysNote": "年末年始を除く"
  },
  {
    "id": "2171600618",
    "name": "やさしい時間　木かげ　デイサービスセンター",
    "kana": "ヤサシイジカン　コカゲ　デイサービスセンター",
    "address": "岐阜県瑞浪市和合町１丁目２１番２",
    "lat": 35.3633696,
    "lng": 137.2236507,
    "tel": "0572-26-8349",
    "url": "http://www.y-time.jp",
    "pref": "岐阜県",
    "city": "瑞浪市",
    "category": "community_day_service",
    "serviceType": "地域密着型通所介護",
    "capacity": 8,
    "openDays": [
      "平日",
      "土曜日",
      "祝日"
    ],
    "openDaysNote": "年末年始休日　１２月３０日～１月３日"
  },
  {
    "id": "2171600725",
    "name": "リハ特化型　ぬくもり　リハセンター",
    "kana": "リハトッカガタ　ヌクモリ　リハセンター",
    "address": "岐阜県瑞浪市陶町水上718-2",
    "lat": 35.316839,
    "lng": 137.3132828,
    "tel": "0572-65-2882",
    "url": "",
    "pref": "岐阜県",
    "city": "瑞浪市",
    "category": "community_day_service",
    "serviceType": "地域密着型通所介護",
    "capacity": null,
    "openDays": [
      "平日"
    ],
    "openDaysNote": ""
  },
  {
    "id": "2191600093",
    "name": "上を向いて歩こううさぎの里KAMANUKA",
    "kana": "ウエヲムイテアルコウウサギノサトカマヌカ",
    "address": "岐阜県瑞穂市稲津町小里2317-3",
    "lat": 35.3415188,
    "lng": 137.2644987,
    "tel": "0572-67-3591",
    "url": "",
    "pref": "岐阜県",
    "city": "瑞浪市",
    "category": "community_day_service",
    "serviceType": "地域密着型通所介護",
    "capacity": null,
    "openDays": [
      "平日",
      "祝日"
    ],
    "openDaysNote": "12/30～1/4は休みとする。"
  },
  {
    "id": "2191600077",
    "name": "身体づくり支援所　リライフ",
    "kana": "カラダヅクリシエンジョ　リライフ",
    "address": "岐阜県瑞浪市薬師町5丁目21番地",
    "lat": 35.3648555060636,
    "lng": 137.224392111639,
    "tel": "572268383",
    "url": "http://www.k-relife.jp",
    "pref": "岐阜県",
    "city": "瑞浪市",
    "category": "community_day_service",
    "serviceType": "地域密着型通所介護",
    "capacity": 10,
    "openDays": [
      "平日",
      "祝日"
    ],
    "openDaysNote": ""
  },
  {
    "id": "2171101690",
    "name": "おあしすデイサービス虎渓山",
    "kana": "オアシスデイサービスコケイザン",
    "address": "岐阜県多治見市虎渓山町３－１１７－３レジデンス渓北１階 レジデンス渓北１階",
    "lat": 35.3496563,
    "lng": 137.1267793,
    "tel": "０５７２－２６－９００２",
    "url": "http://www.hotto.co.jp/",
    "pref": "岐阜県",
    "city": "多治見市",
    "category": "community_day_service",
    "serviceType": "地域密着型通所介護",
    "capacity": 23,
    "openDays": [
      "平日",
      "祝日"
    ],
    "openDaysNote": ""
  },
  {
    "id": "2171101658",
    "name": "おあしすデイサービス大畑",
    "kana": "オアシスデイサービスオオバタ",
    "address": "岐阜県多治見市大畑町6-78",
    "lat": 35.3180266,
    "lng": 137.1345293,
    "tel": "0572-26-9817",
    "url": "http://www.hotto.co.jp/",
    "pref": "岐阜県",
    "city": "多治見市",
    "category": "community_day_service",
    "serviceType": "地域密着型通所介護",
    "capacity": 0,
    "openDays": [
      "平日",
      "祝日"
    ],
    "openDaysNote": ""
  },
  {
    "id": "2191100250",
    "name": "おあしすデイサービス明和",
    "kana": "オアシスデイサービスメイワ",
    "address": "岐阜県多治見市明和町2-41-1ラ・ポールめいわ1階 ラ・ポールめいわ1階",
    "lat": 35.3534342,
    "lng": 137.0985275,
    "tel": "0572-27-2154",
    "url": "http://www.hotto.co.jp/visitcare.html",
    "pref": "岐阜県",
    "city": "多治見市",
    "category": "community_day_service",
    "serviceType": "地域密着型通所介護",
    "capacity": null,
    "openDays": [
      "平日",
      "土曜日",
      "祝日"
    ],
    "openDaysNote": ""
  },
  {
    "id": "2171900083",
    "name": "かさはら陶生苑デイサービスセンター",
    "kana": "カサハラトウセイエンデイサービスセンター",
    "address": "岐阜県多治見市笠原町2854-1",
    "lat": 35.3029293,
    "lng": 137.1546216,
    "tel": "0572-45-2181",
    "url": "http://www.toseien.com/publics/index/22/",
    "pref": "岐阜県",
    "city": "多治見市",
    "category": "community_day_service",
    "serviceType": "地域密着型通所介護",
    "capacity": 0,
    "openDays": [
      "平日",
      "祝日"
    ],
    "openDaysNote": "特になし"
  },
  {
    "id": "2171101401",
    "name": "けあらーず多治見指定通所介護事業所",
    "kana": "ケアラーズタジミシテイツウショカイゴジギョウショ",
    "address": "岐阜県多治見市生田町１丁目１８４番",
    "lat": 35.3372442,
    "lng": 137.137562,
    "tel": "０５７２－２６－８７４０",
    "url": "http://www.seramu.com/",
    "pref": "岐阜県",
    "city": "多治見市",
    "category": "community_day_service",
    "serviceType": "地域密着型通所介護",
    "capacity": 0,
    "openDays": [
      "平日",
      "土曜日",
      "日曜日",
      "祝日"
    ],
    "openDaysNote": "１２月２９日～１月３日までを除く"
  },
  {
    "id": "2171101898",
    "name": "さいわいデイサービスセンター",
    "kana": "サイワイデイサービスセンター",
    "address": "岐阜県多治見市幸町７丁目２８－１",
    "lat": 35.3526764,
    "lng": 137.0886197,
    "tel": "０５７２（２０）０２５４",
    "url": "http://saiwai-tajimi.com/",
    "pref": "岐阜県",
    "city": "多治見市",
    "category": "community_day_service",
    "serviceType": "地域密着型通所介護",
    "capacity": 18,
    "openDays": [
      "平日",
      "土曜日",
      "祝日"
    ],
    "openDaysNote": ""
  },
  {
    "id": "2171100957",
    "name": "そふとケア",
    "kana": "ソフトケア",
    "address": "岐阜県多治見市滝呂町14丁目7番地",
    "lat": 35.3130666,
    "lng": 137.1463642,
    "tel": "0572-22-8844",
    "url": "https://akimoto46.wixsite.com/withsoft",
    "pref": "岐阜県",
    "city": "多治見市",
    "category": "community_day_service",
    "serviceType": "地域密着型通所介護",
    "capacity": 0,
    "openDays": [
      "平日",
      "土曜日",
      "日曜日",
      "祝日"
    ],
    "openDaysNote": "5/1～5/5に関しては、ゴールデンウィーク休日によりずれる事あり。"
  },
  {
    "id": "2171101278",
    "name": "デイサービス　あさひ",
    "kana": "デイサービス　アサヒ",
    "address": "岐阜県多治見市旭ヶ丘８丁目２９－４５アジアプラザ内 アジアプラザ内",
    "lat": 35.3652786,
    "lng": 137.1054701,
    "tel": "0572-29-1217",
    "url": "https://dreamfield.info",
    "pref": "岐阜県",
    "city": "多治見市",
    "category": "community_day_service",
    "serviceType": "地域密着型通所介護",
    "capacity": 0,
    "openDays": [
      "平日",
      "土曜日",
      "祝日"
    ],
    "openDaysNote": "天候によってサービスを休止することがございます。"
  },
  {
    "id": "2171102003",
    "name": "デイサービス　ありがとう",
    "kana": "デイサービスアリガトウ",
    "address": "岐阜県多治見市虎渓山町６－２１－２",
    "lat": 35.3525380661923,
    "lng": 137.133749010451,
    "tel": "０５７２－４４－８０３５",
    "url": "http://hp.kaipoke.biz/g03/",
    "pref": "岐阜県",
    "city": "多治見市",
    "category": "community_day_service",
    "serviceType": "地域密着型通所介護",
    "capacity": 10,
    "openDays": [
      "平日",
      "土曜日",
      "祝日"
    ],
    "openDaysNote": "12月29日～1月3日は定休日"
  },
  {
    "id": "2171101674",
    "name": "デイサービスあさひ　慶の家",
    "kana": "デイサービスアサヒ　ヨロコビノイエ",
    "address": "岐阜県多治見市旭ヶ丘1丁目86番地の7住宅型有料老人ホーム慶の家内 住宅型有料老人ホーム慶の家内",
    "lat": 35.3660227,
    "lng": 137.0969294,
    "tel": "0572-26-9421",
    "url": "http://dreamfield.info",
    "pref": "岐阜県",
    "city": "多治見市",
    "category": "community_day_service",
    "serviceType": "地域密着型通所介護",
    "capacity": 18,
    "openDays": [
      "平日",
      "土曜日",
      "祝日"
    ],
    "openDaysNote": ""
  },
  {
    "id": "2191100169",
    "name": "デイサービスセンタージョイフル多治見",
    "kana": "デイサービスセンタージョイフルタジミ",
    "address": "岐阜県多治見市音羽町1-235",
    "lat": 35.3364001123235,
    "lng": 137.119175416147,
    "tel": "0572-21-2811",
    "url": "https://sun-vision.or.jp",
    "pref": "岐阜県",
    "city": "多治見市",
    "category": "community_day_service",
    "serviceType": "地域密着型通所介護",
    "capacity": 0,
    "openDays": [
      "平日",
      "土曜日",
      "祝日"
    ],
    "openDaysNote": "年始休み（1/1、2）あり。"
  },
  {
    "id": "2171101450",
    "name": "デイサービスセンター幸寿",
    "kana": "デイサービスセンターコウジュ",
    "address": "岐阜県多治見市赤坂町６丁目２番地23",
    "lat": 35.3396582,
    "lng": 137.08987,
    "tel": "0572-24-9045",
    "url": "",
    "pref": "岐阜県",
    "city": "多治見市",
    "category": "community_day_service",
    "serviceType": "地域密着型通所介護",
    "capacity": 10,
    "openDays": [
      "平日",
      "土曜日",
      "祝日"
    ],
    "openDaysNote": "（1）営業日は月曜日～土曜日とする。但し年末年始(12月31日～1月3日)は除く。（改行）（2）営業時間は8時30分～17時30分までとする。（改行）（3）但し上記による以外に電話などにより24時間常時連絡が可能な体制をとるものとする。"
  },
  {
    "id": "2191100151",
    "name": "デイサービス池田亭",
    "kana": "デイサービスイケダテイ",
    "address": "岐阜県多治見市池田町1-56-5",
    "lat": 35.3317656,
    "lng": 137.1106921,
    "tel": "0572-22-1430",
    "url": "https://tsunagu-ikedatei.wixsite.com/mysite",
    "pref": "岐阜県",
    "city": "多治見市",
    "category": "community_day_service",
    "serviceType": "地域密着型通所介護",
    "capacity": 10,
    "openDays": [
      "平日",
      "土曜日",
      "日曜日",
      "祝日"
    ],
    "openDaysNote": "中重度の認知症の症状の方ばかりのデイサービス。（改行）平均介護度3.4"
  },
  {
    "id": "2171101112",
    "name": "デイサロンあらいふ",
    "kana": "デイサロンアライフ",
    "address": "岐阜県多治見市松坂町２丁目２３番地の１",
    "lat": 35.366103,
    "lng": 137.0882027,
    "tel": "0572-26-8036",
    "url": "",
    "pref": "岐阜県",
    "city": "多治見市",
    "category": "community_day_service",
    "serviceType": "地域密着型通所介護",
    "capacity": 0,
    "openDays": [
      "平日",
      "土曜日",
      "祝日"
    ],
    "openDaysNote": ""
  },
  {
    "id": "2171100379",
    "name": "みんなの手デイサービスセンター",
    "kana": "ミンナノテデイサービスセンター",
    "address": "岐阜県多治見市金岡町二丁目３４番地の２",
    "lat": 35.3447842,
    "lng": 137.1171193,
    "tel": "0572-24-3798",
    "url": "https://minnnanote.studio.site",
    "pref": "岐阜県",
    "city": "多治見市",
    "category": "community_day_service",
    "serviceType": "地域密着型通所介護",
    "capacity": 0,
    "openDays": [
      "平日"
    ],
    "openDaysNote": ""
  },
  {
    "id": "2171101237",
    "name": "やさしい時間　あか里デイサービスセンター",
    "kana": "ヤサシイジカン　アカリデイサービスセンター",
    "address": "岐阜県多治見市笠原町２３３７－３",
    "lat": 35.3049154,
    "lng": 137.1601433,
    "tel": "0572-44-8062",
    "url": "https://kouei-g.jp",
    "pref": "岐阜県",
    "city": "多治見市",
    "category": "community_day_service",
    "serviceType": "地域密着型通所介護",
    "capacity": 15,
    "openDays": [
      "平日",
      "土曜日",
      "祝日"
    ],
    "openDaysNote": ""
  },
  {
    "id": "2191100243",
    "name": "やさしい時間ぎんざPlusデイサービスセンター",
    "kana": "ヤサシイジカンギンザプラスデイサービスセンター",
    "address": "岐阜県多治見市新町2-33",
    "lat": 35.3324005,
    "lng": 137.1296291,
    "tel": "0572-22-1962",
    "url": "http://y-time.jp/ginza/",
    "pref": "岐阜県",
    "city": "多治見市",
    "category": "community_day_service",
    "serviceType": "地域密着型通所介護",
    "capacity": 10,
    "openDays": [
      "平日"
    ],
    "openDaysNote": "年末３１日は、入浴の必要な方介護２以上の方のみご利用可能（人数限定）"
  },
  {
    "id": "2171101203",
    "name": "やさしい時間ぎんざデイサービスセンター",
    "kana": "ヤサシイジカンギンザデイサービスセンター",
    "address": "岐阜県多治見市新町２－２５－２",
    "lat": 35.3326540214512,
    "lng": 137.129545389549,
    "tel": "0572-25-1034",
    "url": "http://y-time.jp/ginza/",
    "pref": "岐阜県",
    "city": "多治見市",
    "category": "community_day_service",
    "serviceType": "地域密着型通所介護",
    "capacity": 18,
    "openDays": [
      "平日",
      "土曜日"
    ],
    "openDaysNote": ""
  },
  {
    "id": "2171101260",
    "name": "やさしい時間さ倉デイサービスセンター",
    "kana": "ヤサシイジカンサクラデイサービスセンター",
    "address": "岐阜県多治見市市之倉町８丁目１０８番地",
    "lat": 35.3019721,
    "lng": 137.1251641,
    "tel": "0572-26-8341",
    "url": "http://www.y-time.jp/sakura/index.html",
    "pref": "岐阜県",
    "city": "多治見市",
    "category": "community_day_service",
    "serviceType": "地域密着型通所介護",
    "capacity": 14,
    "openDays": [
      "平日",
      "土曜日",
      "祝日"
    ],
    "openDaysNote": "天候の状況によって営業時間の変更がある場合があります。"
  },
  {
    "id": "2191100177",
    "name": "やさしい時間ゆと里デイサービスセンター",
    "kana": "ヤサシイジカンユトリデイサービスセンター",
    "address": "岐阜県多治見市太平町3-53-1",
    "lat": 35.3353277190478,
    "lng": 137.11037079689,
    "tel": "0572-21-4884",
    "url": "https://kouei-g.jp",
    "pref": "岐阜県",
    "city": "多治見市",
    "category": "community_day_service",
    "serviceType": "地域密着型通所介護",
    "capacity": 0,
    "openDays": [
      "平日",
      "土曜日"
    ],
    "openDaysNote": "祝日も営業しています。"
  },
  {
    "id": "2191100193",
    "name": "リハビリデイサービスいちい",
    "kana": "リハビリデイサービスイチイ",
    "address": "岐阜県多治見市大畑町5丁目200番地の4",
    "lat": 35.3207008,
    "lng": 137.1347087,
    "tel": "0572-44-8611",
    "url": "https://day-ichii.jp",
    "pref": "岐阜県",
    "city": "多治見市",
    "category": "community_day_service",
    "serviceType": "地域密着型通所介護",
    "capacity": 0,
    "openDays": [
      "平日",
      "祝日"
    ],
    "openDaysNote": ""
  },
  {
    "id": "2171101047",
    "name": "駅前デイ　ほっと和",
    "kana": "エキマエデイ　ホットカズ",
    "address": "岐阜県多治見市栄町２丁目２４番地",
    "lat": 35.3335829,
    "lng": 137.1223135,
    "tel": "0572-26-9000",
    "url": "http://hero.leosv.com/hotkazu/",
    "pref": "岐阜県",
    "city": "多治見市",
    "category": "community_day_service",
    "serviceType": "地域密着型通所介護",
    "capacity": 0,
    "openDays": [
      "平日",
      "土曜日",
      "祝日"
    ],
    "openDaysNote": ""
  },
  {
    "id": "2171101211",
    "name": "爽ケアリハビリセンター小泉",
    "kana": "ソウケアリハビリセンターコイズミ",
    "address": "岐阜県多治見市小泉町3-24",
    "lat": 35.3493923737489,
    "lng": 137.095790277943,
    "tel": "0572-26-9966",
    "url": "http://www.sou-care.co.jp/",
    "pref": "岐阜県",
    "city": "多治見市",
    "category": "community_day_service",
    "serviceType": "地域密着型通所介護",
    "capacity": 150,
    "openDays": [
      "平日",
      "土曜日"
    ],
    "openDaysNote": ""
  },
  {
    "id": "2171101526",
    "name": "爽ケア健康リハビリオリベ",
    "kana": "ソウケアケンコウリハビリオリベ",
    "address": "岐阜県多治見市京町2-185花の木ビル2F 花の木ビル2F",
    "lat": 35.3253422,
    "lng": 137.1272077,
    "tel": "0572-21-3900",
    "url": "http://www.sou-care.co.jp",
    "pref": "岐阜県",
    "city": "多治見市",
    "category": "community_day_service",
    "serviceType": "地域密着型通所介護",
    "capacity": 150,
    "openDays": [
      "平日",
      "土曜日"
    ],
    "openDaysNote": "３時間　午前・午後　２部制"
  },
  {
    "id": "2172100576",
    "name": "あいあいデイサービスセンター",
    "kana": "アイアイデイサービスセンター",
    "address": "岐阜県大垣市浅中2-116-2",
    "lat": 35.3115953,
    "lng": 136.6057583,
    "tel": "0584-87-3381",
    "url": "http://www.nisimino.com/aiki",
    "pref": "岐阜県",
    "city": "大垣市",
    "category": "community_day_service",
    "serviceType": "地域密着型通所介護",
    "capacity": 18,
    "openDays": [
      "平日",
      "土曜日",
      "祝日"
    ],
    "openDaysNote": "特になし"
  },
  {
    "id": "2172101624",
    "name": "いきいきデイサービスセンター",
    "kana": "イキイキデイサービスセンター",
    "address": "岐阜県大垣市見取町3－8",
    "lat": 35.3668445,
    "lng": 136.6124917,
    "tel": "0584-47-5802",
    "url": "https://www.nisimino.com/aiki/",
    "pref": "岐阜県",
    "city": "大垣市",
    "category": "community_day_service",
    "serviceType": "地域密着型通所介護",
    "capacity": 10,
    "openDays": [
      "平日",
      "土曜日",
      "祝日"
    ],
    "openDaysNote": ""
  },
  {
    "id": "2192100473",
    "name": "シニアフィットネスデイここから",
    "kana": "シニアフィットネスデイココカラ",
    "address": "岐阜県大垣市友江２丁目１番地１",
    "lat": 35.3245129,
    "lng": 136.601173,
    "tel": "0584-47-7420",
    "url": "http://yuuwaen.jp/",
    "pref": "岐阜県",
    "city": "大垣市",
    "category": "community_day_service",
    "serviceType": "地域密着型通所介護",
    "capacity": 0,
    "openDays": [
      "平日",
      "祝日"
    ],
    "openDaysNote": "１単位9時15分～12時15分2単位1時30分～16時30分"
  },
  {
    "id": "2172101897",
    "name": "デイサービスセンター　ハーモニー",
    "kana": "デイサービスセンターハーモニー",
    "address": "岐阜県大垣市上石津町三ツ里660番地",
    "lat": 35.2794737,
    "lng": 136.4627727,
    "tel": "（0584）45－2225",
    "url": "http://midorinosato-h.com/",
    "pref": "岐阜県",
    "city": "大垣市",
    "category": "community_day_service",
    "serviceType": "地域密着型通所介護",
    "capacity": null,
    "openDays": [
      "平日",
      "祝日"
    ],
    "openDaysNote": ""
  },
  {
    "id": "2172100691",
    "name": "デイサービスセンターあおの里",
    "kana": "デイサービスセンターアオノサト",
    "address": "岐阜県大垣市新地町２番地１",
    "lat": 35.3604817,
    "lng": 136.6220488,
    "tel": "0584-83-3401",
    "url": "https://oohashi-care.jimdofree.com",
    "pref": "岐阜県",
    "city": "大垣市",
    "category": "community_day_service",
    "serviceType": "地域密着型通所介護",
    "capacity": null,
    "openDays": [
      "平日",
      "土曜日"
    ],
    "openDaysNote": "特になし"
  },
  {
    "id": "2192100481",
    "name": "デイサービスセンター日新いろり",
    "kana": "デイサービスセンターニッシンイロリ",
    "address": "岐阜県大垣市入方2丁目1716番地3",
    "lat": 35.329368,
    "lng": 136.6005138,
    "tel": "0584-47-6884",
    "url": "info@nissin-irori.com",
    "pref": "岐阜県",
    "city": "大垣市",
    "category": "community_day_service",
    "serviceType": "地域密着型通所介護",
    "capacity": 0,
    "openDays": [
      "平日",
      "祝日"
    ],
    "openDaysNote": ""
  },
  {
    "id": "2192100424",
    "name": "デイサービスぷらっと",
    "kana": "デイサービスプラット",
    "address": "岐阜県大垣市室村町4丁目42番地23",
    "lat": 35.3679859499843,
    "lng": 136.608407565641,
    "tel": "0584-71-7611",
    "url": "",
    "pref": "岐阜県",
    "city": "大垣市",
    "category": "community_day_service",
    "serviceType": "地域密着型通所介護",
    "capacity": 0,
    "openDays": [
      "平日",
      "土曜日",
      "祝日"
    ],
    "openDaysNote": ""
  },
  {
    "id": "2192100317",
    "name": "デイサービスよってこ",
    "kana": "デイサービスヨッテコ",
    "address": "岐阜県大垣市室村町4丁目156番地",
    "lat": 35.3678748,
    "lng": 136.6090922,
    "tel": "0584‐84‐3335",
    "url": "http://kouyuukai.jp",
    "pref": "岐阜県",
    "city": "大垣市",
    "category": "community_day_service",
    "serviceType": "地域密着型通所介護",
    "capacity": 0,
    "openDays": [
      "平日",
      "土曜日",
      "祝日"
    ],
    "openDaysNote": "年末年始休業あり"
  },
  {
    "id": "2172101582",
    "name": "デイサービス歩み",
    "kana": "デイサービスアユミ",
    "address": "岐阜県大垣市中ノ江2-2-2",
    "lat": 35.3665171,
    "lng": 136.6425551,
    "tel": "0584-81-7716",
    "url": "",
    "pref": "岐阜県",
    "city": "大垣市",
    "category": "community_day_service",
    "serviceType": "地域密着型通所介護",
    "capacity": 0,
    "openDays": [
      "平日",
      "土曜日"
    ],
    "openDaysNote": "サービス提供時間　　9：00～16：15"
  },
  {
    "id": "2192100457",
    "name": "はすの湯　笠木",
    "kana": "ハスノユ　カサギ",
    "address": "岐阜県大垣市笠木町249-3",
    "lat": 35.3776153,
    "lng": 136.5985173,
    "tel": "0584-76-7297",
    "url": "https://www.lifespt.co.jp",
    "pref": "岐阜県",
    "city": "大垣市",
    "category": "community_day_service",
    "serviceType": "地域密着型通所介護",
    "capacity": 0,
    "openDays": [
      "平日",
      "祝日"
    ],
    "openDaysNote": ""
  },
  {
    "id": "2192100358",
    "name": "はすの湯　小泉",
    "kana": "ハスノユ　コイズミ",
    "address": "岐阜県大垣市小泉町342-2",
    "lat": 35.350441000729,
    "lng": 136.644114381434,
    "tel": "0584-84-2770",
    "url": "https://www.lifespt.co.jp",
    "pref": "岐阜県",
    "city": "大垣市",
    "category": "community_day_service",
    "serviceType": "地域密着型通所介護",
    "capacity": 0,
    "openDays": [
      "平日",
      "土曜日",
      "祝日"
    ],
    "openDaysNote": ""
  },
  {
    "id": "2172102267",
    "name": "リハプライド　大垣ヒノキ",
    "kana": "リハプライド　オオガキヒノキ",
    "address": "岐阜県大垣市桧町798",
    "lat": 35.3626745,
    "lng": 136.5833988,
    "tel": "0584-47-8223",
    "url": "http://www.rehapride.co.jp/hinoki/profile/",
    "pref": "岐阜県",
    "city": "大垣市",
    "category": "community_day_service",
    "serviceType": "地域密着型通所介護",
    "capacity": 36,
    "openDays": [
      "平日",
      "土曜日",
      "祝日"
    ],
    "openDaysNote": "年末年始は年により変更有ます"
  },
  {
    "id": "2172102432",
    "name": "介護　結ぶ",
    "kana": "カイゴ　ムスブ",
    "address": "岐阜県大垣市青墓町３－４１０－７３",
    "lat": 35.3930814,
    "lng": 136.5633672,
    "tel": "０５８４－５１－９６４４",
    "url": "",
    "pref": "岐阜県",
    "city": "大垣市",
    "category": "community_day_service",
    "serviceType": "地域密着型通所介護",
    "capacity": 0,
    "openDays": [
      "平日",
      "土曜日",
      "祝日"
    ],
    "openDaysNote": ""
  },
  {
    "id": "2192100408",
    "name": "介護　紡ぎ",
    "kana": "カイゴ　ツムギ",
    "address": "岐阜県大垣市青墓町３－４２６－８",
    "lat": 35.3928657335349,
    "lng": 136.56303174643,
    "tel": "０５８４－５１－９４４８",
    "url": "",
    "pref": "岐阜県",
    "city": "大垣市",
    "category": "community_day_service",
    "serviceType": "地域密着型通所介護",
    "capacity": 0,
    "openDays": [
      "平日"
    ],
    "openDaysNote": ""
  },
  {
    "id": "2192100309",
    "name": "大垣セントラルクリニック　リハビリテーション颯",
    "kana": "オオガキセントラルクリニック　リハビリテーションソウ",
    "address": "岐阜県大垣市赤坂新田1丁目72番1",
    "lat": 35.3825706370526,
    "lng": 136.586499969906,
    "tel": "0584-71-0210",
    "url": "http://www.og-centralcl.com/",
    "pref": "岐阜県",
    "city": "大垣市",
    "category": "community_day_service",
    "serviceType": "地域密着型通所介護",
    "capacity": 10,
    "openDays": [
      "平日"
    ],
    "openDaysNote": "年末年始の休み　12月31日～1月3日"
  },
  {
    "id": "2192100523",
    "name": "脳活リハ　もやい",
    "kana": "ノウカツリハ　モヤイ",
    "address": "岐阜県大垣市津村町1丁目81-9",
    "lat": 35.3853034,
    "lng": 136.6412511,
    "tel": "0584-77-6786",
    "url": "https://www.sun-village.jp/",
    "pref": "岐阜県",
    "city": "大垣市",
    "category": "community_day_service",
    "serviceType": "地域密着型通所介護",
    "capacity": 45,
    "openDays": [
      "平日",
      "土曜日",
      "祝日"
    ],
    "openDaysNote": ""
  },
  {
    "id": "2172601094",
    "name": "ぎふ愛の里デイサービス",
    "kana": "ギフアイノサトデイサービス",
    "address": "岐阜県揖斐郡大野町大字大野742-14",
    "lat": 35.4799964,
    "lng": 136.6398388,
    "tel": "0585-35-7717",
    "url": "https://www.gifu-ainosato.jp",
    "pref": "岐阜県",
    "city": "大野町",
    "category": "community_day_service",
    "serviceType": "地域密着型通所介護",
    "capacity": 20,
    "openDays": [
      "平日",
      "土曜日",
      "日曜日",
      "祝日"
    ],
    "openDaysNote": ""
  },
  {
    "id": "2192600191",
    "name": "いいひとデイサービス",
    "kana": "イイヒトデイサービス",
    "address": "岐阜県揖斐郡池田町片山字一ノ井２３１１番地いいひとデイサービス いいひとデイサービス",
    "lat": 35.4181363,
    "lng": 136.5596027,
    "tel": "０５８５－４５－４７８８",
    "url": "",
    "pref": "岐阜県",
    "city": "池田町",
    "category": "community_day_service",
    "serviceType": "地域密着型通所介護",
    "capacity": 0,
    "openDays": [
      "平日",
      "祝日"
    ],
    "openDaysNote": "お家族様、ご利用者様のご利用時間のご要望に柔軟に対応致します。"
  },
  {
    "id": "2172600872",
    "name": "こころデイサービスセンター",
    "kana": "ココロデイサービスセンター",
    "address": "岐阜県揖斐郡池田町草深918-1",
    "lat": 35.4483084056983,
    "lng": 136.556684023556,
    "tel": "0585-44-2088",
    "url": "http://www.kaigo-kokoro.com/day_s.htm",
    "pref": "岐阜県",
    "city": "池田町",
    "category": "community_day_service",
    "serviceType": "地域密着型通所介護",
    "capacity": 10,
    "openDays": [
      "平日",
      "祝日"
    ],
    "openDaysNote": "盆・年末年始は休みあり"
  },
  {
    "id": "2191500178",
    "name": "かわうえデイサービスセンターすずらん",
    "kana": "カワウエデイサービスセンタースズラン",
    "address": "岐阜県中津川市川上森平２２２８番地１",
    "lat": 35.6070704799129,
    "lng": 137.501330161049,
    "tel": "０５７３－７４－２０１０",
    "url": "",
    "pref": "岐阜県",
    "city": "中津川市",
    "category": "community_day_service",
    "serviceType": "地域密着型通所介護",
    "capacity": 0,
    "openDays": [
      "平日",
      "祝日"
    ],
    "openDaysNote": "台風、大雪、自然災害等発生した場合休みになる場合があります。"
  },
  {
    "id": "2171500933",
    "name": "デイサービスおひさま",
    "kana": "デイサービスオヒサマ",
    "address": "岐阜県中津川市中一色町3-14三洋堂ビル1階 三洋堂ビル1階",
    "lat": 35.4928534,
    "lng": 137.5095304,
    "tel": "0573-65-5225",
    "url": "https://ohisama.group/",
    "pref": "岐阜県",
    "city": "中津川市",
    "category": "community_day_service",
    "serviceType": "地域密着型通所介護",
    "capacity": 0,
    "openDays": [
      "平日",
      "土曜日"
    ],
    "openDaysNote": ""
  },
  {
    "id": "2171501063",
    "name": "デイサービスセンターふくろうの杜",
    "kana": "デイサービスセンターフクロウノモリ",
    "address": "岐阜県中津川市苗木４００２番地",
    "lat": 35.5119179,
    "lng": 137.4592841,
    "tel": "0573-62-1237",
    "url": "http://www.fukurounomori.jp/",
    "pref": "岐阜県",
    "city": "中津川市",
    "category": "community_day_service",
    "serviceType": "地域密着型通所介護",
    "capacity": 18,
    "openDays": [
      "平日",
      "土曜日",
      "祝日"
    ],
    "openDaysNote": "その他特別に気象状況等で管理者が休日と判断した日は休業とします。"
  },
  {
    "id": "2171500792",
    "name": "デイサービス音生人（おいたち）",
    "kana": "デイサービスオイタチ",
    "address": "岐阜県中津川市駒場1517-13",
    "lat": 35.4889884,
    "lng": 137.4825968,
    "tel": "0573-66-5525",
    "url": "https://www.oitati.com/",
    "pref": "岐阜県",
    "city": "中津川市",
    "category": "community_day_service",
    "serviceType": "地域密着型通所介護",
    "capacity": 18,
    "openDays": [
      "平日"
    ],
    "openDaysNote": "年末年始の定休日についてはその年のカレンダーにより日数が異なります。"
  },
  {
    "id": "2191500236",
    "name": "デイサービス向日葵中津川",
    "kana": "デイサービスヒマワリナカツガワ",
    "address": "岐阜県中津川市中津川3946-96",
    "lat": 35.4467841,
    "lng": 137.5190135,
    "tel": "0573-64-8350",
    "url": "http://www.solrian.jp/",
    "pref": "岐阜県",
    "city": "中津川市",
    "category": "community_day_service",
    "serviceType": "地域密着型通所介護",
    "capacity": 5,
    "openDays": [
      "平日",
      "土曜日",
      "日曜日",
      "祝日"
    ],
    "openDaysNote": ""
  },
  {
    "id": "2191500152",
    "name": "デイサービス向日葵苗木",
    "kana": "デイサービスヒマワリナエギ",
    "address": "岐阜県中津川市苗木48-137",
    "lat": 35.5341949,
    "lng": 137.4534055,
    "tel": "0573-67-9438",
    "url": "http://www.solrian.jp/about/",
    "pref": "岐阜県",
    "city": "中津川市",
    "category": "community_day_service",
    "serviceType": "地域密着型通所介護",
    "capacity": 0,
    "openDays": [
      "平日",
      "土曜日",
      "日曜日",
      "祝日"
    ],
    "openDaysNote": ""
  },
  {
    "id": "2171500925",
    "name": "デイサービス茶話本舗中津川",
    "kana": "デイサービスサワホンポナカツガワ",
    "address": "岐阜県中津川市駒場字大岩1630-152",
    "lat": 35.5000513,
    "lng": 137.4929261,
    "tel": "573656130",
    "url": "",
    "pref": "岐阜県",
    "city": "中津川市",
    "category": "community_day_service",
    "serviceType": "地域密着型通所介護",
    "capacity": 0,
    "openDays": [
      "平日",
      "土曜日",
      "日曜日",
      "祝日"
    ],
    "openDaysNote": ""
  },
  {
    "id": "2172000453",
    "name": "ひなたぼっこ",
    "kana": "ヒナタボッコ",
    "address": "岐阜県中津川市蛭川６３９３番地２",
    "lat": 35.5139603151048,
    "lng": 137.4001443295,
    "tel": "0573-45-2120",
    "url": "http://npo-hinata.jp/",
    "pref": "岐阜県",
    "city": "中津川市",
    "category": "community_day_service",
    "serviceType": "地域密着型通所介護",
    "capacity": 25,
    "openDays": [
      "平日",
      "土曜日",
      "祝日"
    ],
    "openDaysNote": "年末年始は臨時営業有り"
  },
  {
    "id": "2171501006",
    "name": "若菜集デイサービス",
    "kana": "ワカナシュウデイサービス",
    "address": "岐阜県中津川市新町６－２４",
    "lat": 35.4969358,
    "lng": 137.5045696,
    "tel": "０５７３－６２－２２２５",
    "url": "",
    "pref": "岐阜県",
    "city": "中津川市",
    "category": "community_day_service",
    "serviceType": "地域密着型通所介護",
    "capacity": 0,
    "openDays": [
      "平日",
      "土曜日",
      "祝日"
    ],
    "openDaysNote": ""
  },
  {
    "id": "2171500149",
    "name": "瀬戸の里デイサービスセンター",
    "kana": "セトノサトデイサービスセンター",
    "address": "岐阜県中津川市瀬戸1387番地の8",
    "lat": 35.5166269,
    "lng": 137.4974198,
    "tel": "0573-65-6123",
    "url": "http://www.gojoukai.or.jp/publics/index/48/",
    "pref": "岐阜県",
    "city": "中津川市",
    "category": "community_day_service",
    "serviceType": "地域密着型通所介護",
    "capacity": 18,
    "openDays": [
      "平日",
      "土曜日",
      "祝日"
    ],
    "openDaysNote": "現在日曜日休業中"
  },
  {
    "id": "2191500210",
    "name": "宅老所かざぐるま",
    "kana": "タクロウジョカザグルマ",
    "address": "岐阜県中津川市田瀬990-8",
    "lat": 35.619677,
    "lng": 137.4619634,
    "tel": "0573-72-3229",
    "url": "",
    "pref": "岐阜県",
    "city": "中津川市",
    "category": "community_day_service",
    "serviceType": "地域密着型通所介護",
    "capacity": 0,
    "openDays": [
      "平日",
      "祝日"
    ],
    "openDaysNote": ""
  },
  {
    "id": "2171500131",
    "name": "中津川市デイサービスセンターゆうわ苑",
    "kana": "ナカツガワシデイサービスセンターユウワエン",
    "address": "岐阜県中津川市中津川3367番地の1",
    "lat": 35.4865345918139,
    "lng": 137.511460257672,
    "tel": "0573-66-7667",
    "url": "https://yuuwaen.jimdofree.com",
    "pref": "岐阜県",
    "city": "中津川市",
    "category": "community_day_service",
    "serviceType": "地域密着型通所介護",
    "capacity": 18,
    "openDays": [
      "平日",
      "土曜日",
      "祝日"
    ],
    "openDaysNote": ""
  },
  {
    "id": "2171500701",
    "name": "二ツ森デイサービスセンター",
    "kana": "フタツモリデイサービスセンター",
    "address": "岐阜県中津川市福岡1693-608",
    "lat": 35.5686734,
    "lng": 137.4324501,
    "tel": "0573-72-4001",
    "url": "http://www.futatsumori.or.jp/",
    "pref": "岐阜県",
    "city": "中津川市",
    "category": "community_day_service",
    "serviceType": "地域密着型通所介護",
    "capacity": 0,
    "openDays": [
      "平日",
      "土曜日",
      "祝日"
    ],
    "openDaysNote": ""
  },
  {
    "id": "2171800648",
    "name": "けあらーず土岐指定通所介護事業所",
    "kana": "ケアラーズトキシテイツウショカイゴジギョウショ",
    "address": "岐阜県土岐市泉東窯町３町目３０番",
    "lat": 35.3693429,
    "lng": 137.1908618,
    "tel": "0572-26-9818",
    "url": "https://www.seramu.com/",
    "pref": "岐阜県",
    "city": "土岐市",
    "category": "community_day_service",
    "serviceType": "地域密着型通所介護",
    "capacity": 10,
    "openDays": [
      "平日",
      "土曜日",
      "日曜日",
      "祝日"
    ],
    "openDaysNote": ""
  },
  {
    "id": "2191800065",
    "name": "ﾃﾞｲｻｰﾋﾞｽさくら庵",
    "kana": "デイサービスサクラアン",
    "address": "岐阜県土岐市下石町294番地の１",
    "lat": 35.3219112304323,
    "lng": 137.18375538703,
    "tel": "0572-57-4848",
    "url": "",
    "pref": "岐阜県",
    "city": "土岐市",
    "category": "community_day_service",
    "serviceType": "地域密着型通所介護",
    "capacity": 14,
    "openDays": [
      "平日",
      "祝日"
    ],
    "openDaysNote": ""
  },
  {
    "id": "2191880042",
    "name": "デイサービス　安",
    "kana": "デイサービス　アン",
    "address": "岐阜県土岐市曽木町1714",
    "lat": 35.2983338,
    "lng": 137.2715526,
    "tel": "0572-52-2155",
    "url": "https://an-ity.com",
    "pref": "岐阜県",
    "city": "土岐市",
    "category": "community_day_service",
    "serviceType": "地域密着型通所介護",
    "capacity": 10,
    "openDays": [
      "平日",
      "土曜日",
      "日曜日",
      "祝日"
    ],
    "openDaysNote": ""
  },
  {
    "id": "2171800317",
    "name": "デイサービスセンター一氣走",
    "kana": "デイサービスセンターイッキソウ",
    "address": "岐阜県土岐市肥田町肥田2217-2",
    "lat": 35.3506263,
    "lng": 137.2115938,
    "tel": "0572-54-7260",
    "url": "",
    "pref": "岐阜県",
    "city": "土岐市",
    "category": "community_day_service",
    "serviceType": "地域密着型通所介護",
    "capacity": null,
    "openDays": [
      "平日",
      "土曜日",
      "日曜日",
      "祝日"
    ],
    "openDaysNote": "延長は相談うけます。"
  },
  {
    "id": "2171800614",
    "name": "デイサービス小春日和",
    "kana": "デイサービスコハルビヨリ",
    "address": "岐阜県土岐市泉町河合217番地",
    "lat": 35.3666939,
    "lng": 137.2128071,
    "tel": "0572-53-3051",
    "url": "http://koharu-biyori.jp/index.html",
    "pref": "岐阜県",
    "city": "土岐市",
    "category": "community_day_service",
    "serviceType": "地域密着型通所介護",
    "capacity": 10,
    "openDays": [
      "平日",
      "土曜日",
      "日曜日",
      "祝日"
    ],
    "openDaysNote": "営業時間の延長あり"
  },
  {
    "id": "2191880075",
    "name": "デイサービス東濃檜と100年の離れうさぎの里山神邸",
    "kana": "デイサービストウノウヒノキトヒャクネンノハナレウサギノサトヤマガミテイ",
    "address": "岐阜県土岐市下石町2299",
    "lat": 35.3217112,
    "lng": 137.2108292,
    "tel": "0572-51-5358",
    "url": "",
    "pref": "岐阜県",
    "city": "土岐市",
    "category": "community_day_service",
    "serviceType": "地域密着型通所介護",
    "capacity": 0,
    "openDays": [
      "平日",
      "祝日"
    ],
    "openDaysNote": ""
  },
  {
    "id": "2171800358",
    "name": "ミニデイサービスひなたぼっこさと",
    "kana": "ミニデイサービスヒナタボッコサト",
    "address": "岐阜県土岐市駄知町1041-5",
    "lat": 35.334229,
    "lng": 137.2350862,
    "tel": "0572-59-8660",
    "url": "http:/hinatabokko-sato.com",
    "pref": "岐阜県",
    "city": "土岐市",
    "category": "community_day_service",
    "serviceType": "地域密着型通所介護",
    "capacity": 0,
    "openDays": [
      "平日",
      "土曜日",
      "祝日"
    ],
    "openDaysNote": ""
  },
  {
    "id": "2171800457",
    "name": "りおんデイサービスセンター",
    "kana": "リオンデイサービスセンター",
    "address": "岐阜県土岐市妻木町878-7ベルサンピア妻木 ベルサンピア妻木",
    "lat": 35.305894,
    "lng": 137.1885213,
    "tel": "0572-57-5397",
    "url": "",
    "pref": "岐阜県",
    "city": "土岐市",
    "category": "community_day_service",
    "serviceType": "地域密着型通所介護",
    "capacity": 10,
    "openDays": [
      "平日",
      "土曜日",
      "祝日"
    ],
    "openDaysNote": ""
  },
  {
    "id": "2191880083",
    "name": "リハビリデイセンター　ミックスアップ土岐",
    "kana": "リハビリデイセンター　ミックスアップトキ",
    "address": "岐阜県土岐市泉大島町3-9-1",
    "lat": 35.366083,
    "lng": 137.1904927,
    "tel": "0572-44-7702",
    "url": "",
    "pref": "岐阜県",
    "city": "土岐市",
    "category": "community_day_service",
    "serviceType": "地域密着型通所介護",
    "capacity": 0,
    "openDays": [
      "平日",
      "土曜日",
      "祝日"
    ],
    "openDaysNote": "午前・午後の１日２単位実施"
  },
  {
    "id": "2191301007",
    "name": "東白川村デイサービスセンター",
    "kana": "ヒガシシラカワムラデイサービスセンター",
    "address": "岐阜県加茂郡東白川村神土697-1",
    "lat": 35.646873293301,
    "lng": 137.333320039812,
    "tel": "0574-78-2392",
    "url": "",
    "pref": "岐阜県",
    "city": "東白川村",
    "category": "community_day_service",
    "serviceType": "地域密着型通所介護",
    "capacity": null,
    "openDays": [
      "平日",
      "祝日"
    ],
    "openDaysNote": "行事等がある場合は土曜日運営あり（年一回程度）（改行）冬季営業時間　8：00～15：40"
  },
  {
    "id": "2172900496",
    "name": "白川村デイサービスセンターしゃくなげ荘",
    "kana": "シラカワムラデイサービスセンターシャクナゲソウ",
    "address": "岐阜県大野郡白川村大字長瀬字小保木755-14",
    "lat": 36.1737028550674,
    "lng": 136.906694266913,
    "tel": "05769-5-2217",
    "url": "https://iful-jikeikai.com/",
    "pref": "岐阜県",
    "city": "白川村",
    "category": "community_day_service",
    "serviceType": "地域密着型通所介護",
    "capacity": 0,
    "openDays": [
      "平日",
      "土曜日",
      "祝日"
    ],
    "openDaysNote": "祝日休館あり、12月29日から1月3日は休館"
  },
  {
    "id": "2171300771",
    "name": "サポート・一心　元気の館",
    "kana": "サポート・イッシン　ゲンキノヤカタ",
    "address": "岐阜県加茂郡白川町河岐305-12",
    "lat": 35.5833767,
    "lng": 137.178431,
    "tel": "0574-74-0255",
    "url": "",
    "pref": "岐阜県",
    "city": "白川町",
    "category": "community_day_service",
    "serviceType": "地域密着型通所介護",
    "capacity": 10,
    "openDays": [
      "平日",
      "土曜日",
      "祝日"
    ],
    "openDaysNote": ""
  },
  {
    "id": "2191301064",
    "name": "サンシャイン美濃白川デイサービスセンター",
    "kana": "サンシャインミノシラカワデイサービスセンター",
    "address": "岐阜県加茂郡白川町坂ノ東5500-1",
    "lat": 35.6025439655531,
    "lng": 137.166162694477,
    "tel": "0574-75-2340",
    "url": "https://shirakawa-shakyo.or.jp",
    "pref": "岐阜県",
    "city": "白川町",
    "category": "community_day_service",
    "serviceType": "地域密着型通所介護",
    "capacity": null,
    "openDays": [
      "平日",
      "土曜日",
      "祝日"
    ],
    "openDaysNote": ""
  },
  {
    "id": "2171300805",
    "name": "デイサービス　かわまた茶寮",
    "kana": "デイサービス　カワマタサリョウ",
    "address": "岐阜県加茂郡白川町河岐1729－5",
    "lat": 35.5807786468236,
    "lng": 137.190644346478,
    "tel": "0574－72－1113",
    "url": "",
    "pref": "岐阜県",
    "city": "白川町",
    "category": "community_day_service",
    "serviceType": "地域密着型通所介護",
    "capacity": 10,
    "openDays": [
      "平日",
      "土曜日",
      "日曜日",
      "祝日"
    ],
    "openDaysNote": ""
  },
  {
    "id": "2191301106",
    "name": "黒川ディサービスセンター気楽園",
    "kana": "クロカワディサービスセンターキラクエン",
    "address": "岐阜県加茂郡白川町黒川1819番地1",
    "lat": 35.5961941,
    "lng": 137.3217984,
    "tel": "0574－77－0033",
    "url": "https://shirakawa-shakyo.or.jp",
    "pref": "岐阜県",
    "city": "白川町",
    "category": "community_day_service",
    "serviceType": "地域密着型通所介護",
    "capacity": 0,
    "openDays": [
      "平日",
      "土曜日",
      "祝日"
    ],
    "openDaysNote": ""
  },
  {
    "id": "2191301098",
    "name": "佐見デイサービスセンターせせらぎ園",
    "kana": "サミデイサービスセンターセセラギエン",
    "address": "岐阜県加茂郡白川町下佐見2510-2",
    "lat": 35.6622769682922,
    "lng": 137.238170276092,
    "tel": "0574-76-0033",
    "url": "https://shirakawa-shakyo.or.jp",
    "pref": "岐阜県",
    "city": "白川町",
    "category": "community_day_service",
    "serviceType": "地域密着型通所介護",
    "capacity": null,
    "openDays": [
      "平日",
      "土曜日"
    ],
    "openDaysNote": "とくになし"
  },
  {
    "id": "2171300821",
    "name": "ありがとサン八百津",
    "kana": "アリガトサンヤオツ",
    "address": "岐阜県加茂郡八百津町八百津3862-2",
    "lat": 35.4766320044451,
    "lng": 137.141769519852,
    "tel": "0574-50-2000",
    "url": "http://arigato3-tnsi.jimdo.com/",
    "pref": "岐阜県",
    "city": "八百津町",
    "category": "community_day_service",
    "serviceType": "地域密着型通所介護",
    "capacity": 0,
    "openDays": [
      "平日",
      "祝日"
    ],
    "openDaysNote": "ＧＷ・お盆・年末年始休日あり"
  },
  {
    "id": "2171300763",
    "name": "ミニデイサービスあさひ",
    "kana": "ミニデイサービスアサヒ",
    "address": "岐阜県加茂郡八百津町伊岐津志1749-2",
    "lat": 35.4689336161815,
    "lng": 137.129115271667,
    "tel": "0574-43-2721",
    "url": "",
    "pref": "岐阜県",
    "city": "八百津町",
    "category": "community_day_service",
    "serviceType": "地域密着型通所介護",
    "capacity": 0,
    "openDays": [
      "平日",
      "土曜日",
      "祝日"
    ],
    "openDaysNote": "無し。"
  },
  {
    "id": "2173300209",
    "name": "デイサービスセンターあいらすの森",
    "kana": "デイサービスセンターアイラスノモリ",
    "address": "岐阜県飛騨市古川町下気多85-1あいらすの森 あいらすの森",
    "lat": 36.2436098,
    "lng": 137.1777816,
    "tel": "0577-57-9933",
    "url": "",
    "pref": "岐阜県",
    "city": "飛騨市",
    "category": "community_day_service",
    "serviceType": "地域密着型通所介護",
    "capacity": 15,
    "openDays": [
      "平日",
      "土曜日",
      "祝日"
    ],
    "openDaysNote": "年末年始休み"
  },
  {
    "id": "2193300072",
    "name": "河合デイサービスセンター",
    "kana": "カワイデイサービスセンター",
    "address": "岐阜県飛騨市河合町角川318番地河合町保健福祉センター 河合町保健福祉センター",
    "lat": 36.3037927,
    "lng": 137.1013999,
    "tel": "0577-65-1077",
    "url": "http://www.yosikifukusikai.jp/",
    "pref": "岐阜県",
    "city": "飛騨市",
    "category": "community_day_service",
    "serviceType": "地域密着型通所介護",
    "capacity": 18,
    "openDays": [
      "平日",
      "祝日"
    ],
    "openDaysNote": "祝日は運営しております"
  },
  {
    "id": "2193300148",
    "name": "古川デイサービスセンター",
    "kana": "フルカワデイサービスセンター",
    "address": "古川町若宮二丁目1番60号古川町総合保健福祉センター（ハートピア古川） 古川町総合保健福祉センター（ハートピア古川）",
    "lat": 36.2369524,
    "lng": 137.1900544,
    "tel": "0577-73-2266",
    "url": "https://www.yosikifukusikai.jp",
    "pref": "岐阜県",
    "city": "飛騨市",
    "category": "community_day_service",
    "serviceType": "地域密着型通所介護",
    "capacity": 18,
    "openDays": [
      "平日",
      "祝日"
    ],
    "openDaysNote": "定休日以外の祝日は基本的に営業を行いますが、やむを得ない事由の場合は、休ませていただく場合があります。"
  },
  {
    "id": "2193300114",
    "name": "地域密着型通所介護　まごの手",
    "kana": "チイキミッチャクガタツウショカイゴ　マゴノテ",
    "address": "岐阜県飛騨市神岡町殿606番地2",
    "lat": 36.3254569,
    "lng": 137.3101531,
    "tel": "0578-84-0022",
    "url": "http://www.magonote.life",
    "pref": "岐阜県",
    "city": "飛騨市",
    "category": "community_day_service",
    "serviceType": "地域密着型通所介護",
    "capacity": 0,
    "openDays": [
      "平日",
      "土曜日"
    ],
    "openDaysNote": "月曜日～土曜日営業"
  },
  {
    "id": "2171200559",
    "name": "ありがとサン　美濃加茂",
    "kana": "アリガトサン　ミノカモ",
    "address": "岐阜県美濃加茂市古井町下古井468セントラルビル１Ｆ セントラルビル１Ｆ",
    "lat": 35.4431923,
    "lng": 137.0223942,
    "tel": "0574-50-5005",
    "url": "http://arigato3-tnsi.jimdo.com/",
    "pref": "岐阜県",
    "city": "美濃加茂市",
    "category": "community_day_service",
    "serviceType": "地域密着型通所介護",
    "capacity": 0,
    "openDays": [
      "平日",
      "祝日"
    ],
    "openDaysNote": "お盆、年末年始、GW（その他当社指定日は休業）"
  },
  {
    "id": "2170300350",
    "name": "デイサービス　いろり",
    "kana": "デイサービス　イロリ",
    "address": "岐阜県美濃市御手洗347-1",
    "lat": 35.5804757,
    "lng": 136.8713081,
    "tel": "0575-36-2303",
    "url": "",
    "pref": "岐阜県",
    "city": "美濃市",
    "category": "community_day_service",
    "serviceType": "地域密着型通所介護",
    "capacity": 1,
    "openDays": [
      "平日",
      "土曜日",
      "祝日"
    ],
    "openDaysNote": ""
  },
  {
    "id": "2190700076",
    "name": "北方町デイサービスセンター円苑",
    "kana": "キタガタチョウデイサービスセンターマドカエン",
    "address": "岐阜県本巣郡北方町高屋白木2丁目38番地",
    "lat": 35.4167074,
    "lng": 136.6900781,
    "tel": "058-323-6294",
    "url": "http://kitagatashakyo.or.jp/facility-f01/",
    "pref": "岐阜県",
    "city": "北方町",
    "category": "community_day_service",
    "serviceType": "地域密着型通所介護",
    "capacity": 0,
    "openDays": [
      "平日",
      "土曜日",
      "祝日"
    ],
    "openDaysNote": ""
  },
  {
    "id": "2192600183",
    "name": "デイサービス縁楽　揖斐川",
    "kana": "デイサービスエンラクイビガワ",
    "address": "岐阜県揖斐郡揖斐川町北方1475-1",
    "lat": 35.5037788,
    "lng": 136.543742,
    "tel": "0585-52-9841",
    "url": "https://kaigo-enraku.com/",
    "pref": "岐阜県",
    "city": "揖斐川町",
    "category": "community_day_service",
    "serviceType": "地域密着型通所介護",
    "capacity": 10,
    "openDays": [
      "平日",
      "土曜日",
      "日曜日",
      "祝日"
    ],
    "openDaysNote": "365日営業"
  },
  {
    "id": "2172600781",
    "name": "揖斐川町坂内デイサービスセンターもみの木",
    "kana": "イビガワチョウサカウチデイサービスセンターモミノキ",
    "address": "岐阜県揖斐郡揖斐川町坂内広瀬３１０番地３",
    "lat": 35.6019181,
    "lng": 136.4124291,
    "tel": "0585-53-2662",
    "url": "http://www.ibi-syakyou.jp/",
    "pref": "岐阜県",
    "city": "揖斐川町",
    "category": "community_day_service",
    "serviceType": "地域密着型通所介護",
    "capacity": 0,
    "openDays": [
      "平日"
    ],
    "openDaysNote": "台風、大雨、大雪等による警報発令時、新型コロナウイルスやインフルエンザなどの感染症拡大時など、状況に応じて、時短営業やサービスを中止する場合がある。"
  },
  {
    "id": "2172600799",
    "name": "揖斐川町春日デイサービスセンター",
    "kana": "イビガワチョウカスガデイサービスセンター",
    "address": "岐阜県揖斐郡揖斐川町春日六合３４２０番地",
    "lat": 35.4678574,
    "lng": 136.4876238,
    "tel": "0585-58-0008",
    "url": "http://www.ibi-syakyou.jp",
    "pref": "岐阜県",
    "city": "揖斐川町",
    "category": "community_day_service",
    "serviceType": "地域密着型通所介護",
    "capacity": 0,
    "openDays": [
      "平日",
      "土曜日"
    ],
    "openDaysNote": "台風、大雨、大雪等による警報発令時、新型コロナウィルスやインフルエンザなどの感染症拡大時など、状況に応じて、時短営業やサービスを中止する場合がある。"
  },
  {
    "id": "2192300081",
    "name": "かなやデイサービスセンター",
    "kana": "カナヤデイサービスセンター",
    "address": "岐阜県養老郡養老町金屋99番地1",
    "lat": 35.3194768836141,
    "lng": 136.555029155716,
    "tel": "0584-71-6581",
    "url": "",
    "pref": "岐阜県",
    "city": "養老町",
    "category": "community_day_service",
    "serviceType": "地域密着型通所介護",
    "capacity": 16,
    "openDays": [
      "平日",
      "祝日"
    ],
    "openDaysNote": ""
  },
  {
    "id": "2172300424",
    "name": "デイサービス　空",
    "kana": "デイサービス　クウ",
    "address": "岐阜県養老郡養老町鷲巣821-6",
    "lat": 35.2811591,
    "lng": 136.5598698,
    "tel": "0584-76-5378",
    "url": "",
    "pref": "岐阜県",
    "city": "養老町",
    "category": "community_day_service",
    "serviceType": "地域密着型通所介護",
    "capacity": 10,
    "openDays": [
      "平日",
      "土曜日",
      "祝日"
    ],
    "openDaysNote": "年末年始は4日間程度の連休となります。（年によって日程は変わるため、前月に連絡しています）（改行）夏期休暇を1日頂いてます。（日程は年によって変更）"
  },
  {
    "id": "2172300291",
    "name": "デイサービスセンタｰ幸の郷",
    "kana": "デイサービスセンターミユキノサト",
    "address": "岐阜県養老郡養老町押越887",
    "lat": 35.3070269000005,
    "lng": 136.557378750401,
    "tel": "0584-32-5055",
    "url": "https://yoshidakai-hp.com/yoshidakai/",
    "pref": "岐阜県",
    "city": "養老町",
    "category": "community_day_service",
    "serviceType": "地域密着型通所介護",
    "capacity": 0,
    "openDays": [
      "平日"
    ],
    "openDaysNote": ""
  },
  {
    "id": "2192300123",
    "name": "療養通所介護　天音の里",
    "kana": "リョウヨウツウショカイゴ　アマネノサト",
    "address": "岐阜県養老郡養老町船附字中代1344番地",
    "lat": 35.2868118,
    "lng": 136.6005703,
    "tel": "0584-35-3332",
    "url": "http://www.funacli.jp/amane/",
    "pref": "岐阜県",
    "city": "養老町",
    "category": "community_day_service",
    "serviceType": "地域密着型通所介護",
    "capacity": 9,
    "openDays": [
      "平日"
    ],
    "openDaysNote": ""
  },
  {
    "id": "2192500078",
    "name": "泰寿デイサービスセンター",
    "kana": "タイジュデイサービスセンター",
    "address": "岐阜県安八郡輪之内町楡俣新田391番地",
    "lat": 35.2987382,
    "lng": 136.650368,
    "tel": "0584‐68‐1215",
    "url": "http://www.taijyu.co.jp",
    "pref": "岐阜県",
    "city": "輪之内町",
    "category": "community_day_service",
    "serviceType": "地域密着型通所介護",
    "capacity": 0,
    "openDays": [
      "平日",
      "土曜日",
      "祝日"
    ],
    "openDaysNote": ""
  }
]