[
  {
    "id": "3390700155",
    "name": "デイホームはなね",
    "kana": "デイホームハナネ",
    "address": "岡山県井原市大字笹賀町2丁目21-3鳥越医院２階 鳥越医院２階",
    "lat": 34.5901392,
    "lng": 133.4461553,
    "tel": "0866-84-0701",
    "url": "",
    "pref": "岡山県",
    "city": "井原市",
    "category": "community_day_service",
    "serviceType": "地域密着型通所介護",
    "capacity": 17,
    "openDays": [
      "平日",
      "土曜日",
      "祝日"
    ],
    "openDaysNote": ""
  },
  {
    "id": "3370700787",
    "name": "リハビリ型デイサービス喝采",
    "kana": "リハビリガタデイサービスカッサイ",
    "address": "岡山県井原市岩倉町336-1",
    "lat": 34.576927,
    "lng": 133.4744922,
    "tel": "0866-63-3538",
    "url": "",
    "pref": "岡山県",
    "city": "井原市",
    "category": "community_day_service",
    "serviceType": "地域密着型通所介護",
    "capacity": 18,
    "openDays": [
      "平日",
      "土曜日",
      "祝日"
    ],
    "openDaysNote": "お盆（8月13日～同月15日）及びお正月（12月30日～1月3日）は休日"
  },
  {
    "id": "3370110276",
    "name": "(株）あかるいサービス",
    "kana": "カブ　アカルイサービス",
    "address": "岡山市中区雄町102",
    "lat": 34.6867463,
    "lng": 133.9690326,
    "tel": "086-279-3496",
    "url": "",
    "pref": "岡山県",
    "city": "岡山市中区",
    "category": "community_day_service",
    "serviceType": "地域密着型通所介護",
    "capacity": 15,
    "openDays": [
      "平日",
      "日曜日",
      "祝日"
    ],
    "openDaysNote": ""
  },
  {
    "id": "3370114278",
    "name": "あこだデイサービスセンター",
    "kana": "アコダデイサービスセンター",
    "address": "岡山県岡山市中区赤田字福地４６番地６",
    "lat": 34.6787976866485,
    "lng": 133.959483231383,
    "tel": "086-270-3655",
    "url": "http://hp.kaipoke.biz/422/88156/index_0004.html",
    "pref": "岡山県",
    "city": "岡山市中区",
    "category": "community_day_service",
    "serviceType": "地域密着型通所介護",
    "capacity": 10,
    "openDays": [
      "平日",
      "土曜日",
      "日曜日",
      "祝日"
    ],
    "openDaysNote": ""
  },
  {
    "id": "3370113965",
    "name": "アルファデイサービスセンター後楽園",
    "kana": "アルファデイサービスセンターコウラクエン",
    "address": "岡山県岡山市中区浜一丁目11番3号アルファデイサービスセンター後楽園 アルファデイサービスセンター後楽園",
    "lat": 34.671575,
    "lng": 133.9349638,
    "tel": "086-201-0763",
    "url": "http://www.a-living.jp/kourakuen/",
    "pref": "岡山県",
    "city": "岡山市中区",
    "category": "community_day_service",
    "serviceType": "地域密着型通所介護",
    "capacity": 12,
    "openDays": [
      "平日",
      "祝日"
    ],
    "openDaysNote": ""
  },
  {
    "id": "3390102956",
    "name": "いきようようデイサービス",
    "kana": "イキヨウヨウデイサービス",
    "address": "岡山県岡山市中区賞田212番地",
    "lat": 34.6969846,
    "lng": 133.9591741,
    "tel": "086-201-8129",
    "url": "kissakotakasima.wixsite.com",
    "pref": "岡山県",
    "city": "岡山市中区",
    "category": "community_day_service",
    "serviceType": "地域密着型通所介護",
    "capacity": 0,
    "openDays": [
      "平日",
      "土曜日",
      "祝日"
    ],
    "openDaysNote": "休日　12/30～1/3"
  },
  {
    "id": "3370109336",
    "name": "おかやまコープデイサービス中島",
    "kana": "オカヤマコープデイサービスナカシマ",
    "address": "岡山県岡山市中区中島１４９－５",
    "lat": 34.6885233,
    "lng": 133.9478848,
    "tel": "086-275-9015",
    "url": "http://okayama.coop/",
    "pref": "岡山県",
    "city": "岡山市中区",
    "category": "community_day_service",
    "serviceType": "地域密着型通所介護",
    "capacity": null,
    "openDays": [
      "平日",
      "土曜日",
      "祝日"
    ],
    "openDaysNote": "休業日は日曜日、および年末年始（12月30日～１月3日）"
  },
  {
    "id": "3370111589",
    "name": "サンデー桑野デイサービスセンター",
    "kana": "サンデークワノデイサービスセンター",
    "address": "岡山県岡山市中区桑野715-13",
    "lat": 34.6167492,
    "lng": 133.9802446,
    "tel": "086-206-2266",
    "url": "http://www.21care.co.jp/",
    "pref": "岡山県",
    "city": "岡山市中区",
    "category": "community_day_service",
    "serviceType": "地域密着型通所介護",
    "capacity": 18,
    "openDays": [
      "平日",
      "土曜日",
      "日曜日",
      "祝日"
    ],
    "openDaysNote": "年中無休（改行）基本のサービス提供時間は9:00～16:30ですが、時間の変更や夕食の提供なども対応できます。"
  },
  {
    "id": "3370105755",
    "name": "デイサービス　かりん",
    "kana": "デイサービス　カリン",
    "address": "岡山県岡山市中区湊４２０番地",
    "lat": 34.6512004,
    "lng": 133.959645,
    "tel": "086-277-7004",
    "url": "",
    "pref": "岡山県",
    "city": "岡山市中区",
    "category": "community_day_service",
    "serviceType": "地域密着型通所介護",
    "capacity": 5,
    "openDays": [
      "平日"
    ],
    "openDaysNote": ""
  },
  {
    "id": "3370108817",
    "name": "デイサービス　こはる",
    "kana": "デイサービス　コハル",
    "address": "岡山県岡山市中区今在家１１－１０",
    "lat": 34.6912232,
    "lng": 133.9565063,
    "tel": "086-207-6811",
    "url": "",
    "pref": "岡山県",
    "city": "岡山市中区",
    "category": "community_day_service",
    "serviceType": "地域密着型通所介護",
    "capacity": 0,
    "openDays": [
      "平日",
      "土曜日",
      "祝日"
    ],
    "openDaysNote": ""
  },
  {
    "id": "3370108411",
    "name": "デイサービス　ファミリー",
    "kana": "デイサービス　ファミリー",
    "address": "岡山県岡山市中区平井1丁目5番20号",
    "lat": 34.6430894,
    "lng": 133.9398443,
    "tel": "086-901-1001",
    "url": "",
    "pref": "岡山県",
    "city": "岡山市中区",
    "category": "community_day_service",
    "serviceType": "地域密着型通所介護",
    "capacity": 10,
    "openDays": [
      "平日",
      "土曜日"
    ],
    "openDaysNote": "台風などの天候悪化に伴い安全なサービスの提供が困難であると管理者が判断した場合は営業時間の短縮や休みにする場合があります。"
  },
  {
    "id": "3370109328",
    "name": "デイサービス　ゆうき",
    "kana": "デイサービス　ユウキ",
    "address": "岡山県岡山市中区関３５－７",
    "lat": 34.6762645,
    "lng": 133.9710962,
    "tel": "086-239-5754",
    "url": "",
    "pref": "岡山県",
    "city": "岡山市中区",
    "category": "community_day_service",
    "serviceType": "地域密着型通所介護",
    "capacity": 10,
    "openDays": [
      "平日",
      "土曜日",
      "祝日"
    ],
    "openDaysNote": ""
  },
  {
    "id": "3390102675",
    "name": "デイサービスセンターひまわりの家",
    "kana": "デイサービスセンターヒマワリノイエ",
    "address": "岡山県岡山市中区海吉1889－14",
    "lat": 34.6558073,
    "lng": 133.9813095,
    "tel": "086－953－4382",
    "url": "",
    "pref": "岡山県",
    "city": "岡山市中区",
    "category": "community_day_service",
    "serviceType": "地域密着型通所介護",
    "capacity": 0,
    "openDays": [
      "平日",
      "祝日"
    ],
    "openDaysNote": ""
  },
  {
    "id": "3370113510",
    "name": "デイサービスセンターみさおやま",
    "kana": "デイサービスセンターミサオヤマ",
    "address": "岡山県岡山市中区沢田355-5",
    "lat": 34.6692709,
    "lng": 133.9652386,
    "tel": "086-238-5243",
    "url": "http://mediwelcare.hp.gogo.jp/pc/",
    "pref": "岡山県",
    "city": "岡山市中区",
    "category": "community_day_service",
    "serviceType": "地域密着型通所介護",
    "capacity": 15,
    "openDays": [
      "平日"
    ],
    "openDaysNote": "ご利用者のニーズに合わせ、臨時的に定休日のサービス提供も行ないます。"
  },
  {
    "id": "3370111654",
    "name": "デイサービスセンター皇",
    "kana": "デイサービスセンタースメラギ",
    "address": "岡山県岡山市中区神下１２７番地５",
    "lat": 34.6778032,
    "lng": 133.9793619,
    "tel": "086-206-3671",
    "url": "http://www.time-care.com",
    "pref": "岡山県",
    "city": "岡山市中区",
    "category": "community_day_service",
    "serviceType": "地域密着型通所介護",
    "capacity": 0,
    "openDays": [
      "平日",
      "土曜日",
      "祝日"
    ],
    "openDaysNote": "12/30～1/3（プラン発生時には対応して行く）"
  },
  {
    "id": "3370114310",
    "name": "デイサービスセンター皇　３号館",
    "kana": "デイサービスセンタースメラギ　３ゴウカン",
    "address": "神下127-6",
    "lat": 34.6776754,
    "lng": 133.9793869,
    "tel": "086-206-3392",
    "url": "www.time-care.com",
    "pref": "岡山県",
    "city": "岡山市中区",
    "category": "community_day_service",
    "serviceType": "地域密着型通所介護",
    "capacity": 10,
    "openDays": [
      "平日",
      "土曜日",
      "祝日"
    ],
    "openDaysNote": "年末年始　１２月３０日～１月３日は休日。（ケアプランにより検討）"
  },
  {
    "id": "3370113841",
    "name": "デイサービスつくも",
    "kana": "デイサービスツクモ",
    "address": "岡山県岡山市中区長岡５８５ー１",
    "lat": 34.6812251,
    "lng": 133.9886136,
    "tel": "086-279-0165",
    "url": "http://tsukumo.wixsite.com/tsukumo99",
    "pref": "岡山県",
    "city": "岡山市中区",
    "category": "community_day_service",
    "serviceType": "地域密着型通所介護",
    "capacity": 0,
    "openDays": [
      "平日",
      "土曜日",
      "祝日"
    ],
    "openDaysNote": "月～土曜日の祝日は営業（改行）年末年始（12/30～1/3）は定休日"
  },
  {
    "id": "3390102279",
    "name": "デイサービスまる",
    "kana": "デイサービスマル",
    "address": "岡山県岡山市中区平井7丁目23番44号",
    "lat": 34.6325219,
    "lng": 133.9472823,
    "tel": "086-200-1771",
    "url": "",
    "pref": "岡山県",
    "city": "岡山市中区",
    "category": "community_day_service",
    "serviceType": "地域密着型通所介護",
    "capacity": 18,
    "openDays": [
      "平日"
    ],
    "openDaysNote": "居宅サービス計画により営業日及び営業時間以外でもサービス提供を行う場合有"
  },
  {
    "id": "3370110888",
    "name": "デイサービスみち",
    "kana": "デイサービスミチ",
    "address": "岡山県　岡山市　中区　浜３丁目　５番１号",
    "lat": 34.6692645,
    "lng": 133.9405856,
    "tel": "086-270-1663",
    "url": "https://stmichi1663.wixsite.com/michi",
    "pref": "岡山県",
    "city": "岡山市中区",
    "category": "community_day_service",
    "serviceType": "地域密着型通所介護",
    "capacity": 6,
    "openDays": [
      "平日",
      "土曜日",
      "祝日"
    ],
    "openDaysNote": ""
  },
  {
    "id": "3370110540",
    "name": "デイサービス菜の花",
    "kana": "デイサービスナノハナ",
    "address": "岡山県岡山市中区平井５丁目７番４７－３号",
    "lat": 34.6380039,
    "lng": 133.9432412,
    "tel": "086-276-1358",
    "url": "",
    "pref": "岡山県",
    "city": "岡山市中区",
    "category": "community_day_service",
    "serviceType": "地域密着型通所介護",
    "capacity": 0,
    "openDays": [
      "平日"
    ],
    "openDaysNote": ""
  },
  {
    "id": "3390102824",
    "name": "デイサービス青い宙",
    "kana": "デイサービスアオイソラ",
    "address": "岡山県岡山市中区藤崎622-1",
    "lat": 34.6070858,
    "lng": 133.9770747,
    "tel": "086-277-4447",
    "url": "http://www.aoisora-ds.jp",
    "pref": "岡山県",
    "city": "岡山市中区",
    "category": "community_day_service",
    "serviceType": "地域密着型通所介護",
    "capacity": 0,
    "openDays": [
      "平日",
      "祝日"
    ],
    "openDaysNote": ""
  },
  {
    "id": "3370106753",
    "name": "まごころデイサービス",
    "kana": "マゴコロデイサービス",
    "address": "岡山県岡山市中区関１９－１",
    "lat": 34.6752729,
    "lng": 133.9714518,
    "tel": "086-208-3857",
    "url": "http:/www9.tiki.ne.jp/~magokoro/",
    "pref": "岡山県",
    "city": "岡山市中区",
    "category": "community_day_service",
    "serviceType": "地域密着型通所介護",
    "capacity": 10,
    "openDays": [
      "平日",
      "祝日"
    ],
    "openDaysNote": "なし"
  },
  {
    "id": "3370113734",
    "name": "ﾘﾊﾋﾞﾘデイサービス　てく・とこ　高島店",
    "kana": "リハビリデイサービス　テク・トコ　タカシマテン",
    "address": "高島新屋敷46-9",
    "lat": 34.6890285348242,
    "lng": 133.953318714156,
    "tel": "086-207-2459",
    "url": "",
    "pref": "岡山県",
    "city": "岡山市中区",
    "category": "community_day_service",
    "serviceType": "地域密着型通所介護",
    "capacity": 0,
    "openDays": [
      "平日",
      "祝日"
    ],
    "openDaysNote": "午前、午後２単位制（改行）（改行）午前　9：00-12：10（改行）午後　13：30-16：40"
  },
  {
    "id": "3370113106",
    "name": "リハビリデイサービスてく・とこ",
    "kana": "リハビリデイサービス　テク・トコ",
    "address": "岡山県岡山市中区西川原１丁目１５番２４号",
    "lat": 34.6769217,
    "lng": 133.9389023,
    "tel": "（086）206-2992",
    "url": "",
    "pref": "岡山県",
    "city": "岡山市中区",
    "category": "community_day_service",
    "serviceType": "地域密着型通所介護",
    "capacity": 18,
    "openDays": [
      "平日",
      "土曜日",
      "祝日"
    ],
    "openDaysNote": "午前と午後の２部制（改行）　午前　9：00～12：10（改行）　午後13：30～16：40"
  },
  {
    "id": "3390102501",
    "name": "リハプライド岡山東",
    "kana": "リハプライドオカヤマヒガシ",
    "address": "岡山県岡山市中区山崎29-15",
    "lat": 34.6546716,
    "lng": 133.9706619,
    "tel": "086-238-5662",
    "url": "https://www.rehapride.co.jp/okayamahigashi/",
    "pref": "岡山県",
    "city": "岡山市中区",
    "category": "community_day_service",
    "serviceType": "地域密着型通所介護",
    "capacity": 0,
    "openDays": [
      "平日",
      "祝日"
    ],
    "openDaysNote": ""
  },
  {
    "id": "3370108668",
    "name": "岡山デイナーシング看護協会",
    "kana": "オカヤマデイナーシングカンゴキョウカイ",
    "address": "岡山市中区竹田155-7",
    "lat": 34.6814823,
    "lng": 133.9411076,
    "tel": "086-901-1373",
    "url": "http://www.nurse.okayama.okayama.jp/",
    "pref": "岡山県",
    "city": "岡山市中区",
    "category": "community_day_service",
    "serviceType": "地域密着型通所介護",
    "capacity": null,
    "openDays": [
      "平日"
    ],
    "openDaysNote": ""
  },
  {
    "id": "3370103354",
    "name": "岡山ふれあいデイサービスセンター",
    "kana": "オカヤマフレアイデイサービスセンター",
    "address": "岡山県岡山市中区桑野７１５番地の２",
    "lat": 34.6184601,
    "lng": 133.9794363,
    "tel": "086-274-5153",
    "url": "https://www.okayama-fureai.or.jp",
    "pref": "岡山県",
    "city": "岡山市中区",
    "category": "community_day_service",
    "serviceType": "地域密着型通所介護",
    "capacity": 18,
    "openDays": [
      "平日",
      "祝日"
    ],
    "openDaysNote": ""
  },
  {
    "id": "3390103053",
    "name": "地域密着型デイサービス　ボヌール",
    "kana": "チイキミッチャクガタデイサービス　ボヌール",
    "address": "岡山県岡山市中区竹田48-3",
    "lat": 34.6813138,
    "lng": 133.9384071,
    "tel": "862386506",
    "url": "http://day-bonheur.com",
    "pref": "岡山県",
    "city": "岡山市中区",
    "category": "community_day_service",
    "serviceType": "地域密着型通所介護",
    "capacity": 0,
    "openDays": [
      "平日",
      "祝日"
    ],
    "openDaysNote": ""
  },
  {
    "id": "3370113981",
    "name": "茶話本舗デイサービスありがとうやりがい",
    "kana": "サワホンポデイサービスアリガトウヤリガイ",
    "address": "岡山県岡山市中区関375‐10",
    "lat": 34.6836551,
    "lng": 133.9706269,
    "tel": "086-201-1910",
    "url": "",
    "pref": "岡山県",
    "city": "岡山市中区",
    "category": "community_day_service",
    "serviceType": "地域密着型通所介護",
    "capacity": 0,
    "openDays": [
      "平日",
      "土曜日",
      "日曜日",
      "祝日"
    ],
    "openDaysNote": "24時間365日営業"
  },
  {
    "id": "3390102717",
    "name": "グッドタイムクラブ・岡山",
    "kana": "グッドタイムクラブ・オカヤマ",
    "address": "岡山県岡山市東区幸地崎町1525",
    "lat": 34.617656,
    "lng": 134.0805454,
    "tel": "086-946-2294",
    "url": "http://www.goodtimehome.com/kansai/okayama.php",
    "pref": "岡山県",
    "city": "岡山市東区",
    "category": "community_day_service",
    "serviceType": "地域密着型通所介護",
    "capacity": 10,
    "openDays": [
      "平日",
      "祝日"
    ],
    "openDaysNote": ""
  },
  {
    "id": "3370111134",
    "name": "さっちゃん家デイサービスセンター",
    "kana": "サッチャンチデイサービスセンター",
    "address": "岡山県岡山市東区金田８１９番地",
    "lat": 34.6353704,
    "lng": 134.0201508,
    "tel": "086-948-9788",
    "url": "http://www16.ocn.ne.jp/^kensei/sattyannti/index.html",
    "pref": "岡山県",
    "city": "岡山市東区",
    "category": "community_day_service",
    "serviceType": "地域密着型通所介護",
    "capacity": 10,
    "openDays": [
      "平日",
      "土曜日",
      "日曜日",
      "祝日"
    ],
    "openDaysNote": "特になし"
  },
  {
    "id": "3370105441",
    "name": "デイサービス　小鳥の森苑",
    "kana": "デイサービス　コトリノモリエン",
    "address": "岡山県岡山市東区南古都734",
    "lat": 34.6991498,
    "lng": 134.0493609,
    "tel": "086-297-0654",
    "url": "",
    "pref": "岡山県",
    "city": "岡山市東区",
    "category": "community_day_service",
    "serviceType": "地域密着型通所介護",
    "capacity": 18,
    "openDays": [
      "平日",
      "祝日"
    ],
    "openDaysNote": "延長のご要望は、19時を上限としてご相談ください。"
  },
  {
    "id": "3370114450",
    "name": "デイサービスさんさん平島",
    "kana": "サンサンヒラジマ",
    "address": "東平島706さんさん平島 さんさん平島",
    "lat": 34.7150221714608,
    "lng": 134.0507718,
    "tel": "086-297-3003",
    "url": "http://www.hirajima.com/",
    "pref": "岡山県",
    "city": "岡山市東区",
    "category": "community_day_service",
    "serviceType": "地域密着型通所介護",
    "capacity": 15,
    "openDays": [
      "平日",
      "土曜日"
    ],
    "openDaysNote": ""
  },
  {
    "id": "3370109104",
    "name": "デイサービスセンター　どんぐりハウス",
    "kana": "デイサービスセンター　ドングリハウス",
    "address": "岡山県岡山市東区西大寺射越321番地",
    "lat": 34.655426,
    "lng": 134.0545799,
    "tel": "086-942-8451",
    "url": "",
    "pref": "岡山県",
    "city": "岡山市東区",
    "category": "community_day_service",
    "serviceType": "地域密着型通所介護",
    "capacity": 10,
    "openDays": [
      "平日",
      "土曜日",
      "祝日"
    ],
    "openDaysNote": "休業日が4日以上継続する場合には、ご利用者の要望（入浴等）により、中の1日を通常どおり営業します。"
  },
  {
    "id": "3370104931",
    "name": "デイサービスセンター　ゆりかご",
    "kana": "デイサービスセンター　ユリカゴ",
    "address": "岡山県岡山市東区升田606-1",
    "lat": 34.6126394,
    "lng": 134.0058813,
    "tel": "086-948-9818",
    "url": "yurikago-1491@chorus.ocn.ne.jp",
    "pref": "岡山県",
    "city": "岡山市東区",
    "category": "community_day_service",
    "serviceType": "地域密着型通所介護",
    "capacity": 2,
    "openDays": [
      "平日",
      "土曜日",
      "祝日"
    ],
    "openDaysNote": ""
  },
  {
    "id": "3390102188",
    "name": "デイサービスセンターはなみずき西大寺",
    "kana": "デイサービスセンターハナミズキサイダイジ",
    "address": "岡山県岡山市東区西大寺中野本町1-13",
    "lat": 34.6558235,
    "lng": 134.0278687,
    "tel": "086-206-5122",
    "url": "",
    "pref": "岡山県",
    "city": "岡山市東区",
    "category": "community_day_service",
    "serviceType": "地域密着型通所介護",
    "capacity": 18,
    "openDays": [
      "平日",
      "土曜日",
      "祝日"
    ],
    "openDaysNote": ""
  },
  {
    "id": "3370112470",
    "name": "デイサービスセンター皇2号館",
    "kana": "デイサービスセンタースメラギ２ゴウカン",
    "address": "岡山市東区宍甘１２４７－１",
    "lat": 34.6969178,
    "lng": 133.9913883,
    "tel": "０８６－２０６－６５７１",
    "url": "www.time-care.com",
    "pref": "岡山県",
    "city": "岡山市東区",
    "category": "community_day_service",
    "serviceType": "地域密着型通所介護",
    "capacity": 10,
    "openDays": [
      "平日",
      "土曜日",
      "祝日"
    ],
    "openDaysNote": "13/30～1/3（ケアプランにて実施の可能性あり）"
  },
  {
    "id": "3370113619",
    "name": "デイサービスゆんた益野",
    "kana": "デイサービスユンタマスノ",
    "address": "岡山県岡山市東区大多羅町103-1",
    "lat": 34.6612988,
    "lng": 134.0023345,
    "tel": "086-206-2671",
    "url": "http://www.gm-project.jp/yunta-masuno",
    "pref": "岡山県",
    "city": "岡山市東区",
    "category": "community_day_service",
    "serviceType": "地域密着型通所介護",
    "capacity": 10,
    "openDays": [
      "平日",
      "祝日"
    ],
    "openDaysNote": ""
  },
  {
    "id": "3370110532",
    "name": "プチアイル益野",
    "kana": "プチアイルマスノ",
    "address": "岡山市東区益野町396-39",
    "lat": 34.6549515275581,
    "lng": 134.000684087836,
    "tel": "086-238-2130",
    "url": "",
    "pref": "岡山県",
    "city": "岡山市東区",
    "category": "community_day_service",
    "serviceType": "地域密着型通所介護",
    "capacity": 0,
    "openDays": [
      "平日",
      "土曜日",
      "祝日"
    ],
    "openDaysNote": ""
  },
  {
    "id": "3370111720",
    "name": "よりあいデイサービス　　心",
    "kana": "ヨリアイデイサービス　　シン",
    "address": "西大寺新地　　311番地",
    "lat": 34.6522374,
    "lng": 134.0531189,
    "tel": "086-206-3075",
    "url": "",
    "pref": "岡山県",
    "city": "岡山市東区",
    "category": "community_day_service",
    "serviceType": "地域密着型通所介護",
    "capacity": 10,
    "openDays": [
      "平日",
      "土曜日"
    ],
    "openDaysNote": ""
  },
  {
    "id": "3390102527",
    "name": "リハプライド　さいだいじ",
    "kana": "リハプライド　サイダイジ",
    "address": "岡山県岡山市東区西大寺中野874-10",
    "lat": 34.6563267,
    "lng": 134.0243297,
    "tel": "086-201-1580",
    "url": "https://www.rehapride.co.jp/saidaiji/",
    "pref": "岡山県",
    "city": "岡山市東区",
    "category": "community_day_service",
    "serviceType": "地域密着型通所介護",
    "capacity": null,
    "openDays": [
      "平日",
      "土曜日",
      "祝日"
    ],
    "openDaysNote": ""
  },
  {
    "id": "3390102709",
    "name": "会陽の里デイサービスセンター",
    "kana": "エヨウノサトデイサービスセンター",
    "address": "岡山県岡山市東区久保205番地の1",
    "lat": 34.6637292,
    "lng": 134.042304,
    "tel": "086-944-2700",
    "url": "http://www.chuo-fukushikai.jp",
    "pref": "岡山県",
    "city": "岡山市東区",
    "category": "community_day_service",
    "serviceType": "地域密着型通所介護",
    "capacity": null,
    "openDays": [
      "平日",
      "土曜日",
      "祝日"
    ],
    "openDaysNote": ""
  },
  {
    "id": "3390102022",
    "name": "中野けんせいえんデイサービスセンターひなた",
    "kana": "ナカノケンセイエンデイサービスセンターヒナタ",
    "address": "岡山県岡山市東区西大寺中野677-1",
    "lat": 34.6597703,
    "lng": 134.0288435,
    "tel": "086-943-1707",
    "url": "https://www.chuo-fukushikai.jp/facility/nakano-kenseien/",
    "pref": "岡山県",
    "city": "岡山市東区",
    "category": "community_day_service",
    "serviceType": "地域密着型通所介護",
    "capacity": 4,
    "openDays": [
      "平日",
      "土曜日",
      "祝日"
    ],
    "openDaysNote": ""
  },
  {
    "id": "3390102121",
    "name": "アースサポート岡山",
    "kana": "アースサポートオカヤマ",
    "address": "岡山県岡山市南区新保1612番地16",
    "lat": 34.6365169,
    "lng": 133.9093287,
    "tel": "086-244-4600",
    "url": "http://www.earthsupport.co.jp",
    "pref": "岡山県",
    "city": "岡山市南区",
    "category": "community_day_service",
    "serviceType": "地域密着型通所介護",
    "capacity": 0,
    "openDays": [
      "平日",
      "土曜日",
      "祝日"
    ],
    "openDaysNote": "なし"
  },
  {
    "id": "3370111852",
    "name": "アイル岡南",
    "kana": "アイルコウナン",
    "address": "岡山県岡山市南区三浜町1-8-17",
    "lat": 34.6146931615474,
    "lng": 133.946626465012,
    "tel": "086-250-2021",
    "url": "airu-kounan@abeam.ocn.ne.jp",
    "pref": "岡山県",
    "city": "岡山市南区",
    "category": "community_day_service",
    "serviceType": "地域密着型通所介護",
    "capacity": 18,
    "openDays": [
      "平日",
      "土曜日",
      "祝日"
    ],
    "openDaysNote": ""
  },
  {
    "id": "3370108452",
    "name": "かとう内科並木通り診療所　デイサービスセンター　なみき",
    "kana": "カトウナイカナミキドオリシンリョウショ　デイサービスセンター　ナミキ",
    "address": "岡山県岡山市南区並木町2丁目27-5",
    "lat": 34.6101432,
    "lng": 133.9389398,
    "tel": "086-264-8855",
    "url": "www.kato-namiki.or.jp",
    "pref": "岡山県",
    "city": "岡山市南区",
    "category": "community_day_service",
    "serviceType": "地域密着型通所介護",
    "capacity": 0,
    "openDays": [
      "平日"
    ],
    "openDaysNote": ""
  },
  {
    "id": "3370111415",
    "name": "サンキ・ウエルビィ　デイサービスセンター新保",
    "kana": "サンキ・ウエルビィ　デイサービスセンターシンボウ",
    "address": "岡山県岡山市南区新保681-3",
    "lat": 34.629565,
    "lng": 133.9093759,
    "tel": "086-239-8004",
    "url": "",
    "pref": "岡山県",
    "city": "岡山市南区",
    "category": "community_day_service",
    "serviceType": "地域密着型通所介護",
    "capacity": 18,
    "openDays": [
      "平日",
      "祝日"
    ],
    "openDaysNote": "緊急の場合は、電話等により２４時間常時連絡が可能な体制を取るものとします。"
  },
  {
    "id": "3390102907",
    "name": "デイサービス　いけだ",
    "kana": "デイサービス　イケダ",
    "address": "岡山県岡山市南区彦崎2810-7",
    "lat": 34.5522505,
    "lng": 133.8368208,
    "tel": "086-362-3100",
    "url": "https://ikedaiin.or.jp",
    "pref": "岡山県",
    "city": "岡山市南区",
    "category": "community_day_service",
    "serviceType": "地域密着型通所介護",
    "capacity": 70,
    "openDays": [
      "平日",
      "土曜日"
    ],
    "openDaysNote": "12：05～13：30は営業時間外"
  },
  {
    "id": "3370107926",
    "name": "デイサービス　ふる里の家",
    "kana": "デイーサビスフルサトノイエ",
    "address": "岡山県岡山市南区浦安本町115-44",
    "lat": 34.6045797,
    "lng": 133.9285101,
    "tel": "086-261-7607",
    "url": "",
    "pref": "岡山県",
    "city": "岡山市南区",
    "category": "community_day_service",
    "serviceType": "地域密着型通所介護",
    "capacity": 0,
    "openDays": [
      "平日",
      "土曜日"
    ],
    "openDaysNote": "特になし"
  },
  {
    "id": "3390103319",
    "name": "デイサービス　ラ・クーラ",
    "kana": "デイサービス　ラ　クーラ",
    "address": "岡山県岡山市南区内尾410-10",
    "lat": 34.6033946,
    "lng": 133.8620946,
    "tel": "086-282-8877",
    "url": "",
    "pref": "岡山県",
    "city": "岡山市南区",
    "category": "community_day_service",
    "serviceType": "地域密着型通所介護",
    "capacity": null,
    "openDays": [
      "平日",
      "土曜日"
    ],
    "openDaysNote": "夏季休暇の8月13日から8月15日まで及び年末年始休み12月29日から翌年1月3日までを除く。（ただし、夏季休暇で４日以上、年末年始休暇で７日以上の長期間の連休となる場合は、事前に利用者及びその家族並びに居宅介護支援事業所等の関係機関に周知の上、日程の調整を行うこと又は休日を営業日とすることがある。）"
  },
  {
    "id": "3370112843",
    "name": "デイサービス・カモミール",
    "kana": "デイサービス・カモミール",
    "address": "古新田８１－７",
    "lat": 34.6317602071409,
    "lng": 133.871284759525,
    "tel": "086-239-1122",
    "url": "https://hotlife-okayama.com/",
    "pref": "岡山県",
    "city": "岡山市南区",
    "category": "community_day_service",
    "serviceType": "地域密着型通所介護",
    "capacity": 1,
    "openDays": [
      "平日",
      "祝日"
    ],
    "openDaysNote": "ご利用者様のご都合により短縮可能です。"
  },
  {
    "id": "3370108536",
    "name": "デイサービスあゆむ福田の家",
    "kana": "デイサービスアユムフクダノイエ",
    "address": "岡山市南区福田９5－14",
    "lat": 34.6172782,
    "lng": 133.9291626,
    "tel": "086-262-3208",
    "url": "http://www.ayumu-service.com",
    "pref": "岡山県",
    "city": "岡山市南区",
    "category": "community_day_service",
    "serviceType": "地域密着型通所介護",
    "capacity": 0,
    "openDays": [
      "平日",
      "祝日"
    ],
    "openDaysNote": ""
  },
  {
    "id": "3370113932",
    "name": "デイサービスココファン妹尾",
    "kana": "デイサービスココファンセノオ",
    "address": "東畦164－1",
    "lat": 34.6086969,
    "lng": 133.8731849,
    "tel": "086－239-1900",
    "url": "http://www.cocofump.co.jp",
    "pref": "岡山県",
    "city": "岡山市南区",
    "category": "community_day_service",
    "serviceType": "地域密着型通所介護",
    "capacity": 18,
    "openDays": [
      "平日",
      "土曜日",
      "祝日"
    ],
    "openDaysNote": ""
  },
  {
    "id": "3370113544",
    "name": "デイサービスセンターチェリー大福",
    "kana": "デイサービスセンターチェリーオオフク",
    "address": "岡山県岡山市南区大福1308番地12",
    "lat": 34.6158544,
    "lng": 133.8774236,
    "tel": "086-282-2688",
    "url": "",
    "pref": "岡山県",
    "city": "岡山市南区",
    "category": "community_day_service",
    "serviceType": "地域密着型通所介護",
    "capacity": 0,
    "openDays": [
      "平日",
      "土曜日",
      "祝日"
    ],
    "openDaysNote": "1月1日～1月3日（改行）8月13日～8月15日（改行）＊変動あり"
  },
  {
    "id": "3370108197",
    "name": "デイサービスセンターひかりの里えんがわ倶楽部",
    "kana": "デイサービスセンターヒカリノサトエンガワクラブ",
    "address": "岡山県岡山市南区中畦187-8",
    "lat": 34.5866956,
    "lng": 133.849576,
    "tel": "086-298-1300",
    "url": "http//www.hikarinosato-okayama.com",
    "pref": "岡山県",
    "city": "岡山市南区",
    "category": "community_day_service",
    "serviceType": "地域密着型通所介護",
    "capacity": 15,
    "openDays": [
      "平日",
      "土曜日",
      "祝日"
    ],
    "openDaysNote": "お盆（8/13-15）　年末年始（12/31-1/3）は休み"
  },
  {
    "id": "3370112629",
    "name": "デイサービスセンターみさき",
    "kana": "デイサービスセンターミサキ",
    "address": "岡山県岡山市南区泉田4丁目3－53",
    "lat": 34.6259326,
    "lng": 133.9158008,
    "tel": "086－224－3400",
    "url": "http://azcorporation.co.jp",
    "pref": "岡山県",
    "city": "岡山市南区",
    "category": "community_day_service",
    "serviceType": "地域密着型通所介護",
    "capacity": 5,
    "openDays": [
      "平日",
      "祝日"
    ],
    "openDaysNote": "年末年始12月29日～1月3日　ゴールデンウィーク3日　盆休み8月13日～8月15日　を休みとする。"
  },
  {
    "id": "3370108189",
    "name": "デイサービスセンター音色",
    "kana": "デイサービスセンターネイロ",
    "address": "岡山県岡山市南区郡728-5",
    "lat": 34.5802838566362,
    "lng": 133.96478580446,
    "tel": "086-250-1718",
    "url": "",
    "pref": "岡山県",
    "city": "岡山市南区",
    "category": "community_day_service",
    "serviceType": "地域密着型通所介護",
    "capacity": null,
    "openDays": [
      "平日",
      "土曜日",
      "祝日"
    ],
    "openDaysNote": ""
  },
  {
    "id": "3370105953",
    "name": "デイサービスセンター花さき山",
    "kana": "デイサービスセンターハナサキヤマ",
    "address": "岡山県岡山市南区新保656-14",
    "lat": 34.632538420152,
    "lng": 133.909377988885,
    "tel": "086-805-0502",
    "url": "http://www.ne.jp/asahi/kaigo/aiai/",
    "pref": "岡山県",
    "city": "岡山市南区",
    "category": "community_day_service",
    "serviceType": "地域密着型通所介護",
    "capacity": 18,
    "openDays": [
      "平日",
      "土曜日"
    ],
    "openDaysNote": "火曜日～土曜日であれば祝日も営業(ただし８月１３日～８月１５日、１２月２９日～１月３日を除く)（改行）臨時で日曜日や月曜日も営業することがある"
  },
  {
    "id": "3370112645",
    "name": "デイサービスセンター天赦の里",
    "kana": "デイサービスセンター　テンシャノサト",
    "address": "岡山市南区福浜町19-17",
    "lat": 34.6196228,
    "lng": 133.9438168,
    "tel": "086-250-7788",
    "url": "http://www.midorikai-net.or.jp/tensyanosato/index.html",
    "pref": "岡山県",
    "city": "岡山市南区",
    "category": "community_day_service",
    "serviceType": "地域密着型通所介護",
    "capacity": 0,
    "openDays": [
      "平日",
      "土曜日",
      "祝日"
    ],
    "openDaysNote": ""
  },
  {
    "id": "3390102642",
    "name": "デイサービスプラス豊成",
    "kana": "デイサービス　プラス　トヨナリ",
    "address": "岡山県岡山市南区豊成３－１７－３ブラーボ１F,２F ブラーボ１F,２F",
    "lat": 34.626024,
    "lng": 133.9265944,
    "tel": "086-250-8573",
    "url": "",
    "pref": "岡山県",
    "city": "岡山市南区",
    "category": "community_day_service",
    "serviceType": "地域密着型通所介護",
    "capacity": 0,
    "openDays": [
      "平日",
      "土曜日",
      "日曜日",
      "祝日"
    ],
    "openDaysNote": ""
  },
  {
    "id": "3370109542",
    "name": "デイサービスみゆき",
    "kana": "デイサービスミユキ",
    "address": "岡山県岡山市南区福成1-173-2",
    "lat": 34.6144465991031,
    "lng": 133.932732850276,
    "tel": "086-728-5400",
    "url": "",
    "pref": "岡山県",
    "city": "岡山市南区",
    "category": "community_day_service",
    "serviceType": "地域密着型通所介護",
    "capacity": 15,
    "openDays": [
      "平日",
      "土曜日",
      "祝日"
    ],
    "openDaysNote": ""
  },
  {
    "id": "3370110573",
    "name": "デイサービス朱鷺の家",
    "kana": "デイサービストキノイエ",
    "address": "岡山県岡山市南区大福419-32",
    "lat": 34.615524,
    "lng": 133.873609,
    "tel": "086-282-5811",
    "url": "https://silpla.online/",
    "pref": "岡山県",
    "city": "岡山市南区",
    "category": "community_day_service",
    "serviceType": "地域密着型通所介護",
    "capacity": null,
    "openDays": [
      "平日",
      "土曜日",
      "祝日"
    ],
    "openDaysNote": "サービス提供可能な日時（改行）サービス提供時間：9：00～16：00（改行）延長サービス提供時間：8：30～9：00　16：00～17：30"
  },
  {
    "id": "3370109633",
    "name": "デイサービス爽寿",
    "kana": "デイサービスソウジュ",
    "address": "岡山県岡山市南区芳泉二丁目５番７４号",
    "lat": 34.6218049,
    "lng": 133.9122811,
    "tel": "086-201-8212",
    "url": "",
    "pref": "岡山県",
    "city": "岡山市南区",
    "category": "community_day_service",
    "serviceType": "地域密着型通所介護",
    "capacity": 17,
    "openDays": [
      "平日"
    ],
    "openDaysNote": ""
  },
  {
    "id": "3370113908",
    "name": "デイサービス暖家",
    "kana": "デイサービスアッタカヤ",
    "address": "岡山市南区西高崎４５番地５",
    "lat": 34.5468836,
    "lng": 133.8797271,
    "tel": "086-362-1333",
    "url": "https://www.attakaya.co.jp/",
    "pref": "岡山県",
    "city": "岡山市南区",
    "category": "community_day_service",
    "serviceType": "地域密着型通所介護",
    "capacity": 18,
    "openDays": [
      "平日",
      "土曜日",
      "祝日"
    ],
    "openDaysNote": ""
  },
  {
    "id": "3390102402",
    "name": "デイサービス洸寿",
    "kana": "デイサービスコウジュ",
    "address": "岡山県岡山市南区芳泉二丁目５－１６",
    "lat": 34.6216142,
    "lng": 133.9123129,
    "tel": "086-201-8215",
    "url": "",
    "pref": "岡山県",
    "city": "岡山市南区",
    "category": "community_day_service",
    "serviceType": "地域密着型通所介護",
    "capacity": null,
    "openDays": [
      "平日"
    ],
    "openDaysNote": ""
  },
  {
    "id": "3390102493",
    "name": "リハビリセンターうららか",
    "kana": "リハビリセンターウララカ",
    "address": "岡山県岡山市南区福富東2-2-6",
    "lat": 34.6225849,
    "lng": 133.9394644,
    "tel": "086-263-7000",
    "url": "http:www.sato-hp.com",
    "pref": "岡山県",
    "city": "岡山市南区",
    "category": "community_day_service",
    "serviceType": "地域密着型通所介護",
    "capacity": 0,
    "openDays": [
      "平日",
      "土曜日"
    ],
    "openDaysNote": "特になし"
  },
  {
    "id": "3370113726",
    "name": "リハビリデイサービス美咲",
    "kana": "リハビリデイサービスミサキ",
    "address": "岡山市南区福富西２－１９－４０",
    "lat": 34.6220415,
    "lng": 133.9294598,
    "tel": "086-263-3535",
    "url": "url:http://azcorporation.co.jp/misakiday.html",
    "pref": "岡山県",
    "city": "岡山市南区",
    "category": "community_day_service",
    "serviceType": "地域密着型通所介護",
    "capacity": 0,
    "openDays": [
      "平日"
    ],
    "openDaysNote": "５／１～５／７の３日間・８／１３～８／１５・１２／２９～１／３"
  },
  {
    "id": "3390102485",
    "name": "リハビリ特化型デイサービス　ムーブメントプロ岡山",
    "kana": "リハビリトッカガタデイサービス　ムーブメントプロオカヤマ",
    "address": "岡山県岡山市南区福富西2-19-40",
    "lat": 34.6324278,
    "lng": 133.9355478,
    "tel": "086-236-8508",
    "url": "https://randc-shonan.co.jp/office/movementpro_okayama.html",
    "pref": "岡山県",
    "city": "岡山市南区",
    "category": "community_day_service",
    "serviceType": "地域密着型通所介護",
    "capacity": 10,
    "openDays": [
      "平日",
      "祝日"
    ],
    "openDaysNote": ""
  },
  {
    "id": "3390102881",
    "name": "リハビリ特化型デイサービス　ムーブメントプロ新保",
    "kana": "リハビリトッカガタデイサービス　ムーブメントプロシンボウ",
    "address": "岡山県岡山市南区新保662-8",
    "lat": 34.6320122,
    "lng": 133.9075102,
    "tel": "086-236-8031",
    "url": "https://www.randc-shonan.co.jp/",
    "pref": "岡山県",
    "city": "岡山市南区",
    "category": "community_day_service",
    "serviceType": "地域密着型通所介護",
    "capacity": 15,
    "openDays": [
      "平日",
      "祝日"
    ],
    "openDaysNote": ""
  },
  {
    "id": "3370109518",
    "name": "医療法人　一進会　通所介護なの花",
    "kana": "イリョウホウジン　イッシンカイ　ツウショカイゴ　ナノハナ",
    "address": "岡山県岡山市南区豊浜町１－３５",
    "lat": 34.6339623,
    "lng": 133.93129,
    "tel": "086-239-0381",
    "url": "https://isshinkai.jp",
    "pref": "岡山県",
    "city": "岡山市南区",
    "category": "community_day_service",
    "serviceType": "地域密着型通所介護",
    "capacity": 0,
    "openDays": [
      "平日",
      "土曜日"
    ],
    "openDaysNote": ""
  },
  {
    "id": "3370112637",
    "name": "健リハビリデイサービス",
    "kana": "ケンリハビリデイサービス",
    "address": "福富東２－３６－１５",
    "lat": 34.6171008,
    "lng": 133.9410061,
    "tel": "０８６－２５０－７９９４",
    "url": "",
    "pref": "岡山県",
    "city": "岡山市南区",
    "category": "community_day_service",
    "serviceType": "地域密着型通所介護",
    "capacity": 13,
    "openDays": [
      "平日",
      "土曜日"
    ],
    "openDaysNote": "夏季休日、年末年始休日あり"
  },
  {
    "id": "3390102600",
    "name": "元氣ジム岡山豊成",
    "kana": "ゲンキジムオカヤマトヨナリ",
    "address": "岡山県岡山市南区豊成２－６－２８",
    "lat": 34.6294727,
    "lng": 133.9262407,
    "tel": "086-902-2828",
    "url": "http://www.shimoden.co.jp/",
    "pref": "岡山県",
    "city": "岡山市南区",
    "category": "community_day_service",
    "serviceType": "地域密着型通所介護",
    "capacity": 0,
    "openDays": [
      "平日",
      "祝日"
    ],
    "openDaysNote": "台風・積雪など天候による急な休日あり。"
  },
  {
    "id": "3390102782",
    "name": "春デイサービス",
    "kana": "ハルデイサービス",
    "address": "福富中2-18-7",
    "lat": 34.6191607,
    "lng": 133.9372148,
    "tel": "086-250-3526",
    "url": "",
    "pref": "岡山県",
    "city": "岡山市南区",
    "category": "community_day_service",
    "serviceType": "地域密着型通所介護",
    "capacity": 10,
    "openDays": [
      "平日"
    ],
    "openDaysNote": ""
  },
  {
    "id": "3370109385",
    "name": "春のひだまりデイサービスセンター",
    "kana": "ハルノヒダマリデイサービスセンター",
    "address": "岡山県岡山市南区妹尾840-1",
    "lat": 34.6100821542178,
    "lng": 133.865167516533,
    "tel": "086-282-5090",
    "url": "http://www.maedaiin-1966.com/",
    "pref": "岡山県",
    "city": "岡山市南区",
    "category": "community_day_service",
    "serviceType": "地域密着型通所介護",
    "capacity": 10,
    "openDays": [
      "平日"
    ],
    "openDaysNote": ""
  },
  {
    "id": "3370113502",
    "name": "茶話本舗デイサービスれもん",
    "kana": "サワホンポデイサービスレモン",
    "address": "岡山県岡山市南区浜野３丁目１６－２４",
    "lat": 34.6308102,
    "lng": 133.939353,
    "tel": "086-362-7702",
    "url": "http://sawalemon.com/",
    "pref": "岡山県",
    "city": "岡山市南区",
    "category": "community_day_service",
    "serviceType": "地域密着型通所介護",
    "capacity": 0,
    "openDays": [
      "平日",
      "土曜日",
      "日曜日",
      "祝日"
    ],
    "openDaysNote": ""
  },
  {
    "id": "3370104253",
    "name": "塚崎整骨院デイサービスセンター",
    "kana": "ツカザキセイコツインデイサービスセンター",
    "address": "岡山県岡山市南区泉田5-3-21",
    "lat": 34.6252437,
    "lng": 133.9224632,
    "tel": "086-245-2455",
    "url": "https://okayama-jusei.or.jp/hp/tsukazaki/",
    "pref": "岡山県",
    "city": "岡山市南区",
    "category": "community_day_service",
    "serviceType": "地域密着型通所介護",
    "capacity": 10,
    "openDays": [
      "平日",
      "土曜日"
    ],
    "openDaysNote": "月・水・金曜日のみ１３時３０分～１５時営業"
  },
  {
    "id": "3370110227",
    "name": "美咲デイサービスセンター",
    "kana": "ミサキデイサービスセンター",
    "address": "大福８２０－１",
    "lat": 34.6209541,
    "lng": 133.8850758,
    "tel": "０８６－２５０－３０３０",
    "url": "https://azcorporation.co.jp",
    "pref": "岡山県",
    "city": "岡山市南区",
    "category": "community_day_service",
    "serviceType": "地域密着型通所介護",
    "capacity": 15,
    "openDays": [
      "平日",
      "祝日"
    ],
    "openDaysNote": ""
  },
  {
    "id": "3370111456",
    "name": "アイル岡山別館",
    "kana": "アイルオカヤマベッカン",
    "address": "岡山市北区野田３－２－２６",
    "lat": 34.6520232,
    "lng": 133.9013486,
    "tel": "086-250-3923",
    "url": "http://www.morenet.co.jp/",
    "pref": "岡山県",
    "city": "岡山市北区",
    "category": "community_day_service",
    "serviceType": "地域密着型通所介護",
    "capacity": 18,
    "openDays": [
      "平日",
      "土曜日",
      "祝日"
    ],
    "openDaysNote": "事業所の都合により、前もってお知らせをした上、休む場合があります。"
  },
  {
    "id": "3370113551",
    "name": "アルファデイサービスセンター西川緑道公園",
    "kana": "アルファデイサービスセンターニシガワリョクドウコウエン",
    "address": "岡山市北区中央町6-2なし なし",
    "lat": 34.6572954,
    "lng": 133.9232181,
    "tel": "086-206-6665",
    "url": "http://www.anabuki-medical.jp/",
    "pref": "岡山県",
    "city": "岡山市北区",
    "category": "community_day_service",
    "serviceType": "地域密着型通所介護",
    "capacity": 10,
    "openDays": [
      "平日",
      "祝日"
    ],
    "openDaysNote": ""
  },
  {
    "id": "3370114112",
    "name": "アルファデイサービスセンター野田",
    "kana": "アルファデイサービスセンターノダ",
    "address": "岡山県岡山市北区野田3丁目８－８アルファデイサービスセンター野田 アルファデイサービスセンター野田",
    "lat": 34.6506039,
    "lng": 133.8997516,
    "tel": "086-250-4528",
    "url": "http://ｗｗｗ.a-living.jp/",
    "pref": "岡山県",
    "city": "岡山市北区",
    "category": "community_day_service",
    "serviceType": "地域密着型通所介護",
    "capacity": 15,
    "openDays": [
      "平日",
      "祝日"
    ],
    "openDaysNote": ""
  },
  {
    "id": "3370104683",
    "name": "あんデイサービスセンター",
    "kana": "アンデイサービスセンター",
    "address": "岡山市北区楢津1007-1",
    "lat": 34.6918899,
    "lng": 133.8766164,
    "tel": "086-284-7444",
    "url": "",
    "pref": "岡山県",
    "city": "岡山市北区",
    "category": "community_day_service",
    "serviceType": "地域密着型通所介護",
    "capacity": 10,
    "openDays": [
      "平日",
      "祝日"
    ],
    "openDaysNote": ""
  },
  {
    "id": "3370110938",
    "name": "おかやまコープ　デイサ－ビス・オルガ",
    "kana": "オカヤマコープ　デイサービス・オルガ",
    "address": "岡山県岡山市北区奉還町１丁目７－７オルガビル3階 オルガビル3階",
    "lat": 34.6699826,
    "lng": 133.9180016,
    "tel": "086-252-7721",
    "url": "",
    "pref": "岡山県",
    "city": "岡山市北区",
    "category": "community_day_service",
    "serviceType": "地域密着型通所介護",
    "capacity": null,
    "openDays": [
      "平日",
      "祝日"
    ],
    "openDaysNote": ""
  },
  {
    "id": "3370108684",
    "name": "おかやまコープ　デイサービス津島西坂",
    "kana": "オカヤマコープ　デイサービスツシマニシザカ",
    "address": "岡山県岡山市北区津島西坂三丁目７－１",
    "lat": 34.6865331,
    "lng": 133.9081632,
    "tel": "086-256-2700",
    "url": "",
    "pref": "岡山県",
    "city": "岡山市北区",
    "category": "community_day_service",
    "serviceType": "地域密着型通所介護",
    "capacity": null,
    "openDays": [
      "平日",
      "土曜日",
      "祝日"
    ],
    "openDaysNote": "特になし"
  },
  {
    "id": "3370111738",
    "name": "ケアビレッジ　たけべ",
    "kana": "ケアビレッジ　タケベ",
    "address": "岡山市北区建部町建部上３２６－１ケアビレッジたけべ ケアビレッジたけべ",
    "lat": 34.8562078,
    "lng": 133.9024884,
    "tel": "０８６－７２２－００７０",
    "url": "",
    "pref": "岡山県",
    "city": "岡山市北区",
    "category": "community_day_service",
    "serviceType": "地域密着型通所介護",
    "capacity": 18,
    "openDays": [
      "平日",
      "土曜日",
      "祝日"
    ],
    "openDaysNote": "ただし、お盆８月１３日～１５日と、年末１２月２９日～１月３日までは、休日とする。"
  },
  {
    "id": "3370111878",
    "name": "こりとるリハサポデイサービス",
    "kana": "コリトルリハサポデイサービス",
    "address": "平野862-1",
    "lat": 34.6456435701961,
    "lng": 133.856125385613,
    "tel": "０８６－２９２－１１１５",
    "url": "",
    "pref": "岡山県",
    "city": "岡山市北区",
    "category": "community_day_service",
    "serviceType": "地域密着型通所介護",
    "capacity": 0,
    "openDays": [
      "平日"
    ],
    "openDaysNote": ""
  },
  {
    "id": "3390102261",
    "name": "ザグスタ北長瀬",
    "kana": "ザグスタキタナガセ",
    "address": "岡山県岡山市北区北長瀬3丁目2-1",
    "lat": 34.6498924,
    "lng": 133.8859005,
    "tel": "086-805-0115",
    "url": "http://www.zagzag.co.jp/zagstu/",
    "pref": "岡山県",
    "city": "岡山市北区",
    "category": "community_day_service",
    "serviceType": "地域密着型通所介護",
    "capacity": 0,
    "openDays": [
      "平日",
      "祝日"
    ],
    "openDaysNote": ""
  },
  {
    "id": "3370108379",
    "name": "さくらんぼ　デイサービス",
    "kana": "サクランボ　デイサービス",
    "address": "岡山県岡山市北区平野８０１－１２",
    "lat": 34.6479663,
    "lng": 133.8601725,
    "tel": "086-292-3350",
    "url": "",
    "pref": "岡山県",
    "city": "岡山市北区",
    "category": "community_day_service",
    "serviceType": "地域密着型通所介護",
    "capacity": 0,
    "openDays": [
      "平日",
      "祝日"
    ],
    "openDaysNote": "特になし"
  },
  {
    "id": "3370108809",
    "name": "さすらの杜デイサービスセンター",
    "kana": "サスラノモリ　デイサービスセンター",
    "address": "岡山県岡山市北区畑鮎４４８",
    "lat": 34.7179668,
    "lng": 133.938685,
    "tel": "086-228-9160",
    "url": "",
    "pref": "岡山県",
    "city": "岡山市北区",
    "category": "community_day_service",
    "serviceType": "地域密着型通所介護",
    "capacity": 8,
    "openDays": [
      "平日",
      "土曜日",
      "祝日"
    ],
    "openDaysNote": "ご利用者の希望に応じ対応いたします。"
  },
  {
    "id": "3390102923",
    "name": "シティヴィラ大供デイサービスセンター",
    "kana": "シティヴィラダイクデイサービスセンター",
    "address": "岡山市北区大供本町715-1シティヴィラ大供 シティヴィラ大供",
    "lat": 34.6525609,
    "lng": 133.9116533,
    "tel": "086-221-6520",
    "url": "https://www.ohkita.co.jp/",
    "pref": "岡山県",
    "city": "岡山市北区",
    "category": "community_day_service",
    "serviceType": "地域密着型通所介護",
    "capacity": 10,
    "openDays": [
      "平日",
      "祝日"
    ],
    "openDaysNote": "居宅サービス計画により、営業日及び営業時間以外でも、サービス提供を行う場合があるものとする。"
  },
  {
    "id": "3390102659",
    "name": "だんらんの家旭本町",
    "kana": "ダンランノイエアサヒホンマチ",
    "address": "岡山県岡山市北区旭本町2-4",
    "lat": 34.643282,
    "lng": 133.9311289,
    "tel": "086-201-2445",
    "url": "https://kakuda0404.wixsite.com/danrannoie-asahi",
    "pref": "岡山県",
    "city": "岡山市北区",
    "category": "community_day_service",
    "serviceType": "地域密着型通所介護",
    "capacity": 10,
    "openDays": [
      "平日",
      "土曜日",
      "日曜日",
      "祝日"
    ],
    "openDaysNote": ""
  },
  {
    "id": "3370114229",
    "name": "デイサービス　ぬくまり",
    "kana": "デイサービス　ヌクマリ",
    "address": "岡山県岡山市北区宿230-2",
    "lat": 34.6964433365474,
    "lng": 133.939637703705,
    "tel": "086-206-5544",
    "url": "http://www.nukumari.org/",
    "pref": "岡山県",
    "city": "岡山市北区",
    "category": "community_day_service",
    "serviceType": "地域密着型通所介護",
    "capacity": 15,
    "openDays": [
      "平日",
      "土曜日",
      "祝日"
    ],
    "openDaysNote": "１２月３０日～１月３日　休業"
  },
  {
    "id": "3370106548",
    "name": "デイサービス　やさか",
    "kana": "デイサービス　ヤサカ",
    "address": "矢坂東町3-12",
    "lat": 34.6765639,
    "lng": 133.8859208,
    "tel": "086-256-2440",
    "url": "https://www.okayama-junshinkai.co.jp/",
    "pref": "岡山県",
    "city": "岡山市北区",
    "category": "community_day_service",
    "serviceType": "地域密着型通所介護",
    "capacity": null,
    "openDays": [
      "平日",
      "土曜日",
      "祝日"
    ],
    "openDaysNote": ""
  },
  {
    "id": "3370111050",
    "name": "デイサービス　ゆいま～る十日市",
    "kana": "デイサービス　ユイマ～ルトオカイチ",
    "address": "岡山県岡山市北区十日市中町５番２８号",
    "lat": 34.6382117,
    "lng": 133.9273598,
    "tel": "086-235-1414",
    "url": "https://www4.hp-ez.com/hp/yuimaru/",
    "pref": "岡山県",
    "city": "岡山市北区",
    "category": "community_day_service",
    "serviceType": "地域密着型通所介護",
    "capacity": 14,
    "openDays": [
      "平日",
      "土曜日",
      "日曜日",
      "祝日"
    ],
    "openDaysNote": "祝日は営業しています。"
  },
  {
    "id": "3370104865",
    "name": "デイサービス　和みのとき",
    "kana": "デイサービス　ナゴミノトキ",
    "address": "岡山県岡山市北区大窪　474-1",
    "lat": 34.6913589,
    "lng": 133.8612655,
    "tel": "086-286-4177",
    "url": "",
    "pref": "岡山県",
    "city": "岡山市北区",
    "category": "community_day_service",
    "serviceType": "地域密着型通所介護",
    "capacity": null,
    "openDays": [
      "平日"
    ],
    "openDaysNote": ""
  },
  {
    "id": "3390102469",
    "name": "デイサービススマイル4",
    "kana": "デイサービススマイル４",
    "address": "岡山県岡山市北区今保７１４－２",
    "lat": 34.634252,
    "lng": 133.8761989,
    "tel": "086-250-8369",
    "url": "smile4.amebaownd.com",
    "pref": "岡山県",
    "city": "岡山市北区",
    "category": "community_day_service",
    "serviceType": "地域密着型通所介護",
    "capacity": 0,
    "openDays": [
      "平日"
    ],
    "openDaysNote": ""
  },
  {
    "id": "3370105193",
    "name": "デイサービスセンター　チェリー",
    "kana": "デイサービスセンター　チェリー",
    "address": "岡山県岡山市北区川入１０２３－７",
    "lat": 34.656657,
    "lng": 133.8466541,
    "tel": "086-903-3571",
    "url": "",
    "pref": "岡山県",
    "city": "岡山市北区",
    "category": "community_day_service",
    "serviceType": "地域密着型通所介護",
    "capacity": 0,
    "openDays": [
      "平日",
      "祝日"
    ],
    "openDaysNote": "特になし"
  },
  {
    "id": "3370111860",
    "name": "デイサービスセンター　チェリー加茂",
    "kana": "デイサービスセンター　チェリーカモ",
    "address": "岡山市北区加茂７２６－１",
    "lat": 34.6766272,
    "lng": 133.8309628,
    "tel": "086-250-8480",
    "url": "",
    "pref": "岡山県",
    "city": "岡山市北区",
    "category": "community_day_service",
    "serviceType": "地域密着型通所介護",
    "capacity": 0,
    "openDays": [
      "平日",
      "土曜日",
      "祝日"
    ],
    "openDaysNote": "特になし"
  },
  {
    "id": "3370111597",
    "name": "デイサービスセンター　松風園",
    "kana": "デイサービスセンター　ショウフウエン",
    "address": "岡山県岡山市北区高松1006",
    "lat": 34.6924323,
    "lng": 133.8278536,
    "tel": "086-287-2105",
    "url": "https://okayama-kotobuki.sakura.ne.jp/new/02facility/shofuen.html",
    "pref": "岡山県",
    "city": "岡山市北区",
    "category": "community_day_service",
    "serviceType": "地域密着型通所介護",
    "capacity": 0,
    "openDays": [
      "平日",
      "祝日"
    ],
    "openDaysNote": ""
  },
  {
    "id": "3390103095",
    "name": "デイサービスセンターかながわ",
    "kana": "デイサービスセンターカナガワ",
    "address": "岡山県岡山市北区御津金川４４９御津保健福祉ステーション２階 御津保健福祉ステーション２階",
    "lat": 34.7963304674079,
    "lng": 133.932296185844,
    "tel": "090-3712-5731",
    "url": "https://okayama-kotobuki.sakura.ne.jp/",
    "pref": "岡山県",
    "city": "岡山市北区",
    "category": "community_day_service",
    "serviceType": "地域密着型通所介護",
    "capacity": 18,
    "openDays": [
      "平日",
      "土曜日",
      "祝日"
    ],
    "openDaysNote": "利用者の実情に合わせて相談には乗ります"
  },
  {
    "id": "3370113262",
    "name": "デイサービスセンターなごみ",
    "kana": "デイサービスセンターナゴミ",
    "address": "岡山県岡山市北区御津宇垣１６８６－１",
    "lat": 34.7823746,
    "lng": 133.9265029,
    "tel": "086-724-5080",
    "url": "http://n-pharma.co.jp",
    "pref": "岡山県",
    "city": "岡山市北区",
    "category": "community_day_service",
    "serviceType": "地域密着型通所介護",
    "capacity": 0,
    "openDays": [
      "平日",
      "土曜日",
      "祝日"
    ],
    "openDaysNote": "上記以外の時間帯については、適時相談致します"
  },
  {
    "id": "3370107306",
    "name": "ディサービスセンターハッピークラブ",
    "kana": "ディサービスセンターハッピークラブ",
    "address": "岡山県岡山市北区撫川440-1",
    "lat": 34.6437053,
    "lng": 133.8476929,
    "tel": "086-903-3001",
    "url": "",
    "pref": "岡山県",
    "city": "岡山市北区",
    "category": "community_day_service",
    "serviceType": "地域密着型通所介護",
    "capacity": 0,
    "openDays": [
      "平日"
    ],
    "openDaysNote": "年末年始の12月29日～1月3日及び、国民の休日をのぞく、月曜から金曜"
  },
  {
    "id": "3370105789",
    "name": "デイサービスセンター我が家岡山事業所",
    "kana": "デイサービスセンターワガヤオカヤマジギョウショ",
    "address": "岡山県岡山市北区富田273-9",
    "lat": 34.6399668,
    "lng": 133.917972,
    "tel": "086-235-3911",
    "url": "http://www.ojecs.com",
    "pref": "岡山県",
    "city": "岡山市北区",
    "category": "community_day_service",
    "serviceType": "地域密着型通所介護",
    "capacity": 18,
    "openDays": [
      "平日",
      "土曜日",
      "祝日"
    ],
    "openDaysNote": ""
  },
  {
    "id": "3390103186",
    "name": "デイサービスセンター我が家岡山事業所",
    "kana": "デイサービスセンターワガヤオカヤマジギョウショ",
    "address": "岡山県岡山市北区富田273-9",
    "lat": 34.6399758,
    "lng": 133.9179787,
    "tel": "086-235-3911",
    "url": "https://jecs-gr.jp/",
    "pref": "岡山県",
    "city": "岡山市北区",
    "category": "community_day_service",
    "serviceType": "地域密着型通所介護",
    "capacity": 18,
    "openDays": [
      "平日",
      "土曜日",
      "日曜日",
      "祝日"
    ],
    "openDaysNote": "１２月３１日から１月３日は休業"
  },
  {
    "id": "3390103012",
    "name": "デイサービスセンター楽空",
    "kana": "ラクウ",
    "address": "岡山県岡山市大元１－７－１",
    "lat": 34.6452996,
    "lng": 133.9045843,
    "tel": "086-239-7337",
    "url": "https://momozono.company/",
    "pref": "岡山県",
    "city": "岡山市北区",
    "category": "community_day_service",
    "serviceType": "地域密着型通所介護",
    "capacity": 0,
    "openDays": [
      "平日"
    ],
    "openDaysNote": ""
  },
  {
    "id": "3390102667",
    "name": "デイサービスセンター工房きずな",
    "kana": "デイサービスセンターコウボウキズナ",
    "address": "岡山県岡山市北区庭瀬202-1",
    "lat": 34.6477145,
    "lng": 133.8526,
    "tel": "086-250-8991",
    "url": "",
    "pref": "岡山県",
    "city": "岡山市北区",
    "category": "community_day_service",
    "serviceType": "地域密着型通所介護",
    "capacity": null,
    "openDays": [
      "平日",
      "土曜日",
      "日曜日",
      "祝日"
    ],
    "openDaysNote": ""
  },
  {
    "id": "3372100234",
    "name": "デイサービスねこの手みつ",
    "kana": "デイサービスネコノテミツ",
    "address": "岡山県岡山市北区御津金川346-1",
    "lat": 34.7919823,
    "lng": 133.934688,
    "tel": "086-724-9323",
    "url": "http://nekonotemitsu.sakura.ne.jp",
    "pref": "岡山県",
    "city": "岡山市北区",
    "category": "community_day_service",
    "serviceType": "地域密着型通所介護",
    "capacity": null,
    "openDays": [
      "平日",
      "祝日"
    ],
    "openDaysNote": "なし"
  },
  {
    "id": "3372100259",
    "name": "デイサービスねこの手みつきらめき",
    "kana": "デイサービスネコノテミツキラメキ",
    "address": "岡山県岡山市北区御津河内934",
    "lat": 34.7817965,
    "lng": 133.9141874,
    "tel": "086-724-4232",
    "url": "http://neconotemitsu.sakura.ne.jp",
    "pref": "岡山県",
    "city": "岡山市北区",
    "category": "community_day_service",
    "serviceType": "地域密着型通所介護",
    "capacity": null,
    "openDays": [
      "平日",
      "祝日"
    ],
    "openDaysNote": "なし"
  },
  {
    "id": "3370112256",
    "name": "デイサービスはじめの一歩",
    "kana": "デイサービスハジメノイッポ",
    "address": "岡山県岡山市北区下中野307‐11ワンステップビル ワンステップビル",
    "lat": 34.6399437,
    "lng": 133.9066145,
    "tel": "086－259-1722",
    "url": "",
    "pref": "岡山県",
    "city": "岡山市北区",
    "category": "community_day_service",
    "serviceType": "地域密着型通所介護",
    "capacity": 16,
    "openDays": [
      "平日",
      "祝日"
    ],
    "openDaysNote": "月曜日～金曜日であれば祝日も営業（ただし8月13日～8月15日、12月29日～1月3日を除く）（改行）臨時で土曜日や日曜日も営業することがある"
  },
  {
    "id": "3370108403",
    "name": "デイサービスメルシ",
    "kana": "デイサービスメルシ",
    "address": "岡山市北区玉柏2178",
    "lat": 34.7148619,
    "lng": 133.9498065,
    "tel": "086-228-5777",
    "url": "http://www.merci-service.net",
    "pref": "岡山県",
    "city": "岡山市北区",
    "category": "community_day_service",
    "serviceType": "地域密着型通所介護",
    "capacity": 0,
    "openDays": [
      "平日",
      "祝日"
    ],
    "openDaysNote": ""
  },
  {
    "id": "3370111845",
    "name": "デイサービス実の里",
    "kana": "デイサービスミノリ",
    "address": "岡山市北区三野2丁目7-8-4",
    "lat": 34.6930362,
    "lng": 133.938466,
    "tel": "086-206-5007",
    "url": "",
    "pref": "岡山県",
    "city": "岡山市北区",
    "category": "community_day_service",
    "serviceType": "地域密着型通所介護",
    "capacity": 0,
    "openDays": [
      "平日",
      "祝日"
    ],
    "openDaysNote": ""
  },
  {
    "id": "3390101974",
    "name": "デイサービス麻姑の小町伊島",
    "kana": "デイサービスマコノコマチイシマ",
    "address": "岡山県岡山市北区伊島町3丁目8-8-2",
    "lat": 34.6789562,
    "lng": 133.9071192,
    "tel": "086-259-0026",
    "url": "http://www.maco.co.jp/",
    "pref": "岡山県",
    "city": "岡山市北区",
    "category": "community_day_service",
    "serviceType": "地域密着型通所介護",
    "capacity": 10,
    "openDays": [
      "平日",
      "土曜日",
      "祝日"
    ],
    "openDaysNote": "年末年始（12/31～1/2）の３日間は休日とする。"
  },
  {
    "id": "3370111563",
    "name": "デイホーム縁",
    "kana": "デイホームユカリ",
    "address": "岡山県岡山市北区平田125-105",
    "lat": 34.6321153,
    "lng": 133.890844,
    "tel": "086-238-1100",
    "url": "",
    "pref": "岡山県",
    "city": "岡山市北区",
    "category": "community_day_service",
    "serviceType": "地域密着型通所介護",
    "capacity": 0,
    "openDays": [
      "平日",
      "土曜日"
    ],
    "openDaysNote": ""
  },
  {
    "id": "3370114468",
    "name": "ニコらいふ岡山今センター",
    "kana": "ニコライフオカヤマイマセンター",
    "address": "岡山県岡山市北区今3丁目10-10備前ビル１Ｆ　東号室 備前ビル１Ｆ　東号室",
    "lat": 34.6463403,
    "lng": 133.8932359,
    "tel": "086-259-1355",
    "url": "http://nicolife.jp/",
    "pref": "岡山県",
    "city": "岡山市北区",
    "category": "community_day_service",
    "serviceType": "地域密着型通所介護",
    "capacity": 15,
    "openDays": [
      "平日"
    ],
    "openDaysNote": "但し、長期間（3日以上）の連休となる場合は、事前に利用者及びその家族ならびに居宅介護支援事業所等の関係機関に周知の上、祝日または休日を営業日とすることがある。"
  },
  {
    "id": "3390103111",
    "name": "ニコらいふ岡山今センター",
    "kana": "ニコライフオカヤマイマセンター",
    "address": "今3丁目10-10備前ビル1F 備前ビル1F",
    "lat": 34.6463198,
    "lng": 133.8932561,
    "tel": "086-259-1355",
    "url": "http://nicolife.jp",
    "pref": "岡山県",
    "city": "岡山市北区",
    "category": "community_day_service",
    "serviceType": "地域密着型通所介護",
    "capacity": 0,
    "openDays": [
      "平日"
    ],
    "openDaysNote": ""
  },
  {
    "id": "3370108387",
    "name": "ハートフル　さかの",
    "kana": "ハートフル　サカノ",
    "address": "岡山県岡山市北区吉宗６７７番地１",
    "lat": 34.7271015,
    "lng": 133.9069182,
    "tel": "086-294-5025",
    "url": "",
    "pref": "岡山県",
    "city": "岡山市北区",
    "category": "community_day_service",
    "serviceType": "地域密着型通所介護",
    "capacity": 18,
    "openDays": [
      "平日"
    ],
    "openDaysNote": "臨時休業あり。"
  },
  {
    "id": "3390102568",
    "name": "ほねつぎ介護デイサービス　平野店",
    "kana": "ホネツギカイゴデイサービス　ヒラノテン",
    "address": "岡山県岡山市北区平野622-23",
    "lat": 34.6446945,
    "lng": 133.8651207,
    "tel": "086-293-3939",
    "url": "",
    "pref": "岡山県",
    "city": "岡山市北区",
    "category": "community_day_service",
    "serviceType": "地域密着型通所介護",
    "capacity": 0,
    "openDays": [
      "平日",
      "祝日"
    ],
    "openDaysNote": ""
  },
  {
    "id": "3390102204",
    "name": "ポラリスデイサービスセンター田中",
    "kana": "ポラリスデイサービスセンタータナカ",
    "address": "岡山県岡山市北区田中598-4",
    "lat": 34.6391411,
    "lng": 133.8840176,
    "tel": "086-250-9238",
    "url": "",
    "pref": "岡山県",
    "city": "岡山市北区",
    "category": "community_day_service",
    "serviceType": "地域密着型通所介護",
    "capacity": 0,
    "openDays": [
      "平日",
      "土曜日",
      "日曜日",
      "祝日"
    ],
    "openDaysNote": ""
  },
  {
    "id": "3390103103",
    "name": "やみつき通所j介護今保",
    "kana": "ヤミツキツウショカイゴイマボウ",
    "address": "今保714-3",
    "lat": 34.6342749142784,
    "lng": 133.876101683872,
    "tel": "086-805-8329",
    "url": "https://www.shindou-smile4.com/",
    "pref": "岡山県",
    "city": "岡山市北区",
    "category": "community_day_service",
    "serviceType": "地域密着型通所介護",
    "capacity": null,
    "openDays": [
      "平日"
    ],
    "openDaysNote": ""
  },
  {
    "id": "3390102519",
    "name": "リハプライド岡山西",
    "kana": "リハプライドオカヤマニシ",
    "address": "岡山県岡山市北区今8-14-13ベスグロビル1F ベスグロビル1F",
    "lat": 34.6387148,
    "lng": 133.8919921,
    "tel": "086-805-0323",
    "url": "http://www.rehapride.co.jp/okayamanishi/",
    "pref": "岡山県",
    "city": "岡山市北区",
    "category": "community_day_service",
    "serviceType": "地域密着型通所介護",
    "capacity": 0,
    "openDays": [
      "平日"
    ],
    "openDaysNote": ""
  },
  {
    "id": "3390102436",
    "name": "レコードブック岡山田中",
    "kana": "レコードブックオカヤマタナカ",
    "address": "田中117‐105",
    "lat": 34.642082,
    "lng": 133.8828232,
    "tel": "086‐805-6026",
    "url": "http://www.fukai-yakuhin.co.jp/record-book-okayamatanaka",
    "pref": "岡山県",
    "city": "岡山市北区",
    "category": "community_day_service",
    "serviceType": "地域密着型通所介護",
    "capacity": 0,
    "openDays": [
      "平日",
      "祝日"
    ],
    "openDaysNote": "土曜日・日曜日を除く祝日も営業しています。"
  },
  {
    "id": "3370112249",
    "name": "宇垣荘　デイサービスセンター",
    "kana": "ウガキソウ　デイサービスセンター",
    "address": "岡山県岡山市北区御津宇垣2069-10",
    "lat": 34.7805078,
    "lng": 133.9164539,
    "tel": "086-724-0707",
    "url": "http://www.okayamasaiseikai.or.jp/ugakiso/",
    "pref": "岡山県",
    "city": "岡山市北区",
    "category": "community_day_service",
    "serviceType": "地域密着型通所介護",
    "capacity": 15,
    "openDays": [
      "平日"
    ],
    "openDaysNote": "祝日がある週は、その週の土曜日営業。（改行）敬老の日は営業とし、その週の土曜日は休日とする。"
  },
  {
    "id": "3370109203",
    "name": "株式会社ももたろうウェルフェアももたろうデイサービスセンター",
    "kana": "カブシキガイシャモモタロウウェルフェアモモタロウデイサービスセンター",
    "address": "岡山県岡山市北区津島本町18-30",
    "lat": 34.6907493,
    "lng": 133.9103045,
    "tel": "086-255-9111",
    "url": "ｈｔｔｐ：//www.momotaro-welfare.com",
    "pref": "岡山県",
    "city": "岡山市北区",
    "category": "community_day_service",
    "serviceType": "地域密着型通所介護",
    "capacity": 18,
    "openDays": [
      "平日",
      "土曜日",
      "祝日"
    ],
    "openDaysNote": "12/31.1/1～1/3　8/13～8/15は定休日とします。　（改行）自然災害等で営業が困難な時は定休日とします。"
  },
  {
    "id": "3390103228",
    "name": "健康空間",
    "kana": "ケンコウクウカン",
    "address": "岡山市北区岡南町2-1-55階",
    "lat": 34.6433914,
    "lng": 133.9252191,
    "tel": "086-233-6000",
    "url": "",
    "pref": "岡山県",
    "city": "岡山市北区",
    "category": "community_day_service",
    "serviceType": "地域密着型通所介護",
    "capacity": null,
    "openDays": [
      "平日",
      "土曜日",
      "祝日"
    ],
    "openDaysNote": ""
  },
  {
    "id": "3372100267",
    "name": "社会福祉法人ことぶき会　デイサービスセンターうかい",
    "kana": "シャカイフクシホウジンコトブキカイ　デイサービスセンターウカイ",
    "address": "岡山県岡山市北区御津紙工1410番地",
    "lat": 34.8192363,
    "lng": 133.8580404,
    "tel": "086-726-0331",
    "url": "https://okayama-kotobuki.sakura.ne.jp/",
    "pref": "岡山県",
    "city": "岡山市北区",
    "category": "community_day_service",
    "serviceType": "地域密着型通所介護",
    "capacity": 18,
    "openDays": [
      "平日",
      "土曜日",
      "祝日"
    ],
    "openDaysNote": ""
  },
  {
    "id": "3370104188",
    "name": "生き活き館岡山デイサービスセンター",
    "kana": "イキイキカンオカヤマデイサービスセンター",
    "address": "岡山県岡山市北区春日町9-5",
    "lat": 34.6617511,
    "lng": 133.9344057,
    "tel": "086-801-7905",
    "url": "http://kokoro-net.org",
    "pref": "岡山県",
    "city": "岡山市北区",
    "category": "community_day_service",
    "serviceType": "地域密着型通所介護",
    "capacity": 0,
    "openDays": [
      "平日",
      "土曜日",
      "祝日"
    ],
    "openDaysNote": ""
  },
  {
    "id": "3390102113",
    "name": "早稲田イーライフ岡山高柳",
    "kana": "ワセダイーライフオカヤマタカヤナギ",
    "address": "岡山県岡山市北区高柳西町17-52",
    "lat": 34.6620941,
    "lng": 133.8995291,
    "tel": "086-230-7811",
    "url": "",
    "pref": "岡山県",
    "city": "岡山市北区",
    "category": "community_day_service",
    "serviceType": "地域密着型通所介護",
    "capacity": 2,
    "openDays": [
      "平日",
      "土曜日"
    ],
    "openDaysNote": ""
  },
  {
    "id": "3370113155",
    "name": "楓の風リハビリテーション颯　岡山中央",
    "kana": "カエデノカゼリハビリテーションソウ　オカヤマチュウオウ",
    "address": "岡山県岡山市北区今七丁目18番29号今七丁目大森ビル 今七丁目大森ビル",
    "lat": 34.6423963,
    "lng": 133.8922611,
    "tel": "086-242-3711",
    "url": "http://kaedenokaze.com/",
    "pref": "岡山県",
    "city": "岡山市北区",
    "category": "community_day_service",
    "serviceType": "地域密着型通所介護",
    "capacity": 0,
    "openDays": [
      "平日",
      "土曜日"
    ],
    "openDaysNote": ""
  },
  {
    "id": "3370500815",
    "name": "デイサービス　えがお",
    "kana": "デイサービス　エガオ",
    "address": "岡山県笠岡市神島外浦１７１３番地",
    "lat": 34.4500014,
    "lng": 133.5137308,
    "tel": "0865-67-2977",
    "url": "",
    "pref": "岡山県",
    "city": "笠岡市",
    "category": "community_day_service",
    "serviceType": "地域密着型通所介護",
    "capacity": 0,
    "openDays": [
      "平日",
      "土曜日",
      "日曜日",
      "祝日"
    ],
    "openDaysNote": ""
  },
  {
    "id": "3370500583",
    "name": "デイサービス　よっちゃれ",
    "kana": "デイサービス　ヨッチャレ",
    "address": "岡山県笠岡市横島1216",
    "lat": 34.4854711,
    "lng": 133.5223656,
    "tel": "0865-67-7100",
    "url": "http://www.kabutokai.jp/",
    "pref": "岡山県",
    "city": "笠岡市",
    "category": "community_day_service",
    "serviceType": "地域密着型通所介護",
    "capacity": 10,
    "openDays": [
      "平日",
      "土曜日",
      "祝日"
    ],
    "openDaysNote": ""
  },
  {
    "id": "3370500385",
    "name": "デイサービスセンター　赤い屋根の家",
    "kana": "デイサービスセンター　アカイヤネノイエ",
    "address": "岡山県笠岡市吉浜2485-5",
    "lat": 34.521234,
    "lng": 133.4923835,
    "tel": "0865-69-6789",
    "url": "http://www.akaiyanenoie.jp/",
    "pref": "岡山県",
    "city": "笠岡市",
    "category": "community_day_service",
    "serviceType": "地域密着型通所介護",
    "capacity": 0,
    "openDays": [
      "平日",
      "土曜日",
      "祝日"
    ],
    "openDaysNote": "なし"
  },
  {
    "id": "3370500567",
    "name": "デイサービスにいやま",
    "kana": "デイサービスニイヤマ",
    "address": "岡山県笠岡市山口３２５５－１",
    "lat": 34.569164,
    "lng": 133.5308793,
    "tel": "0865-69-5055",
    "url": "http://www.kcv.ne.jp/~niiyama/",
    "pref": "岡山県",
    "city": "笠岡市",
    "category": "community_day_service",
    "serviceType": "地域密着型通所介護",
    "capacity": 0,
    "openDays": [
      "平日",
      "祝日"
    ],
    "openDaysNote": "年末年始の曜日により入浴対応のため、29日、30日に営業する場合もあります。"
  },
  {
    "id": "3370500922",
    "name": "医療法人緑十字会　デイサービスくじば",
    "kana": "イリョウホウジンミドリジュウジカイ　デイサービスクジバ",
    "address": "岡山県笠岡市笠岡5120番地8",
    "lat": 34.5111599,
    "lng": 133.5071881,
    "tel": "0865-63-1690",
    "url": "http://www.midorijujijai.or.jp/index.html",
    "pref": "岡山県",
    "city": "笠岡市",
    "category": "community_day_service",
    "serviceType": "地域密着型通所介護",
    "capacity": 0,
    "openDays": [
      "平日",
      "土曜日",
      "祝日"
    ],
    "openDaysNote": ""
  },
  {
    "id": "3370500666",
    "name": "海社デイサービスほほえみ",
    "kana": "ウミシャデイサービスホホエミ",
    "address": "岡山県笠岡市北木島町13198番地4",
    "lat": 34.3823678798903,
    "lng": 133.545404000917,
    "tel": "0865-68-3008",
    "url": "",
    "pref": "岡山県",
    "city": "笠岡市",
    "category": "community_day_service",
    "serviceType": "地域密着型通所介護",
    "capacity": 0,
    "openDays": [
      "平日",
      "土曜日",
      "日曜日",
      "祝日"
    ],
    "openDaysNote": ""
  },
  {
    "id": "3370500831",
    "name": "笠岡リハビリ型デイサービス絆",
    "kana": "カサオカリハビリガタデイサービスキズナ",
    "address": "岡山県笠岡市二番町5番地13",
    "lat": 34.4973669,
    "lng": 133.5218181,
    "tel": "0865-62-6255",
    "url": "",
    "pref": "岡山県",
    "city": "笠岡市",
    "category": "community_day_service",
    "serviceType": "地域密着型通所介護",
    "capacity": 0,
    "openDays": [
      "平日",
      "土曜日"
    ],
    "openDaysNote": ""
  },
  {
    "id": "3370500542",
    "name": "夢ゆめハウス",
    "kana": "ユメユメハウス",
    "address": "岡山県笠岡市九番町1-22",
    "lat": 34.4950629666032,
    "lng": 133.519294481615,
    "tel": "0865-63-6633",
    "url": "https://yumeyumehouse.com",
    "pref": "岡山県",
    "city": "笠岡市",
    "category": "community_day_service",
    "serviceType": "地域密着型通所介護",
    "capacity": 17,
    "openDays": [
      "平日",
      "土曜日",
      "日曜日",
      "祝日"
    ],
    "openDaysNote": ""
  },
  {
    "id": "3373100159",
    "name": "賀陽荘デイサービスセンター",
    "kana": "カヨウソウデイサービスセンター",
    "address": "岡山県加賀郡吉備中央町上竹７５３番地",
    "lat": 34.8539105,
    "lng": 133.6793983,
    "tel": "0866-54-2220",
    "url": "care-net.biz/33/kayousou753/",
    "pref": "岡山県",
    "city": "吉備中央町",
    "category": "community_day_service",
    "serviceType": "地域密着型通所介護",
    "capacity": 15,
    "openDays": [
      "平日",
      "土曜日",
      "祝日"
    ],
    "openDaysNote": ""
  },
  {
    "id": "3373800485",
    "name": "しえんデイサービスセンター",
    "kana": "シエンデイサービスセンター",
    "address": "岡山県久米郡久米南町山ノ城３９９－１４",
    "lat": 34.9589928,
    "lng": 133.9618972,
    "tel": "086-728-9115",
    "url": "",
    "pref": "岡山県",
    "city": "久米南町",
    "category": "community_day_service",
    "serviceType": "地域密着型通所介護",
    "capacity": 0,
    "openDays": [
      "平日",
      "土曜日",
      "祝日"
    ],
    "openDaysNote": "特になし"
  },
  {
    "id": "3373800519",
    "name": "しえんデイサービスセンターゆう",
    "kana": "シエンデイサービスセンターユウ",
    "address": "岡山県久米郡久米南町山ノ城２８３－８",
    "lat": 34.9586068941434,
    "lng": 133.962181938809,
    "tel": "086-728-9115",
    "url": "",
    "pref": "岡山県",
    "city": "久米南町",
    "category": "community_day_service",
    "serviceType": "地域密着型通所介護",
    "capacity": 0,
    "openDays": [
      "平日",
      "土曜日",
      "祝日"
    ],
    "openDaysNote": "特になし"
  },
  {
    "id": "3373800527",
    "name": "デイサービスちえ",
    "kana": "デイサービスチエ",
    "address": "久米郡久米南町南庄３１６１番地",
    "lat": 34.9503822,
    "lng": 133.952376,
    "tel": "086-728-4532",
    "url": "http://ds-chie.jimdo.com",
    "pref": "岡山県",
    "city": "久米南町",
    "category": "community_day_service",
    "serviceType": "地域密着型通所介護",
    "capacity": 9,
    "openDays": [
      "平日",
      "土曜日",
      "日曜日",
      "祝日"
    ],
    "openDaysNote": ""
  },
  {
    "id": "3393500131",
    "name": "デイサービスmusubi「結び」",
    "kana": "デイサービスムスビ「ムスビ」",
    "address": "岡山県苫田郡鏡野町寺和田1555",
    "lat": 35.13391,
    "lng": 133.9547509,
    "tel": "0868-56-0311",
    "url": "https://www.cras-ltd.com/",
    "pref": "岡山県",
    "city": "鏡野町",
    "category": "community_day_service",
    "serviceType": "地域密着型通所介護",
    "capacity": 18,
    "openDays": [
      "平日",
      "土曜日",
      "日曜日",
      "祝日"
    ],
    "openDaysNote": ""
  },
  {
    "id": "3373500150",
    "name": "ふれあいの里指定通所介護事業所",
    "kana": "フレアイノサトシテイツウショカイゴジギョウショ",
    "address": "岡山県苫田郡鏡野町古川４３９－１",
    "lat": 35.0768959,
    "lng": 133.9320325,
    "tel": "0868-54-1243",
    "url": "",
    "pref": "岡山県",
    "city": "鏡野町",
    "category": "community_day_service",
    "serviceType": "地域密着型通所介護",
    "capacity": 0,
    "openDays": [
      "平日"
    ],
    "openDaysNote": ""
  },
  {
    "id": "3373500499",
    "name": "奥津広済園デイサービスセンター",
    "kana": "オクツコウサイエンデイサービスセンター",
    "address": "岡山県苫田郡鏡野町杉７５０－４",
    "lat": 35.1747231,
    "lng": 133.9121319,
    "tel": "868529011",
    "url": "https://okutsu-kousaikai.net/",
    "pref": "岡山県",
    "city": "鏡野町",
    "category": "community_day_service",
    "serviceType": "地域密着型通所介護",
    "capacity": 0,
    "openDays": [
      "平日",
      "土曜日"
    ],
    "openDaysNote": ""
  },
  {
    "id": "3373500226",
    "name": "鏡野町上齋原指定通所介護事業所",
    "kana": "カガミノチョウカミサイバラシテイツウショカイゴジギョウショ",
    "address": "苫田郡鏡野町上齋原480-1",
    "lat": 35.2787701,
    "lng": 133.9258612,
    "tel": "0868-44-2492",
    "url": "",
    "pref": "岡山県",
    "city": "鏡野町",
    "category": "community_day_service",
    "serviceType": "地域密着型通所介護",
    "capacity": 0,
    "openDays": [
      "平日",
      "祝日"
    ],
    "openDaysNote": ""
  },
  {
    "id": "3373500135",
    "name": "鏡野町富指定通所介護事業所",
    "kana": "カガミノチョウトミシテイツウショカイゴジギョウショ",
    "address": "岡山県苫田郡鏡野町富西谷１１９",
    "lat": 35.1595474,
    "lng": 133.8434314,
    "tel": "0867-57-2026",
    "url": "http://www.mto.ne.jp/kagaminosyakyo/",
    "pref": "岡山県",
    "city": "鏡野町",
    "category": "community_day_service",
    "serviceType": "地域密着型通所介護",
    "capacity": null,
    "openDays": [
      "平日"
    ],
    "openDaysNote": ""
  },
  {
    "id": "3370401337",
    "name": "アイル玉野別邸",
    "kana": "アイルタマノベッテイ",
    "address": "岡山県玉野市後閑2ケイエスゴルフ２Ｆ ケイエスゴルフ２Ｆ",
    "lat": 34.5344121,
    "lng": 133.9748643,
    "tel": "0863-41-1100",
    "url": "http://www.morenet.co.jp/illlink.html",
    "pref": "岡山県",
    "city": "玉野市",
    "category": "community_day_service",
    "serviceType": "地域密着型通所介護",
    "capacity": 18,
    "openDays": [
      "平日",
      "土曜日",
      "祝日"
    ],
    "openDaysNote": ""
  },
  {
    "id": "3390400335",
    "name": "グランデパール通所介護事業所",
    "kana": "グランデパールツウショカイゴジギョウショ",
    "address": "岡山県玉野市用吉1676-7グランデパールデイサービス（2階・3階） グランデパールデイサービス（2階・3階）",
    "lat": 34.5260019,
    "lng": 133.8974689,
    "tel": "0863-73-9880",
    "url": "https://www.grand-depart.jp",
    "pref": "岡山県",
    "city": "玉野市",
    "category": "community_day_service",
    "serviceType": "地域密着型通所介護",
    "capacity": 18,
    "openDays": [
      "平日",
      "祝日"
    ],
    "openDaysNote": "土曜日・日曜日を除く祝日は営業しています。（改行）お盆も営業しています。"
  },
  {
    "id": "3370401352",
    "name": "テイクリハビリテーションサービス",
    "kana": "テイクリハビリテーションサービス",
    "address": "玉野市田井3-7-1",
    "lat": 34.5165606,
    "lng": 133.9460783,
    "tel": "0863-33-0020",
    "url": "",
    "pref": "岡山県",
    "city": "玉野市",
    "category": "community_day_service",
    "serviceType": "地域密着型通所介護",
    "capacity": 0,
    "openDays": [
      "平日"
    ],
    "openDaysNote": ""
  },
  {
    "id": "3390400236",
    "name": "デイサービス　リハケアセンターふるさと",
    "kana": "デイサービス　リハケアセンターフルサト",
    "address": "梶岡７７７-１",
    "lat": 34.5551212,
    "lng": 134.0028804,
    "tel": "０８６３－４１－２０２２",
    "url": "",
    "pref": "岡山県",
    "city": "玉野市",
    "category": "community_day_service",
    "serviceType": "地域密着型通所介護",
    "capacity": 0,
    "openDays": [
      "平日",
      "祝日"
    ],
    "openDaysNote": "具体的な休業日については前月にお知らせします。"
  },
  {
    "id": "3370401204",
    "name": "デイサービス　虹の家",
    "kana": "デイサービス　ニジノイエ",
    "address": "玉野市羽根崎町5-26",
    "lat": 34.4607487424914,
    "lng": 133.924595195872,
    "tel": "0863-81-8801",
    "url": "http://www.okayama-health.coop",
    "pref": "岡山県",
    "city": "玉野市",
    "category": "community_day_service",
    "serviceType": "地域密着型通所介護",
    "capacity": 18,
    "openDays": [
      "平日",
      "土曜日",
      "祝日"
    ],
    "openDaysNote": ""
  },
  {
    "id": "3390400277",
    "name": "デイサービスセンターフェニックス田井",
    "kana": "デイサービスセンターフェニックスタイ",
    "address": "玉野市田井四丁目10番45号",
    "lat": 34.5181188,
    "lng": 133.9465365,
    "tel": "0863-33-5800",
    "url": "http://www.fenix.tai.co.jp",
    "pref": "岡山県",
    "city": "玉野市",
    "category": "community_day_service",
    "serviceType": "地域密着型通所介護",
    "capacity": 0,
    "openDays": [
      "平日",
      "土曜日",
      "日曜日",
      "祝日"
    ],
    "openDaysNote": ""
  },
  {
    "id": "3370401097",
    "name": "デイサービスセンターほのかNagao",
    "kana": "デイサービスセンターホノカナガオ",
    "address": "岡山県玉野市長尾５５７－１",
    "lat": 34.4955646,
    "lng": 133.8907107,
    "tel": "0863-71-5580",
    "url": "https://honoka-hc.co.jp",
    "pref": "岡山県",
    "city": "玉野市",
    "category": "community_day_service",
    "serviceType": "地域密着型通所介護",
    "capacity": null,
    "openDays": [
      "平日",
      "土曜日",
      "祝日"
    ],
    "openDaysNote": "なし"
  },
  {
    "id": "3390400285",
    "name": "デイサービスセンターゆたか",
    "kana": "デイサービスセンターユタカ",
    "address": "岡山県玉野市八浜町八浜1115番地",
    "lat": 34.5532354,
    "lng": 133.9412014,
    "tel": "0863-51-1700",
    "url": "http://hp.kaipoke.biz/g20/",
    "pref": "岡山県",
    "city": "玉野市",
    "category": "community_day_service",
    "serviceType": "地域密着型通所介護",
    "capacity": 18,
    "openDays": [
      "平日",
      "土曜日",
      "日曜日",
      "祝日"
    ],
    "openDaysNote": ""
  },
  {
    "id": "3370400982",
    "name": "デイサービスたまメディカルリハビリ",
    "kana": "デイサービスタマメディカルリハビリ",
    "address": "岡山県玉野市玉２丁目２５番１９号",
    "lat": 34.4819522,
    "lng": 133.9321462,
    "tel": "0863-31-6803",
    "url": "http://www.tamamrc.jp/",
    "pref": "岡山県",
    "city": "玉野市",
    "category": "community_day_service",
    "serviceType": "地域密着型通所介護",
    "capacity": 10,
    "openDays": [
      "平日",
      "土曜日"
    ],
    "openDaysNote": "特になし"
  },
  {
    "id": "3370401436",
    "name": "デイサービス絆　田井",
    "kana": "デイサービスキズナ　タイ",
    "address": "岡山県玉野市田井3丁目19-14デイサービス絆田井 デイサービス絆田井",
    "lat": 34.5141387,
    "lng": 133.9500114,
    "tel": "0863-23-4865",
    "url": "https://sukhaavatii.wixsite.com/kizuna",
    "pref": "岡山県",
    "city": "玉野市",
    "category": "community_day_service",
    "serviceType": "地域密着型通所介護",
    "capacity": 0,
    "openDays": [
      "平日",
      "土曜日",
      "祝日"
    ],
    "openDaysNote": "祝日、正月（1/1を除く）、ゴールデン、お盆、は営業"
  },
  {
    "id": "3370400735",
    "name": "なごみデイサービス",
    "kana": "ナゴミデイサービス",
    "address": "岡山県玉野市築港2丁目１７－１８",
    "lat": 34.4981958,
    "lng": 133.9514395,
    "tel": "0863-31-7530",
    "url": "http://ww9.tiki.ne.jp/~tommy",
    "pref": "岡山県",
    "city": "玉野市",
    "category": "community_day_service",
    "serviceType": "地域密着型通所介護",
    "capacity": 10,
    "openDays": [
      "平日",
      "祝日"
    ],
    "openDaysNote": "祝日は営業"
  },
  {
    "id": "3370401345",
    "name": "玉野市和田２丁目4−２０",
    "kana": "蒼デイサービスセンター",
    "address": "岡山県玉野市和田２丁目4−２０",
    "lat": 34.4687977,
    "lng": 133.9286353,
    "tel": "863810055",
    "url": "",
    "pref": "岡山県",
    "city": "玉野市",
    "category": "community_day_service",
    "serviceType": "地域密着型通所介護",
    "capacity": 0,
    "openDays": [
      "平日",
      "土曜日"
    ],
    "openDaysNote": ""
  },
  {
    "id": "3390900185",
    "name": "デイサービスCoCo内山下",
    "kana": "デイサービスココウチサンゲ",
    "address": "岡山県高梁市内山下187-15",
    "lat": 34.8034706,
    "lng": 133.6161552,
    "tel": "0866-56-1551",
    "url": "",
    "pref": "岡山県",
    "city": "高梁市",
    "category": "community_day_service",
    "serviceType": "地域密着型通所介護",
    "capacity": null,
    "openDays": [
      "平日",
      "土曜日",
      "祝日"
    ],
    "openDaysNote": "8月13日から15日までと12月30日から1月3日までを除く。"
  },
  {
    "id": "3370900551",
    "name": "デイサービスYOU",
    "kana": "デイサービスユウ",
    "address": "岡山県高梁市成羽町成羽2740-1",
    "lat": 34.7845617555655,
    "lng": 133.533070042719,
    "tel": "0866-42-3273",
    "url": "",
    "pref": "岡山県",
    "city": "高梁市",
    "category": "community_day_service",
    "serviceType": "地域密着型通所介護",
    "capacity": 0,
    "openDays": [
      "平日",
      "土曜日",
      "祝日"
    ],
    "openDaysNote": "デイの利用時に避難警報等が発令された場合には、デイの判断により施設に連絡後送迎いたします。"
  },
  {
    "id": "3370900379",
    "name": "デイサービスセンター　たけんち",
    "kana": "デイサービスセンター　タケンチ",
    "address": "岡山県高梁市玉川町玉2097",
    "lat": 34.753872,
    "lng": 133.6032587,
    "tel": "0866-22-3344",
    "url": "",
    "pref": "岡山県",
    "city": "高梁市",
    "category": "community_day_service",
    "serviceType": "地域密着型通所介護",
    "capacity": 10,
    "openDays": [
      "平日",
      "土曜日",
      "祝日"
    ],
    "openDaysNote": ""
  },
  {
    "id": "3370900627",
    "name": "デイサービスひなたぼっこ美の里",
    "kana": "デイサービス　ヒナタボッコミノリ",
    "address": "岡山県高梁市落合町近似576-2",
    "lat": 34.7934194,
    "lng": 133.6083915,
    "tel": "0866-56-3677",
    "url": "",
    "pref": "岡山県",
    "city": "高梁市",
    "category": "community_day_service",
    "serviceType": "地域密着型通所介護",
    "capacity": 10,
    "openDays": [
      "平日",
      "土曜日"
    ],
    "openDaysNote": ""
  },
  {
    "id": "3373200165",
    "name": "高梁市社会福祉協議会　川上デイサービスセンター",
    "kana": "タカハシシシャカイフクシキョウギカイ　カワカミデイサービスセンター",
    "address": "岡山県高梁市川上町地頭2070番地1",
    "lat": 34.7356143,
    "lng": 133.4820136,
    "tel": "0866-48-9770",
    "url": "http://www.takahasi-shakyo.org/",
    "pref": "岡山県",
    "city": "高梁市",
    "category": "community_day_service",
    "serviceType": "地域密着型通所介護",
    "capacity": 0,
    "openDays": [
      "平日"
    ],
    "openDaysNote": ""
  },
  {
    "id": "3370900510",
    "name": "備北介護センターデイサービス「はなみずき」",
    "kana": "ビホクカイゴセンターデイサービス「ハナミズキ」",
    "address": "岡山県高梁市落合町近似1390-1",
    "lat": 34.7953442,
    "lng": 133.6118882,
    "tel": "0866-23-0255",
    "url": "",
    "pref": "岡山県",
    "city": "高梁市",
    "category": "community_day_service",
    "serviceType": "地域密着型通所介護",
    "capacity": null,
    "openDays": [
      "平日",
      "土曜日",
      "祝日"
    ],
    "openDaysNote": ""
  },
  {
    "id": "3370900585",
    "name": "老人デイサービスセンター高倉荘",
    "kana": "ロウジンデイサービスセンタータカクラソウ",
    "address": "岡山県高梁市高倉町飯部3344-1",
    "lat": 34.854575,
    "lng": 133.5685502,
    "tel": "0866-26-1555",
    "url": "http://koushinkai-okayama.jp/",
    "pref": "岡山県",
    "city": "高梁市",
    "category": "community_day_service",
    "serviceType": "地域密着型通所介護",
    "capacity": 0,
    "openDays": [
      "平日",
      "土曜日",
      "祝日"
    ],
    "openDaysNote": "年末年始（１２月３０日から１月３日まで）休み"
  },
  {
    "id": "3373600257",
    "name": "勝央町社会福祉協議会通所介護事業所",
    "kana": "ショウオウチョウシャカイフクシキョウギカイツウショカイゴジギョウショ",
    "address": "岡山県勝田郡勝央町平242-1勝央町総合保健福祉センター 勝央町総合保健福祉センター",
    "lat": 35.0433176,
    "lng": 134.116052,
    "tel": "0868-38-2160",
    "url": "http://www.shoo-shakyo.jp",
    "pref": "岡山県",
    "city": "勝央町",
    "category": "community_day_service",
    "serviceType": "地域密着型通所介護",
    "capacity": 5,
    "openDays": [
      "平日"
    ],
    "openDaysNote": "営業日　月・火・水・金曜日"
  },
  {
    "id": "3371000393",
    "name": "デイサービス・クローバー",
    "kana": "デイサービス・クローバー",
    "address": "岡山県新見市正田643番地5",
    "lat": 34.9674371474424,
    "lng": 133.479257374695,
    "tel": "0867-88-0979",
    "url": "https://greenleaf-clover.jp",
    "pref": "岡山県",
    "city": "新見市",
    "category": "community_day_service",
    "serviceType": "地域密着型通所介護",
    "capacity": 0,
    "openDays": [
      "平日",
      "土曜日"
    ],
    "openDaysNote": ""
  },
  {
    "id": "3371000302",
    "name": "デイサービスセンター　ほっと館新見",
    "kana": "デイサービスセンター　ホットカンニイミ",
    "address": "岡山県新見市千屋実２１４８－５",
    "lat": 35.1012682791527,
    "lng": 133.437186644166,
    "tel": "0867-77-9050",
    "url": "",
    "pref": "岡山県",
    "city": "新見市",
    "category": "community_day_service",
    "serviceType": "地域密着型通所介護",
    "capacity": 10,
    "openDays": [
      "平日",
      "土曜日",
      "祝日"
    ],
    "openDaysNote": "利用者への事前通達を行う事で、他の日も休日とする場合がある。"
  },
  {
    "id": "3391000167",
    "name": "デイサービスセンターさくらんぼ",
    "kana": "デイサービスセンターサクランボ",
    "address": "岡山県新見市石蟹83番地1",
    "lat": 34.9537338115021,
    "lng": 133.478710057748,
    "tel": "0867-88-0868",
    "url": "",
    "pref": "岡山県",
    "city": "新見市",
    "category": "community_day_service",
    "serviceType": "地域密着型通所介護",
    "capacity": 0,
    "openDays": [
      "平日",
      "土曜日",
      "祝日"
    ],
    "openDaysNote": "平成３１年４月より働き方改革の実施で、年に数回臨時休業あり。"
  },
  {
    "id": "3391000183",
    "name": "デイサービスひより",
    "kana": "デイサービスヒヨリ",
    "address": "岡山県新見市下熊谷1554-1",
    "lat": 35.0059018995466,
    "lng": 133.48583989259,
    "tel": "0867-72-2233",
    "url": "",
    "pref": "岡山県",
    "city": "新見市",
    "category": "community_day_service",
    "serviceType": "地域密着型通所介護",
    "capacity": 18,
    "openDays": [
      "平日",
      "土曜日",
      "祝日"
    ],
    "openDaysNote": "自然災害等により安全の確保が困難と思われるときはお休みする事があります。"
  },
  {
    "id": "3371000484",
    "name": "新見市養護老人ホーム　和みの郷かなや　デイサービスセンター",
    "kana": "ニイミシヨウゴロウジンホ－ム　ナゴミノサトカナヤ　デイサービスセンター",
    "address": "岡山県新見市金谷641番地",
    "lat": 34.9724806,
    "lng": 133.4688818,
    "tel": "０８６７－７２－１２４４",
    "url": "",
    "pref": "岡山県",
    "city": "新見市",
    "category": "community_day_service",
    "serviceType": "地域密着型通所介護",
    "capacity": null,
    "openDays": [
      "平日",
      "祝日"
    ],
    "openDaysNote": ""
  },
  {
    "id": "3371000328",
    "name": "生き活き館新見　デイサービスセンター",
    "kana": "イキイキカンニイミ　デイサービスセンター",
    "address": "岡山県新見市上熊谷762-2新見市高齢者センター 新見市高齢者センター",
    "lat": 35.0303615,
    "lng": 133.5250782,
    "tel": "0867-78-1166",
    "url": "http://kokoro-net.org/",
    "pref": "岡山県",
    "city": "新見市",
    "category": "community_day_service",
    "serviceType": "地域密着型通所介護",
    "capacity": 0,
    "openDays": [
      "平日",
      "土曜日",
      "祝日"
    ],
    "openDaysNote": ""
  },
  {
    "id": "3393400274",
    "name": "新庄村社会福祉協議会指定通所介護事業所",
    "kana": "シンジョウソンシャカイフクシキョウギカイシテイツウショカイゴジギョウショ",
    "address": "岡山県真庭郡新庄村１９９８－１",
    "lat": 35.1794843,
    "lng": 133.5677721,
    "tel": "０８６７－５６－２００１",
    "url": "http://www.shinjoshakyo.or.jp/",
    "pref": "岡山県",
    "city": "新庄村",
    "category": "community_day_service",
    "serviceType": "地域密着型通所介護",
    "capacity": null,
    "openDays": [
      "平日"
    ],
    "openDaysNote": ""
  },
  {
    "id": "3373401151",
    "name": "デイサービス　ほっこり",
    "kana": "デイサービス　ホッコリ",
    "address": "真庭市宮地1247番地１",
    "lat": 34.9791431,
    "lng": 133.6787892,
    "tel": "0866-56-3515",
    "url": "",
    "pref": "岡山県",
    "city": "真庭市",
    "category": "community_day_service",
    "serviceType": "地域密着型通所介護",
    "capacity": 0,
    "openDays": [
      "平日",
      "土曜日",
      "祝日"
    ],
    "openDaysNote": "休業日（改行）・8月13日～15日（改行）・12月31日～1月3日"
  },
  {
    "id": "3393400266",
    "name": "デイサービスセンター　ゆずの実",
    "kana": "デイサービスセンター　ユズノミ",
    "address": "岡山県真庭市上水田3804番地１",
    "lat": 34.9685524233232,
    "lng": 133.648698535582,
    "tel": "0866-52-4811",
    "url": "",
    "pref": "岡山県",
    "city": "真庭市",
    "category": "community_day_service",
    "serviceType": "地域密着型通所介護",
    "capacity": 18,
    "openDays": [
      "平日",
      "土曜日",
      "祝日"
    ],
    "openDaysNote": ""
  },
  {
    "id": "3373400310",
    "name": "ライラック久世デイサービスセンター",
    "kana": "ライラッククセデイサービスセンター",
    "address": "岡山県真庭市久世５４０番地３",
    "lat": 35.0897419,
    "lng": 133.7509963,
    "tel": "0867-42-7550",
    "url": "http://www.jyujikai.or.jp",
    "pref": "岡山県",
    "city": "真庭市",
    "category": "community_day_service",
    "serviceType": "地域密着型通所介護",
    "capacity": null,
    "openDays": [
      "平日",
      "祝日"
    ],
    "openDaysNote": ""
  },
  {
    "id": "3373401227",
    "name": "リハスタイルひかり",
    "kana": "リハスタイルヒカリ",
    "address": "岡山県真庭市中313-8",
    "lat": 35.0545429,
    "lng": 133.7525945,
    "tel": "0867-42-8003",
    "url": "",
    "pref": "岡山県",
    "city": "真庭市",
    "category": "community_day_service",
    "serviceType": "地域密着型通所介護",
    "capacity": 10,
    "openDays": [
      "平日",
      "土曜日"
    ],
    "openDaysNote": ""
  },
  {
    "id": "3373400393",
    "name": "指定通所介護施設デイホーム神庭荘",
    "kana": "シテイツウショカイゴシセツデイホームカンバソウ",
    "address": "岡山県真庭市組360番地",
    "lat": 35.0959691646221,
    "lng": 133.689183034359,
    "tel": "0867-44-5181",
    "url": "http://f-keishinkai.jp",
    "pref": "岡山県",
    "city": "真庭市",
    "category": "community_day_service",
    "serviceType": "地域密着型通所介護",
    "capacity": 18,
    "openDays": [
      "平日",
      "土曜日",
      "祝日"
    ],
    "openDaysNote": ""
  },
  {
    "id": "3373400971",
    "name": "真庭市社協通所介護湯原事業所",
    "kana": "マニワシシャキョウツウショカイゴユバラジギョウショ",
    "address": "岡山県真庭市下湯原47湯原保健福祉センター 湯原保健福祉センター",
    "lat": 35.1876319,
    "lng": 133.7350369,
    "tel": "0867-62-7111",
    "url": "",
    "pref": "岡山県",
    "city": "真庭市",
    "category": "community_day_service",
    "serviceType": "地域密着型通所介護",
    "capacity": 0,
    "openDays": [
      "平日",
      "土曜日"
    ],
    "openDaysNote": ""
  },
  {
    "id": "3373401177",
    "name": "生活リハビリセンターだいごの郷",
    "kana": "セイカツリハビリセンターダイゴノサト",
    "address": "岡山県真庭市鹿田472",
    "lat": 34.9924510106419,
    "lng": 133.728668534393,
    "tel": "0867-45-7223",
    "url": "",
    "pref": "岡山県",
    "city": "真庭市",
    "category": "community_day_service",
    "serviceType": "地域密着型通所介護",
    "capacity": 60,
    "openDays": [
      "平日",
      "土曜日",
      "祝日"
    ],
    "openDaysNote": ""
  },
  {
    "id": "3393400308",
    "name": "蒜山デイサービスセンター",
    "kana": "ヒルゼンデイサービスセンター",
    "address": "岡山県真庭市蒜山上長田28－1",
    "lat": 35.2864239,
    "lng": 133.687418,
    "tel": "0867－66－3122",
    "url": "http://www.uguisuen.jp/",
    "pref": "岡山県",
    "city": "真庭市",
    "category": "community_day_service",
    "serviceType": "地域密着型通所介護",
    "capacity": 0,
    "openDays": [
      "平日",
      "祝日"
    ],
    "openDaysNote": "月曜日から金曜日の祝祭日は営業"
  },
  {
    "id": "3373400443",
    "name": "緑風荘通所介護事業所",
    "kana": "リョクフウソウツウショカイゴジギョウショ",
    "address": "岡山県真庭市美甘３２６番地",
    "lat": 35.1548254,
    "lng": 133.6258936,
    "tel": "0867-56-2377",
    "url": "http://www.suimeikai.or.jp",
    "pref": "岡山県",
    "city": "真庭市",
    "category": "community_day_service",
    "serviceType": "地域密着型通所介護",
    "capacity": 0,
    "openDays": [
      "平日"
    ],
    "openDaysNote": ""
  },
  {
    "id": "3372400394",
    "name": "デイサービスセンターうらら",
    "kana": "デイサービスセンターウララ",
    "address": "岡山県瀬戸内市牛窓町牛窓４９４８－８",
    "lat": 34.6178141,
    "lng": 134.1463915,
    "tel": "0869-34-9306",
    "url": "",
    "pref": "岡山県",
    "city": "瀬戸内市",
    "category": "community_day_service",
    "serviceType": "地域密着型通所介護",
    "capacity": 18,
    "openDays": [
      "平日",
      "土曜日",
      "祝日"
    ],
    "openDaysNote": ""
  },
  {
    "id": "3372400915",
    "name": "デイサービスセンターのどか",
    "kana": "デイサービスセンターノドカ",
    "address": "岡山県瀬戸内市邑久町尾張558番地",
    "lat": 34.6629569,
    "lng": 134.0949012,
    "tel": "0869-22-9389",
    "url": "",
    "pref": "岡山県",
    "city": "瀬戸内市",
    "category": "community_day_service",
    "serviceType": "地域密着型通所介護",
    "capacity": 10,
    "openDays": [
      "平日",
      "土曜日",
      "日曜日",
      "祝日"
    ],
    "openDaysNote": ""
  },
  {
    "id": "3372400857",
    "name": "デイサービスセンターまりん",
    "kana": "デイサービスセンターマリン",
    "address": "岡山県瀬戸内市邑久町尾張1341-4",
    "lat": 34.6629212,
    "lng": 134.1082889,
    "tel": "0869-24-7892",
    "url": "",
    "pref": "岡山県",
    "city": "瀬戸内市",
    "category": "community_day_service",
    "serviceType": "地域密着型通所介護",
    "capacity": 0,
    "openDays": [
      "平日",
      "祝日"
    ],
    "openDaysNote": "夏季（お盆）休み、年末年始休み、その他"
  },
  {
    "id": "3372400865",
    "name": "デイサービスセンター楽々園",
    "kana": "デイサービスセンターラクラクエン",
    "address": "岡山県瀬戸内市邑久町北池169番地",
    "lat": 34.681829926675,
    "lng": 134.112963346835,
    "tel": "0869-22-1414",
    "url": "http://c-oka.org/",
    "pref": "岡山県",
    "city": "瀬戸内市",
    "category": "community_day_service",
    "serviceType": "地域密着型通所介護",
    "capacity": 18,
    "openDays": [
      "平日",
      "土曜日",
      "祝日"
    ],
    "openDaysNote": "積雪や台風時等には休業となる場合があります"
  },
  {
    "id": "3372400493",
    "name": "てのひらの家　デイサービスセンター",
    "kana": "テノヒラノイエ　デイサービスセンター",
    "address": "岡山県瀬戸内市邑久町上笠加285番地の8",
    "lat": 34.6896936,
    "lng": 134.0983781,
    "tel": "0869-24-2512",
    "url": "http://www.tenohira.crap.jp/",
    "pref": "岡山県",
    "city": "瀬戸内市",
    "category": "community_day_service",
    "serviceType": "地域密着型通所介護",
    "capacity": null,
    "openDays": [
      "平日",
      "土曜日",
      "祝日"
    ],
    "openDaysNote": "年末年始は休み(12／31～1／2)"
  },
  {
    "id": "3372201354",
    "name": "デイサービスデンター　さくら木",
    "kana": "デイサービスセンター　サクラギ",
    "address": "岡山県赤磐市河本488-1",
    "lat": 34.7465496,
    "lng": 134.0145212,
    "tel": "086-955-4180",
    "url": "https://yufukai.com",
    "pref": "岡山県",
    "city": "赤磐市",
    "category": "community_day_service",
    "serviceType": "地域密着型通所介護",
    "capacity": 0,
    "openDays": [
      "平日",
      "土曜日",
      "祝日"
    ],
    "openDaysNote": ""
  },
  {
    "id": "3372201073",
    "name": "デイサービス寿荘",
    "kana": "デイサービスコトブキソウ",
    "address": "岡山県赤磐市桜が丘西９－１－１",
    "lat": 34.777127,
    "lng": 134.0243387,
    "tel": "086-958-3366",
    "url": "http://ww9.tiki.ne.jp/~kotobuki/",
    "pref": "岡山県",
    "city": "赤磐市",
    "category": "community_day_service",
    "serviceType": "地域密着型通所介護",
    "capacity": 17,
    "openDays": [
      "平日",
      "土曜日",
      "祝日"
    ],
    "openDaysNote": ""
  },
  {
    "id": "3372201362",
    "name": "生活リハビリセンターあかいわの郷我が家",
    "kana": "セイカツリハビリセンターアカイワノサトワガヤ",
    "address": "岡山県赤磐市河本1029-3",
    "lat": 34.7473356,
    "lng": 134.0149573,
    "tel": "086-958-5522",
    "url": "",
    "pref": "岡山県",
    "city": "赤磐市",
    "category": "community_day_service",
    "serviceType": "地域密着型通所介護",
    "capacity": 35,
    "openDays": [
      "平日",
      "土曜日",
      "祝日"
    ],
    "openDaysNote": ""
  },
  {
    "id": "3372700934",
    "name": "ケアホームすみちゃん",
    "kana": "ケアホームスミチャン",
    "address": "岡山県浅口市寄島町5097",
    "lat": 34.4881135,
    "lng": 133.5899211,
    "tel": "0865-54-3311",
    "url": "",
    "pref": "岡山県",
    "city": "浅口市",
    "category": "community_day_service",
    "serviceType": "地域密着型通所介護",
    "capacity": 0,
    "openDays": [
      "平日",
      "日曜日",
      "祝日"
    ],
    "openDaysNote": ""
  },
  {
    "id": "3372700835",
    "name": "デイサービスおとなりさん",
    "kana": "デイサービスオトナリサン",
    "address": "岡山県浅口市金光町３６３－４９",
    "lat": 34.531069,
    "lng": 133.6042972,
    "tel": "0865-42-9580",
    "url": "http://www.hermanayuge.com",
    "pref": "岡山県",
    "city": "浅口市",
    "category": "community_day_service",
    "serviceType": "地域密着型通所介護",
    "capacity": 10,
    "openDays": [
      "平日",
      "土曜日",
      "祝日"
    ],
    "openDaysNote": "台風など緊急事態、大雪で交通機関等移動不能等"
  },
  {
    "id": "3372700447",
    "name": "よりしま中西医院デイサービスセンター",
    "kana": "ヨリシマナカニシイインデイサービスセンター",
    "address": "岡山県浅口市寄島町7543-11",
    "lat": 34.4804154391858,
    "lng": 133.58666655893,
    "tel": "0865-54-2324",
    "url": "",
    "pref": "岡山県",
    "city": "浅口市",
    "category": "community_day_service",
    "serviceType": "地域密着型通所介護",
    "capacity": 0,
    "openDays": [
      "平日",
      "土曜日"
    ],
    "openDaysNote": ""
  },
  {
    "id": "3370204848",
    "name": "３５８デイサービスセンター",
    "kana": "サンゴーハチデイサービスセンター",
    "address": "岡山県倉敷市串田660番地",
    "lat": 34.5433056,
    "lng": 133.8129079,
    "tel": "086-485-3370",
    "url": "www.warakukai.com",
    "pref": "岡山県",
    "city": "倉敷市",
    "category": "community_day_service",
    "serviceType": "地域密着型通所介護",
    "capacity": 15,
    "openDays": [
      "平日",
      "土曜日",
      "祝日"
    ],
    "openDaysNote": ""
  },
  {
    "id": "3370207742",
    "name": "Ｐ．Ｐ．Ｐ．ブラヴィッシモ！味野",
    "kana": "ピーピーピーブラゔィッシモアジノ",
    "address": "岡山県倉敷市児島味野1丁目15-1",
    "lat": 34.4747664,
    "lng": 133.8018687,
    "tel": "086-441-7220",
    "url": "http://www.3flower.jp/",
    "pref": "岡山県",
    "city": "倉敷市",
    "category": "community_day_service",
    "serviceType": "地域密着型通所介護",
    "capacity": 120,
    "openDays": [
      "平日",
      "土曜日",
      "祝日"
    ],
    "openDaysNote": ""
  },
  {
    "id": "3370205225",
    "name": "あかりデイサービス",
    "kana": "アカリデイサービス",
    "address": "岡山県倉敷市連島1丁目5番15号",
    "lat": 34.5461051960356,
    "lng": 133.740100747828,
    "tel": "086-454-5038",
    "url": "",
    "pref": "岡山県",
    "city": "倉敷市",
    "category": "community_day_service",
    "serviceType": "地域密着型通所介護",
    "capacity": 0,
    "openDays": [
      "平日",
      "土曜日",
      "祝日"
    ],
    "openDaysNote": "営業は月曜日～土曜日（祝日も営業）"
  },
  {
    "id": "3370206504",
    "name": "アルファディサービスセンター倉敷駅前通り",
    "kana": "アルファデイサービスセンタークラシキエキマエドオリ",
    "address": "岡山県倉敷市日ノ出町一丁目5番7号",
    "lat": 34.604978,
    "lng": 133.769501,
    "tel": "086-441-7401",
    "url": "http://www.a-living.jp/kurashiki-ekimae/",
    "pref": "岡山県",
    "city": "倉敷市",
    "category": "community_day_service",
    "serviceType": "地域密着型通所介護",
    "capacity": 5,
    "openDays": [
      "平日"
    ],
    "openDaysNote": ""
  },
  {
    "id": "3370207346",
    "name": "いづみ荘デイサービスセンター",
    "kana": "イヅミソウデイサービスセンター",
    "address": "玉島阿賀崎一丁目6-25",
    "lat": 34.5492638,
    "lng": 133.6755662,
    "tel": "086-476-5125",
    "url": "http://www.adagio-idumisou.jp",
    "pref": "岡山県",
    "city": "倉敷市",
    "category": "community_day_service",
    "serviceType": "地域密着型通所介護",
    "capacity": 18,
    "openDays": [
      "平日",
      "土曜日",
      "祝日"
    ],
    "openDaysNote": "12月31日～1月3日まで休み"
  },
  {
    "id": "3390202012",
    "name": "おかやまコープデイサービス倉敷中島",
    "kana": "オカヤマコープデイサービスクラシキナカシマ",
    "address": "倉敷市中島1833-1有料老人ホームきづな倉敷1F 有料老人ホームきづな倉敷1F",
    "lat": 34.5741204,
    "lng": 133.7277595,
    "tel": "086-454-6566",
    "url": "",
    "pref": "岡山県",
    "city": "倉敷市",
    "category": "community_day_service",
    "serviceType": "地域密着型通所介護",
    "capacity": null,
    "openDays": [
      "平日",
      "祝日"
    ],
    "openDaysNote": ""
  },
  {
    "id": "3370206322",
    "name": "おひさまデイサービスセンター",
    "kana": "オヒサマデイサービスセンター",
    "address": "倉敷市茶屋町272-6",
    "lat": 34.5765652,
    "lng": 133.8245058,
    "tel": "086-441-7857",
    "url": "",
    "pref": "岡山県",
    "city": "倉敷市",
    "category": "community_day_service",
    "serviceType": "地域密着型通所介護",
    "capacity": 18,
    "openDays": [
      "平日",
      "祝日"
    ],
    "openDaysNote": "お正月休み1／1～1/3日"
  },
  {
    "id": "3370207684",
    "name": "おひさまデイサービスセンター粒江",
    "kana": "オヒサマデイサービスセンターツブエ",
    "address": "粒江654-5",
    "lat": 34.556831,
    "lng": 133.8034775,
    "tel": "086-476-4970",
    "url": "",
    "pref": "岡山県",
    "city": "倉敷市",
    "category": "community_day_service",
    "serviceType": "地域密着型通所介護",
    "capacity": 0,
    "openDays": [
      "平日",
      "土曜日",
      "祝日"
    ],
    "openDaysNote": "お正月休み1／1～1/3"
  },
  {
    "id": "3390201535",
    "name": "サーティーリハ　浜の茶屋",
    "kana": "サーティーリハ　ハマノチャヤ",
    "address": "岡山県倉敷市浜町2丁目16-45",
    "lat": 34.6100494,
    "lng": 133.7742854,
    "tel": "086-441-3023",
    "url": "",
    "pref": "岡山県",
    "city": "倉敷市",
    "category": "community_day_service",
    "serviceType": "地域密着型通所介護",
    "capacity": 10,
    "openDays": [
      "平日",
      "祝日"
    ],
    "openDaysNote": ""
  },
  {
    "id": "3390201667",
    "name": "だんらんの家　倉敷林",
    "kana": "ダンランノイエ　クラシキハヤシ",
    "address": "岡山県倉敷市林174-16",
    "lat": 34.5463493,
    "lng": 133.8189219,
    "tel": "086-441-1989",
    "url": "https://danrannoie.com/home/kurashikihayashi.html",
    "pref": "岡山県",
    "city": "倉敷市",
    "category": "community_day_service",
    "serviceType": "地域密着型通所介護",
    "capacity": 10,
    "openDays": [
      "平日",
      "土曜日",
      "日曜日",
      "祝日"
    ],
    "openDaysNote": "年中無休"
  },
  {
    "id": "3370207288",
    "name": "デイサービス　こみん",
    "kana": "デイサービス　コミン",
    "address": "岡山県倉敷市児島下の町4丁目13-46",
    "lat": 34.4837502,
    "lng": 133.8170171,
    "tel": "086-472-3337",
    "url": "http://www.hirohouse.com",
    "pref": "岡山県",
    "city": "倉敷市",
    "category": "community_day_service",
    "serviceType": "地域密着型通所介護",
    "capacity": null,
    "openDays": [
      "平日",
      "土曜日",
      "祝日"
    ],
    "openDaysNote": ""
  },
  {
    "id": "3370206694",
    "name": "デイサービス　ささえ愛",
    "kana": "デイサービス　ササエアイ",
    "address": "岡山県倉敷市福田町古新田８０２－１７",
    "lat": 34.5419435,
    "lng": 133.7694439,
    "tel": "０８６－４５５－６０６２",
    "url": "http://www.okayama-korei.jp",
    "pref": "岡山県",
    "city": "倉敷市",
    "category": "community_day_service",
    "serviceType": "地域密着型通所介護",
    "capacity": 10,
    "openDays": [
      "平日",
      "土曜日",
      "祝日"
    ],
    "openDaysNote": "日曜、１２月３０日～１月３日は電話連絡による対応。"
  },
  {
    "id": "3370204467",
    "name": "デイサービス　とんがりぼうし",
    "kana": "デイサービス　トンガリボウシ",
    "address": "岡山県倉敷市玉島柏島687-1",
    "lat": 34.5359449,
    "lng": 133.6666422,
    "tel": "086-525-6862",
    "url": "http://www.lovenet.co.jp",
    "pref": "岡山県",
    "city": "倉敷市",
    "category": "community_day_service",
    "serviceType": "地域密着型通所介護",
    "capacity": 0,
    "openDays": [
      "平日",
      "祝日"
    ],
    "openDaysNote": "特になし"
  },
  {
    "id": "3370206454",
    "name": "デイサービス　住人十彩",
    "kana": "デイサービスジュウニントイロ",
    "address": "倉敷市亀島２－１１－１０",
    "lat": 34.5406113839823,
    "lng": 133.727198884656,
    "tel": "０８６－４４１－８４７５",
    "url": "",
    "pref": "岡山県",
    "city": "倉敷市",
    "category": "community_day_service",
    "serviceType": "地域密着型通所介護",
    "capacity": 0,
    "openDays": [
      "平日",
      "土曜日",
      "祝日"
    ],
    "openDaysNote": ""
  },
  {
    "id": "3390202038",
    "name": "デイサービスセンター　ぷらすのじむ真備",
    "kana": "デイサービスセンター　プラスノジムマビ",
    "address": "岡山県倉敷市真備町尾崎977-1",
    "lat": 34.6245118844891,
    "lng": 133.679279187836,
    "tel": "086-697-5008",
    "url": "",
    "pref": "岡山県",
    "city": "倉敷市",
    "category": "community_day_service",
    "serviceType": "地域密着型通所介護",
    "capacity": 0,
    "openDays": [
      "平日",
      "祝日"
    ],
    "openDaysNote": ""
  },
  {
    "id": "3390202020",
    "name": "デイサービスセンター　レインボー",
    "kana": "デイサービスセンター　レインボー",
    "address": "岡山県　倉敷市　連島１丁目7-27",
    "lat": 34.5467308,
    "lng": 133.7383331,
    "tel": "086-448-4877",
    "url": "",
    "pref": "岡山県",
    "city": "倉敷市",
    "category": "community_day_service",
    "serviceType": "地域密着型通所介護",
    "capacity": 18,
    "openDays": [
      "平日",
      "土曜日",
      "祝日"
    ],
    "openDaysNote": "年末年始　12月31日～1月3日はお休みです"
  },
  {
    "id": "3370206256",
    "name": "デイサービスセンターあじさい",
    "kana": "デイサービスセンターアジサイ",
    "address": "岡山県倉敷市羽島７０１－２",
    "lat": 34.5966846,
    "lng": 133.7797666,
    "tel": "086-451-2929",
    "url": "",
    "pref": "岡山県",
    "city": "倉敷市",
    "category": "community_day_service",
    "serviceType": "地域密着型通所介護",
    "capacity": 10,
    "openDays": [
      "平日",
      "祝日"
    ],
    "openDaysNote": ""
  },
  {
    "id": "3370205589",
    "name": "デイサービスセンターひまわりホーム",
    "kana": "デイサービスセンターヒマワリホーム",
    "address": "岡山県倉敷市真備町川辺624-2",
    "lat": 34.6417009919234,
    "lng": 133.720024381545,
    "tel": "086-698-8036",
    "url": "http://himawari-nr.com",
    "pref": "岡山県",
    "city": "倉敷市",
    "category": "community_day_service",
    "serviceType": "地域密着型通所介護",
    "capacity": 15,
    "openDays": [
      "平日",
      "祝日"
    ],
    "openDaysNote": ""
  },
  {
    "id": "3390201444",
    "name": "デイサービスセンターぷらすのじむ沙美",
    "kana": "デイサービスセンタープラスノジムサミ",
    "address": "岡山県倉敷市玉島黒崎5577",
    "lat": 34.503364,
    "lng": 133.6357239,
    "tel": "086-528-9113",
    "url": "http://suiseikai-group.jp",
    "pref": "岡山県",
    "city": "倉敷市",
    "category": "community_day_service",
    "serviceType": "地域密着型通所介護",
    "capacity": 0,
    "openDays": [
      "平日",
      "土曜日",
      "祝日"
    ],
    "openDaysNote": ""
  },
  {
    "id": "3390201964",
    "name": "デイサービスセンターみどりのじむ水島",
    "kana": "デイサービスセンターミドリノジムミズシマ",
    "address": "倉敷市水島北幸町4-5",
    "lat": 34.541277,
    "lng": 133.739582,
    "tel": "086-444-1118",
    "url": "http://wwwkunpoo.jp",
    "pref": "岡山県",
    "city": "倉敷市",
    "category": "community_day_service",
    "serviceType": "地域密着型通所介護",
    "capacity": 30,
    "openDays": [
      "平日",
      "土曜日",
      "祝日"
    ],
    "openDaysNote": "提供時間　2単位制（改行）■1単位＝9：15～12：15■２単位＝13：30～16：30"
  },
  {
    "id": "3390202004",
    "name": "デイサービスセンターみどりのじむ片島",
    "kana": "デイサービスセンターミドリノジムカタシマ",
    "address": "岡山県倉敷市片島町1057番1",
    "lat": 34.5686704,
    "lng": 133.7157899,
    "tel": "086-466-4440",
    "url": "http://suiseikai-group.jp",
    "pref": "岡山県",
    "city": "倉敷市",
    "category": "community_day_service",
    "serviceType": "地域密着型通所介護",
    "capacity": 18,
    "openDays": [
      "平日",
      "土曜日",
      "祝日"
    ],
    "openDaysNote": ""
  },
  {
    "id": "3390201485",
    "name": "デイサービスセンターもくもく",
    "kana": "デイサービスセンターモクモク",
    "address": "岡山県倉敷市沖新町63-7",
    "lat": 34.5822082,
    "lng": 133.7548099,
    "tel": "086-476-8080",
    "url": "http://www.yotsubakai.or.jp/",
    "pref": "岡山県",
    "city": "倉敷市",
    "category": "community_day_service",
    "serviceType": "地域密着型通所介護",
    "capacity": 0,
    "openDays": [
      "平日",
      "土曜日",
      "祝日"
    ],
    "openDaysNote": "年末年始や夏季休暇、ゴールデンウィークなども営業予定のため、ご相談に応じます。"
  },
  {
    "id": "3370203543",
    "name": "デイサービスセンター向日葵",
    "kana": "デイサービスセンターヒマワリ",
    "address": "岡山県倉敷市児島下の町１０丁目３７４番地",
    "lat": 34.4743496,
    "lng": 133.8281933,
    "tel": "086-473-7736",
    "url": "http://www.seikoh-hp.or.jp/",
    "pref": "岡山県",
    "city": "倉敷市",
    "category": "community_day_service",
    "serviceType": "地域密着型通所介護",
    "capacity": null,
    "openDays": [
      "平日",
      "土曜日"
    ],
    "openDaysNote": "特になし"
  },
  {
    "id": "3370207825",
    "name": "デイサービスセンター庄の里「なごやか」",
    "kana": "デイサービスセンターショウノサト「ナゴヤカ」",
    "address": "岡山県倉敷市生坂698",
    "lat": 34.6222934,
    "lng": 133.7895131,
    "tel": "086-464-3800",
    "url": "http://www.syounosato.or.jp/",
    "pref": "岡山県",
    "city": "倉敷市",
    "category": "community_day_service",
    "serviceType": "地域密着型通所介護",
    "capacity": 0,
    "openDays": [
      "平日",
      "土曜日",
      "祝日"
    ],
    "openDaysNote": "年始１月１日から１月３日までは休み。（改行）その他の祝日については営業。"
  },
  {
    "id": "3390201253",
    "name": "デイサービスセンター松月",
    "kana": "デイサービスセンターショウゲツ",
    "address": "岡山県倉敷市西坂１３７４－２",
    "lat": 34.643544,
    "lng": 133.7748776,
    "tel": "086-464-2031",
    "url": "",
    "pref": "岡山県",
    "city": "倉敷市",
    "category": "community_day_service",
    "serviceType": "地域密着型通所介護",
    "capacity": 0,
    "openDays": [
      "平日",
      "土曜日",
      "祝日"
    ],
    "openDaysNote": "年末・年始はお休みしています。"
  },
  {
    "id": "3370202503",
    "name": "デイサービスセンター中庄",
    "kana": "デイサービスセンター　ナカショウ",
    "address": "岡山県倉敷市平田923-1",
    "lat": 34.6165467,
    "lng": 133.779622,
    "tel": "086-423-6300",
    "url": "https://www.keiyuu-kai.or.jp/",
    "pref": "岡山県",
    "city": "倉敷市",
    "category": "community_day_service",
    "serviceType": "地域密着型通所介護",
    "capacity": 0,
    "openDays": [
      "平日",
      "土曜日",
      "祝日"
    ],
    "openDaysNote": ""
  },
  {
    "id": "3370205639",
    "name": "デイサービスセンター養命館",
    "kana": "デイサ-ビスセンタ-ヨウメイカン",
    "address": "岡山県倉敷市水島西常盤町10-19",
    "lat": 34.5354238342756,
    "lng": 133.740570515344,
    "tel": "086-446-6789",
    "url": "",
    "pref": "岡山県",
    "city": "倉敷市",
    "category": "community_day_service",
    "serviceType": "地域密着型通所介護",
    "capacity": null,
    "openDays": [
      "平日",
      "土曜日"
    ],
    "openDaysNote": ""
  },
  {
    "id": "3370207403",
    "name": "デイサービスふれんど",
    "kana": "デイサービスフレンド",
    "address": "玉島阿賀崎２５００－２",
    "lat": 34.542595,
    "lng": 133.6474529,
    "tel": "086-441-6565",
    "url": "",
    "pref": "岡山県",
    "city": "倉敷市",
    "category": "community_day_service",
    "serviceType": "地域密着型通所介護",
    "capacity": 15,
    "openDays": [
      "平日",
      "土曜日",
      "祝日"
    ],
    "openDaysNote": "ゴールデンウィーク休み（不定休）お盆休み（8月１４日～８月１６日）（改行）年末年始（１２月２９日～１月３日）（改行）施設点検・大掃除の為の臨時休業（１２月２８日）"
  },
  {
    "id": "3370207098",
    "name": "デイサービスまつしま",
    "kana": "デイサービスマツシマ",
    "address": "岡山県倉敷市松島４５９番地",
    "lat": 34.6327203,
    "lng": 133.8146419,
    "tel": "０８６－４４１－２４３０",
    "url": "",
    "pref": "岡山県",
    "city": "倉敷市",
    "category": "community_day_service",
    "serviceType": "地域密着型通所介護",
    "capacity": 0,
    "openDays": [
      "平日",
      "土曜日",
      "祝日"
    ],
    "openDaysNote": ""
  },
  {
    "id": "3370206090",
    "name": "デイサービスゆんた中庄",
    "kana": "デイサービスユンタナカショウ",
    "address": "岡山県倉敷市中庄2239－8",
    "lat": 34.6235295,
    "lng": 133.7969013,
    "tel": "086-441-1409",
    "url": "",
    "pref": "岡山県",
    "city": "倉敷市",
    "category": "community_day_service",
    "serviceType": "地域密着型通所介護",
    "capacity": 15,
    "openDays": [
      "平日",
      "祝日"
    ],
    "openDaysNote": ""
  },
  {
    "id": "3370206306",
    "name": "デイサービス朱鷺の家たましま",
    "kana": "デイサービストキノイエタマシマ",
    "address": "倉敷市玉島3丁目17-19",
    "lat": 34.5379093,
    "lng": 133.6707947,
    "tel": "086-522-0007",
    "url": "https://www.silpla.online/",
    "pref": "岡山県",
    "city": "倉敷市",
    "category": "community_day_service",
    "serviceType": "地域密着型通所介護",
    "capacity": 0,
    "openDays": [
      "平日",
      "土曜日",
      "祝日"
    ],
    "openDaysNote": "お盆・年末年始の営業は年により定める"
  },
  {
    "id": "3370207585",
    "name": "デイサービス樹楽西中新田",
    "kana": "デイサービスキラクニシナカシンデン",
    "address": "岡山県倉敷市西中新田320-5",
    "lat": 34.5827692,
    "lng": 133.7599127,
    "tel": "086-441-8460",
    "url": "kiraku-nisinakashimden.com",
    "pref": "岡山県",
    "city": "倉敷市",
    "category": "community_day_service",
    "serviceType": "地域密着型通所介護",
    "capacity": 0,
    "openDays": [
      "平日",
      "土曜日",
      "日曜日",
      "祝日"
    ],
    "openDaysNote": ""
  },
  {
    "id": "3390201907",
    "name": "デイサービス秋桜",
    "kana": "デイサービスコスモス",
    "address": "岡山県倉敷市亀島1丁目32番26号",
    "lat": 34.5396953,
    "lng": 133.7286382,
    "tel": "086-441-1200",
    "url": "",
    "pref": "岡山県",
    "city": "倉敷市",
    "category": "community_day_service",
    "serviceType": "地域密着型通所介護",
    "capacity": 10,
    "openDays": [
      "平日",
      "土曜日",
      "日曜日",
      "祝日"
    ],
    "openDaysNote": ""
  },
  {
    "id": "3370204434",
    "name": "デイサービス春風",
    "kana": "デイサービスハルカゼ",
    "address": "岡山県倉敷市吉岡237番地",
    "lat": 34.5677984,
    "lng": 133.7674543,
    "tel": "086-451-5564",
    "url": "http://heartfultsumugi.com",
    "pref": "岡山県",
    "city": "倉敷市",
    "category": "community_day_service",
    "serviceType": "地域密着型通所介護",
    "capacity": 15,
    "openDays": [
      "平日",
      "土曜日",
      "祝日"
    ],
    "openDaysNote": "その他、年２回程度臨時休業あり"
  },
  {
    "id": "3370207759",
    "name": "デイサービス新倉敷良寛の杜",
    "kana": "デイサービスシンクラシキリョウカンノモリ",
    "address": "玉島八島1555",
    "lat": 34.5618238,
    "lng": 133.6588927,
    "tel": "086-526-5551",
    "url": "",
    "pref": "岡山県",
    "city": "倉敷市",
    "category": "community_day_service",
    "serviceType": "地域密着型通所介護",
    "capacity": 0,
    "openDays": [
      "平日"
    ],
    "openDaysNote": ""
  },
  {
    "id": "3370207130",
    "name": "デイサービス倉敷幸町",
    "kana": "デイサービスクラシキサイワイチョウ",
    "address": "岡山県倉敷市幸町7-18",
    "lat": 34.6060698,
    "lng": 133.7734668,
    "tel": "086-441-6262",
    "url": "",
    "pref": "岡山県",
    "city": "倉敷市",
    "category": "community_day_service",
    "serviceType": "地域密着型通所介護",
    "capacity": null,
    "openDays": [
      "平日",
      "土曜日",
      "祝日"
    ],
    "openDaysNote": ""
  },
  {
    "id": "3390201840",
    "name": "デイサービス鷲羽",
    "kana": "デイサービスワシュウ",
    "address": "岡山県倉敷市児島田の口5-13-28デイサービス鷲羽 デイサービス鷲羽",
    "lat": 34.4703022,
    "lng": 133.8516109,
    "tel": "086-477-3111",
    "url": "www.kiryukai.com/",
    "pref": "岡山県",
    "city": "倉敷市",
    "category": "community_day_service",
    "serviceType": "地域密着型通所介護",
    "capacity": 0,
    "openDays": [
      "平日",
      "土曜日",
      "祝日"
    ],
    "openDaysNote": "特に無し"
  },
  {
    "id": "3370207015",
    "name": "フラフィデイサービス",
    "kana": "フラフィデイサービス",
    "address": "片島町１１１２－８",
    "lat": 34.5680066,
    "lng": 133.7117926,
    "tel": "086-441-8868",
    "url": "fluffi.jp",
    "pref": "岡山県",
    "city": "倉敷市",
    "category": "community_day_service",
    "serviceType": "地域密着型通所介護",
    "capacity": 0,
    "openDays": [
      "平日",
      "祝日"
    ],
    "openDaysNote": ""
  },
  {
    "id": "3390201519",
    "name": "ポラリスデイサービスセンター安江",
    "kana": "ポラリスデイサービスセンターヤスエ",
    "address": "岡山県倉敷市安江550-14",
    "lat": 34.5936848,
    "lng": 133.7465468,
    "tel": "086-486-4513",
    "url": "http://www.polaris.care/",
    "pref": "岡山県",
    "city": "倉敷市",
    "category": "community_day_service",
    "serviceType": "地域密着型通所介護",
    "capacity": 0,
    "openDays": [
      "平日",
      "土曜日",
      "日曜日",
      "祝日"
    ],
    "openDaysNote": "年末年始休みあり（12/31～1/3）"
  },
  {
    "id": "3390201873",
    "name": "リハスパ　アイビー児島",
    "kana": "リハスパ　アイビーコジマ",
    "address": "岡山県倉敷市大畠2丁目1674-16",
    "lat": 34.439456,
    "lng": 133.8129643,
    "tel": "086-479-7822",
    "url": "https://rehaspaivy.com",
    "pref": "岡山県",
    "city": "倉敷市",
    "category": "community_day_service",
    "serviceType": "地域密着型通所介護",
    "capacity": 0,
    "openDays": [
      "平日",
      "土曜日",
      "祝日"
    ],
    "openDaysNote": "その他休日（改行）お盆（8/13～8/15）（改行）年末年始（12/31～1/3）"
  },
  {
    "id": "3370207361",
    "name": "リハビリテーション颯　倉敷",
    "kana": "リハビリテーションソウ　クラシキ",
    "address": "西富井679-6バグスビル バグスビル",
    "lat": 34.5769891,
    "lng": 133.7466889,
    "tel": "086-486-3800",
    "url": "http://cgi3.medicplanning.com/sou/",
    "pref": "岡山県",
    "city": "倉敷市",
    "category": "community_day_service",
    "serviceType": "地域密着型通所介護",
    "capacity": 18,
    "openDays": [
      "平日"
    ],
    "openDaysNote": ""
  },
  {
    "id": "3370207676",
    "name": "リハビリテーション颯水島",
    "kana": "リハビリテーションソウミズシマ",
    "address": "岡山県倉敷市北畝6丁目1-4",
    "lat": 34.5394016,
    "lng": 133.7507147,
    "tel": "086-450-0808",
    "url": "",
    "pref": "岡山県",
    "city": "倉敷市",
    "category": "community_day_service",
    "serviceType": "地域密着型通所介護",
    "capacity": 18,
    "openDays": [
      "平日",
      "祝日"
    ],
    "openDaysNote": "8月14～15日、12月30日～1月3日休業"
  },
  {
    "id": "3390201550",
    "name": "リハビリテーション颯連島",
    "kana": "リハビリテーションソウツラジマ",
    "address": "岡山県倉敷市連島中央１丁目６－１",
    "lat": 34.5472598,
    "lng": 133.7336802,
    "tel": "086-440-0077",
    "url": "http://www.takeda-hp.com/",
    "pref": "岡山県",
    "city": "倉敷市",
    "category": "community_day_service",
    "serviceType": "地域密着型通所介護",
    "capacity": 0,
    "openDays": [
      "平日"
    ],
    "openDaysNote": ""
  },
  {
    "id": "3370206041",
    "name": "リハビリ堀南",
    "kana": "リハビリホリナン",
    "address": "岡山県倉敷市堀南637-1",
    "lat": 34.5771724,
    "lng": 133.7566325,
    "tel": "086-434-7911",
    "url": "https://hayashidazou.info/#tab4",
    "pref": "岡山県",
    "city": "倉敷市",
    "category": "community_day_service",
    "serviceType": "地域密着型通所介護",
    "capacity": 0,
    "openDays": [
      "平日",
      "土曜日",
      "祝日"
    ],
    "openDaysNote": ""
  },
  {
    "id": "3390201402",
    "name": "リハプライド玉島",
    "kana": "リハプライドタマシマ",
    "address": "玉島中央町2丁目3番6号",
    "lat": 34.5456725,
    "lng": 133.6716806,
    "tel": "（086）523-0505",
    "url": "http://www.kasuke.co.jp",
    "pref": "岡山県",
    "city": "倉敷市",
    "category": "community_day_service",
    "serviceType": "地域密着型通所介護",
    "capacity": 0,
    "openDays": [
      "平日",
      "祝日"
    ],
    "openDaysNote": "上記営業時間帯以外は転送電話にて対応（不在時、着信があれば折り返し連絡をさせて頂きます）"
  },
  {
    "id": "3390201584",
    "name": "レコードブック倉敷水島",
    "kana": "レコードブッククラシキミズシマ",
    "address": "水島東栄町12-46",
    "lat": 34.5398978,
    "lng": 133.7454926,
    "tel": "086-441-3804",
    "url": "",
    "pref": "岡山県",
    "city": "倉敷市",
    "category": "community_day_service",
    "serviceType": "地域密着型通所介護",
    "capacity": 15,
    "openDays": [
      "平日",
      "祝日"
    ],
    "openDaysNote": ""
  },
  {
    "id": "3390201303",
    "name": "レコードブック倉敷大高",
    "kana": "レコードブッククラシキオオタカ",
    "address": "東富井901-8201号 201号",
    "lat": 34.5773002,
    "lng": 133.7526328,
    "tel": "086-435-9035",
    "url": "",
    "pref": "岡山県",
    "city": "倉敷市",
    "category": "community_day_service",
    "serviceType": "地域密着型通所介護",
    "capacity": 15,
    "openDays": [
      "平日",
      "祝日"
    ],
    "openDaysNote": ""
  },
  {
    "id": "3390201501",
    "name": "機能訓練専門デイサービス　一歩玉島",
    "kana": "キノウクンレンセンモンデイサービス　イッポ　タマシマ",
    "address": "玉島八島1561−1",
    "lat": 34.565143,
    "lng": 133.6720997,
    "tel": "086−486−4820",
    "url": "",
    "pref": "岡山県",
    "city": "倉敷市",
    "category": "community_day_service",
    "serviceType": "地域密着型通所介護",
    "capacity": 0,
    "openDays": [
      "平日",
      "土曜日"
    ],
    "openDaysNote": "お盆・正月休み"
  },
  {
    "id": "3370204772",
    "name": "健康トレーニング館",
    "kana": "ケンコウトレーニングカン",
    "address": "岡山県倉敷市茶屋町1609-10",
    "lat": 34.5794956,
    "lng": 133.8278137,
    "tel": "086-420-2338",
    "url": "https://hayashidazou.info/",
    "pref": "岡山県",
    "city": "倉敷市",
    "category": "community_day_service",
    "serviceType": "地域密着型通所介護",
    "capacity": 2,
    "openDays": [
      "平日",
      "土曜日",
      "祝日"
    ],
    "openDaysNote": ""
  },
  {
    "id": "3370205829",
    "name": "古民家デイサービス蒼水丸",
    "kana": "コミンカデイサ-ビス　ソウスイマル",
    "address": "岡山県倉敷市水江893番地2",
    "lat": 34.6007564,
    "lng": 133.7397833,
    "tel": "086-431-2079",
    "url": "http://sousuimaru.com",
    "pref": "岡山県",
    "city": "倉敷市",
    "category": "community_day_service",
    "serviceType": "地域密着型通所介護",
    "capacity": 0,
    "openDays": [
      "平日",
      "祝日"
    ],
    "openDaysNote": "お盆・祝日も通常営業。年末年始の休みが連続して土日にかかる場合は、それを含めた休みとします。"
  },
  {
    "id": "3370202404",
    "name": "三谷原内科医院デイサービスセンター",
    "kana": "ミタニハラナイカイインデイサービスセンター",
    "address": "岡山県倉敷市中島1473-1",
    "lat": 34.5759087,
    "lng": 133.7266241,
    "tel": "086-466-3600",
    "url": "",
    "pref": "岡山県",
    "city": "倉敷市",
    "category": "community_day_service",
    "serviceType": "地域密着型通所介護",
    "capacity": 18,
    "openDays": [
      "平日"
    ],
    "openDaysNote": ""
  },
  {
    "id": "3370204194",
    "name": "柴田病院かっこうの森デイサービスセンター",
    "kana": "シバタビョウインカッコウノモリデイサービスセンター",
    "address": "岡山県倉敷市玉島乙島6034－1",
    "lat": 34.5523747,
    "lng": 133.6920978,
    "tel": "086-522-0100",
    "url": "http://www.shibata-h.jp",
    "pref": "岡山県",
    "city": "倉敷市",
    "category": "community_day_service",
    "serviceType": "地域密着型通所介護",
    "capacity": 18,
    "openDays": [
      "平日",
      "土曜日",
      "祝日"
    ],
    "openDaysNote": ""
  },
  {
    "id": "3370203758",
    "name": "新見デイサービス",
    "kana": "ニイミデイサービス",
    "address": "岡山県倉敷市児島稗田町1822",
    "lat": 34.4962934,
    "lng": 133.803731,
    "tel": "086-474-2200",
    "url": "https://www.niimi-nougeka.jp/",
    "pref": "岡山県",
    "city": "倉敷市",
    "category": "community_day_service",
    "serviceType": "地域密着型通所介護",
    "capacity": 3,
    "openDays": [
      "平日",
      "土曜日"
    ],
    "openDaysNote": "その週に日曜日以外の休日がある場合と長期休業日前後の木曜日は振り替えで営業。（改行）おおむね8月13日～17日及びおおむね12月30日～1月3日は休業となります。"
  },
  {
    "id": "3370202891",
    "name": "倉敷北デイサービスセンター",
    "kana": "クラシキキタデイサービスセンター",
    "address": "倉敷市宮前42-1",
    "lat": 34.6111249,
    "lng": 133.761912,
    "tel": "086-426-1600",
    "url": "http://www.kurakita.co.jp/",
    "pref": "岡山県",
    "city": "倉敷市",
    "category": "community_day_service",
    "serviceType": "地域密着型通所介護",
    "capacity": 18,
    "openDays": [
      "平日",
      "土曜日",
      "祝日"
    ],
    "openDaysNote": "特になし"
  },
  {
    "id": "3390201469",
    "name": "早稲田イーライフ新倉敷",
    "kana": "ワセダイーライフシンクラシキ",
    "address": "岡山県倉敷市新倉敷駅前5丁目253-1",
    "lat": 34.5604452,
    "lng": 133.6782998,
    "tel": "086-454-7611",
    "url": "",
    "pref": "岡山県",
    "city": "倉敷市",
    "category": "community_day_service",
    "serviceType": "地域密着型通所介護",
    "capacity": 0,
    "openDays": [
      "平日",
      "土曜日"
    ],
    "openDaysNote": "国民の祝日（振替休日を含む）（改行）及び年末年始（12月30日から1月3日）（改行）及びお盆（8月13日から8月15日）"
  },
  {
    "id": "3390201261",
    "name": "早稲田イーライフ倉敷マスカット",
    "kana": "ワセダイーライフクラシキマスカット",
    "address": "岡山県倉敷市中庄3137-4",
    "lat": 34.6214853,
    "lng": 133.7994844,
    "tel": "086-486-2011",
    "url": "http://hinode-and-sons.com/e_life.html",
    "pref": "岡山県",
    "city": "倉敷市",
    "category": "community_day_service",
    "serviceType": "地域密着型通所介護",
    "capacity": 95,
    "openDays": [
      "平日",
      "土曜日"
    ],
    "openDaysNote": ""
  },
  {
    "id": "3370205928",
    "name": "地域密着型デイサービス　ニューエルダー",
    "kana": "チイキミッチャクガタデイサービス　ニューエルダー",
    "address": "倉敷市玉島1661－1",
    "lat": 34.5527385,
    "lng": 133.6829848,
    "tel": "086-526-6122",
    "url": "http://www.newelder.jp",
    "pref": "岡山県",
    "city": "倉敷市",
    "category": "community_day_service",
    "serviceType": "地域密着型通所介護",
    "capacity": 50,
    "openDays": [
      "平日",
      "祝日"
    ],
    "openDaysNote": "なし"
  },
  {
    "id": "3390201311",
    "name": "地域密着型通所介護　のぞみ",
    "kana": "チイキミッチャクガタツウショカイゴ　ノゾミ",
    "address": "岡山県倉敷市玉島乙島4479-3",
    "lat": 34.5392786,
    "lng": 133.682335,
    "tel": "086-525-1465",
    "url": "",
    "pref": "岡山県",
    "city": "倉敷市",
    "category": "community_day_service",
    "serviceType": "地域密着型通所介護",
    "capacity": null,
    "openDays": [
      "平日",
      "土曜日"
    ],
    "openDaysNote": ""
  },
  {
    "id": "3370207213",
    "name": "地域密着型通所介護デイサービスグリーンビレッジ瀬戸内",
    "kana": "チイキミッチャクガタツウショカイゴデイサービスグリーンビレッジセトウチ",
    "address": "岡山県倉敷市船穂町柳井原2300-1グリーンビレッジ瀬戸内 グリーンビレッジ瀬戸内",
    "lat": 34.6105998,
    "lng": 133.7158214,
    "tel": "086-552-5112",
    "url": "http://www.setouchifukushi.jp",
    "pref": "岡山県",
    "city": "倉敷市",
    "category": "community_day_service",
    "serviceType": "地域密着型通所介護",
    "capacity": 10,
    "openDays": [
      "平日",
      "土曜日",
      "祝日"
    ],
    "openDaysNote": ""
  },
  {
    "id": "3370205050",
    "name": "通所介護　介護さぽーと",
    "kana": "ツウショカイゴ　カイゴサポート",
    "address": "岡山県倉敷市児島稗田町2657番地",
    "lat": 34.5097382424601,
    "lng": 133.807751123993,
    "tel": "086-474-8187",
    "url": "",
    "pref": "岡山県",
    "city": "倉敷市",
    "category": "community_day_service",
    "serviceType": "地域密着型通所介護",
    "capacity": 18,
    "openDays": [
      "平日",
      "土曜日",
      "祝日"
    ],
    "openDaysNote": "※17：30以降は転送電話になります。（改行）定休日でのご連絡は折り返しのご連絡になります。（改行）折り返しのご連絡までに時間を要することがありますが予めご了承下さい。"
  },
  {
    "id": "3370206843",
    "name": "福来朗　デイサービス",
    "kana": "フクロウ　デイサービス",
    "address": "倉敷市玉島乙島8230-24",
    "lat": 34.5254799405958,
    "lng": 133.678466728064,
    "tel": "086-527-0810",
    "url": "",
    "pref": "岡山県",
    "city": "倉敷市",
    "category": "community_day_service",
    "serviceType": "地域密着型通所介護",
    "capacity": 15,
    "openDays": [
      "平日",
      "祝日"
    ],
    "openDaysNote": ""
  },
  {
    "id": "3390201212",
    "name": "福来朗デイサービス　寛",
    "kana": "フクロウデイサービス　クツロギ",
    "address": "玉島乙島8230-23",
    "lat": 34.5255358,
    "lng": 133.678416,
    "tel": "086-527-8587",
    "url": "",
    "pref": "岡山県",
    "city": "倉敷市",
    "category": "community_day_service",
    "serviceType": "地域密着型通所介護",
    "capacity": 9,
    "openDays": [
      "平日",
      "祝日"
    ],
    "openDaysNote": ""
  },
  {
    "id": "3392600015",
    "name": "ﾃﾞｲｻｰﾋﾞｽ　3匹の子ﾌﾞﾀ",
    "kana": "デイサービス　サンビキノコブタ",
    "address": "岡山県都窪郡早島町早島1447-1",
    "lat": 34.6035625,
    "lng": 133.8257565,
    "tel": "086-454-5895",
    "url": "http://hp.kaipoke.biz/6c9",
    "pref": "岡山県",
    "city": "早島町",
    "category": "community_day_service",
    "serviceType": "地域密着型通所介護",
    "capacity": 0,
    "openDays": [
      "平日",
      "土曜日",
      "祝日"
    ],
    "openDaysNote": ""
  },
  {
    "id": "3392600023",
    "name": "デイサービス　3匹の子ブタ",
    "kana": "デイサービス　サンビキノコブタ",
    "address": "岡山県都窪郡早島町早島1447-1",
    "lat": 34.6034905,
    "lng": 133.8256446,
    "tel": "086-454-5895",
    "url": "hayashima@25251518.jp",
    "pref": "岡山県",
    "city": "早島町",
    "category": "community_day_service",
    "serviceType": "地域密着型通所介護",
    "capacity": null,
    "openDays": [
      "平日",
      "土曜日",
      "祝日"
    ],
    "openDaysNote": ""
  },
  {
    "id": "3370800900",
    "name": "ＪＵＮＯ　デイサービスセンター　吉備路",
    "kana": "ジュノ　デイサービスセンター　キビジ",
    "address": "岡山県総社市宿１６７",
    "lat": 34.6665691,
    "lng": 133.78959,
    "tel": "０８６６－９３－５１１１",
    "url": "ij-group.net",
    "pref": "岡山県",
    "city": "総社市",
    "category": "community_day_service",
    "serviceType": "地域密着型通所介護",
    "capacity": 0,
    "openDays": [
      "平日",
      "土曜日",
      "祝日"
    ],
    "openDaysNote": ""
  },
  {
    "id": "3370800983",
    "name": "JUNOデイサービスセンター宿",
    "kana": "ジュノデイサービスセンターシュク",
    "address": "岡山県総社市宿170-3",
    "lat": 34.6667218,
    "lng": 133.7892594,
    "tel": "0866-90-2001",
    "url": "",
    "pref": "岡山県",
    "city": "総社市",
    "category": "community_day_service",
    "serviceType": "地域密着型通所介護",
    "capacity": 0,
    "openDays": [
      "平日",
      "土曜日",
      "祝日"
    ],
    "openDaysNote": ""
  },
  {
    "id": "3370801072",
    "name": "アイル総社",
    "kana": "アイルソウジャ",
    "address": "岡山県総社市中央1丁目7-111",
    "lat": 34.6689049,
    "lng": 133.757112,
    "tel": "0966-90-1198",
    "url": "https://www.daisou-ｊｐ.com",
    "pref": "岡山県",
    "city": "総社市",
    "category": "community_day_service",
    "serviceType": "地域密着型通所介護",
    "capacity": 0,
    "openDays": [
      "平日",
      "土曜日",
      "祝日"
    ],
    "openDaysNote": ""
  },
  {
    "id": "3370800454",
    "name": "デイサービス　ほほえみ",
    "kana": "デイサービス　ホホエミ",
    "address": "岡山県総社市小寺986-1ケアハウス　ほほえみ ケアハウス　ほほえみ",
    "lat": 34.6883226,
    "lng": 133.7467859,
    "tel": "0866-90-2100",
    "url": "http://choujukai.or.jp",
    "pref": "岡山県",
    "city": "総社市",
    "category": "community_day_service",
    "serviceType": "地域密着型通所介護",
    "capacity": 18,
    "openDays": [
      "平日",
      "祝日"
    ],
    "openDaysNote": ""
  },
  {
    "id": "3370800595",
    "name": "デイサービスセンターあおいろのそら",
    "kana": "デイサービスセンターアオイロノソラ",
    "address": "岡山県総社市日羽1047-2",
    "lat": 34.7135416047473,
    "lng": 133.685384436452,
    "tel": "0866－99－2230",
    "url": "https://knmuscat.wixsite.com/aoironosora",
    "pref": "岡山県",
    "city": "総社市",
    "category": "community_day_service",
    "serviceType": "地域密着型通所介護",
    "capacity": 10,
    "openDays": [
      "平日"
    ],
    "openDaysNote": ""
  },
  {
    "id": "3390800195",
    "name": "デイサービスセンターオルソ",
    "kana": "デイサービスセンターオルソ",
    "address": "岡山県総社市総社2002番7",
    "lat": 34.689303,
    "lng": 133.7635734,
    "tel": "0866-95-2300",
    "url": "",
    "pref": "岡山県",
    "city": "総社市",
    "category": "community_day_service",
    "serviceType": "地域密着型通所介護",
    "capacity": 18,
    "openDays": [
      "平日",
      "土曜日",
      "祝日"
    ],
    "openDaysNote": ""
  },
  {
    "id": "3390800203",
    "name": "デイサービスセンターメイプル",
    "kana": "デイサービスセンターメイプル",
    "address": "中央6丁目14-101",
    "lat": 34.6666546,
    "lng": 133.7476621,
    "tel": "0866-95-2353",
    "url": "",
    "pref": "岡山県",
    "city": "総社市",
    "category": "community_day_service",
    "serviceType": "地域密着型通所介護",
    "capacity": 0,
    "openDays": [
      "平日",
      "土曜日",
      "祝日"
    ],
    "openDaysNote": ""
  },
  {
    "id": "3370800603",
    "name": "デイサービスセンターやまびこ",
    "kana": "デイサービスセンターヤマビコ",
    "address": "岡山県総社市三須１３２１番地",
    "lat": 34.6732128,
    "lng": 133.7682464,
    "tel": "（0866）94-9977",
    "url": "",
    "pref": "岡山県",
    "city": "総社市",
    "category": "community_day_service",
    "serviceType": "地域密着型通所介護",
    "capacity": 18,
    "openDays": [
      "平日",
      "土曜日",
      "祝日"
    ],
    "openDaysNote": "休業日として、５月１８日・８月１４日～１５日・１２月２９日～１月３日。（改行）職員研修等により休業日あり。"
  },
  {
    "id": "3390800138",
    "name": "デイサービスセンター総社",
    "kana": "デイサービスセンターソウジャ",
    "address": "岡山県総社市井尻野３３１－１ケアヴィレッジ総社 ケアヴィレッジ総社",
    "lat": 34.6822654040784,
    "lng": 133.72729752825,
    "tel": "0866-31-7070",
    "url": "http://www.carevillage-soja.com/",
    "pref": "岡山県",
    "city": "総社市",
    "category": "community_day_service",
    "serviceType": "地域密着型通所介護",
    "capacity": 0,
    "openDays": [
      "平日",
      "土曜日",
      "祝日"
    ],
    "openDaysNote": ""
  },
  {
    "id": "3370801049",
    "name": "デイサービスてまり",
    "kana": "デイサービステマリ",
    "address": "岡山県総社市久代5864番地",
    "lat": 34.6811923,
    "lng": 133.6902029,
    "tel": "090-9418-4379",
    "url": "http://temarimarumaru.jimdo.com/",
    "pref": "岡山県",
    "city": "総社市",
    "category": "community_day_service",
    "serviceType": "地域密着型通所介護",
    "capacity": 10,
    "openDays": [
      "平日",
      "土曜日"
    ],
    "openDaysNote": "お盆：8/13-8/15まで　年末年始：12/29-1/4までは休みです。"
  },
  {
    "id": "3370801254",
    "name": "デイサービスリリィ・ベル",
    "kana": "デイサービスリリィ・ベル",
    "address": "岡山県総社市門田184‐1",
    "lat": 34.6773509,
    "lng": 133.7427181,
    "tel": "0866‐90‐1655",
    "url": "lily-bell.jp",
    "pref": "岡山県",
    "city": "総社市",
    "category": "community_day_service",
    "serviceType": "地域密着型通所介護",
    "capacity": 0,
    "openDays": [
      "平日",
      "祝日"
    ],
    "openDaysNote": ""
  },
  {
    "id": "3370801148",
    "name": "創心会　元気デザイン倶楽部　総社",
    "kana": "ソウシンカイ　ゲンキ　デザインクラブ　ソウジャ",
    "address": "中央６－２－１０８",
    "lat": 34.6695131,
    "lng": 133.7495811,
    "tel": "0866-90-3388",
    "url": "",
    "pref": "岡山県",
    "city": "総社市",
    "category": "community_day_service",
    "serviceType": "地域密着型通所介護",
    "capacity": 20,
    "openDays": [
      "平日",
      "祝日"
    ],
    "openDaysNote": ""
  },
  {
    "id": "3370800199",
    "name": "通所介護　光憂舘",
    "kana": "ツウショカイゴ　コウユウカン",
    "address": "岡山県総社市日羽456-1",
    "lat": 34.724351,
    "lng": 133.6756291,
    "tel": "0866-99-2225",
    "url": "https://www.k5963.com/home",
    "pref": "岡山県",
    "city": "総社市",
    "category": "community_day_service",
    "serviceType": "地域密着型通所介護",
    "capacity": 10,
    "openDays": [
      "平日",
      "土曜日"
    ],
    "openDaysNote": ""
  },
  {
    "id": "3370800991",
    "name": "通所介護もりした",
    "kana": "ツウショカイゴモリシタ",
    "address": "岡山県総社市駅前1丁目６－１",
    "lat": 34.6746222613999,
    "lng": 133.739968690877,
    "tel": "０８６６－９４－２３９１",
    "url": "http://www.morishitahp.or.jp/",
    "pref": "岡山県",
    "city": "総社市",
    "category": "community_day_service",
    "serviceType": "地域密着型通所介護",
    "capacity": 18,
    "openDays": [
      "平日",
      "土曜日"
    ],
    "openDaysNote": ""
  },
  {
    "id": "3370300992",
    "name": "おばら健康クラブ",
    "kana": "オバラケンコウクラブ",
    "address": "岡山県津山市小原79－5",
    "lat": 35.0776811,
    "lng": 134.0028676,
    "tel": "0868-31-3005",
    "url": "",
    "pref": "岡山県",
    "city": "津山市",
    "category": "community_day_service",
    "serviceType": "地域密着型通所介護",
    "capacity": 15,
    "openDays": [
      "平日",
      "祝日"
    ],
    "openDaysNote": ""
  },
  {
    "id": "3370300828",
    "name": "デイサービス　コスモス",
    "kana": "デイサービス　コスモス",
    "address": "岡山県津山市上河原510-1",
    "lat": 35.0893464,
    "lng": 134.0016839,
    "tel": "0868-31-9630",
    "url": "cosmos-tsuyama.com",
    "pref": "岡山県",
    "city": "津山市",
    "category": "community_day_service",
    "serviceType": "地域密着型通所介護",
    "capacity": 0,
    "openDays": [
      "平日",
      "祝日"
    ],
    "openDaysNote": ""
  },
  {
    "id": "3390300204",
    "name": "デイサービス　みかん",
    "kana": "デイサービス　ミカン",
    "address": "岡山県津山市野介代1496-3デイサービス　みかん デイサービス　みかん",
    "lat": 35.0678554,
    "lng": 134.0319071,
    "tel": "0868-21-3155",
    "url": "",
    "pref": "岡山県",
    "city": "津山市",
    "category": "community_day_service",
    "serviceType": "地域密着型通所介護",
    "capacity": 0,
    "openDays": [
      "平日",
      "日曜日",
      "祝日"
    ],
    "openDaysNote": "8月15日及び１２月３０日から１月3日までは休みとする。"
  },
  {
    "id": "3390300238",
    "name": "デイサービス　雅",
    "kana": "デイサービス　ミヤビ",
    "address": "岡山県津山市宮尾1386-1",
    "lat": 35.0547430339253,
    "lng": 133.938835261917,
    "tel": "0868-35-2737",
    "url": "",
    "pref": "岡山県",
    "city": "津山市",
    "category": "community_day_service",
    "serviceType": "地域密着型通所介護",
    "capacity": 10,
    "openDays": [
      "平日",
      "土曜日",
      "祝日"
    ],
    "openDaysNote": ""
  },
  {
    "id": "3370302519",
    "name": "デイサービスセンターつやま健康クラブ",
    "kana": "デイサービスセンターツヤマケンコウクラブ",
    "address": "岡山県津山市元魚町60-1",
    "lat": 35.0600815,
    "lng": 134.0004767,
    "tel": "0868-25-1030",
    "url": "",
    "pref": "岡山県",
    "city": "津山市",
    "category": "community_day_service",
    "serviceType": "地域密着型通所介護",
    "capacity": 0,
    "openDays": [
      "平日",
      "土曜日"
    ],
    "openDaysNote": ""
  },
  {
    "id": "3370301586",
    "name": "デイサービスセンターゆとり",
    "kana": "デイサービスセンターユトリ",
    "address": "津山市横山３７７－６",
    "lat": 35.0549447,
    "lng": 134.0072263,
    "tel": "0868-24-5055",
    "url": "",
    "pref": "岡山県",
    "city": "津山市",
    "category": "community_day_service",
    "serviceType": "地域密着型通所介護",
    "capacity": 13,
    "openDays": [
      "平日",
      "祝日"
    ],
    "openDaysNote": "地域通所介護サービス提供体制加算Ⅰ、地域通所介護処遇改善加算Ⅰの制度対応している。"
  },
  {
    "id": "3370300976",
    "name": "デイサービスセンター紫竹川荘",
    "kana": "デイサービスセンターシチクガワソウ",
    "address": "岡山県津山市上田邑7番12",
    "lat": 35.0823878,
    "lng": 133.9666597,
    "tel": "0868-28-7728",
    "url": "",
    "pref": "岡山県",
    "city": "津山市",
    "category": "community_day_service",
    "serviceType": "地域密着型通所介護",
    "capacity": 15,
    "openDays": [
      "平日",
      "土曜日"
    ],
    "openDaysNote": "当施設が農村地域にあるため盆、年末年始は努めて家族、隣家、帰省中の親族等との交流、対話をすすめています。"
  },
  {
    "id": "3370301107",
    "name": "デイサービスのどか",
    "kana": "デイサービスノドカ",
    "address": "岡山県津山市下高倉西５４４－１",
    "lat": 35.0861148,
    "lng": 134.0489688,
    "tel": "0868-29-7705",
    "url": "",
    "pref": "岡山県",
    "city": "津山市",
    "category": "community_day_service",
    "serviceType": "地域密着型通所介護",
    "capacity": 0,
    "openDays": [
      "平日",
      "土曜日",
      "日曜日",
      "祝日"
    ],
    "openDaysNote": ""
  },
  {
    "id": "3370302097",
    "name": "デイサービスハーツ",
    "kana": "デイサービスハーツ",
    "address": "岡山県津山市沼47－4",
    "lat": 35.0781786,
    "lng": 134.0113279,
    "tel": "0868‐35‐3955",
    "url": "",
    "pref": "岡山県",
    "city": "津山市",
    "category": "community_day_service",
    "serviceType": "地域密着型通所介護",
    "capacity": 0,
    "openDays": [
      "平日",
      "土曜日",
      "日曜日",
      "祝日"
    ],
    "openDaysNote": ""
  },
  {
    "id": "3390300261",
    "name": "デイサービスハーツ　津山口",
    "kana": "デイサービスハーツ　ツヤマグチ",
    "address": "津山口75-1",
    "lat": 35.0573349,
    "lng": 133.987749,
    "tel": "0868-32-8781",
    "url": "https://www.day-hearts.jp/",
    "pref": "岡山県",
    "city": "津山市",
    "category": "community_day_service",
    "serviceType": "地域密着型通所介護",
    "capacity": 0,
    "openDays": [
      "平日",
      "土曜日",
      "祝日"
    ],
    "openDaysNote": "利用時間はご利用者様の状況などによって柔軟に設定可能"
  },
  {
    "id": "3390300220",
    "name": "デイサービス燕子花",
    "kana": "デイサービスカキツバタ",
    "address": "岡山県津山市坪井下21-1",
    "lat": 35.0613663,
    "lng": 133.8780365,
    "tel": "0868-35-0111",
    "url": "http://hp.kaipoke.biz/12d",
    "pref": "岡山県",
    "city": "津山市",
    "category": "community_day_service",
    "serviceType": "地域密着型通所介護",
    "capacity": 0,
    "openDays": [
      "平日",
      "土曜日",
      "祝日"
    ],
    "openDaysNote": "台風や大雪等の天災又はその恐れがある場合は、安全を考慮して営業時間等の変更または営業を中止する場合があります。"
  },
  {
    "id": "3390300246",
    "name": "デイサービス奏音",
    "kana": "デイサービス　カノン",
    "address": "上横野4907",
    "lat": 35.1136488,
    "lng": 134.0106986,
    "tel": "0868-27-8300",
    "url": "",
    "pref": "岡山県",
    "city": "津山市",
    "category": "community_day_service",
    "serviceType": "地域密着型通所介護",
    "capacity": 0,
    "openDays": [
      "平日",
      "土曜日",
      "祝日"
    ],
    "openDaysNote": ""
  },
  {
    "id": "3370301370",
    "name": "デイサービス大智",
    "kana": "デイサービスダイチ",
    "address": "岡山県津山市大篠613-1",
    "lat": 35.1033707,
    "lng": 134.0353488,
    "tel": "0868-29-6670",
    "url": "",
    "pref": "岡山県",
    "city": "津山市",
    "category": "community_day_service",
    "serviceType": "地域密着型通所介護",
    "capacity": 0,
    "openDays": [
      "平日",
      "土曜日",
      "祝日"
    ],
    "openDaysNote": "天候等の影響により安全な送迎が出来ないと判断される際は臨時休業とする場合があります。"
  },
  {
    "id": "3370301446",
    "name": "医療法人　おおうみクリニック　デイサービスセンター　ひだまり",
    "kana": "イリョウホウジン　オオウミクリニックデイサービスセンター　ヒダマリ",
    "address": "岡山県津山市高野本郷２０４１－２",
    "lat": 35.0836903,
    "lng": 134.0706082,
    "tel": "0868-26-5558",
    "url": "http://www.ohumi-clinic.or.jp/index.html",
    "pref": "岡山県",
    "city": "津山市",
    "category": "community_day_service",
    "serviceType": "地域密着型通所介護",
    "capacity": 15,
    "openDays": [
      "平日",
      "祝日"
    ],
    "openDaysNote": ""
  },
  {
    "id": "3370302345",
    "name": "高寿園デイサービスセンター",
    "kana": "コウジュエン　デイサービスセンター",
    "address": "岡山県津山市下高倉西1581-1",
    "lat": 35.0970739972275,
    "lng": 134.038575676582,
    "tel": "0868-29-0115",
    "url": "http://www.kojuen.jp/",
    "pref": "岡山県",
    "city": "津山市",
    "category": "community_day_service",
    "serviceType": "地域密着型通所介護",
    "capacity": 0,
    "openDays": [
      "平日"
    ],
    "openDaysNote": "年末年始休日　12月31日～1月3日"
  },
  {
    "id": "3370301248",
    "name": "整骨院ふじわらデイサービスセンター",
    "kana": "セイコツインフジワラデイサービスセンター",
    "address": "岡山県津山市院庄９０７－６",
    "lat": 35.0600341,
    "lng": 133.9562505,
    "tel": "0868-28-6100",
    "url": "",
    "pref": "岡山県",
    "city": "津山市",
    "category": "community_day_service",
    "serviceType": "地域密着型通所介護",
    "capacity": 10,
    "openDays": [
      "平日",
      "土曜日"
    ],
    "openDaysNote": "月、火、水、木、金、土曜日、9：30～15：30（サービス提供時間）"
  },
  {
    "id": "3370300802",
    "name": "生き活き館津山デイサービスセンター",
    "kana": "イキイキカンツヤマデイサービスセンター",
    "address": "岡山県津山市皿628-7",
    "lat": 35.046628,
    "lng": 133.9706493,
    "tel": "0868-28-8880",
    "url": "https://iki2.org/",
    "pref": "岡山県",
    "city": "津山市",
    "category": "community_day_service",
    "serviceType": "地域密着型通所介護",
    "capacity": 0,
    "openDays": [
      "平日",
      "祝日"
    ],
    "openDaysNote": ""
  },
  {
    "id": "3370301883",
    "name": "昼の家　セカンドライフ",
    "kana": "ヒルノイエ　セカンドライフ",
    "address": "津山市上河原234-3",
    "lat": 35.0847053,
    "lng": 134.0029118,
    "tel": "0868-20-1383",
    "url": "",
    "pref": "岡山県",
    "city": "津山市",
    "category": "community_day_service",
    "serviceType": "地域密着型通所介護",
    "capacity": 0,
    "openDays": [
      "平日",
      "土曜日",
      "祝日"
    ],
    "openDaysNote": "警報発令時等、臨時休業の場合あり"
  },
  {
    "id": "3373500259",
    "name": "津山市社会福祉協議会阿波デイサービスセンター",
    "kana": "ツヤマシシャカイフクシキョウギカイアバデイサービスセンター",
    "address": "岡山県津山市阿波１１９８番地阿波福祉センター 阿波福祉センター",
    "lat": 35.2360803,
    "lng": 134.1124364,
    "tel": "0868-46-2016",
    "url": "http://www.tsuyamasyakyo.or.jp/",
    "pref": "岡山県",
    "city": "津山市",
    "category": "community_day_service",
    "serviceType": "地域密着型通所介護",
    "capacity": 0,
    "openDays": [
      "平日"
    ],
    "openDaysNote": "特になし"
  },
  {
    "id": "3370301701",
    "name": "有限会社　いちばん舘　ゆうゆうデイサービス",
    "kana": "イチバンカン　ユウユウ　デイサービス",
    "address": "岡山県津山市野村３１５－６",
    "lat": 35.0859928,
    "lng": 134.0715608,
    "tel": "０８６８－２９－２３２３",
    "url": "http://happytown.orahoo.com/ichibankan/",
    "pref": "岡山県",
    "city": "津山市",
    "category": "community_day_service",
    "serviceType": "地域密着型通所介護",
    "capacity": 4,
    "openDays": [
      "平日",
      "土曜日"
    ],
    "openDaysNote": "8月13日～15日（お盆休み）（改行）12月30日～1月3日まで休み"
  },
  {
    "id": "3391100116",
    "name": "㈱溫和",
    "kana": "カブシキガイシャ　オンワ",
    "address": "岡山県備前市伊部１３９３番地",
    "lat": 34.740289,
    "lng": 134.1643514,
    "tel": "0869-63-1464",
    "url": "",
    "pref": "岡山県",
    "city": "備前市",
    "category": "community_day_service",
    "serviceType": "地域密着型通所介護",
    "capacity": 0,
    "openDays": [
      "平日",
      "土曜日",
      "祝日"
    ],
    "openDaysNote": ""
  },
  {
    "id": "3371100466",
    "name": "デイサービス　コンフォールひなせ",
    "kana": "デイサービス　コンフォールヒナセ",
    "address": "備前市日生町日生字南椿ノ浦2583番1",
    "lat": 34.7226312936856,
    "lng": 134.269241009865,
    "tel": "0869-72-2300",
    "url": "http://www.confort-hinase.jp",
    "pref": "岡山県",
    "city": "備前市",
    "category": "community_day_service",
    "serviceType": "地域密着型通所介護",
    "capacity": 0,
    "openDays": [
      "平日",
      "土曜日",
      "日曜日",
      "祝日"
    ],
    "openDaysNote": ""
  },
  {
    "id": "3371100730",
    "name": "デイサービス　ふる里",
    "kana": "デイサービス　フルサト",
    "address": "岡山県備前市日生町寒河2393-1",
    "lat": 34.7367865,
    "lng": 134.2853097,
    "tel": "0869-92-4113",
    "url": "",
    "pref": "岡山県",
    "city": "備前市",
    "category": "community_day_service",
    "serviceType": "地域密着型通所介護",
    "capacity": null,
    "openDays": [
      "平日"
    ],
    "openDaysNote": "特になし"
  },
  {
    "id": "3371100722",
    "name": "デイサービス　ほほ笑み",
    "kana": "デイサービス　ホホエミ",
    "address": "岡山県備前市日生町寒河1166",
    "lat": 34.7486694,
    "lng": 134.2974624,
    "tel": "0869-72-4483",
    "url": "",
    "pref": "岡山県",
    "city": "備前市",
    "category": "community_day_service",
    "serviceType": "地域密着型通所介護",
    "capacity": 0,
    "openDays": [
      "平日",
      "土曜日",
      "祝日"
    ],
    "openDaysNote": ""
  },
  {
    "id": "3391100124",
    "name": "デイサービスセンター　バンビ",
    "kana": "デイサービスセンター　バンビ",
    "address": "岡山県備前市三石2791-1",
    "lat": 34.8157449,
    "lng": 134.2799414,
    "tel": "0869-62-2717",
    "url": "http://mitanisou.com",
    "pref": "岡山県",
    "city": "備前市",
    "category": "community_day_service",
    "serviceType": "地域密着型通所介護",
    "capacity": null,
    "openDays": [
      "平日",
      "土曜日"
    ],
    "openDaysNote": ""
  },
  {
    "id": "3391100108",
    "name": "デイサービスはるかぜ",
    "kana": "デイサービスハルカゼ",
    "address": "岡山県備前市鶴海1561-1",
    "lat": 34.7049051,
    "lng": 134.1913942,
    "tel": "0869-92-4611",
    "url": "",
    "pref": "岡山県",
    "city": "備前市",
    "category": "community_day_service",
    "serviceType": "地域密着型通所介護",
    "capacity": null,
    "openDays": [
      "平日",
      "土曜日",
      "祝日"
    ],
    "openDaysNote": ""
  },
  {
    "id": "3371100607",
    "name": "デイサービス一期一会伊部",
    "kana": "デイサービスイチゴイチエインベ",
    "address": "備前市伊部１２５４",
    "lat": 34.7396318,
    "lng": 134.1675426,
    "tel": "0869-63-1518",
    "url": "",
    "pref": "岡山県",
    "city": "備前市",
    "category": "community_day_service",
    "serviceType": "地域密着型通所介護",
    "capacity": 10,
    "openDays": [
      "平日",
      "土曜日",
      "祝日"
    ],
    "openDaysNote": "５/３～５/５、８/１３～８/１５、１２/３０～１/３を除く。"
  },
  {
    "id": "3371100656",
    "name": "峠の家デイサービスセンター",
    "kana": "トウゲノイエデイサービスセンター",
    "address": "西片上2048-20",
    "lat": 34.7546523,
    "lng": 134.1714615,
    "tel": "0869-92-4110",
    "url": "http://touge-home.com/",
    "pref": "岡山県",
    "city": "備前市",
    "category": "community_day_service",
    "serviceType": "地域密着型通所介護",
    "capacity": 10,
    "openDays": [
      "平日",
      "祝日"
    ],
    "openDaysNote": "年末年始は休業とする。"
  },
  {
    "id": "3373800287",
    "name": "デイサービスセンターやなはら",
    "kana": "デイサービスセンターヤナハラ",
    "address": "岡山県久米郡美咲町書副１８２－４",
    "lat": 34.9899079,
    "lng": 134.0500439,
    "tel": "0868-64-7003",
    "url": "",
    "pref": "岡山県",
    "city": "美咲町",
    "category": "community_day_service",
    "serviceType": "地域密着型通所介護",
    "capacity": 10,
    "openDays": [
      "平日",
      "祝日"
    ],
    "openDaysNote": ""
  },
  {
    "id": "3373800543",
    "name": "デイサービスみさき",
    "kana": "デイサービスミサキ",
    "address": "岡山県久米郡美咲町塚角1706番地",
    "lat": 34.9972043,
    "lng": 134.0388169,
    "tel": "0868-64-2410",
    "url": "",
    "pref": "岡山県",
    "city": "美咲町",
    "category": "community_day_service",
    "serviceType": "地域密着型通所介護",
    "capacity": 0,
    "openDays": [
      "平日",
      "土曜日",
      "祝日"
    ],
    "openDaysNote": ""
  },
  {
    "id": "3393700178",
    "name": "デイサービスあーち",
    "kana": "デイサービスアーチ",
    "address": "岡山県美作市古町1787-1",
    "lat": 35.117557,
    "lng": 134.3269869,
    "tel": "0868-75-3991",
    "url": "http://hp.kaipoke.biz/dkh/",
    "pref": "岡山県",
    "city": "美作市",
    "category": "community_day_service",
    "serviceType": "地域密着型通所介護",
    "capacity": 90,
    "openDays": [
      "平日",
      "祝日"
    ],
    "openDaysNote": "午前と午後で3時間2交代制（改行）（改行）第1単位：9：00～12：01（改行）第2単位：13：30～16：31（改行）（改行）木曜日は午前のみとなります。"
  },
  {
    "id": "3393700186",
    "name": "デイサービスセンターコスモス苑",
    "kana": "デイサービスセンターコスモスエン",
    "address": "岡山県美作市東青野844-1",
    "lat": 35.1537683,
    "lng": 134.3643963,
    "tel": "0868-78-2800",
    "url": "",
    "pref": "岡山県",
    "city": "美作市",
    "category": "community_day_service",
    "serviceType": "地域密着型通所介護",
    "capacity": null,
    "openDays": [
      "平日",
      "土曜日",
      "祝日"
    ],
    "openDaysNote": ""
  },
  {
    "id": "3373700750",
    "name": "デイサービスセンターベリル",
    "kana": "デイサービスセンターベリル",
    "address": "美作市栄町70番地1",
    "lat": 35.0103047,
    "lng": 134.1494998,
    "tel": "0868-72-5720",
    "url": "https://www.mimasakanagurado.com",
    "pref": "岡山県",
    "city": "美作市",
    "category": "community_day_service",
    "serviceType": "地域密着型通所介護",
    "capacity": 0,
    "openDays": [
      "平日"
    ],
    "openDaysNote": ""
  },
  {
    "id": "3373700586",
    "name": "デイサービスセンター小春",
    "kana": "デイサービスセンター　コハル",
    "address": "岡山県美作市明見　357-1",
    "lat": 35.0134099,
    "lng": 134.1469221,
    "tel": "0868-72-1737",
    "url": "",
    "pref": "岡山県",
    "city": "美作市",
    "category": "community_day_service",
    "serviceType": "地域密着型通所介護",
    "capacity": 0,
    "openDays": [
      "平日",
      "土曜日"
    ],
    "openDaysNote": "居宅サービス計画により、祝日でもサービス提供を行う場合があります。"
  },
  {
    "id": "3372800429",
    "name": "あすかデイサービスセンター",
    "kana": "アスカデイサービスセンター",
    "address": "岡山県小田郡矢掛町矢掛2090番地6",
    "lat": 34.6239631,
    "lng": 133.5874354,
    "tel": "0866-82-2234",
    "url": "",
    "pref": "岡山県",
    "city": "矢掛町",
    "category": "community_day_service",
    "serviceType": "地域密着型通所介護",
    "capacity": 10,
    "openDays": [
      "平日",
      "土曜日",
      "祝日"
    ],
    "openDaysNote": ""
  },
  {
    "id": "3372800239",
    "name": "デイサービス本陣",
    "kana": "デイサービスホンジン",
    "address": "岡山県小田郡矢掛町矢掛2557",
    "lat": 34.6250768,
    "lng": 133.5904823,
    "tel": "0866-82-5010",
    "url": "",
    "pref": "岡山県",
    "city": "矢掛町",
    "category": "community_day_service",
    "serviceType": "地域密着型通所介護",
    "capacity": 0,
    "openDays": [
      "平日",
      "日曜日",
      "祝日"
    ],
    "openDaysNote": ""
  },
  {
    "id": "3372700942",
    "name": "デイサービスセンターコスモス",
    "kana": "デイサービスセンターコスモス",
    "address": "岡山県浅口郡里庄町大字里見８００４－２",
    "lat": 34.5284501,
    "lng": 133.5637485,
    "tel": "0865-64-5512",
    "url": "https://sakura-satosyo.com/",
    "pref": "岡山県",
    "city": "里庄町",
    "category": "community_day_service",
    "serviceType": "地域密着型通所介護",
    "capacity": 10,
    "openDays": [
      "平日",
      "土曜日",
      "祝日"
    ],
    "openDaysNote": "サービス提供時間/９時３０分から１５時４０分"
  },
  {
    "id": "3372300776",
    "name": "デイサービスセンターからんこえ",
    "kana": "デイサービスセンターカラコエ",
    "address": "和気郡和気町益原212-6",
    "lat": 34.8212602,
    "lng": 134.147612,
    "tel": "0869-93-2323",
    "url": "",
    "pref": "岡山県",
    "city": "和気町",
    "category": "community_day_service",
    "serviceType": "地域密着型通所介護",
    "capacity": null,
    "openDays": [
      "平日",
      "祝日"
    ],
    "openDaysNote": ""
  },
  {
    "id": "3372300420",
    "name": "幸生デイサービスセンター",
    "kana": "コウキデイサービスセンター",
    "address": "岡山県和気郡和気町佐伯368-1",
    "lat": 34.8487906,
    "lng": 134.0935764,
    "tel": "0869-88-9211",
    "url": "",
    "pref": "岡山県",
    "city": "和気町",
    "category": "community_day_service",
    "serviceType": "地域密着型通所介護",
    "capacity": 0,
    "openDays": [
      "平日",
      "土曜日",
      "日曜日"
    ],
    "openDaysNote": "特になし"
  }
]