[
  {
    "id": "390900439",
    "name": "デイサービスきのみ",
    "kana": "デイサービスキノミ",
    "address": "岩手県一関市藤沢町黄海字天堤139番地1",
    "lat": 38.8534033,
    "lng": 141.2943081,
    "tel": "0191-48-3530",
    "url": "",
    "pref": "岩手県",
    "city": "一関市",
    "category": "community_day_service",
    "serviceType": "地域密着型通所介護",
    "capacity": 0,
    "openDays": [
      "平日",
      "土曜日",
      "祝日"
    ],
    "openDaysNote": "8月14日～8月16日、12月30日～1月3日は休みとなる。"
  },
  {
    "id": "370900664",
    "name": "デイサービスシェスタ一関",
    "kana": "デイサービスシェスタイチノセキ",
    "address": "岩手県一関市中里字新川原１９０番地１３",
    "lat": 38.9407625896977,
    "lng": 141.151384673016,
    "tel": "0191-31-8766",
    "url": "http://www.siesta.or.jp",
    "pref": "岩手県",
    "city": "一関市",
    "category": "community_day_service",
    "serviceType": "地域密着型通所介護",
    "capacity": 15,
    "openDays": [
      "平日",
      "土曜日",
      "祝日"
    ],
    "openDaysNote": "祝日は営業あり　年末年始休業(12/29～1/3)"
  },
  {
    "id": "390900496",
    "name": "デイサービスセンター・いこいの丘",
    "kana": "デイサービスセンターイコイノオカ",
    "address": "岩手県一関市狐禅寺字大平131番地2",
    "lat": 38.932433,
    "lng": 141.1673267,
    "tel": "0191-34-8011",
    "url": "http://www.cc-ikoi.com/",
    "pref": "岩手県",
    "city": "一関市",
    "category": "community_day_service",
    "serviceType": "地域密着型通所介護",
    "capacity": 0,
    "openDays": [
      "平日",
      "土曜日",
      "祝日"
    ],
    "openDaysNote": "※祝日が、上記定休日（お盆期間と年末年始）と重なる場合はお休みです。"
  },
  {
    "id": "390900389",
    "name": "デイサービスセンターきたかた",
    "kana": "デイサービスセンターキタカタ",
    "address": "岩手県一関市千厩町千厩字北方３７番地２",
    "lat": 38.9180077,
    "lng": 141.3297972,
    "tel": "0191-34-6237",
    "url": "",
    "pref": "岩手県",
    "city": "一関市",
    "category": "community_day_service",
    "serviceType": "地域密着型通所介護",
    "capacity": null,
    "openDays": [
      "平日",
      "土曜日",
      "祝日"
    ],
    "openDaysNote": ""
  },
  {
    "id": "370900839",
    "name": "デイサービスセンター室根",
    "kana": "デイサービスセンタームロネ",
    "address": "岩手県一関市室根町折壁字八幡沖116番地室根保健センター　１階 室根保健センター　１階",
    "lat": 38.9364417,
    "lng": 141.4406777,
    "tel": "0191-64-3983",
    "url": "",
    "pref": "岩手県",
    "city": "一関市",
    "category": "community_day_service",
    "serviceType": "地域密着型通所介護",
    "capacity": 18,
    "openDays": [
      "平日",
      "土曜日",
      "祝日"
    ],
    "openDaysNote": ""
  },
  {
    "id": "390900462",
    "name": "ディサービスセンター須川の郷",
    "kana": "ディサービスセンタースカワノサト",
    "address": "岩手県一関市厳美町字古館３番地",
    "lat": 38.9498725,
    "lng": 141.062766,
    "tel": "0191-34-8884",
    "url": "http://ichinosekikai.com",
    "pref": "岩手県",
    "city": "一関市",
    "category": "community_day_service",
    "serviceType": "地域密着型通所介護",
    "capacity": null,
    "openDays": [
      "平日",
      "土曜日",
      "祝日"
    ],
    "openDaysNote": ""
  },
  {
    "id": "370901332",
    "name": "デイサービスセンター舞川の里",
    "kana": "デイサービスセンターマイカワノサト",
    "address": "岩手県一関市舞川字堀切72番4",
    "lat": 38.9671416,
    "lng": 141.1758923,
    "tel": "0191-31-7001",
    "url": "",
    "pref": "岩手県",
    "city": "一関市",
    "category": "community_day_service",
    "serviceType": "地域密着型通所介護",
    "capacity": 15,
    "openDays": [
      "平日",
      "祝日"
    ],
    "openDaysNote": "12月31日から翌年1月2日まで定休"
  },
  {
    "id": "372700781",
    "name": "デイサービスゆうゆう",
    "kana": "デイサービスユウユウ",
    "address": "岩手県一関市藤沢町黄海字町裏6番地ゆうゆう ゆうゆう",
    "lat": 38.8503805,
    "lng": 141.2992297,
    "tel": "0191-63-5114",
    "url": "",
    "pref": "岩手県",
    "city": "一関市",
    "category": "community_day_service",
    "serviceType": "地域密着型通所介護",
    "capacity": 0,
    "openDays": [
      "平日",
      "土曜日",
      "祝日"
    ],
    "openDaysNote": ""
  },
  {
    "id": "370901688",
    "name": "リハビリステーション・ふっとアップ",
    "kana": "リハビリステーション・フットアップ",
    "address": "岩手県一関市大東町摺沢字但馬崎15-1",
    "lat": 38.9938991,
    "lng": 141.3284932,
    "tel": "0191-48-5089",
    "url": "",
    "pref": "岩手県",
    "city": "一関市",
    "category": "community_day_service",
    "serviceType": "地域密着型通所介護",
    "capacity": 0,
    "openDays": [
      "平日"
    ],
    "openDaysNote": "12月29日から1月3日までは休業いたします。（改行）午前の営業時間　9時～12時15分（改行）午後の営業時間　13時30分～16時45分"
  },
  {
    "id": "370900300",
    "name": "一関地域福祉事業所ケアホームなごみ",
    "kana": "イチノセキチイキフクシジギョウショケアホームナゴミ",
    "address": "岩手県一関市赤荻字荻野５２８番地１",
    "lat": 38.93272,
    "lng": 141.0923009,
    "tel": "0191-33-1507",
    "url": "",
    "pref": "岩手県",
    "city": "一関市",
    "category": "community_day_service",
    "serviceType": "地域密着型通所介護",
    "capacity": 2,
    "openDays": [
      "平日",
      "祝日"
    ],
    "openDaysNote": "月曜日から金曜日までは、祝日でも営業しています。"
  },
  {
    "id": "390900421",
    "name": "株式会社共生型デイサービスらくらく",
    "kana": "カブシキガイシャキョウセイガタデイサービスラクラク",
    "address": "岩手県一関市山目字才天２０番地１０",
    "lat": 38.9329183982746,
    "lng": 141.112138391402,
    "tel": "0191-34-7739",
    "url": "",
    "pref": "岩手県",
    "city": "一関市",
    "category": "community_day_service",
    "serviceType": "地域密着型通所介護",
    "capacity": 0,
    "openDays": [
      "平日",
      "土曜日",
      "日曜日",
      "祝日"
    ],
    "openDaysNote": ""
  },
  {
    "id": "390900470",
    "name": "機能訓練デイサービスふるさと",
    "kana": "キノウクンレンデイサービスフルサト",
    "address": "岩手県一関市花泉町油島上築道10-3",
    "lat": 38.8123403,
    "lng": 141.1789691,
    "tel": "0191-34-7780",
    "url": "",
    "pref": "岩手県",
    "city": "一関市",
    "category": "community_day_service",
    "serviceType": "地域密着型通所介護",
    "capacity": 0,
    "openDays": [
      "平日",
      "祝日"
    ],
    "openDaysNote": ""
  },
  {
    "id": "390900454",
    "name": "機能訓練付きデイサービスゆずりは",
    "kana": "キノウクンレンツキデイサービスユズリハ",
    "address": "岩手県一関市滝沢字宮田51-2",
    "lat": 38.9288491191646,
    "lng": 141.171403425656,
    "tel": "0191-31-8004",
    "url": "https://kokoromiyata.com/",
    "pref": "岩手県",
    "city": "一関市",
    "category": "community_day_service",
    "serviceType": "地域密着型通所介護",
    "capacity": null,
    "openDays": [
      "平日",
      "祝日"
    ],
    "openDaysNote": "月曜日から金曜日まで営業。（改行）ただし、年末年始（１２月２９日から１月３日まで）及びお盆（８月１３日から８月１５日まで）を除きます。"
  },
  {
    "id": "370900987",
    "name": "高沢の家デイサービスセンター",
    "kana": "タカサワノイエデイサービスセンター",
    "address": "岩手県一関市室根町矢越字高沢４２",
    "lat": 38.9375322,
    "lng": 141.4246263,
    "tel": "0191-64-3260",
    "url": "http://www.kouyouhaitsu.com/",
    "pref": "岩手県",
    "city": "一関市",
    "category": "community_day_service",
    "serviceType": "地域密着型通所介護",
    "capacity": 0,
    "openDays": [
      "平日",
      "土曜日",
      "祝日"
    ],
    "openDaysNote": ""
  },
  {
    "id": "372700708",
    "name": "宅朗所すりさわデイサービス",
    "kana": "タクロウショスリサワデイサービス",
    "address": "岩手県一関市大東町摺沢字但馬崎25番地7",
    "lat": 38.9946629,
    "lng": 141.3299819,
    "tel": "0191-75-3343",
    "url": "http://i-group.link/99_blank016.html",
    "pref": "岩手県",
    "city": "一関市",
    "category": "community_day_service",
    "serviceType": "地域密着型通所介護",
    "capacity": 0,
    "openDays": [
      "平日",
      "祝日"
    ],
    "openDaysNote": ""
  },
  {
    "id": "390900488",
    "name": "宅老所せんまや2号館",
    "kana": "タクロウショセンマヤニゴウカン",
    "address": "岩手県一関市千厩町千厩字町浦181番地1丁目",
    "lat": 38.9175851,
    "lng": 141.3335431,
    "tel": "0191-51-3316",
    "url": "",
    "pref": "岩手県",
    "city": "一関市",
    "category": "community_day_service",
    "serviceType": "地域密着型通所介護",
    "capacity": 0,
    "openDays": [
      "平日",
      "土曜日",
      "日曜日",
      "祝日"
    ],
    "openDaysNote": ""
  },
  {
    "id": "373200336",
    "name": "慶寿園プラザぽかぽか",
    "kana": "ケイジュエンプラザポカポカ",
    "address": "岩手県二戸郡一戸町一戸字砂森１２３番地1",
    "lat": 40.2106752,
    "lng": 141.3049214,
    "tel": "0195-31-1511",
    "url": "http://iwate-jikoukai.jp/",
    "pref": "岩手県",
    "city": "一戸町",
    "category": "community_day_service",
    "serviceType": "地域密着型通所介護",
    "capacity": 0,
    "openDays": [
      "平日",
      "祝日"
    ],
    "openDaysNote": "その他、利用者の利用状況等に鑑み休業することがございます。"
  },
  {
    "id": "370800435",
    "name": "デイサービスシリウスつちぶち",
    "kana": "デイサービスシリウスツチブチ",
    "address": "岩手県遠野市土淵町土淵6-23-17",
    "lat": 39.3581493,
    "lng": 141.57604,
    "tel": "0198-63-3344",
    "url": "",
    "pref": "岩手県",
    "city": "遠野市",
    "category": "community_day_service",
    "serviceType": "地域密着型通所介護",
    "capacity": 0,
    "openDays": [
      "平日",
      "祝日"
    ],
    "openDaysNote": ""
  },
  {
    "id": "370800062",
    "name": "ふれあいホーム附馬牛",
    "kana": "フレアイホームツキモウシ",
    "address": "岩手県遠野市附馬牛町下附馬牛11地割160番地",
    "lat": 39.4116426,
    "lng": 141.5288415,
    "tel": "0198-64-2077",
    "url": "http://www.tono-shakyo.jp/",
    "pref": "岩手県",
    "city": "遠野市",
    "category": "community_day_service",
    "serviceType": "地域密着型通所介護",
    "capacity": null,
    "openDays": [
      "平日",
      "祝日"
    ],
    "openDaysNote": "臨時休業時は事前に連絡する。"
  },
  {
    "id": "390800167",
    "name": "リハビリ特化型デイサービスにわとこの森",
    "kana": "リハビリトッカガタデイサービスニワトコノモリ",
    "address": "岩手県遠野市宮守町下宮守26地割210番地1",
    "lat": 39.3501922,
    "lng": 141.3556773,
    "tel": "0198-66-3215",
    "url": "",
    "pref": "岩手県",
    "city": "遠野市",
    "category": "community_day_service",
    "serviceType": "地域密着型通所介護",
    "capacity": 0,
    "openDays": [
      "平日",
      "祝日"
    ],
    "openDaysNote": "夏季休暇8月13日～8月15日（改行）冬期休暇12月30日～1月3日"
  },
  {
    "id": "370800419",
    "name": "遠野デイサービスかわうち",
    "kana": "トオノデイサービスカワウチ",
    "address": "岩手県遠野市中央通り11-1",
    "lat": 39.3308327325588,
    "lng": 141.530030383853,
    "tel": "0198-68-3091",
    "url": "http://www.kawauchi-tono.com",
    "pref": "岩手県",
    "city": "遠野市",
    "category": "community_day_service",
    "serviceType": "地域密着型通所介護",
    "capacity": 18,
    "openDays": [
      "平日",
      "土曜日",
      "祝日"
    ],
    "openDaysNote": "年末年始休業（12/31～1/1）"
  },
  {
    "id": "371500620",
    "name": "これさぽデイサービス",
    "kana": "コレサポデイサービス",
    "address": "岩手県奥州市水沢佐倉河字東沖ノ目１０５番地２",
    "lat": 39.1487673,
    "lng": 141.1523675,
    "tel": "0197-47-5435",
    "url": "http://www.koresapo.jp/",
    "pref": "岩手県",
    "city": "奥州市",
    "category": "community_day_service",
    "serviceType": "地域密着型通所介護",
    "capacity": 10,
    "openDays": [
      "平日",
      "土曜日",
      "祝日"
    ],
    "openDaysNote": "※但し、年末年始（１２/３１～１/３）は「休祭日」の扱いとなります。"
  },
  {
    "id": "371200346",
    "name": "サンライフえさし指定通所介護事業所",
    "kana": "サンライフエサシシテイツウショカイゴジギョウショ",
    "address": "岩手県奥州市江刺愛宕字力石５５２番地の５",
    "lat": 39.1650412,
    "lng": 141.1807089,
    "tel": "0197-35-2348",
    "url": "https://sg-seijukai.com/sunlife-esashi/",
    "pref": "岩手県",
    "city": "奥州市",
    "category": "community_day_service",
    "serviceType": "地域密着型通所介護",
    "capacity": 0,
    "openDays": [
      "平日",
      "土曜日",
      "祝日"
    ],
    "openDaysNote": ""
  },
  {
    "id": "370400392",
    "name": "デイサービスセンタースマイル",
    "kana": "デイサービスセンタースマイル",
    "address": "岩手県奥州市水沢羽田町久保37番地",
    "lat": 39.1434688,
    "lng": 141.1827538,
    "tel": "0197-51-6335",
    "url": "http://www.mirakukai.com/smile.php",
    "pref": "岩手県",
    "city": "奥州市",
    "category": "community_day_service",
    "serviceType": "地域密着型通所介護",
    "capacity": 0,
    "openDays": [
      "平日",
      "土曜日",
      "祝日"
    ],
    "openDaysNote": ""
  },
  {
    "id": "370400343",
    "name": "デイサービスセンターだいしの園",
    "kana": "デイサービスセンターダイシノソノ",
    "address": "岩手県奥州市水沢黒石町字大久保70-1",
    "lat": 39.0900747,
    "lng": 141.1980155,
    "tel": "0197-26-2222",
    "url": "http://www.oshu-shakyo.jp",
    "pref": "岩手県",
    "city": "奥州市",
    "category": "community_day_service",
    "serviceType": "地域密着型通所介護",
    "capacity": 18,
    "openDays": [
      "平日",
      "祝日"
    ],
    "openDaysNote": ""
  },
  {
    "id": "371500125",
    "name": "デイサービスセンターはいらん家",
    "kana": "デイサービスセンターハイランヤ",
    "address": "岩手県奥州市水沢佐倉河字西関田５０番地",
    "lat": 39.1618017,
    "lng": 141.1304496,
    "tel": "0197-24-3791",
    "url": "",
    "pref": "岩手県",
    "city": "奥州市",
    "category": "community_day_service",
    "serviceType": "地域密着型通所介護",
    "capacity": 0,
    "openDays": [
      "平日",
      "土曜日",
      "祝日"
    ],
    "openDaysNote": "ただし居宅サービス計画により営業時間外であってもサービスの提供を行う場合があります。"
  },
  {
    "id": "371500166",
    "name": "デイサービスセンターもたい",
    "kana": "デイサービスセンターモタイ",
    "address": "岩手県奥州市前沢生母字中道３番地２",
    "lat": 39.0586583,
    "lng": 141.1739745,
    "tel": "0197-56-0321",
    "url": "https://www.fukushin-iwate.com/",
    "pref": "岩手県",
    "city": "奥州市",
    "category": "community_day_service",
    "serviceType": "地域密着型通所介護",
    "capacity": 0,
    "openDays": [
      "平日",
      "祝日"
    ],
    "openDaysNote": "年末年始12月31日から1月3日まで休み"
  },
  {
    "id": "371500877",
    "name": "デイサービスの家とみ",
    "kana": "デイサービスノイエトミ",
    "address": "岩手県奥州市水沢字新小路２１－１",
    "lat": 39.1417756,
    "lng": 141.1393199,
    "tel": "0197-47-5615",
    "url": "",
    "pref": "岩手県",
    "city": "奥州市",
    "category": "community_day_service",
    "serviceType": "地域密着型通所介護",
    "capacity": null,
    "openDays": [
      "平日",
      "土曜日",
      "日曜日",
      "祝日"
    ],
    "openDaysNote": "年末年始お休み"
  },
  {
    "id": "371200338",
    "name": "ふれあいステーション「なのはな」",
    "kana": "フレアイステーション「ナノハナ」",
    "address": "岩手県奥州市江刺西大通り9-8",
    "lat": 39.196083499919,
    "lng": 141.171106809245,
    "tel": "0197-35-2441",
    "url": "http://npoesasi.or.jp",
    "pref": "岩手県",
    "city": "奥州市",
    "category": "community_day_service",
    "serviceType": "地域密着型通所介護",
    "capacity": 15,
    "openDays": [
      "平日",
      "土曜日",
      "祝日"
    ],
    "openDaysNote": ""
  },
  {
    "id": "371500588",
    "name": "元気が出るデイサービスセンター",
    "kana": "ゲンキガデルデイサービスセンター",
    "address": "岩手県奥州市水沢字横町131番地1Ｆ渡部ビル1階 渡部ビル1階",
    "lat": 39.1397375,
    "lng": 141.1407216,
    "tel": "0197-25-2940",
    "url": "",
    "pref": "岩手県",
    "city": "奥州市",
    "category": "community_day_service",
    "serviceType": "地域密着型通所介護",
    "capacity": 10,
    "openDays": [
      "平日",
      "土曜日",
      "祝日"
    ],
    "openDaysNote": ""
  },
  {
    "id": "371500570",
    "name": "宅幼老所結笑楽",
    "kana": "タクヨウロウショユワラ",
    "address": "岩手県奥州市水沢東大通り二丁目１－１３",
    "lat": 39.1379490431844,
    "lng": 141.151095498811,
    "tel": "0197-47-4801",
    "url": "http://www.yuwara.com/",
    "pref": "岩手県",
    "city": "奥州市",
    "category": "community_day_service",
    "serviceType": "地域密着型通所介護",
    "capacity": 10,
    "openDays": [
      "平日",
      "祝日"
    ],
    "openDaysNote": "基本、土日は定休日とするが相談に応じて利用可"
  },
  {
    "id": "391500477",
    "name": "地域密着型立生苑デイサービスセンター",
    "kana": "チイキミッチャクガタリュウセイエンデイサービスセンター",
    "address": "岩手県奥州市水沢字見分森16番地地域密着型立生苑デイサービスセンター 地域密着型立生苑デイサービスセンター",
    "lat": 39.1209908,
    "lng": 141.1096056,
    "tel": "0197-22-4356",
    "url": "https://jyusuikai.jp",
    "pref": "岩手県",
    "city": "奥州市",
    "category": "community_day_service",
    "serviceType": "地域密着型通所介護",
    "capacity": 18,
    "openDays": [
      "平日",
      "祝日"
    ],
    "openDaysNote": ""
  },
  {
    "id": "370500878",
    "name": "アイアックケアセンター",
    "kana": "アイアックケアセンター",
    "address": "岩手県花巻市西宮野目第11地割115-2賛幸指定居宅介護事業所 賛幸指定居宅介護事業所",
    "lat": 39.4150179139695,
    "lng": 141.126581235153,
    "tel": "0198-41-9988",
    "url": "http://www.sanko-taxi.ftw.jp/",
    "pref": "岩手県",
    "city": "花巻市",
    "category": "community_day_service",
    "serviceType": "地域密着型通所介護",
    "capacity": 18,
    "openDays": [
      "平日",
      "土曜日",
      "祝日"
    ],
    "openDaysNote": ""
  },
  {
    "id": "390500270",
    "name": "イーハトーブぬくもりデイサービスセンター",
    "kana": "イーハトーブヌクモリデイサービスセンター",
    "address": "岩手県花巻市石鳥谷町中寺林6-22-1",
    "lat": 39.4823178,
    "lng": 141.1389317,
    "tel": "0198-29-5170",
    "url": "",
    "pref": "岩手県",
    "city": "花巻市",
    "category": "community_day_service",
    "serviceType": "地域密着型通所介護",
    "capacity": 15,
    "openDays": [
      "平日",
      "祝日"
    ],
    "openDaysNote": ""
  },
  {
    "id": "370500944",
    "name": "おひさま",
    "kana": "オヒサマ",
    "address": "岩手県花巻市若葉町３－５－５",
    "lat": 39.3854981,
    "lng": 141.1062161,
    "tel": "0198-41-4141",
    "url": "http://icare-center.co.jp/",
    "pref": "岩手県",
    "city": "花巻市",
    "category": "community_day_service",
    "serviceType": "地域密着型通所介護",
    "capacity": 15,
    "openDays": [
      "平日",
      "土曜日",
      "祝日"
    ],
    "openDaysNote": ""
  },
  {
    "id": "370501108",
    "name": "きぬかわデイサービスセンター",
    "kana": "キヌカワデイサービスセンター",
    "address": "岩手県花巻市東和町前田１区２５７番地",
    "lat": 39.4179463,
    "lng": 141.213597,
    "tel": "0198-43-1720",
    "url": "http://towaso.jp",
    "pref": "岩手県",
    "city": "花巻市",
    "category": "community_day_service",
    "serviceType": "地域密着型通所介護",
    "capacity": 0,
    "openDays": [
      "平日",
      "祝日"
    ],
    "openDaysNote": ""
  },
  {
    "id": "370501306",
    "name": "さくらデイサービス花巻",
    "kana": "サクラデイサービスハナマキ",
    "address": "岩手県花巻市石鳥谷町好地6-55-2",
    "lat": 39.4885568004405,
    "lng": 141.148445687033,
    "tel": "0198-29-5113",
    "url": "",
    "pref": "岩手県",
    "city": "花巻市",
    "category": "community_day_service",
    "serviceType": "地域密着型通所介護",
    "capacity": 10,
    "openDays": [
      "平日",
      "土曜日",
      "祝日"
    ],
    "openDaysNote": ""
  },
  {
    "id": "390500429",
    "name": "サンガデイサービスセンター",
    "kana": "サンガデイサービスセンター",
    "address": "岩手県花巻市十二丁目５６５番４",
    "lat": 39.3550967,
    "lng": 141.1146875,
    "tel": "0198-29-5080",
    "url": "https://sanga295672.wixsite.com/sanga-hanamaki",
    "pref": "岩手県",
    "city": "花巻市",
    "category": "community_day_service",
    "serviceType": "地域密着型通所介護",
    "capacity": null,
    "openDays": [
      "平日",
      "土曜日",
      "祝日"
    ],
    "openDaysNote": ""
  },
  {
    "id": "370501579",
    "name": "デイサービスこもれびはうす",
    "kana": "デイサービスコモレビハウス",
    "address": "岩手県花巻市南川原町333",
    "lat": 39.382843,
    "lng": 141.1140543,
    "tel": "0198-24-9161",
    "url": "http://komorebihouse.com/",
    "pref": "岩手県",
    "city": "花巻市",
    "category": "community_day_service",
    "serviceType": "地域密着型通所介護",
    "capacity": 10,
    "openDays": [
      "平日",
      "土曜日",
      "日曜日",
      "祝日"
    ],
    "openDaysNote": ""
  },
  {
    "id": "370500902",
    "name": "デイサービスセンターなごみ",
    "kana": "デイサービスセンターナゴミ",
    "address": "岩手県花巻市東和町田瀬５区２１１番地１",
    "lat": 39.3338678362399,
    "lng": 141.301950148191,
    "tel": "0198-44-5105",
    "url": "http://www.yuyu-nagomi.com",
    "pref": "岩手県",
    "city": "花巻市",
    "category": "community_day_service",
    "serviceType": "地域密着型通所介護",
    "capacity": 0,
    "openDays": [
      "平日",
      "祝日"
    ],
    "openDaysNote": ""
  },
  {
    "id": "390500312",
    "name": "リハビリ特化型デイサービスかがやき",
    "kana": "リハビリトッカガタデイサービスカガヤキ",
    "address": "岩手県花巻市高木16地割68-6銀河モール内 銀河モール内",
    "lat": 39.3863503,
    "lng": 141.1360716,
    "tel": "0198-41-6030",
    "url": "",
    "pref": "岩手県",
    "city": "花巻市",
    "category": "community_day_service",
    "serviceType": "地域密着型通所介護",
    "capacity": 0,
    "openDays": [
      "平日",
      "祝日"
    ],
    "openDaysNote": ""
  },
  {
    "id": "390500411",
    "name": "リハビリ特化型デイサービスにわとこの花",
    "kana": "リハビリトッカガタデイサービスニワトコノハナ",
    "address": "岩手県花巻市胡四王一丁目11番地9",
    "lat": 39.4067385,
    "lng": 141.1679975,
    "tel": "0198-41-3900",
    "url": "",
    "pref": "岩手県",
    "city": "花巻市",
    "category": "community_day_service",
    "serviceType": "地域密着型通所介護",
    "capacity": 0,
    "openDays": [
      "平日",
      "祝日"
    ],
    "openDaysNote": "夏季休暇8月13日から8月15日、冬期休暇12月30日から1月3日"
  },
  {
    "id": "392100202",
    "name": "誠心会江刈デイサービスセンター",
    "kana": "セイシンカイエカリデイサービスセンター",
    "address": "岩手県岩手郡葛巻町江刈第24地割10番地",
    "lat": 39.9749704,
    "lng": 141.5040079,
    "tel": "0195-68-2391",
    "url": "http://seishinseii-sw.or.jp/",
    "pref": "岩手県",
    "city": "葛巻町",
    "category": "community_day_service",
    "serviceType": "地域密着型通所介護",
    "capacity": null,
    "openDays": [
      "平日"
    ],
    "openDaysNote": ""
  },
  {
    "id": "371100421",
    "name": "ございしょの里デイサービスセンター",
    "kana": "ゴザイショノサトデイサービスセンター",
    "address": "岩手県釜石市鵜住居町第23地割21番地１",
    "lat": 39.3223301000001,
    "lng": 141.8879341,
    "tel": "0193-28-1300",
    "url": "",
    "pref": "岩手県",
    "city": "釜石市",
    "category": "community_day_service",
    "serviceType": "地域密着型通所介護",
    "capacity": 0,
    "openDays": [
      "平日",
      "祝日"
    ],
    "openDaysNote": "管理者が特に必要と認めたときは、これを変更し、又は臨時に休業することができる。"
  },
  {
    "id": "371100777",
    "name": "デイサービスセンター善",
    "kana": "デイサービスセンターゼン",
    "address": "岩手県釜石市大字平田第３地割２９番地１０",
    "lat": 39.2465818471226,
    "lng": 141.885706064791,
    "tel": "0193-55-6084",
    "url": "http://zen-project.jimdo.com/",
    "pref": "岩手県",
    "city": "釜石市",
    "category": "community_day_service",
    "serviceType": "地域密着型通所介護",
    "capacity": 18,
    "openDays": [
      "平日",
      "土曜日",
      "祝日"
    ],
    "openDaysNote": "・休業日に臨時営業の場合あり（営業時間　8時～17時）（改行）・休業日の連絡対応は、併設の小規模多機能型居宅介護事業所で受付、後日担当から連絡します。"
  },
  {
    "id": "371100751",
    "name": "リハビリデイサービスsqoo釜石",
    "kana": "リハビリデイサービススクーカマイシ",
    "address": "岩手県釜石市中妻町２丁目１４番１４号",
    "lat": 39.2696869070343,
    "lng": 141.858903650262,
    "tel": "0193-27-8088",
    "url": "http://www.sqoo.jp/dayservice/dayservice.html",
    "pref": "岩手県",
    "city": "釜石市",
    "category": "community_day_service",
    "serviceType": "地域密着型通所介護",
    "capacity": 0,
    "openDays": [
      "平日",
      "祝日"
    ],
    "openDaysNote": "月～金曜日にかかる祝祭日は営業いたします。（改行）ゴールデンウィーク・お盆・年末年始はお休みをいただいております。"
  },
  {
    "id": "373000777",
    "name": "デイサービスセンターやすらぎ",
    "kana": "デイサービスセンターヤスラギ",
    "address": "岩手県下閉伊郡岩泉町岩泉字中家20番地の10",
    "lat": 39.8462056,
    "lng": 141.7947783,
    "tel": "0194-22-5511",
    "url": "",
    "pref": "岩手県",
    "city": "岩泉町",
    "category": "community_day_service",
    "serviceType": "地域密着型通所介護",
    "capacity": 18,
    "openDays": [
      "平日",
      "土曜日",
      "日曜日",
      "祝日"
    ],
    "openDaysNote": "年末年始等"
  },
  {
    "id": "373000447",
    "name": "岩泉町社協大川指定通所介護事業所",
    "kana": "イワイズミチョウシャキョウオオカワシテイツウショカイゴジギョウショ",
    "address": "岩手県下閉伊郡岩泉町大川字下町65番地１",
    "lat": 39.8026967,
    "lng": 141.658668,
    "tel": "0194-26-2007",
    "url": "http://iwaizumi-shakyo.or.jp/",
    "pref": "岩手県",
    "city": "岩泉町",
    "category": "community_day_service",
    "serviceType": "地域密着型通所介護",
    "capacity": 0,
    "openDays": [
      "平日",
      "祝日"
    ],
    "openDaysNote": "必要に応じ開所日数及び開所時間を変更可能"
  },
  {
    "id": "370700502",
    "name": "かあさんのいえ。",
    "kana": "カアサンノイエ。",
    "address": "岩手県久慈市長内町16-20-2",
    "lat": 40.180563316245,
    "lng": 141.773400953047,
    "tel": "0194-66-9808",
    "url": "",
    "pref": "岩手県",
    "city": "久慈市",
    "category": "community_day_service",
    "serviceType": "地域密着型通所介護",
    "capacity": 0,
    "openDays": [
      "平日",
      "祝日"
    ],
    "openDaysNote": ""
  },
  {
    "id": "370700593",
    "name": "デイサービスCalore",
    "kana": "デイサービスカローレ",
    "address": "岩手県久慈市田屋町1-30-8",
    "lat": 40.1953651592573,
    "lng": 141.772707710173,
    "tel": "0194-52-0278",
    "url": "",
    "pref": "岩手県",
    "city": "久慈市",
    "category": "community_day_service",
    "serviceType": "地域密着型通所介護",
    "capacity": 5,
    "openDays": [
      "平日",
      "祝日"
    ],
    "openDaysNote": ""
  },
  {
    "id": "370700395",
    "name": "デイサービスセンターおらホーム",
    "kana": "デイサービスセンターオラホーム",
    "address": "岩手県久慈市小久慈町第18地割3番地2",
    "lat": 40.1686041,
    "lng": 141.7361998,
    "tel": "0194-52-2600",
    "url": "https://kohakukai.org/",
    "pref": "岩手県",
    "city": "久慈市",
    "category": "community_day_service",
    "serviceType": "地域密着型通所介護",
    "capacity": 0,
    "openDays": [
      "平日",
      "土曜日",
      "祝日"
    ],
    "openDaysNote": ""
  },
  {
    "id": "370700478",
    "name": "デイサービスセンターさむらい",
    "kana": "デイサービスセンターサムライ",
    "address": "岩手県久慈市侍浜町外屋敷第6地割10番地4",
    "lat": 40.2706295,
    "lng": 141.787306,
    "tel": "0194-64-1234",
    "url": "http://samurai6104.web.fc2.com",
    "pref": "岩手県",
    "city": "久慈市",
    "category": "community_day_service",
    "serviceType": "地域密着型通所介護",
    "capacity": 0,
    "openDays": [
      "平日",
      "祝日"
    ],
    "openDaysNote": "特になし"
  },
  {
    "id": "370700460",
    "name": "デイサービスセンターなごみ",
    "kana": "デイサービスセンターナゴミ",
    "address": "岩手県久慈市長内町21-2",
    "lat": 40.1810476,
    "lng": 141.7745247,
    "tel": "0194-53-5225",
    "url": "",
    "pref": "岩手県",
    "city": "久慈市",
    "category": "community_day_service",
    "serviceType": "地域密着型通所介護",
    "capacity": 0,
    "openDays": [
      "平日",
      "土曜日",
      "祝日"
    ],
    "openDaysNote": ""
  },
  {
    "id": "370700601",
    "name": "デイサービスセンターわが家",
    "kana": "デイサービスセンターワガヤ",
    "address": "岩手県久慈市小久慈町19-103-3",
    "lat": 40.1624463,
    "lng": 141.7315717,
    "tel": "0194-53-3600",
    "url": "http://kohakukai.org",
    "pref": "岩手県",
    "city": "久慈市",
    "category": "community_day_service",
    "serviceType": "地域密着型通所介護",
    "capacity": 10,
    "openDays": [
      "平日",
      "土曜日",
      "祝日"
    ],
    "openDaysNote": ""
  },
  {
    "id": "370700361",
    "name": "宇部地区デイサービスセンター",
    "kana": "ウベチクデイサービスセンター",
    "address": "岩手県久慈市宇部町第5地割41番地",
    "lat": 40.1305187,
    "lng": 141.7877207,
    "tel": "0194-62-1234",
    "url": "https://khjd.jp/",
    "pref": "岩手県",
    "city": "久慈市",
    "category": "community_day_service",
    "serviceType": "地域密着型通所介護",
    "capacity": null,
    "openDays": [
      "平日",
      "土曜日"
    ],
    "openDaysNote": ""
  },
  {
    "id": "370700221",
    "name": "大川目地区デイサービスセンター",
    "kana": "オオカワメチクデイサービスセンター",
    "address": "岩手県久慈市大川目町第23地割2番地4",
    "lat": 40.1891065,
    "lng": 141.7082461,
    "tel": "0194-55-2921",
    "url": "https://khjd.jp",
    "pref": "岩手県",
    "city": "久慈市",
    "category": "community_day_service",
    "serviceType": "地域密着型通所介護",
    "capacity": null,
    "openDays": [
      "平日"
    ],
    "openDaysNote": ""
  },
  {
    "id": "390700128",
    "name": "地域密着型通所介護事業所しあわせの家",
    "kana": "チイキミッチャクガタツウショカイゴジギョウショシアワセノイエ",
    "address": "岩手県久慈市二十八日町1-13",
    "lat": 40.1909726,
    "lng": 141.7674021,
    "tel": "0194-66-7466",
    "url": "",
    "pref": "岩手県",
    "city": "久慈市",
    "category": "community_day_service",
    "serviceType": "地域密着型通所介護",
    "capacity": null,
    "openDays": [
      "平日",
      "土曜日",
      "祝日"
    ],
    "openDaysNote": ""
  },
  {
    "id": "370700247",
    "name": "優介護デイサービス",
    "kana": "ユウカイゴデイサービス",
    "address": "岩手県久慈市湊町第21地割48番地",
    "lat": 40.2048061,
    "lng": 141.7941945,
    "tel": "0194-53-1634",
    "url": "http://ameblo.jp/kiyo7292/",
    "pref": "岩手県",
    "city": "久慈市",
    "category": "community_day_service",
    "serviceType": "地域密着型通所介護",
    "capacity": 13,
    "openDays": [
      "平日"
    ],
    "openDaysNote": ""
  },
  {
    "id": "370700528",
    "name": "老人デイサービスセンター「百万石」久慈",
    "kana": "ロウジンデイサービスセンター「ヒャクマンゴク」クジ",
    "address": "岩手県久慈市長内町第21地割81番地の2",
    "lat": 40.1861498,
    "lng": 141.7714913,
    "tel": "0194-75-3225",
    "url": "",
    "pref": "岩手県",
    "city": "久慈市",
    "category": "community_day_service",
    "serviceType": "地域密着型通所介護",
    "capacity": 0,
    "openDays": [
      "平日",
      "土曜日",
      "祝日"
    ],
    "openDaysNote": ""
  },
  {
    "id": "370200404",
    "name": "かのんデイサービスセンター",
    "kana": "カノンデイサービスセンター",
    "address": "岩手県宮古市実田一丁目７番２８号",
    "lat": 39.6251138,
    "lng": 141.9549456,
    "tel": "0193-65-1417",
    "url": "http://www.ln-kanon.com/",
    "pref": "岩手県",
    "city": "宮古市",
    "category": "community_day_service",
    "serviceType": "地域密着型通所介護",
    "capacity": 0,
    "openDays": [
      "平日",
      "土曜日",
      "日曜日",
      "祝日"
    ],
    "openDaysNote": ""
  },
  {
    "id": "390200343",
    "name": "デイサービスあたご",
    "kana": "デイサービスアタゴ",
    "address": "岩手県宮古市築地二丁目２-１７",
    "lat": 39.6415323,
    "lng": 141.9606441,
    "tel": "0193-65-6375",
    "url": "",
    "pref": "岩手県",
    "city": "宮古市",
    "category": "community_day_service",
    "serviceType": "地域密着型通所介護",
    "capacity": 0,
    "openDays": [
      "平日",
      "土曜日",
      "祝日"
    ],
    "openDaysNote": "要相談にて日曜日営業あり"
  },
  {
    "id": "390200277",
    "name": "デイサービス福寿草",
    "kana": "デイサービスフクジュソウ",
    "address": "岩手県宮古市松山8-71-5",
    "lat": 39.6221546,
    "lng": 141.915991,
    "tel": "0193-63-6100",
    "url": "",
    "pref": "岩手県",
    "city": "宮古市",
    "category": "community_day_service",
    "serviceType": "地域密着型通所介護",
    "capacity": 0,
    "openDays": [
      "平日",
      "祝日"
    ],
    "openDaysNote": ""
  },
  {
    "id": "370200685",
    "name": "ゆうゆうデイサービスセンター",
    "kana": "ユウユウデイサアビスセンタア",
    "address": "岩手県宮古市八木沢第5地割85番地1",
    "lat": 39.6167101949821,
    "lng": 141.940777267369,
    "tel": "0193-77-3107",
    "url": "",
    "pref": "岩手県",
    "city": "宮古市",
    "category": "community_day_service",
    "serviceType": "地域密着型通所介護",
    "capacity": 18,
    "openDays": [
      "平日",
      "土曜日",
      "祝日"
    ],
    "openDaysNote": "年末年始　12/30から1/3まで休み"
  },
  {
    "id": "370200859",
    "name": "リハビリデイホームあすも",
    "kana": "リハビリデイホームアスモ",
    "address": "岩手県宮古市大通三丁目6-51",
    "lat": 39.6420448,
    "lng": 141.9444824,
    "tel": "0193-77-5522",
    "url": "",
    "pref": "岩手県",
    "city": "宮古市",
    "category": "community_day_service",
    "serviceType": "地域密着型通所介護",
    "capacity": 0,
    "openDays": [
      "平日",
      "土曜日",
      "祝日"
    ],
    "openDaysNote": ""
  },
  {
    "id": "370200453",
    "name": "愛福祉会指定通所介護事業所",
    "kana": "アイフクシカイシテイツウショカイゴジギョウショ",
    "address": "岩手県宮古市刈屋第12地割3番地",
    "lat": 39.6461886977851,
    "lng": 141.758768834518,
    "tel": "0193-72-2110",
    "url": "",
    "pref": "岩手県",
    "city": "宮古市",
    "category": "community_day_service",
    "serviceType": "地域密着型通所介護",
    "capacity": 0,
    "openDays": [
      "平日",
      "土曜日",
      "祝日"
    ],
    "openDaysNote": ""
  },
  {
    "id": "370200776",
    "name": "指定通所介護事業所ケアセンターみやこ",
    "kana": "シテイツウショカイゴジギョウショケアセンターミヤコ",
    "address": "岩手県宮古市田鎖第３地割８番地",
    "lat": 39.6206072,
    "lng": 141.9026594,
    "tel": "0193-89-1888",
    "url": "",
    "pref": "岩手県",
    "city": "宮古市",
    "category": "community_day_service",
    "serviceType": "地域密着型通所介護",
    "capacity": 18,
    "openDays": [
      "平日",
      "土曜日",
      "日曜日",
      "祝日"
    ],
    "openDaysNote": "随時上記の時間帯で対応しています。定休日に関しては電話（転送）にて対応しています。"
  },
  {
    "id": "370200750",
    "name": "指定通所介護事業所サンホームみやこ絆",
    "kana": "シテイツウショカイゴジギョウショサンホームミヤコキズナ",
    "address": "岩手県宮古市崎鍬ヶ崎第４地割１番地４３",
    "lat": 39.6591929,
    "lng": 141.9517345,
    "tel": "0193-62-7011",
    "url": "http://www.wakatakekai.or.jp",
    "pref": "岩手県",
    "city": "宮古市",
    "category": "community_day_service",
    "serviceType": "地域密着型通所介護",
    "capacity": 0,
    "openDays": [
      "平日",
      "土曜日",
      "祝日"
    ],
    "openDaysNote": "定休日以外の祝日は営業します。"
  },
  {
    "id": "370200826",
    "name": "小規模デイサービスファミリー山口",
    "kana": "ショウキボデイサービスファミリーヤマグチ",
    "address": "岩手県宮古市山口２丁目3番13号",
    "lat": 39.6494318201776,
    "lng": 141.934687410281,
    "tel": "0193-63-7400",
    "url": "http;//www.familykaigo.com",
    "pref": "岩手県",
    "city": "宮古市",
    "category": "community_day_service",
    "serviceType": "地域密着型通所介護",
    "capacity": 10,
    "openDays": [
      "平日",
      "土曜日",
      "祝日"
    ],
    "openDaysNote": ""
  },
  {
    "id": "390200418",
    "name": "昭和の家",
    "kana": "ショウワノイエ",
    "address": "岩手県宮古市根市2-35-9",
    "lat": 39.6318535225761,
    "lng": 141.892893723279,
    "tel": "0193-65-6530",
    "url": "https://miyakocarecenter.wixsite.com/miyako",
    "pref": "岩手県",
    "city": "宮古市",
    "category": "community_day_service",
    "serviceType": "地域密着型通所介護",
    "capacity": 0,
    "openDays": [
      "平日",
      "土曜日",
      "祝日"
    ],
    "openDaysNote": ""
  },
  {
    "id": "373100536",
    "name": "デイサービスセンターふぁーすとシート",
    "kana": "デイサービスセンターファーストシート",
    "address": "岩手県九戸郡九戸村伊保内第11地割52番地",
    "lat": 40.2066172,
    "lng": 141.4224769,
    "tel": "0195-42-4020",
    "url": "",
    "pref": "岩手県",
    "city": "九戸村",
    "category": "community_day_service",
    "serviceType": "地域密着型通所介護",
    "capacity": 0,
    "openDays": [
      "平日",
      "土曜日",
      "日曜日",
      "祝日"
    ],
    "openDaysNote": "３６５日運営"
  },
  {
    "id": "373000850",
    "name": "指定通所介護事業所石峠宅老所",
    "kana": "シテイツウショカイゴジギョウショイシトウゲタクロウショ",
    "address": "岩手県下閉伊郡山田町石峠第2地割35番地",
    "lat": 39.5450132,
    "lng": 141.9272814,
    "tel": "0193-86-2231",
    "url": "https://www.ishitouge.or.jp",
    "pref": "岩手県",
    "city": "山田町",
    "category": "community_day_service",
    "serviceType": "地域密着型通所介護",
    "capacity": null,
    "openDays": [
      "平日",
      "日曜日",
      "祝日"
    ],
    "openDaysNote": "日曜日の利用は、働いているご家族の時間を大事にしていただくために営業してます。"
  },
  {
    "id": "392200119",
    "name": "パワフル紫波イースト",
    "kana": "パワフルシワイースト",
    "address": "岩手県紫波郡紫波町犬吠森字境147番地1",
    "lat": 39.5526484,
    "lng": 141.1772849,
    "tel": "019-681-2700",
    "url": "",
    "pref": "岩手県",
    "city": "紫波町",
    "category": "community_day_service",
    "serviceType": "地域密着型通所介護",
    "capacity": 0,
    "openDays": [
      "平日",
      "土曜日",
      "祝日"
    ],
    "openDaysNote": ""
  },
  {
    "id": "392200051",
    "name": "リハビリデイサービスシェーンハイムしわ",
    "kana": "リハビリデイサービスシェーンハイムシワ",
    "address": "岩手県紫波郡紫波町日詰字東裏85番地1",
    "lat": 39.5552625,
    "lng": 141.1721626,
    "tel": "019-601-2525",
    "url": "http://www.s-souseikai.jp/",
    "pref": "岩手県",
    "city": "紫波町",
    "category": "community_day_service",
    "serviceType": "地域密着型通所介護",
    "capacity": 0,
    "openDays": [
      "平日",
      "土曜日",
      "祝日"
    ],
    "openDaysNote": ""
  },
  {
    "id": "392200093",
    "name": "リハビリ特化型デイサービスパワフル紫波",
    "kana": "リハビリトッカガタデイサービスパワフルシワ",
    "address": "岩手県紫波郡紫波町北日詰字外谷地913番地1",
    "lat": 39.5417319,
    "lng": 141.1499482,
    "tel": "019-681-0105",
    "url": "https://powerfulshiwa.co.jp/",
    "pref": "岩手県",
    "city": "紫波町",
    "category": "community_day_service",
    "serviceType": "地域密着型通所介護",
    "capacity": null,
    "openDays": [
      "平日",
      "土曜日",
      "日曜日",
      "祝日"
    ],
    "openDaysNote": ""
  },
  {
    "id": "372200790",
    "name": "愛ケアセンターデイサービスなおしま",
    "kana": "アイケアセンターデイサービスナオシマ",
    "address": "岩手県紫波郡紫波町上平沢字川崎82-2",
    "lat": 39.5543908,
    "lng": 141.1044084,
    "tel": "019-673-6277",
    "url": "http://icare-center.co.jp/",
    "pref": "岩手県",
    "city": "紫波町",
    "category": "community_day_service",
    "serviceType": "地域密着型通所介護",
    "capacity": 15,
    "openDays": [
      "平日",
      "土曜日",
      "祝日"
    ],
    "openDaysNote": "12月30日から1月3日（年末年始）までと8月13日から8月16日（お盆）はお休みいたします。"
  },
  {
    "id": "372200733",
    "name": "共生ホームぬくもり指定通所介護事業所",
    "kana": "キョウセイホームヌクモリシテイツウショカイゴジギョウショ",
    "address": "岩手県紫波郡紫波町稲藤字牡丹野１０－１",
    "lat": 39.5509806,
    "lng": 141.1151129,
    "tel": "019-671-7300",
    "url": "",
    "pref": "岩手県",
    "city": "紫波町",
    "category": "community_day_service",
    "serviceType": "地域密着型通所介護",
    "capacity": 0,
    "openDays": [
      "平日",
      "祝日"
    ],
    "openDaysNote": "年末年始12月29日～翌年1月3日（改行）　水、土曜日休業中"
  },
  {
    "id": "392200101",
    "name": "城山デイサービス",
    "kana": "シロヤマデイサービス",
    "address": "岩手県紫波郡紫波町二日町字田中前５９",
    "lat": 39.5710913,
    "lng": 141.1679294,
    "tel": "019-681-6475",
    "url": "",
    "pref": "岩手県",
    "city": "紫波町",
    "category": "community_day_service",
    "serviceType": "地域密着型通所介護",
    "capacity": 0,
    "openDays": [
      "平日",
      "土曜日",
      "日曜日",
      "祝日"
    ],
    "openDaysNote": ""
  },
  {
    "id": "372200493",
    "name": "宅老所えんどり古舘指定通所介護事業所",
    "kana": "タクロウショエンドリフルダテシテイツウショカイゴジギョウショ",
    "address": "岩手県紫波郡紫波町高水寺字田中９８番地2",
    "lat": 39.5706215,
    "lng": 141.1660238,
    "tel": "019-671-1208",
    "url": "",
    "pref": "岩手県",
    "city": "紫波町",
    "category": "community_day_service",
    "serviceType": "地域密着型通所介護",
    "capacity": 0,
    "openDays": [
      "平日",
      "土曜日",
      "祝日"
    ],
    "openDaysNote": "年末年始１２月２９日～翌年１月３日（改行）ただし休業日であっても利用者の要望が強くあり職員体制がとれる場合には営業することがあります。"
  },
  {
    "id": "372200402",
    "name": "宅老所えんどり指定通所介護事業所",
    "kana": "タクロウショエンドリシテイツウショカイゴジギョウショ",
    "address": "岩手県紫波郡紫波町犬吠森字間木沢124",
    "lat": 39.5571203046584,
    "lng": 141.179959763376,
    "tel": "019-672-6107",
    "url": "",
    "pref": "岩手県",
    "city": "紫波町",
    "category": "community_day_service",
    "serviceType": "地域密着型通所介護",
    "capacity": 0,
    "openDays": [
      "平日",
      "祝日"
    ],
    "openDaysNote": "年末年始（12月29日～翌年1月3日までの間は休業とします。）（改行）ただし、休業日であっても利用者の要望が強くあり、職員体制がとれる場合は営業する事があります。"
  },
  {
    "id": "372200436",
    "name": "宅老所えんどり上平沢指定通所介護事業所",
    "kana": "タクロウショエンドリカミヒラサワシテイツウショカイゴジギョウショ",
    "address": "岩手県紫波郡紫波町上平沢字馬場２番地",
    "lat": 39.5562046,
    "lng": 141.1073553,
    "tel": "019-673-7551",
    "url": "",
    "pref": "岩手県",
    "city": "紫波町",
    "category": "community_day_service",
    "serviceType": "地域密着型通所介護",
    "capacity": 0,
    "openDays": [
      "平日",
      "祝日"
    ],
    "openDaysNote": "年末年始　（１２月２９日から翌年１月３日まで休業）"
  },
  {
    "id": "372200774",
    "name": "通所介護事業所ぬぐだまり",
    "kana": "ツウショカイゴジギョウショヌグダマリ",
    "address": "岩手県紫波郡紫波町小屋敷字阿弥陀堂272-1",
    "lat": 39.571986,
    "lng": 141.0940388,
    "tel": "019-673-7280",
    "url": "",
    "pref": "岩手県",
    "city": "紫波町",
    "category": "community_day_service",
    "serviceType": "地域密着型通所介護",
    "capacity": 0,
    "openDays": [
      "平日"
    ],
    "openDaysNote": ""
  },
  {
    "id": "392100194",
    "name": "JAライフサポート雫石通所介護事業所",
    "kana": "ジェイエイライフサポートシズクイシツウショカイゴジギョウショ",
    "address": "岩手県岩手郡雫石町町裏７５－１",
    "lat": 39.6926351,
    "lng": 140.9758441,
    "tel": "019-692-6150",
    "url": "",
    "pref": "岩手県",
    "city": "雫石町",
    "category": "community_day_service",
    "serviceType": "地域密着型通所介護",
    "capacity": 18,
    "openDays": [
      "平日",
      "土曜日"
    ],
    "openDaysNote": ""
  },
  {
    "id": "372101030",
    "name": "うぐいすの郷通所介護センター",
    "kana": "ウグイスノサトツウショカイゴセンター",
    "address": "岩手県岩手郡雫石町西安庭第２６地割１３０番地１",
    "lat": 39.6584861,
    "lng": 140.984507,
    "tel": "019-692-5888",
    "url": "http://www.uguisu.or.jp/",
    "pref": "岩手県",
    "city": "雫石町",
    "category": "community_day_service",
    "serviceType": "地域密着型通所介護",
    "capacity": 0,
    "openDays": [
      "平日",
      "祝日"
    ],
    "openDaysNote": "営業日　月・火・水・木・金曜日（定休日以外の祝祭日は稼働）"
  },
  {
    "id": "372101766",
    "name": "リハビリ型デイサービスセンターささこつ",
    "kana": "リハビリガタデイサービスセンターササコツ",
    "address": "岩手県岩手郡雫石町柿木5-4",
    "lat": 39.7056003,
    "lng": 140.9636599,
    "tel": "019-656-9505",
    "url": "http://www.kouwa.iwate.jp/",
    "pref": "岩手県",
    "city": "雫石町",
    "category": "community_day_service",
    "serviceType": "地域密着型通所介護",
    "capacity": 18,
    "openDays": [
      "平日",
      "土曜日",
      "祝日"
    ],
    "openDaysNote": "営業時間外は併設の入所施設で電話対応あり。後日担当から連絡します。"
  },
  {
    "id": "392100137",
    "name": "松寿荘指定地域密着型通所介護事業所",
    "kana": "ショウジュソウシテイチイキミッチャクガタツウショカイゴジギョウショ",
    "address": "岩手県岩手郡雫石町長山篠川原156-2",
    "lat": 39.7704395,
    "lng": 140.9599626,
    "tel": "019-601-9057",
    "url": "https://esashijyuseikai.or.jp/",
    "pref": "岩手県",
    "city": "雫石町",
    "category": "community_day_service",
    "serviceType": "地域密着型通所介護",
    "capacity": 18,
    "openDays": [
      "平日",
      "土曜日",
      "祝日"
    ],
    "openDaysNote": ""
  },
  {
    "id": "392100160",
    "name": "日赤鶯鳴荘デイサービスセンター",
    "kana": "ニッセキオウメイソウデイサービスセンター",
    "address": "岩手県岩手郡雫石町南畑第32地割15-30",
    "lat": 39.6443535,
    "lng": 140.9430028,
    "tel": "019-695-2473",
    "url": "http://www.oumeisou.jrc.or.jp",
    "pref": "岩手県",
    "city": "雫石町",
    "category": "community_day_service",
    "serviceType": "地域密着型通所介護",
    "capacity": 18,
    "openDays": [
      "平日",
      "土曜日"
    ],
    "openDaysNote": ""
  },
  {
    "id": "392800025",
    "name": "デイサービスセンターかじや",
    "kana": "デイサービスセンターカジヤ",
    "address": "岩手県気仙郡住田町世田米字天風６番地",
    "lat": 39.1606451,
    "lng": 141.5433528,
    "tel": "0192-46-3253",
    "url": "",
    "pref": "岩手県",
    "city": "住田町",
    "category": "community_day_service",
    "serviceType": "地域密着型通所介護",
    "capacity": 0,
    "openDays": [
      "平日",
      "日曜日",
      "祝日"
    ],
    "openDaysNote": ""
  },
  {
    "id": "370104655",
    "name": "GENKINEXT盛岡本宮",
    "kana": "ゲンキネクストモリオカモトミヤ",
    "address": "岩手県盛岡市本宮三丁目34番8号",
    "lat": 39.6882122,
    "lng": 141.1310891,
    "tel": "019-681-3152",
    "url": "https://m-dsj.co.jp/nursing/",
    "pref": "岩手県",
    "city": "盛岡市",
    "category": "community_day_service",
    "serviceType": "地域密着型通所介護",
    "capacity": 130,
    "openDays": [
      "平日",
      "祝日"
    ],
    "openDaysNote": "夏季休暇：8月13日～8月16日（改行）年末年始休暇：12月30日～1月3日"
  },
  {
    "id": "390100477",
    "name": "アースサポート盛岡",
    "kana": "アースサポートモリオカ",
    "address": "岩手県盛岡市厨川1丁目16番3号",
    "lat": 39.7447535,
    "lng": 141.1303848,
    "tel": "019-643-8111",
    "url": "http://www.earthsupport.co.jp",
    "pref": "岩手県",
    "city": "盛岡市",
    "category": "community_day_service",
    "serviceType": "地域密着型通所介護",
    "capacity": 0,
    "openDays": [
      "平日",
      "土曜日",
      "祝日"
    ],
    "openDaysNote": ""
  },
  {
    "id": "370102030",
    "name": "あおぞらデイサービス",
    "kana": "アオゾラデイサービス",
    "address": "岩手県盛岡市津志田町一丁目15番37号",
    "lat": 39.6680375,
    "lng": 141.15336,
    "tel": "019-631-2011",
    "url": "http://medical-sp.jp/",
    "pref": "岩手県",
    "city": "盛岡市",
    "category": "community_day_service",
    "serviceType": "地域密着型通所介護",
    "capacity": 0,
    "openDays": [
      "平日",
      "祝日"
    ],
    "openDaysNote": "年末年始（12/30～1/3）は休み"
  },
  {
    "id": "390100816",
    "name": "あったかいごデイサービス黒川",
    "kana": "アッタカイゴデイサービスクロカワ",
    "address": "岩手県盛岡市黒川18-99",
    "lat": 39.6268644416801,
    "lng": 141.186434748407,
    "tel": "019-681-8172",
    "url": "https://sankyo-ika.jp/pages/126/",
    "pref": "岩手県",
    "city": "盛岡市",
    "category": "community_day_service",
    "serviceType": "地域密着型通所介護",
    "capacity": 6,
    "openDays": [
      "平日",
      "土曜日",
      "祝日"
    ],
    "openDaysNote": ""
  },
  {
    "id": "370102725",
    "name": "あっとほーむだんらん",
    "kana": "アットホームダンラン",
    "address": "岩手県盛岡市三本柳13-39-4",
    "lat": 39.6546806,
    "lng": 141.1682039,
    "tel": "019-656-8051",
    "url": "http://www.f-t-c.jp/danran/",
    "pref": "岩手県",
    "city": "盛岡市",
    "category": "community_day_service",
    "serviceType": "地域密着型通所介護",
    "capacity": 0,
    "openDays": [
      "平日",
      "土曜日",
      "祝日"
    ],
    "openDaysNote": ""
  },
  {
    "id": "370105884",
    "name": "きさいや",
    "kana": "キサイヤ",
    "address": "岩手県盛岡市みたけ六丁目11番40号",
    "lat": 39.7442311,
    "lng": 141.1167748,
    "tel": "019-656-8172",
    "url": "http://rashikuinctds06kisaiya.web.fc2.com/",
    "pref": "岩手県",
    "city": "盛岡市",
    "category": "community_day_service",
    "serviceType": "地域密着型通所介護",
    "capacity": 0,
    "openDays": [
      "平日",
      "祝日"
    ],
    "openDaysNote": ""
  },
  {
    "id": "370102501",
    "name": "ケアセンター福寿の森",
    "kana": "ケアセンターフクジュノモリ",
    "address": "岩手県盛岡市本宮六丁目１番４７号",
    "lat": 39.6879587973748,
    "lng": 141.12538676627,
    "tel": "019-636-3039",
    "url": "http://www.kaigonomori.net/",
    "pref": "岩手県",
    "city": "盛岡市",
    "category": "community_day_service",
    "serviceType": "地域密着型通所介護",
    "capacity": 18,
    "openDays": [
      "平日",
      "祝日"
    ],
    "openDaysNote": ""
  },
  {
    "id": "370105041",
    "name": "ゲッツリハビリデイサービス",
    "kana": "ゲッツリハビリデイサービス",
    "address": "岩手県盛岡市津志田中央三丁目13番16号",
    "lat": 39.6624884445374,
    "lng": 141.151265257672,
    "tel": "019-613-5631",
    "url": "",
    "pref": "岩手県",
    "city": "盛岡市",
    "category": "community_day_service",
    "serviceType": "地域密着型通所介護",
    "capacity": 15,
    "openDays": [
      "平日",
      "祝日"
    ],
    "openDaysNote": "年末年始　１２月３０～１月３日（カレンダーによる）"
  },
  {
    "id": "370103905",
    "name": "セカンドライフはるかぜ",
    "kana": "セカンドライフハルカゼ",
    "address": "岩手県盛岡市永井19-197-6",
    "lat": 39.6489129422386,
    "lng": 141.144026536037,
    "tel": "019-681-2198",
    "url": "https://www.springbreeze-llc.com",
    "pref": "岩手県",
    "city": "盛岡市",
    "category": "community_day_service",
    "serviceType": "地域密着型通所介護",
    "capacity": 10,
    "openDays": [
      "平日",
      "土曜日",
      "日曜日",
      "祝日"
    ],
    "openDaysNote": ""
  },
  {
    "id": "370101495",
    "name": "ディーサービス　みずほの国",
    "kana": "ディーサービス　ミズホノクニ",
    "address": "岩手県盛岡市茶畑一丁目1番5号グリーンビレッジ盛岡Ａ棟101号 グリーンビレッジ盛岡Ａ棟101号",
    "lat": 39.6939346,
    "lng": 141.1612251,
    "tel": "019-625-6800",
    "url": "http://hp.kaipoke.biz/rk7/",
    "pref": "岩手県",
    "city": "盛岡市",
    "category": "community_day_service",
    "serviceType": "地域密着型通所介護",
    "capacity": 10,
    "openDays": [
      "平日",
      "土曜日",
      "祝日"
    ],
    "openDaysNote": "年末年始（12/31～1/3）　お盆（8/13～8/15）は休み"
  },
  {
    "id": "370104317",
    "name": "デイサービス　よろこび",
    "kana": "デイサービス　ヨロコビ",
    "address": "岩手県盛岡市三本柳２地割３２－１ケアヴィレッジよろこび ケアヴィレッジよろこび",
    "lat": 39.66616421179,
    "lng": 141.164810519049,
    "tel": "019-681-8071",
    "url": "",
    "pref": "岩手県",
    "city": "盛岡市",
    "category": "community_day_service",
    "serviceType": "地域密着型通所介護",
    "capacity": 0,
    "openDays": [
      "平日",
      "祝日"
    ],
    "openDaysNote": "１２月３１日～１月３日まで休業"
  },
  {
    "id": "370104150",
    "name": "デイサービス・きらら",
    "kana": "デイサービス・キララ",
    "address": "岩手県盛岡市箱清水一丁目４番１４号",
    "lat": 39.7319493,
    "lng": 141.1334737,
    "tel": "019-681-0880",
    "url": "",
    "pref": "岩手県",
    "city": "盛岡市",
    "category": "community_day_service",
    "serviceType": "地域密着型通所介護",
    "capacity": 0,
    "openDays": [
      "平日",
      "祝日"
    ],
    "openDaysNote": ""
  },
  {
    "id": "370104085",
    "name": "デイサービスおてんとさん",
    "kana": "デイサービスオテントサン",
    "address": "岩手県盛岡市中ノ橋通2丁目11番4号岩井ビル1階 岩井ビル1階",
    "lat": 39.6976176,
    "lng": 141.1622971,
    "tel": "019-653-0312",
    "url": "",
    "pref": "岩手県",
    "city": "盛岡市",
    "category": "community_day_service",
    "serviceType": "地域密着型通所介護",
    "capacity": 120,
    "openDays": [
      "平日",
      "土曜日",
      "日曜日",
      "祝日"
    ],
    "openDaysNote": "祝日も営業します。１２月２９日から１月３日の期間は休みです。"
  },
  {
    "id": "390100881",
    "name": "デイサービスぐっとなる",
    "kana": "デイサービスグットナル",
    "address": "岩手県盛岡市繋字湯ノ舘81-1",
    "lat": 39.6784875,
    "lng": 141.023847,
    "tel": "019-613-9011",
    "url": "https://guttonaru.moo.jp",
    "pref": "岩手県",
    "city": "盛岡市",
    "category": "community_day_service",
    "serviceType": "地域密着型通所介護",
    "capacity": null,
    "openDays": [
      "平日"
    ],
    "openDaysNote": "8月13日、12月31日～1月1日及び事業所が定める休業日を除く"
  },
  {
    "id": "370103723",
    "name": "デイサービスグランパもりおか",
    "kana": "デイサービスグランパモリオカ",
    "address": "岩手県盛岡市上田堤2丁目14-33",
    "lat": 39.7282507,
    "lng": 141.1518059,
    "tel": "019-665-1105",
    "url": "",
    "pref": "岩手県",
    "city": "盛岡市",
    "category": "community_day_service",
    "serviceType": "地域密着型通所介護",
    "capacity": 13,
    "openDays": [
      "平日",
      "土曜日",
      "日曜日",
      "祝日"
    ],
    "openDaysNote": ""
  },
  {
    "id": "390100576",
    "name": "デイサービスこずかたの家",
    "kana": "デイサービスコズカタノイエ",
    "address": "岩手県盛岡市下太田沢田23-2",
    "lat": 39.6986077,
    "lng": 141.1141764,
    "tel": "019-656-2622",
    "url": "http://airinkai.net",
    "pref": "岩手県",
    "city": "盛岡市",
    "category": "community_day_service",
    "serviceType": "地域密着型通所介護",
    "capacity": 15,
    "openDays": [
      "平日",
      "土曜日",
      "日曜日",
      "祝日"
    ],
    "openDaysNote": ""
  },
  {
    "id": "390100832",
    "name": "デイサービスこと",
    "kana": "デイサービスコト",
    "address": "岩手県盛岡市山岸６丁目20番23号",
    "lat": 39.7284269,
    "lng": 141.1707276,
    "tel": "019-681-6313",
    "url": "https://www.daichi-iwate.jp/",
    "pref": "岩手県",
    "city": "盛岡市",
    "category": "community_day_service",
    "serviceType": "地域密着型通所介護",
    "capacity": 10,
    "openDays": [
      "平日",
      "祝日"
    ],
    "openDaysNote": ""
  },
  {
    "id": "370102139",
    "name": "デイサービスしんぼくの家",
    "kana": "デイサービスシンボクノイエ",
    "address": "岩手県盛岡市中太田泉田８－１",
    "lat": 39.6969244,
    "lng": 141.1081742,
    "tel": "019-656-2501",
    "url": "",
    "pref": "岩手県",
    "city": "盛岡市",
    "category": "community_day_service",
    "serviceType": "地域密着型通所介護",
    "capacity": 10,
    "openDays": [
      "平日",
      "祝日"
    ],
    "openDaysNote": ""
  },
  {
    "id": "370105066",
    "name": "デイサービスそら",
    "kana": "デイサービスソラ",
    "address": "岩手県盛岡市南仙北1-9-32",
    "lat": 39.6762893,
    "lng": 141.1504961,
    "tel": "019-613-5300",
    "url": "",
    "pref": "岩手県",
    "city": "盛岡市",
    "category": "community_day_service",
    "serviceType": "地域密着型通所介護",
    "capacity": 9,
    "openDays": [
      "平日",
      "土曜日",
      "日曜日",
      "祝日"
    ],
    "openDaysNote": ""
  },
  {
    "id": "370104416",
    "name": "デイサービスはるかぜの丘",
    "kana": "デイサービスハルカゼノオカ",
    "address": "岩手県盛岡市上堂４丁目2-78",
    "lat": 39.7303133,
    "lng": 141.1255161,
    "tel": "019-601-5233",
    "url": "",
    "pref": "岩手県",
    "city": "盛岡市",
    "category": "community_day_service",
    "serviceType": "地域密着型通所介護",
    "capacity": 0,
    "openDays": [
      "平日",
      "土曜日",
      "日曜日",
      "祝日"
    ],
    "openDaysNote": "なし"
  },
  {
    "id": "370103202",
    "name": "デイサービスはるかぜの詩",
    "kana": "デイサービスハルカゼノウタ",
    "address": "岩手県盛岡市上堂３丁目１６番１９号",
    "lat": 39.7285385,
    "lng": 141.1289353,
    "tel": "019-648-6570",
    "url": "",
    "pref": "岩手県",
    "city": "盛岡市",
    "category": "community_day_service",
    "serviceType": "地域密着型通所介護",
    "capacity": 0,
    "openDays": [
      "平日",
      "土曜日",
      "日曜日",
      "祝日"
    ],
    "openDaysNote": ""
  },
  {
    "id": "370104101",
    "name": "デイサービスはるかぜの笑",
    "kana": "デイサービスハルカゼノエミ",
    "address": "岩手県盛岡市上堂三丁目12-2",
    "lat": 39.7263359,
    "lng": 141.1279466,
    "tel": "019-645-2002",
    "url": "",
    "pref": "岩手県",
    "city": "盛岡市",
    "category": "community_day_service",
    "serviceType": "地域密着型通所介護",
    "capacity": 0,
    "openDays": [
      "平日",
      "土曜日",
      "日曜日",
      "祝日"
    ],
    "openDaysNote": ""
  },
  {
    "id": "390100717",
    "name": "デイサービスふきのとう小鳥沢",
    "kana": "デイサービスフキノトウコトリザワ",
    "address": "岩手県盛岡市小鳥沢一丁目31-20",
    "lat": 39.7631526,
    "lng": 141.1644902,
    "tel": "019-656-9126",
    "url": "https://emuzu-fukinotou.co.jp",
    "pref": "岩手県",
    "city": "盛岡市",
    "category": "community_day_service",
    "serviceType": "地域密着型通所介護",
    "capacity": null,
    "openDays": [
      "平日",
      "土曜日",
      "祝日"
    ],
    "openDaysNote": ""
  },
  {
    "id": "370105520",
    "name": "デイサービスプリンセス",
    "kana": "デイサービスプリンセス",
    "address": "岩手県盛岡市天昌寺町7番18号",
    "lat": 39.7115408,
    "lng": 141.1195369,
    "tel": "019-681-0352",
    "url": "",
    "pref": "岩手県",
    "city": "盛岡市",
    "category": "community_day_service",
    "serviceType": "地域密着型通所介護",
    "capacity": 15,
    "openDays": [
      "平日",
      "土曜日",
      "祝日"
    ],
    "openDaysNote": "年末年始　12月30日～1月3日（改行）お盆休み　8月14日～8月16日"
  },
  {
    "id": "390100840",
    "name": "デイサービスまったり",
    "kana": "デイサービスマッタリ",
    "address": "岩手県盛岡市西見前15地割95ー1",
    "lat": 39.6449433,
    "lng": 141.1635312,
    "tel": "019-613-4261",
    "url": "http://kawatou2020.com/",
    "pref": "岩手県",
    "city": "盛岡市",
    "category": "community_day_service",
    "serviceType": "地域密着型通所介護",
    "capacity": 0,
    "openDays": [
      "平日",
      "土曜日",
      "日曜日",
      "祝日"
    ],
    "openDaysNote": ""
  },
  {
    "id": "370103871",
    "name": "デイサービスみにとまと",
    "kana": "デイサービスミニトマト",
    "address": "岩手県盛岡市浅岸3丁目19-16",
    "lat": 39.6490533,
    "lng": 141.1621298,
    "tel": "019-681-7489",
    "url": "https://www.daichi-iwate.jp/",
    "pref": "岩手県",
    "city": "盛岡市",
    "category": "community_day_service",
    "serviceType": "地域密着型通所介護",
    "capacity": 10,
    "openDays": [
      "平日",
      "土曜日",
      "日曜日",
      "祝日"
    ],
    "openDaysNote": ""
  },
  {
    "id": "370104341",
    "name": "デイサービスやまぼうし桜台",
    "kana": "デイサービスヤマボウシサクラダイ",
    "address": "岩手県盛岡市桜台２－１８－４",
    "lat": 39.749535715121,
    "lng": 141.197184500525,
    "tel": "019-667-1977",
    "url": "http://www.s-yamaboshi.com/",
    "pref": "岩手県",
    "city": "盛岡市",
    "category": "community_day_service",
    "serviceType": "地域密着型通所介護",
    "capacity": 18,
    "openDays": [
      "平日",
      "土曜日",
      "日曜日",
      "祝日"
    ],
    "openDaysNote": "年中無休で営業しています。"
  },
  {
    "id": "370104424",
    "name": "デイサービス愛語",
    "kana": "デイサービスアイゴ",
    "address": "岩手県盛岡市東黒石野１丁目１４番４号",
    "lat": 39.7455841,
    "lng": 141.1526771,
    "tel": "019-601-5699",
    "url": "",
    "pref": "岩手県",
    "city": "盛岡市",
    "category": "community_day_service",
    "serviceType": "地域密着型通所介護",
    "capacity": 15,
    "openDays": [
      "平日",
      "土曜日",
      "日曜日",
      "祝日"
    ],
    "openDaysNote": ""
  },
  {
    "id": "370102436",
    "name": "デイサービス言葉のかけ橋",
    "kana": "デイサービスコトバノカケハシ",
    "address": "岩手県盛岡市中ノ橋通１丁目13－15",
    "lat": 39.6993367,
    "lng": 141.1581225,
    "tel": "019-651-1017",
    "url": "https://kotoba-kakehashi",
    "pref": "岩手県",
    "city": "盛岡市",
    "category": "community_day_service",
    "serviceType": "地域密着型通所介護",
    "capacity": 18,
    "openDays": [
      "平日",
      "祝日"
    ],
    "openDaysNote": "夏季休業8/13～8/17、冬季休業12/31～1/3"
  },
  {
    "id": "390100600",
    "name": "デイサービス高原列車２両目",
    "kana": "デイサービスコウゲンレッシャニリョウメ",
    "address": "岩手県盛岡市本宮2丁目2-28",
    "lat": 39.6915939,
    "lng": 141.1376997,
    "tel": "019-613-3135",
    "url": "",
    "pref": "岩手県",
    "city": "盛岡市",
    "category": "community_day_service",
    "serviceType": "地域密着型通所介護",
    "capacity": 0,
    "openDays": [
      "平日",
      "土曜日",
      "祝日"
    ],
    "openDaysNote": ""
  },
  {
    "id": "370104721",
    "name": "デイサービス心笑",
    "kana": "デイサービスココロエ",
    "address": "岩手県盛岡市山岸4丁目10番45号サービス付き高齢者向け住宅十人十色 サービス付き高齢者向け住宅十人十色",
    "lat": 39.7195625,
    "lng": 141.1710235,
    "tel": "019-601-5346",
    "url": "http://jyunintoiro-cocoroe.com/",
    "pref": "岩手県",
    "city": "盛岡市",
    "category": "community_day_service",
    "serviceType": "地域密着型通所介護",
    "capacity": 18,
    "openDays": [
      "平日",
      "土曜日",
      "祝日"
    ],
    "openDaysNote": ""
  },
  {
    "id": "370103988",
    "name": "デイサービス縄文の郷・ゆう",
    "kana": "ディサービスジョウモンノサト・ユウ",
    "address": "岩手県盛岡市上田字松屋敷33-3縄文の郷・ゆう 縄文の郷・ゆう",
    "lat": 39.7550013413234,
    "lng": 141.155209157672,
    "tel": "019-656-8007",
    "url": "https://lifecare-u.com/",
    "pref": "岩手県",
    "city": "盛岡市",
    "category": "community_day_service",
    "serviceType": "地域密着型通所介護",
    "capacity": 18,
    "openDays": [
      "平日",
      "土曜日",
      "祝日"
    ],
    "openDaysNote": ""
  },
  {
    "id": "370105793",
    "name": "ななかまど通所介護事業所",
    "kana": "ナナカマドツウショカイゴジギョウショ",
    "address": "岩手県盛岡市中央通2丁目5-5",
    "lat": 39.7062022,
    "lng": 141.1457289,
    "tel": "019-624-0165",
    "url": "http://www.kouwa.iwate.jp/",
    "pref": "岩手県",
    "city": "盛岡市",
    "category": "community_day_service",
    "serviceType": "地域密着型通所介護",
    "capacity": 18,
    "openDays": [
      "平日",
      "土曜日",
      "祝日"
    ],
    "openDaysNote": ""
  },
  {
    "id": "370103301",
    "name": "ふらダンスのデイ「ふくろうの家」",
    "kana": "フラダンスノデイ「フクロウノイエ」",
    "address": "岩手県盛岡市南青山町１９－２４",
    "lat": 39.719425,
    "lng": 141.1095012,
    "tel": "019-647-9622",
    "url": "",
    "pref": "岩手県",
    "city": "盛岡市",
    "category": "community_day_service",
    "serviceType": "地域密着型通所介護",
    "capacity": 0,
    "openDays": [
      "平日",
      "土曜日",
      "日曜日",
      "祝日"
    ],
    "openDaysNote": ""
  },
  {
    "id": "370102493",
    "name": "ふれあいサロン茶愛",
    "kana": "フレアイサロンチャオ",
    "address": "岩手県盛岡市三本柳23-9-79",
    "lat": 39.6468592,
    "lng": 141.1688321,
    "tel": "019-613-6320",
    "url": "",
    "pref": "岩手県",
    "city": "盛岡市",
    "category": "community_day_service",
    "serviceType": "地域密着型通所介護",
    "capacity": 10,
    "openDays": [
      "平日",
      "土曜日",
      "祝日"
    ],
    "openDaysNote": ""
  },
  {
    "id": "390100857",
    "name": "ほっとデイサービス青山",
    "kana": "ホットデイサービスアオヤマ",
    "address": "岩手県盛岡市西青山2丁目1番18号",
    "lat": 39.7259086,
    "lng": 141.1102562,
    "tel": "019-681-8746",
    "url": "http://life-escort.com/aoyama/",
    "pref": "岩手県",
    "city": "盛岡市",
    "category": "community_day_service",
    "serviceType": "地域密着型通所介護",
    "capacity": null,
    "openDays": [
      "平日",
      "土曜日",
      "日曜日",
      "祝日"
    ],
    "openDaysNote": ""
  },
  {
    "id": "390100485",
    "name": "めぐみデイサービス",
    "kana": "メグミデイサービス",
    "address": "岩手県盛岡市上田3丁目11-43",
    "lat": 39.7181238,
    "lng": 141.139508,
    "tel": "019-681-3034",
    "url": "",
    "pref": "岩手県",
    "city": "盛岡市",
    "category": "community_day_service",
    "serviceType": "地域密着型通所介護",
    "capacity": 0,
    "openDays": [
      "平日",
      "祝日"
    ],
    "openDaysNote": "年末年始の休みは当社カレンダーによる"
  },
  {
    "id": "390100758",
    "name": "めぐみデイサービス高松",
    "kana": "メグミデイサービスタカマツ",
    "address": "岩手県盛岡市高松4丁目7-93",
    "lat": 39.7284166,
    "lng": 141.1323804,
    "tel": "019-681-8825",
    "url": "",
    "pref": "岩手県",
    "city": "盛岡市",
    "category": "community_day_service",
    "serviceType": "地域密着型通所介護",
    "capacity": 0,
    "openDays": [
      "平日",
      "祝日"
    ],
    "openDaysNote": ""
  },
  {
    "id": "390100808",
    "name": "リハビリデイサービスうららか日和",
    "kana": "リハビリデイサービスウララカビヨリ",
    "address": "岩手県盛岡市上田3丁目11番29号メゾンヒラノ102 メゾンヒラノ102",
    "lat": 39.7177728890854,
    "lng": 141.138359243053,
    "tel": "019-613-3837",
    "url": "https://ulalaka-biyori.jimdofree.com",
    "pref": "岩手県",
    "city": "盛岡市",
    "category": "community_day_service",
    "serviceType": "地域密着型通所介護",
    "capacity": null,
    "openDays": [
      "平日",
      "祝日"
    ],
    "openDaysNote": "夏季休暇(8月13日～8月15日)、冬期休暇(12月30日～1月3日)あり"
  },
  {
    "id": "390100543",
    "name": "レコードブック盛岡神明",
    "kana": "レコードブックモリオカシンメイ",
    "address": "岩手県盛岡市神明町6－21グリーンヒル豊明Ⅱ1F グリーンヒル豊明Ⅱ1F",
    "lat": 39.7009699,
    "lng": 141.1589612,
    "tel": "019-681-8763",
    "url": "http://www.recordbook.jp",
    "pref": "岩手県",
    "city": "盛岡市",
    "category": "community_day_service",
    "serviceType": "地域密着型通所介護",
    "capacity": 0,
    "openDays": [
      "平日",
      "祝日"
    ],
    "openDaysNote": ""
  },
  {
    "id": "370105678",
    "name": "レッツ倶楽部盛岡",
    "kana": "レッツクラブモリオカ",
    "address": "岩手県盛岡市前九年二丁目1番12号",
    "lat": 39.7160342,
    "lng": 141.1287885,
    "tel": "019-613-5385",
    "url": "http://www.lets-club.jp/shop/morioka/",
    "pref": "岩手県",
    "city": "盛岡市",
    "category": "community_day_service",
    "serviceType": "地域密着型通所介護",
    "capacity": 18,
    "openDays": [
      "平日",
      "祝日"
    ],
    "openDaysNote": "年末年始休業日（12/29～1/3）"
  },
  {
    "id": "370104218",
    "name": "四葉デイサービスセンター",
    "kana": "ヨツバデイサービスセンター",
    "address": "岩手県盛岡市高松３丁目６番１９号",
    "lat": 39.7268447,
    "lng": 141.1392101,
    "tel": "019-661-0220",
    "url": "",
    "pref": "岩手県",
    "city": "盛岡市",
    "category": "community_day_service",
    "serviceType": "地域密着型通所介護",
    "capacity": 0,
    "openDays": [
      "平日",
      "土曜日",
      "祝日"
    ],
    "openDaysNote": ""
  },
  {
    "id": "390100691",
    "name": "盛岡地域福祉センター",
    "kana": "モリオカチイキフクシセンター",
    "address": "岩手県盛岡市手代森14地割16番地89",
    "lat": 39.6526787,
    "lng": 141.1851936,
    "tel": "019-696-5640",
    "url": "http://www.morioka-fukushi.jp/chiiki/chiiki/",
    "pref": "岩手県",
    "city": "盛岡市",
    "category": "community_day_service",
    "serviceType": "地域密着型通所介護",
    "capacity": 0,
    "openDays": [
      "平日",
      "土曜日",
      "祝日"
    ],
    "openDaysNote": "12月～2月の冬期間は、日没による足元の暗さや積雪時や凍結時の路面状況を考慮し利用時間を15分短縮し、9時30分～15時45分の営業時間とします。"
  },
  {
    "id": "370104184",
    "name": "地域密着型通所介護となんの郷",
    "kana": "チイキミッチャクガタツウショカイゴトナンノサト",
    "address": "岩手県盛岡市三本柳10地割17番地51",
    "lat": 39.6533971,
    "lng": 141.1617334,
    "tel": "019-681-6872",
    "url": "",
    "pref": "岩手県",
    "city": "盛岡市",
    "category": "community_day_service",
    "serviceType": "地域密着型通所介護",
    "capacity": 7,
    "openDays": [
      "平日",
      "土曜日",
      "祝日"
    ],
    "openDaysNote": "夏休み：8月14日～16日（改行）冬休み：12月29日～1月3日"
  },
  {
    "id": "370103350",
    "name": "茶話本舗デイサービス永井之家",
    "kana": "サワホンポデイサービスナガイノイエ",
    "address": "岩手県盛岡市永井22-3-192",
    "lat": 39.6547109020747,
    "lng": 141.155822685567,
    "tel": "019-656-0030",
    "url": "https://carenation.jp/facitilies/%e3%83%87%e3%82%a4%e3%82%b5%ef%bc%8d%e3%83%93%e3%82%b9%e6%b0%b8%e4%ba%95%e4%b9%8b%e5%ae%b6/",
    "pref": "岩手県",
    "city": "盛岡市",
    "category": "community_day_service",
    "serviceType": "地域密着型通所介護",
    "capacity": 0,
    "openDays": [
      "平日",
      "土曜日",
      "日曜日",
      "祝日"
    ],
    "openDaysNote": ""
  },
  {
    "id": "370103194",
    "name": "茶話本舗デイサービス山岸之家",
    "kana": "サワホンポデイサービスヤマギシノイエ",
    "address": "岩手県盛岡市山岸5-9-37",
    "lat": 39.7194945068069,
    "lng": 141.166442694443,
    "tel": "019-658-8240",
    "url": "https://carenation.jp/facitilies/デイサービス山岸之家/",
    "pref": "岩手県",
    "city": "盛岡市",
    "category": "community_day_service",
    "serviceType": "地域密着型通所介護",
    "capacity": 0,
    "openDays": [
      "平日",
      "土曜日",
      "日曜日",
      "祝日"
    ],
    "openDaysNote": ""
  },
  {
    "id": "370103855",
    "name": "茶話本舗デイサービス西下台之家",
    "kana": "サワホンポデイサービスニシシタダイノイエ",
    "address": "岩手県盛岡市西下台町10-40",
    "lat": 39.713459759459,
    "lng": 141.134449728836,
    "tel": "019-681-2230",
    "url": "https://carenation.jp/facitilies/デイサービス西下台之家/",
    "pref": "岩手県",
    "city": "盛岡市",
    "category": "community_day_service",
    "serviceType": "地域密着型通所介護",
    "capacity": 0,
    "openDays": [
      "平日",
      "土曜日",
      "日曜日",
      "祝日"
    ],
    "openDaysNote": ""
  },
  {
    "id": "370101537",
    "name": "中央ケアサービス指定通所介護事業所",
    "kana": "チュウオウケアサービスシテイツウショカイゴジギョウショ",
    "address": "岩手県盛岡市松尾町２－３",
    "lat": 39.6960843,
    "lng": 141.1573365,
    "tel": "019-652-5255",
    "url": "http://care-net.biz/03/helper",
    "pref": "岩手県",
    "city": "盛岡市",
    "category": "community_day_service",
    "serviceType": "地域密着型通所介護",
    "capacity": 0,
    "openDays": [
      "平日",
      "祝日"
    ],
    "openDaysNote": ""
  },
  {
    "id": "390100584",
    "name": "通所介護事業所ななかまど津志田",
    "kana": "ツウショカイゴジギョウショナナカマドツシダ",
    "address": "岩手県盛岡市津志田町３丁目６－１５",
    "lat": 39.6651393,
    "lng": 141.152129,
    "tel": "019-601-3535",
    "url": "http://www.kouwa.iwate.jp/",
    "pref": "岩手県",
    "city": "盛岡市",
    "category": "community_day_service",
    "serviceType": "地域密着型通所介護",
    "capacity": 290,
    "openDays": [
      "平日",
      "土曜日",
      "祝日"
    ],
    "openDaysNote": ""
  },
  {
    "id": "370105199",
    "name": "通所介護事業所桜",
    "kana": "ツウショカイゴジギョウショサクラ",
    "address": "岩手県盛岡市向中野五丁目１２番１０号住宅型有料老人ホーム桜 住宅型有料老人ホーム桜",
    "lat": 39.6780109,
    "lng": 141.1365584,
    "tel": "019-601-8477",
    "url": "http://mmkenji53.wix.com/mukai",
    "pref": "岩手県",
    "city": "盛岡市",
    "category": "community_day_service",
    "serviceType": "地域密着型通所介護",
    "capacity": 10,
    "openDays": [
      "平日",
      "祝日"
    ],
    "openDaysNote": ""
  },
  {
    "id": "370102014",
    "name": "徳寿の森デイサービスセンター",
    "kana": "トクジュノモリデイサービスセンター",
    "address": "岩手県盛岡市厨川５丁目１３番２５号徳寿の森 徳寿の森",
    "lat": 39.7514638,
    "lng": 141.1287319,
    "tel": "019-648-5700",
    "url": "http://www.kaigonomori.net/",
    "pref": "岩手県",
    "city": "盛岡市",
    "category": "community_day_service",
    "serviceType": "地域密着型通所介護",
    "capacity": 15,
    "openDays": [
      "平日",
      "祝日"
    ],
    "openDaysNote": "月曜日～金曜日にあたる祝日であれば営業"
  },
  {
    "id": "370105942",
    "name": "幼老統合施設Cocoa（デイサービス）",
    "kana": "ヨウロウトウゴウシセツココア（デイサービス）",
    "address": "岩手県盛岡市北飯岡四丁目8番45号",
    "lat": 39.6700839,
    "lng": 141.1331867,
    "tel": "019-614-0830",
    "url": "https://www.aogiri.org/cocoa/",
    "pref": "岩手県",
    "city": "盛岡市",
    "category": "community_day_service",
    "serviceType": "地域密着型通所介護",
    "capacity": 22,
    "openDays": [
      "平日"
    ],
    "openDaysNote": "営業時間：11月～3月　8時45分～17時00分"
  },
  {
    "id": "370105801",
    "name": "和音デイサービス手代森",
    "kana": "ワオンデイサービステシロモリ",
    "address": "岩手県盛岡市手代森14地割16-122",
    "lat": 39.6522141,
    "lng": 141.1839828,
    "tel": "019-613-7588",
    "url": "",
    "pref": "岩手県",
    "city": "盛岡市",
    "category": "community_day_service",
    "serviceType": "地域密着型通所介護",
    "capacity": 0,
    "openDays": [
      "平日",
      "土曜日",
      "日曜日",
      "祝日"
    ],
    "openDaysNote": ""
  },
  {
    "id": "370300345",
    "name": "うえのケアサービスセンター",
    "kana": "ウエノケアサービスセンター",
    "address": "岩手県大船渡市立根町字桑原２３番地４",
    "lat": 39.1067372,
    "lng": 141.7117871,
    "tel": "0192-26-3313",
    "url": "http://info-ueno.jp/",
    "pref": "岩手県",
    "city": "大船渡市",
    "category": "community_day_service",
    "serviceType": "地域密着型通所介護",
    "capacity": 10,
    "openDays": [
      "平日",
      "土曜日"
    ],
    "openDaysNote": ""
  },
  {
    "id": "370300394",
    "name": "デイサービスセンター「綾の里」",
    "kana": "デイサービスセンターアヤノサト",
    "address": "岩手県大船渡市三陸町字清水125番地2",
    "lat": 39.0544095480752,
    "lng": 141.7969765559,
    "tel": "0192-43-5026",
    "url": "",
    "pref": "岩手県",
    "city": "大船渡市",
    "category": "community_day_service",
    "serviceType": "地域密着型通所介護",
    "capacity": 2,
    "openDays": [
      "平日",
      "祝日"
    ],
    "openDaysNote": "悪天候・自然災害発生時は提供時間の変更等があります。"
  },
  {
    "id": "370300535",
    "name": "デイサービスセンターとまり",
    "kana": "デイサービスセンタートマリ",
    "address": "岩手県大船渡市三陸町越喜来字井戸洞2-2",
    "lat": 39.1090229,
    "lng": 141.8035509,
    "tel": "0192-43-1131",
    "url": "http://cosumosu.wp.xdomain.jp/",
    "pref": "岩手県",
    "city": "大船渡市",
    "category": "community_day_service",
    "serviceType": "地域密着型通所介護",
    "capacity": 10,
    "openDays": [
      "平日",
      "祝日"
    ],
    "openDaysNote": "ただし、希望があれば相談に応じます。"
  },
  {
    "id": "370300485",
    "name": "リハビリ型デイサービスふくろう機能訓練センター",
    "kana": "リハビリガタデイサービスフクロウキノウクンレンセンター",
    "address": "岩手県大船渡市猪川町字下権現堂1-20",
    "lat": 39.0926787287835,
    "lng": 141.709269142992,
    "tel": "0192-27-8722",
    "url": "",
    "pref": "岩手県",
    "city": "大船渡市",
    "category": "community_day_service",
    "serviceType": "地域密着型通所介護",
    "capacity": 10,
    "openDays": [
      "平日",
      "土曜日"
    ],
    "openDaysNote": ""
  },
  {
    "id": "370300097",
    "name": "気仙デイサービスセンター「ぬくもり」",
    "kana": "ケセンデイサービスセンター「ヌクモリ」",
    "address": "岩手県大船渡市大船渡町字山馬越196",
    "lat": 39.0706942,
    "lng": 141.7113885,
    "tel": "0192-27-8635",
    "url": "http://www.tenjinkai.com",
    "pref": "岩手県",
    "city": "大船渡市",
    "category": "community_day_service",
    "serviceType": "地域密着型通所介護",
    "capacity": null,
    "openDays": [
      "平日",
      "土曜日",
      "日曜日",
      "祝日"
    ],
    "openDaysNote": ""
  },
  {
    "id": "390300150",
    "name": "地域密着型デイサービスセンターであいの樹",
    "kana": "チイキミッチャクガタデイサービスセンターデアイノキ",
    "address": "岩手県大船渡市立根町字中野２７番地８",
    "lat": 39.1108731,
    "lng": 141.7155033,
    "tel": "0192-47-3042",
    "url": "",
    "pref": "岩手県",
    "city": "大船渡市",
    "category": "community_day_service",
    "serviceType": "地域密着型通所介護",
    "capacity": 0,
    "openDays": [
      "平日"
    ],
    "openDaysNote": ""
  },
  {
    "id": "390300168",
    "name": "末崎町デイサービスセンター「にぎわい」",
    "kana": "マッサキチョウデイサービスセンター「ニギワイ」",
    "address": "岩手県大船渡市末崎町字平林48番地1",
    "lat": 39.0057141,
    "lng": 141.7121419,
    "tel": "0192-22-1025",
    "url": "",
    "pref": "岩手県",
    "city": "大船渡市",
    "category": "community_day_service",
    "serviceType": "地域密着型通所介護",
    "capacity": null,
    "openDays": [
      "平日",
      "祝日"
    ],
    "openDaysNote": ""
  },
  {
    "id": "392900080",
    "name": "ゆーらっぷデイサービスセンター",
    "kana": "ユーラップデイサービスセンター",
    "address": "上閉伊郡大槌町吉里吉里第32地割18番25",
    "lat": 39.3687493,
    "lng": 141.9429878,
    "tel": "0193-44-2121",
    "url": "http://tsutsumifukushikai.jp",
    "pref": "岩手県",
    "city": "大槌町",
    "category": "community_day_service",
    "serviceType": "地域密着型通所介護",
    "capacity": 0,
    "openDays": [
      "平日",
      "祝日"
    ],
    "openDaysNote": ""
  },
  {
    "id": "392900049",
    "name": "大ケ口デイサービスセンター",
    "kana": "オガグチデイサービスセンター",
    "address": "岩手県上閉伊郡大槌町大ヶ口2丁目100-1",
    "lat": 39.3753875587309,
    "lng": 141.885875204923,
    "tel": "0193-41-2072",
    "url": "http://tsutsumifukushikai.jp/",
    "pref": "岩手県",
    "city": "大槌町",
    "category": "community_day_service",
    "serviceType": "地域密着型通所介護",
    "capacity": 0,
    "openDays": [
      "平日",
      "祝日"
    ],
    "openDaysNote": ""
  },
  {
    "id": "372900258",
    "name": "大槌地域福祉事業所地域共生ホームねまれや",
    "kana": "オオツチチイキフクシジギョウショチイキキョウセイホームネマレヤ",
    "address": "岩手県上閉伊郡大槌町大ヶ口二丁目9-26",
    "lat": 39.3747322352938,
    "lng": 141.885235820984,
    "tel": "0193-55-4495",
    "url": "",
    "pref": "岩手県",
    "city": "大槌町",
    "category": "community_day_service",
    "serviceType": "地域密着型通所介護",
    "capacity": 0,
    "openDays": [
      "平日"
    ],
    "openDaysNote": ""
  },
  {
    "id": "372900134",
    "name": "大槌町デイサービスセンターはまぎく",
    "kana": "オオツチチョウデイサービスセンターハマギク",
    "address": "岩手県上閉伊郡大槌町小鎚23-86-4",
    "lat": 39.357322355632,
    "lng": 141.880343911439,
    "tel": "0193-42-2059",
    "url": "https://www.otsuchi-shakyo.jp/",
    "pref": "岩手県",
    "city": "大槌町",
    "category": "community_day_service",
    "serviceType": "地域密着型通所介護",
    "capacity": 0,
    "openDays": [
      "平日",
      "土曜日",
      "祝日"
    ],
    "openDaysNote": "悪天候、非常災害時の場合は営業を中止することがあります。（改行）土曜日を定休日に定めてはおりませんが、通常、土曜日の営業はしておりません。臨時的に営業する場合があります。"
  },
  {
    "id": "372100990",
    "name": "ディサービス今が一番館",
    "kana": "デイサービスイマガイチバンカン",
    "address": "岩手県滝沢市妻の神157番地3",
    "lat": 39.7752588,
    "lng": 141.1462157,
    "tel": "019-688-6622",
    "url": "http://www.imagaichibankan.jp/",
    "pref": "岩手県",
    "city": "滝沢市",
    "category": "community_day_service",
    "serviceType": "地域密着型通所介護",
    "capacity": 18,
    "openDays": [
      "平日",
      "祝日"
    ],
    "openDaysNote": ""
  },
  {
    "id": "372101899",
    "name": "にこにこリハビリデイサービス巣子る～む",
    "kana": "ニコニコリハビリデイサービススゴル～ム",
    "address": "岩手県滝沢市葉の木沢山505-7",
    "lat": 39.7762837,
    "lng": 141.1443274,
    "tel": "019-601-9804",
    "url": "",
    "pref": "岩手県",
    "city": "滝沢市",
    "category": "community_day_service",
    "serviceType": "地域密着型通所介護",
    "capacity": 10,
    "openDays": [
      "平日",
      "祝日"
    ],
    "openDaysNote": "GW、お盆、年末年始はお休みします。"
  },
  {
    "id": "372101055",
    "name": "松実会指定通所介護事業所",
    "kana": "ショウジツカイシテイツウショカイゴジギョウショ",
    "address": "岩手県滝沢市巣子732-2",
    "lat": 39.7828747116354,
    "lng": 141.138914976782,
    "tel": "019-694-1311",
    "url": "http://www.shoujitsukai.or.jp",
    "pref": "岩手県",
    "city": "滝沢市",
    "category": "community_day_service",
    "serviceType": "地域密着型通所介護",
    "capacity": 0,
    "openDays": [
      "平日",
      "祝日"
    ],
    "openDaysNote": ""
  },
  {
    "id": "373000249",
    "name": "田野畑村デイサービスセンター",
    "kana": "タノハタムラデイサービスセンター",
    "address": "岩手県下閉伊郡田野畑村田野畑120番地18",
    "lat": 39.9320084,
    "lng": 141.8938176,
    "tel": "0194-37-1126",
    "url": "http://www.jyuseikai.jp/",
    "pref": "岩手県",
    "city": "田野畑村",
    "category": "community_day_service",
    "serviceType": "地域密着型通所介護",
    "capacity": 0,
    "openDays": [
      "平日",
      "祝日"
    ],
    "openDaysNote": ""
  },
  {
    "id": "371400193",
    "name": "デイサービスあさひ",
    "kana": "デイサービスアサヒ",
    "address": "岩手県八幡平市松尾寄木第1地割135番地2",
    "lat": 39.9148509,
    "lng": 141.0402386,
    "tel": "0195-75-1156",
    "url": "",
    "pref": "岩手県",
    "city": "八幡平市",
    "category": "community_day_service",
    "serviceType": "地域密着型通所介護",
    "capacity": 0,
    "openDays": [
      "平日",
      "祝日"
    ],
    "openDaysNote": ""
  },
  {
    "id": "373200104",
    "name": "りんどう苑デイサービスセンター",
    "kana": "リンドウエンデイサービスセンター",
    "address": "岩手県八幡平市丑山口27番地5",
    "lat": 40.1358539,
    "lng": 140.9536826,
    "tel": "0195-73-2722",
    "url": "https://www.ashirokai.jp/",
    "pref": "岩手県",
    "city": "八幡平市",
    "category": "community_day_service",
    "serviceType": "地域密着型通所介護",
    "capacity": 0,
    "openDays": [
      "平日",
      "祝日"
    ],
    "openDaysNote": "行事等によって営業日を変更する場合もあります。"
  },
  {
    "id": "371400136",
    "name": "松川の家",
    "kana": "マツカワノイエ",
    "address": "岩手県八幡平市大更第1地割13番地1",
    "lat": 39.8835441,
    "lng": 141.0921486,
    "tel": "0195-75-0300",
    "url": "https://matukawanoie.com",
    "pref": "岩手県",
    "city": "八幡平市",
    "category": "community_day_service",
    "serviceType": "地域密着型通所介護",
    "capacity": null,
    "openDays": [
      "平日",
      "土曜日",
      "日曜日",
      "祝日"
    ],
    "openDaysNote": ""
  },
  {
    "id": "392600052",
    "name": "リハトレしづか亭",
    "kana": "リハトレシヅカテイ",
    "address": "岩手県西磐井郡平泉町平泉字長倉10-5",
    "lat": 38.9919330730157,
    "lng": 141.051079141139,
    "tel": "0191-34-2211",
    "url": "",
    "pref": "岩手県",
    "city": "平泉町",
    "category": "community_day_service",
    "serviceType": "地域密着型通所介護",
    "capacity": null,
    "openDays": [
      "平日"
    ],
    "openDaysNote": "問合せや相談等には、毎日24時間（1年365日）対応しております。"
  },
  {
    "id": "370601304",
    "name": "しんまちリハビリデイサービス",
    "kana": "シンマチリハビリデイサービス",
    "address": "岩手県北上市相去町旧舘沢7-6",
    "lat": 39.2616172692066,
    "lng": 141.098199999075,
    "tel": "0197-72-7124",
    "url": "",
    "pref": "岩手県",
    "city": "北上市",
    "category": "community_day_service",
    "serviceType": "地域密着型通所介護",
    "capacity": 0,
    "openDays": [
      "平日",
      "祝日"
    ],
    "openDaysNote": "祝日でも月曜日から金曜日であれば営業致しております。"
  },
  {
    "id": "390600450",
    "name": "つどいの場まるっと",
    "kana": "ツドイノバマルット",
    "address": "岩手県北上市上野町4丁目8－27",
    "lat": 39.3017958,
    "lng": 141.127266,
    "tel": "0197-72-8390",
    "url": "https://www.facebook.com/profile.php?id=100092045044371",
    "pref": "岩手県",
    "city": "北上市",
    "category": "community_day_service",
    "serviceType": "地域密着型通所介護",
    "capacity": 0,
    "openDays": [
      "平日",
      "祝日"
    ],
    "openDaysNote": "祝日でも月曜日から金曜日であれば営業致しております。"
  },
  {
    "id": "390600369",
    "name": "デイ・サービスたおふじね",
    "kana": "デイ・サービスタオフジネ",
    "address": "岩手県北上市和賀町藤根18地割39番地５",
    "lat": 39.3027337,
    "lng": 141.0349024,
    "tel": "0197-62-5700",
    "url": "http://www.ds-tao.co.jp",
    "pref": "岩手県",
    "city": "北上市",
    "category": "community_day_service",
    "serviceType": "地域密着型通所介護",
    "capacity": 10,
    "openDays": [
      "平日",
      "土曜日",
      "祝日"
    ],
    "openDaysNote": "定休日以外は、早朝迎え08：00、時間延長のサービス18：00までが提供出来ます。"
  },
  {
    "id": "370601460",
    "name": "安寿デイサービス中野町",
    "kana": "アンジュデイサービスナカノチョウ",
    "address": "岩手県北上市中野町２－１２－２４安寿デイサービス中野町 安寿デイサービス中野町",
    "lat": 39.2940472,
    "lng": 141.1229898,
    "tel": "0197-72-6900",
    "url": "https://anju-nakano.com/",
    "pref": "岩手県",
    "city": "北上市",
    "category": "community_day_service",
    "serviceType": "地域密着型通所介護",
    "capacity": 18,
    "openDays": [
      "平日",
      "土曜日",
      "日曜日",
      "祝日"
    ],
    "openDaysNote": ""
  },
  {
    "id": "390600393",
    "name": "自立機能訓練型さぽ～と",
    "kana": "ジリツキノウクンレンガタサポ～ト",
    "address": "岩手県北上市諏訪町2丁目5-15",
    "lat": 39.2873196,
    "lng": 141.1170418,
    "tel": "0197-61-6455",
    "url": "https://www.facebook.com/profile.php?id=100063670791627",
    "pref": "岩手県",
    "city": "北上市",
    "category": "community_day_service",
    "serviceType": "地域密着型通所介護",
    "capacity": 0,
    "openDays": [
      "平日",
      "祝日"
    ],
    "openDaysNote": "祝日でも月曜日から金曜日であれば営業致しております。"
  },
  {
    "id": "373100650",
    "name": "のだ地域福祉事業所デイサービスセンターあづび",
    "kana": "ノダチイキフクシジギョウショデイサービスセンターアヅビ",
    "address": "岩手県九戸郡野田村大字野田20-24-1",
    "lat": 40.1107939,
    "lng": 141.8171044,
    "tel": "0194-75-4560",
    "url": "",
    "pref": "岩手県",
    "city": "野田村",
    "category": "community_day_service",
    "serviceType": "地域密着型通所介護",
    "capacity": 10,
    "openDays": [
      "平日",
      "祝日"
    ],
    "openDaysNote": ""
  },
  {
    "id": "372200881",
    "name": "GENKI　NEXT岩手矢巾",
    "kana": "ゲンキネクストイワテヤハバ",
    "address": "岩手県紫波郡矢巾町西徳田大字西徳田第6地割153番2号",
    "lat": 39.6149348017502,
    "lng": 141.172226082001,
    "tel": "019-601-5923",
    "url": "",
    "pref": "岩手県",
    "city": "矢巾町",
    "category": "community_day_service",
    "serviceType": "地域密着型通所介護",
    "capacity": 100,
    "openDays": [
      "平日",
      "祝日"
    ],
    "openDaysNote": "ただし、８月１３日～８月１６日　１２月３０日～１月３日は休みとする。"
  },
  {
    "id": "392200069",
    "name": "デイサービス高原列車",
    "kana": "デイサービスコウゲンレッシャ",
    "address": "岩手県紫波郡矢巾町流通センター南四丁目8番20号",
    "lat": 39.6349349498523,
    "lng": 141.108623693254,
    "tel": "019-658-9091",
    "url": "",
    "pref": "岩手県",
    "city": "矢巾町",
    "category": "community_day_service",
    "serviceType": "地域密着型通所介護",
    "capacity": 10,
    "openDays": [
      "平日",
      "土曜日",
      "祝日"
    ],
    "openDaysNote": ""
  },
  {
    "id": "372200535",
    "name": "通所介護事業所つりがねの郷",
    "kana": "ツウショカイゴジギョウショツリガネノサト",
    "address": "岩手県紫波郡矢巾町大字煙山１―４―２",
    "lat": 39.6190878,
    "lng": 141.0803527,
    "tel": "019-697-5147",
    "url": "https://kotobukinokai2005.com/",
    "pref": "岩手県",
    "city": "矢巾町",
    "category": "community_day_service",
    "serviceType": "地域密着型通所介護",
    "capacity": 10,
    "openDays": [
      "平日",
      "祝日"
    ],
    "openDaysNote": ""
  },
  {
    "id": "392200077",
    "name": "矢巾町南デイサービスセンター",
    "kana": "ヤハバチョウミナミデイサービスセンター",
    "address": "岩手県紫波郡矢巾町太田17-13-1",
    "lat": 39.5739758,
    "lng": 141.139932,
    "tel": "019-697-1613",
    "url": "",
    "pref": "岩手県",
    "city": "矢巾町",
    "category": "community_day_service",
    "serviceType": "地域密着型通所介護",
    "capacity": null,
    "openDays": [
      "平日",
      "土曜日",
      "祝日"
    ],
    "openDaysNote": ""
  },
  {
    "id": "372200899",
    "name": "和音デイサービス矢巾",
    "kana": "ワオンデイサービスヤハバ",
    "address": "岩手県紫波郡矢巾町西徳田第5地割86-6",
    "lat": 39.6133556,
    "lng": 141.1680832,
    "tel": "019-613-8080",
    "url": "",
    "pref": "岩手県",
    "city": "矢巾町",
    "category": "community_day_service",
    "serviceType": "地域密着型通所介護",
    "capacity": 5,
    "openDays": [
      "平日",
      "土曜日",
      "日曜日",
      "祝日"
    ],
    "openDaysNote": ""
  },
  {
    "id": "393100227",
    "name": "デイサービスきぼう",
    "kana": "デイサービスキボウ",
    "address": "岩手県九戸郡洋野町種市第23地割81番地27",
    "lat": 40.4106726649097,
    "lng": 141.714753562288,
    "tel": "0194-69-1317",
    "url": "https://hironokai.or.jp/",
    "pref": "岩手県",
    "city": "洋野町",
    "category": "community_day_service",
    "serviceType": "地域密着型通所介護",
    "capacity": null,
    "openDays": [
      "平日",
      "祝日"
    ],
    "openDaysNote": "延長サービスについては行っていない。"
  },
  {
    "id": "373100544",
    "name": "洋野町種市デイ・サービスセンター",
    "kana": "ヒロノチョウタネイチデイ・サービスセンター",
    "address": "岩手県九戸郡洋野町種市第２３地割２７番地２",
    "lat": 40.4093247752851,
    "lng": 141.719481578574,
    "tel": "0194-69-1850",
    "url": "https://fujimori-kaigo.com",
    "pref": "岩手県",
    "city": "洋野町",
    "category": "community_day_service",
    "serviceType": "地域密着型通所介護",
    "capacity": 7,
    "openDays": [
      "平日",
      "祝日"
    ],
    "openDaysNote": ""
  },
  {
    "id": "371000183",
    "name": "デイサービスたんぽぽ",
    "kana": "デイサービスタンポポ",
    "address": "岩手県陸前高田市高田町字山苗代49",
    "lat": 39.0230341,
    "lng": 141.6479121,
    "tel": "0192-55-6789",
    "url": "",
    "pref": "岩手県",
    "city": "陸前高田市",
    "category": "community_day_service",
    "serviceType": "地域密着型通所介護",
    "capacity": 0,
    "openDays": [
      "平日",
      "祝日"
    ],
    "openDaysNote": ""
  },
  {
    "id": "371000373",
    "name": "縁デイサービスセンター",
    "kana": "エニシデイサービスセンター",
    "address": "岩手県陸前高田市小友町字獺沢53番地",
    "lat": 38.9846278,
    "lng": 141.6717671,
    "tel": "0192-47-4863",
    "url": "http://kizuna-care.jimdofree.com/",
    "pref": "岩手県",
    "city": "陸前高田市",
    "category": "community_day_service",
    "serviceType": "地域密着型通所介護",
    "capacity": 0,
    "openDays": [
      "平日",
      "祝日"
    ],
    "openDaysNote": "月曜から金曜日までの祝日は営業。"
  },
  {
    "id": "370300204",
    "name": "岩手高齢協すずらん　通所介護事業所",
    "kana": "イワテコウレイキョウスズラン　ツウショカイゴジギョウショ",
    "address": "岩手県陸前高田市米崎町字和野66-4",
    "lat": 39.0113121147882,
    "lng": 141.673960134258,
    "tel": "0192-22-7221",
    "url": "http://www.koureikyou.org/",
    "pref": "岩手県",
    "city": "陸前高田市",
    "category": "community_day_service",
    "serviceType": "地域密着型通所介護",
    "capacity": 0,
    "openDays": [
      "平日",
      "土曜日",
      "祝日"
    ],
    "openDaysNote": "指定区域に限る"
  },
  {
    "id": "371000217",
    "name": "陸前高田市社会福祉協議会指定通所介護事業所",
    "kana": "リクゼンタカタシシャカイフクシキョウギカイシテイツウショカイゴジギョウショ",
    "address": "岩手県陸前高田市広田町字長洞154番地1",
    "lat": 38.9819935615202,
    "lng": 141.702853690585,
    "tel": "0192-47-4316",
    "url": "http://www.rikutakashakyo.jp/publics/index/23/",
    "pref": "岩手県",
    "city": "陸前高田市",
    "category": "community_day_service",
    "serviceType": "地域密着型通所介護",
    "capacity": 0,
    "openDays": [
      "平日",
      "祝日"
    ],
    "openDaysNote": ""
  },
  {
    "id": "392900056",
    "name": "陸前高田事業所百笑",
    "kana": "リクゼンタカタジギョウショモモエ",
    "address": "岩手県陸前高田市高田町字大隅93-12号 2号",
    "lat": 39.0302620027655,
    "lng": 141.633449639287,
    "tel": "0192-47-5413",
    "url": "",
    "pref": "岩手県",
    "city": "陸前高田市",
    "category": "community_day_service",
    "serviceType": "地域密着型通所介護",
    "capacity": 10,
    "openDays": [
      "平日"
    ],
    "openDaysNote": ""
  },
  {
    "id": "371000290",
    "name": "絆デイサービスセンター",
    "kana": "キズナデイサービスセンター",
    "address": "岩手県陸前高田市広田町字久保13番地4",
    "lat": 38.9488066,
    "lng": 141.691619,
    "tel": "0192-56-3864",
    "url": "http://kizuna-care.jimdofree.com/",
    "pref": "岩手県",
    "city": "陸前高田市",
    "category": "community_day_service",
    "serviceType": "地域密着型通所介護",
    "capacity": 0,
    "openDays": [
      "平日",
      "土曜日",
      "祝日"
    ],
    "openDaysNote": "祝日が平日の際は営業"
  }
]