[
  {
    "id": "3270200169",
    "name": "しらさぎ苑ﾃﾞｲｻｰﾋﾞｽｾﾝﾀｰ",
    "kana": "シラサギエンデイサービスセンター",
    "address": "島根県安来市古川町835-1",
    "lat": 35.3755269,
    "lng": 133.1972126,
    "tel": "0854-28-6212",
    "url": "http://www.sirasagi-yasugi.or.jp",
    "pref": "島根県",
    "city": "安来市",
    "category": "community_day_service",
    "serviceType": "地域密着型通所介護",
    "capacity": 18,
    "openDays": [
      "平日",
      "土曜日",
      "祝日"
    ],
    "openDaysNote": "なし"
  },
  {
    "id": "3270200292",
    "name": "ソレイユデイサービスセンターあらしま",
    "kana": "ソレイユデイサービスセンターアラシマ",
    "address": "安来市荒島町１７３４",
    "lat": 35.4318251,
    "lng": 133.2097735,
    "tel": "0854-28-6330",
    "url": "http://www.sirasagi-yasugi.or.jp",
    "pref": "島根県",
    "city": "安来市",
    "category": "community_day_service",
    "serviceType": "地域密着型通所介護",
    "capacity": 0,
    "openDays": [
      "平日",
      "土曜日",
      "祝日"
    ],
    "openDaysNote": ""
  },
  {
    "id": "3290200181",
    "name": "デイサービスふれあい",
    "kana": "デイサービスフレアイ",
    "address": "島根県安来市飯島町1205-1",
    "lat": 35.4323278,
    "lng": 133.2480325,
    "tel": "0854-23-8230",
    "url": "https://signpost-llc.com/",
    "pref": "島根県",
    "city": "安来市",
    "category": "community_day_service",
    "serviceType": "地域密着型通所介護",
    "capacity": null,
    "openDays": [
      "平日",
      "土曜日",
      "祝日"
    ],
    "openDaysNote": ""
  },
  {
    "id": "3270200391",
    "name": "レッツ倶楽部安来中央",
    "kana": "レッツクラブヤスギチュウオウ",
    "address": "安来町757-4ヤマダヤビル1F ヤマダヤビル1F",
    "lat": 35.4261258,
    "lng": 133.2468989,
    "tel": "0854-27-7373",
    "url": "075-00@lets-culb.info",
    "pref": "島根県",
    "city": "安来市",
    "category": "community_day_service",
    "serviceType": "地域密着型通所介護",
    "capacity": 0,
    "openDays": [
      "平日",
      "祝日"
    ],
    "openDaysNote": "８月１３日～１５日、１２月３０日～１月３日を除く"
  },
  {
    "id": "3270200359",
    "name": "介護支援センター和み館",
    "kana": "カイゴシエンセンターナゴミカン",
    "address": "安来市飯島町字横屋１８９－１",
    "lat": 35.4328726,
    "lng": 133.2491652,
    "tel": "0854-21-0511",
    "url": "thhp://www.so-unkai.jp/",
    "pref": "島根県",
    "city": "安来市",
    "category": "community_day_service",
    "serviceType": "地域密着型通所介護",
    "capacity": 0,
    "openDays": [
      "平日",
      "祝日"
    ],
    "openDaysNote": ""
  },
  {
    "id": "3271200085",
    "name": "比田デイサービスセンター",
    "kana": "ヒダデイサービスセンター",
    "address": "安来市広瀬町西比田1445-6",
    "lat": 35.2389209,
    "lng": 133.1302634,
    "tel": "0854-34-0822",
    "url": "http://amago-taiyo.jo/",
    "pref": "島根県",
    "city": "安来市",
    "category": "community_day_service",
    "serviceType": "地域密着型通所介護",
    "capacity": 0,
    "openDays": [
      "平日",
      "土曜日",
      "祝日"
    ],
    "openDaysNote": "なし"
  },
  {
    "id": "3272200811",
    "name": "一颯",
    "kana": "イブキ",
    "address": "島根県隠岐郡隠岐の島町下西５０９番1",
    "lat": 36.2069482864388,
    "lng": 133.315506373819,
    "tel": "08512-2-9511",
    "url": "http://oki-ibuki.jimdo.com/",
    "pref": "島根県",
    "city": "隠岐の島町",
    "category": "community_day_service",
    "serviceType": "地域密着型通所介護",
    "capacity": 0,
    "openDays": [
      "平日",
      "土曜日",
      "祝日"
    ],
    "openDaysNote": ""
  },
  {
    "id": "3272200787",
    "name": "高齢者生活福祉センター　蓬莱苑",
    "kana": "コウレイシャセイカツフクシセンター　ホウライエン",
    "address": "島根県隠岐郡隠岐の島町布施642番地1",
    "lat": 36.2911779,
    "lng": 133.3488944,
    "tel": "08512-7-4373",
    "url": "",
    "pref": "島根県",
    "city": "隠岐の島町",
    "category": "community_day_service",
    "serviceType": "地域密着型通所介護",
    "capacity": 0,
    "openDays": [
      "平日",
      "祝日"
    ],
    "openDaysNote": ""
  },
  {
    "id": "3272200613",
    "name": "宅老所くすもと",
    "kana": "タクロウショクスモト",
    "address": "島根県隠岐郡隠岐の島町那久626",
    "lat": 36.2211988,
    "lng": 133.2061592,
    "tel": "08512-6-3033",
    "url": "",
    "pref": "島根県",
    "city": "隠岐の島町",
    "category": "community_day_service",
    "serviceType": "地域密着型通所介護",
    "capacity": 3,
    "openDays": [
      "平日",
      "土曜日",
      "日曜日",
      "祝日"
    ],
    "openDaysNote": "なし"
  },
  {
    "id": "3271400529",
    "name": "カルチャーセンター　あおぞら",
    "kana": "カルチャーセンター　アオゾラ",
    "address": "島根県雲南市大東町下阿用４８９番地",
    "lat": 35.3178149,
    "lng": 132.9710891,
    "tel": "0854-43-8280",
    "url": "http://aozora-fukushi.jp/",
    "pref": "島根県",
    "city": "雲南市",
    "category": "community_day_service",
    "serviceType": "地域密着型通所介護",
    "capacity": 0,
    "openDays": [
      "平日",
      "土曜日"
    ],
    "openDaysNote": "なし"
  },
  {
    "id": "3271400180",
    "name": "デイサービスセンター　あおぞらの家",
    "kana": "デイサービスセンター　アオゾラノイエ",
    "address": "島根県雲南市大東町東阿用83番地1",
    "lat": 35.3059159,
    "lng": 132.9685663,
    "tel": "0854-43-6555",
    "url": "http://www.aozora-fukushi.jp/",
    "pref": "島根県",
    "city": "雲南市",
    "category": "community_day_service",
    "serviceType": "地域密着型通所介護",
    "capacity": null,
    "openDays": [
      "平日",
      "土曜日",
      "日曜日",
      "祝日"
    ],
    "openDaysNote": "なし"
  },
  {
    "id": "3271400537",
    "name": "デイサービスセンター　うしお湯治村",
    "kana": "デイサービスセンター　ウシオトウジムラ",
    "address": "島根県雲南市大東町中湯石４５９番地",
    "lat": 35.3256338673701,
    "lng": 133.008743517969,
    "tel": "0854-43-9810",
    "url": "http:www.amigo-shimane.co.jp",
    "pref": "島根県",
    "city": "雲南市",
    "category": "community_day_service",
    "serviceType": "地域密着型通所介護",
    "capacity": 0,
    "openDays": [
      "平日",
      "土曜日",
      "祝日"
    ],
    "openDaysNote": "なし"
  },
  {
    "id": "3271500351",
    "name": "株式会社　アミーゴ島根　デイサービスだんだん",
    "kana": "カブシキガイシャ　アミーゴシマネ　デイサービスダンダン",
    "address": "雲南市三刀屋町伊萱４０－６",
    "lat": 35.3209237,
    "lng": 132.8894031,
    "tel": "0854-45-0101",
    "url": "http://www.amigo-shimane.jp",
    "pref": "島根県",
    "city": "雲南市",
    "category": "community_day_service",
    "serviceType": "地域密着型通所介護",
    "capacity": 0,
    "openDays": [
      "平日",
      "土曜日",
      "祝日"
    ],
    "openDaysNote": ""
  },
  {
    "id": "3271500211",
    "name": "社会福祉法人　よしだ福祉会　ケアポートよしだ",
    "kana": "シャカイフクシホウジン　ヨシダフクシカイ　ケアポートヨシダ",
    "address": "雲南市吉田町深野84番地6",
    "lat": 35.2038261,
    "lng": 132.9159627,
    "tel": "0854-75-0346",
    "url": "https://yoshida-fukushikai.jp/",
    "pref": "島根県",
    "city": "雲南市",
    "category": "community_day_service",
    "serviceType": "地域密着型通所介護",
    "capacity": 18,
    "openDays": [
      "平日",
      "祝日"
    ],
    "openDaysNote": ""
  },
  {
    "id": "3290800295",
    "name": "えびす",
    "kana": "エビス",
    "address": "島根県益田市小浜町468番地7",
    "lat": 34.6710205,
    "lng": 131.7233141,
    "tel": "080-2947-2430",
    "url": "",
    "pref": "島根県",
    "city": "益田市",
    "category": "community_day_service",
    "serviceType": "地域密着型通所介護",
    "capacity": 0,
    "openDays": [
      "平日"
    ],
    "openDaysNote": ""
  },
  {
    "id": "3270800703",
    "name": "すこデイサービスとねりこ",
    "kana": "スコデイサービストネリコ",
    "address": "島根県益田市須子町27-16",
    "lat": 34.6762891,
    "lng": 131.8258467,
    "tel": "0856-23-0107",
    "url": "",
    "pref": "島根県",
    "city": "益田市",
    "category": "community_day_service",
    "serviceType": "地域密着型通所介護",
    "capacity": 10,
    "openDays": [
      "平日",
      "土曜日",
      "祝日"
    ],
    "openDaysNote": "なし"
  },
  {
    "id": "3270800877",
    "name": "すこデイサービス第２とねりこ",
    "kana": "スコデイサービスダイニトネリコ",
    "address": "島根県益田市須子町イ３３４番地９",
    "lat": 34.6759167072249,
    "lng": 131.826074492104,
    "tel": "０８５６－３２－０１２３",
    "url": "",
    "pref": "島根県",
    "city": "益田市",
    "category": "community_day_service",
    "serviceType": "地域密着型通所介護",
    "capacity": 8,
    "openDays": [
      "平日",
      "土曜日",
      "祝日"
    ],
    "openDaysNote": "毎週火曜日から金曜日は半日型のデイサービスを行っている。（改行）営業時間は9時15分～12時30分。（改行）令和7年1月より共生型サービスの開始"
  },
  {
    "id": "3270800851",
    "name": "デイサービス　どんちっち",
    "kana": "デイサービス　ドンチッチ",
    "address": "須子町１５番１６号",
    "lat": 34.6764020505821,
    "lng": 131.829363740475,
    "tel": "０８５６－２５－７７６５",
    "url": "",
    "pref": "島根県",
    "city": "益田市",
    "category": "community_day_service",
    "serviceType": "地域密着型通所介護",
    "capacity": 10,
    "openDays": [
      "平日",
      "祝日"
    ],
    "openDaysNote": "通所型サービスは火水木曜日の８時３０分１２時３０分"
  },
  {
    "id": "3290800238",
    "name": "デイサービス「まほろば」",
    "kana": "デイサービス　マホロバ",
    "address": "島根県益田市高津1丁目36-7",
    "lat": 34.6816496,
    "lng": 131.821322,
    "tel": "0856-25-7480",
    "url": "",
    "pref": "島根県",
    "city": "益田市",
    "category": "community_day_service",
    "serviceType": "地域密着型通所介護",
    "capacity": null,
    "openDays": [
      "平日",
      "祝日"
    ],
    "openDaysNote": "ただし、定休日の場合において、併設する小規模多機能ホームの職員が常時連絡を受けられる体制にしております。"
  },
  {
    "id": "3290800279",
    "name": "デイサービスセンター　おりがみ",
    "kana": "デイサービスセンター　オリガミ",
    "address": "島根県益田市高津町イ2559-7デイサービスセンター　おりがみ デイサービスセンター　おりがみ",
    "lat": 34.6874709506136,
    "lng": 131.80174213825,
    "tel": "0856-32-9590",
    "url": "https://akatsuki-hohoemi.jp/pages/264/",
    "pref": "島根県",
    "city": "益田市",
    "category": "community_day_service",
    "serviceType": "地域密着型通所介護",
    "capacity": 18,
    "openDays": [
      "平日"
    ],
    "openDaysNote": "月曜日から金曜日であれば祝日でも営業しています。"
  },
  {
    "id": "3270800927",
    "name": "デイサービスセンター　ひぐらし苑",
    "kana": "デイサービスセンター　ヒグラシエン",
    "address": "島根県益田市波田町イ584-1",
    "lat": 34.6342755341229,
    "lng": 131.939483726984,
    "tel": "0856-26-0044",
    "url": "",
    "pref": "島根県",
    "city": "益田市",
    "category": "community_day_service",
    "serviceType": "地域密着型通所介護",
    "capacity": 18,
    "openDays": [
      "平日",
      "土曜日",
      "祝日"
    ],
    "openDaysNote": ""
  },
  {
    "id": "3270800661",
    "name": "デイサービスセンター　中吉田・しずかさんの家",
    "kana": "デイサービスセンター　ナカヨシダ　シズカサンノウチ",
    "address": "島根県益田市中吉田町５０８番地４",
    "lat": 34.6868908,
    "lng": 131.8371345,
    "tel": "0856-31-4534",
    "url": "https://www.hinata-hyoma.com/",
    "pref": "島根県",
    "city": "益田市",
    "category": "community_day_service",
    "serviceType": "地域密着型通所介護",
    "capacity": 0,
    "openDays": [
      "平日",
      "土曜日",
      "祝日"
    ],
    "openDaysNote": "なし"
  },
  {
    "id": "3270800091",
    "name": "デイサービスセンター共楽苑",
    "kana": "デイサービスセンターキョウラクエン",
    "address": "島根県益田市桂平町１０７番地３",
    "lat": 34.6011691536572,
    "lng": 131.726970715869,
    "tel": "0856-29-0085",
    "url": "https://www.wakakusa-fukushikai.jp/kyorakuen/",
    "pref": "島根県",
    "city": "益田市",
    "category": "community_day_service",
    "serviceType": "地域密着型通所介護",
    "capacity": null,
    "openDays": [
      "平日",
      "土曜日",
      "祝日"
    ],
    "openDaysNote": "祝日は開苑。また上記の定休日においても、管理者が提供可能と判断した場合はサービスを行うものとする。"
  },
  {
    "id": "3270801008",
    "name": "デイサービスなごみ",
    "kana": "デイサービスナゴミ",
    "address": "島根県益田市乙吉町イ322番地7今見屋店舗101号A 今見屋店舗101号A",
    "lat": 34.6817654213906,
    "lng": 131.845804755243,
    "tel": "0856-22-7530",
    "url": "https://ones-create.net/welfare/",
    "pref": "島根県",
    "city": "益田市",
    "category": "community_day_service",
    "serviceType": "地域密着型通所介護",
    "capacity": 180,
    "openDays": [
      "平日",
      "祝日"
    ],
    "openDaysNote": ""
  },
  {
    "id": "3290800147",
    "name": "益田市デイサービスセンター湖水園",
    "kana": "マスダシデイサービスセンターコスイエン",
    "address": "島根県益田市高津六丁目１８－２５",
    "lat": 34.6873977560183,
    "lng": 131.810697459525,
    "tel": "0856-23-7622",
    "url": "nemunoie.com",
    "pref": "島根県",
    "city": "益田市",
    "category": "community_day_service",
    "serviceType": "地域密着型通所介護",
    "capacity": 7,
    "openDays": [
      "平日",
      "土曜日",
      "日曜日",
      "祝日"
    ],
    "openDaysNote": "デイサービス職員以外の職員（軽費老人ホーム）が対応する時間帯がある。"
  },
  {
    "id": "3272000096",
    "name": "益田市立美都デイサービスセンター",
    "kana": "マスダシリツミトデイサービスセンター",
    "address": "島根県益田市美都町都茂1195番地",
    "lat": 34.6673561,
    "lng": 131.9847123,
    "tel": "0856-52-2870",
    "url": "",
    "pref": "島根県",
    "city": "益田市",
    "category": "community_day_service",
    "serviceType": "地域密着型通所介護",
    "capacity": 0,
    "openDays": [
      "平日",
      "土曜日",
      "祝日"
    ],
    "openDaysNote": ""
  },
  {
    "id": "3270800919",
    "name": "花のある家中吉田邸",
    "kana": "ハナノアルイエナカヨシダテイ",
    "address": "島根県益田市中吉田町953-3",
    "lat": 34.6878074,
    "lng": 131.8348958,
    "tel": "0856-25-7327",
    "url": "",
    "pref": "島根県",
    "city": "益田市",
    "category": "community_day_service",
    "serviceType": "地域密着型通所介護",
    "capacity": 10,
    "openDays": [
      "平日",
      "土曜日",
      "日曜日",
      "祝日"
    ],
    "openDaysNote": "24時間営業"
  },
  {
    "id": "3270800380",
    "name": "指定通所介護事業所　陽だまり",
    "kana": "シテイツウショカイゴジギョウショ　ヒダマリ",
    "address": "益田市赤城町１１－４０",
    "lat": 34.674756,
    "lng": 131.8356682,
    "tel": "0856-22-0526",
    "url": "http://shimane-npo-hidamari.jp",
    "pref": "島根県",
    "city": "益田市",
    "category": "community_day_service",
    "serviceType": "地域密着型通所介護",
    "capacity": 0,
    "openDays": [
      "平日",
      "土曜日",
      "祝日"
    ],
    "openDaysNote": "なし"
  },
  {
    "id": "3270800687",
    "name": "匹見指定もみじ通所介護事業所",
    "kana": "ヒキミシテイモミジツウショカイゴジギョウショ",
    "address": "島根県益田市匹見町匹見イ１２０８",
    "lat": 34.5739761,
    "lng": 132.0131841,
    "tel": "0856-56-0397",
    "url": "http://masuda-shakyou.or.jp/",
    "pref": "島根県",
    "city": "益田市",
    "category": "community_day_service",
    "serviceType": "地域密着型通所介護",
    "capacity": 0,
    "openDays": [
      "平日",
      "祝日"
    ],
    "openDaysNote": "なし"
  },
  {
    "id": "3270800612",
    "name": "匹見指定通所介護事業所",
    "kana": "ヒキミシテイツウショカイゴジギョウショ",
    "address": "島根県益田市匹見町澄川イ277－1",
    "lat": 34.6059902,
    "lng": 131.9549513,
    "tel": "0856-56-0398",
    "url": "http://masuda-shakyou.or.jp/",
    "pref": "島根県",
    "city": "益田市",
    "category": "community_day_service",
    "serviceType": "地域密着型通所介護",
    "capacity": 0,
    "openDays": [
      "平日",
      "祝日"
    ],
    "openDaysNote": "なし"
  },
  {
    "id": "3271300091",
    "name": "デイサービスセンター　にこにこ",
    "kana": "デイサービスセンター　ニコニコ",
    "address": "奥出雲町稲原57番地1",
    "lat": 35.1763198,
    "lng": 133.0975299,
    "tel": "0854-52-2566",
    "url": "http://www.yokota.or.jp",
    "pref": "島根県",
    "city": "奥出雲町",
    "category": "community_day_service",
    "serviceType": "地域密着型通所介護",
    "capacity": 0,
    "openDays": [
      "平日",
      "祝日"
    ],
    "openDaysNote": "気象状況（台風、積雪）によっては、安全のためサービスを短縮する場合があります。"
  },
  {
    "id": "3271300208",
    "name": "ディサービスセンターさんさん",
    "kana": "ディサービスセンターサンサン",
    "address": "島根県仁多郡奥出雲町横田1009-6シェアハウス1F シェアハウス1F",
    "lat": 35.1789556,
    "lng": 133.0907221,
    "tel": "0854-52-2812",
    "url": "",
    "pref": "島根県",
    "city": "奥出雲町",
    "category": "community_day_service",
    "serviceType": "地域密着型通所介護",
    "capacity": 11,
    "openDays": [
      "平日",
      "祝日"
    ],
    "openDaysNote": ""
  },
  {
    "id": "3271300083",
    "name": "デイサービスセンターほのぼの",
    "kana": "デイサービスセンターホノボノ",
    "address": "島根県仁多郡奥出雲町稲原57番地６",
    "lat": 35.1759541368722,
    "lng": 133.09800727791,
    "tel": "0854-52-2572",
    "url": "http://www.yokota.or.jp",
    "pref": "島根県",
    "city": "奥出雲町",
    "category": "community_day_service",
    "serviceType": "地域密着型通所介護",
    "capacity": 0,
    "openDays": [
      "平日",
      "土曜日",
      "祝日"
    ],
    "openDaysNote": "気象状況（台風、積雪等）によっては、安全のためサービスを短縮する場合があります。"
  },
  {
    "id": "3271300141",
    "name": "デイサービスよこたの郷",
    "kana": "デイサービスヨコタノサト",
    "address": "島根県仁多郡奥出雲町下横田27-1",
    "lat": 35.177353,
    "lng": 133.0886973,
    "tel": "0854-52-9866",
    "url": "http://www.qualitylife-jp.com",
    "pref": "島根県",
    "city": "奥出雲町",
    "category": "community_day_service",
    "serviceType": "地域密着型通所介護",
    "capacity": 0,
    "openDays": [
      "平日",
      "祝日"
    ],
    "openDaysNote": ""
  },
  {
    "id": "3291300055",
    "name": "デイサービス奥出雲　ふるさとの家",
    "kana": "デイサービスオクイズモ　フルサトノイエ",
    "address": "下横田893",
    "lat": 35.1679206,
    "lng": 133.0824538,
    "tel": "0854-52-2371",
    "url": "",
    "pref": "島根県",
    "city": "奥出雲町",
    "category": "community_day_service",
    "serviceType": "地域密着型通所介護",
    "capacity": null,
    "openDays": [
      "平日",
      "土曜日",
      "祝日"
    ],
    "openDaysNote": ""
  },
  {
    "id": "3272200829",
    "name": "福来の里ﾃﾞｲｻｰﾋﾞｽｾﾝﾀｰ",
    "kana": "フクギノサトデイサービスセンター",
    "address": "島根県隠岐郡海士町大字海士1470番地1",
    "lat": 36.0961516,
    "lng": 133.0945379,
    "tel": "08514－2－0002",
    "url": "https://www.amasyakyo.com/",
    "pref": "島根県",
    "city": "海士町",
    "category": "community_day_service",
    "serviceType": "地域密着型通所介護",
    "capacity": 0,
    "openDays": [
      "平日"
    ],
    "openDaysNote": ""
  },
  {
    "id": "3272100185",
    "name": "柿木村デイサービスセンター",
    "kana": "カキノキムラデイサービスセンター",
    "address": "島根県鹿足郡吉賀町柿木８０番地1",
    "lat": 34.4366893,
    "lng": 131.8675279,
    "tel": "0856-79-2681",
    "url": "",
    "pref": "島根県",
    "city": "吉賀町",
    "category": "community_day_service",
    "serviceType": "地域密着型通所介護",
    "capacity": null,
    "openDays": [
      "平日",
      "祝日"
    ],
    "openDaysNote": "なし"
  },
  {
    "id": "3272100219",
    "name": "七日市デイサービスセンター",
    "kana": "ナヌカイチデイサービスセンター",
    "address": "島根県鹿足郡吉賀町七日市942番地5",
    "lat": 34.3885443,
    "lng": 131.8906866,
    "tel": "0856-78-2070",
    "url": "http://www.yoshika‐shakyo.jp/",
    "pref": "島根県",
    "city": "吉賀町",
    "category": "community_day_service",
    "serviceType": "地域密着型通所介護",
    "capacity": 18,
    "openDays": [
      "平日",
      "祝日"
    ],
    "openDaysNote": ""
  },
  {
    "id": "3270600509",
    "name": "そうえんデイサービス",
    "kana": "ソウエンデイサービス",
    "address": "島根県江津市都野津町2371-15",
    "lat": 34.9846645,
    "lng": 132.185126,
    "tel": "0855-53-5404",
    "url": "",
    "pref": "島根県",
    "city": "江津市",
    "category": "community_day_service",
    "serviceType": "地域密着型通所介護",
    "capacity": 0,
    "openDays": [
      "平日",
      "祝日"
    ],
    "openDaysNote": "１単位　午前　９：００～１２：１０（改行）２単位　午後　１３：２０～１６：３０"
  },
  {
    "id": "3290600133",
    "name": "デイサービスセンター　有福",
    "kana": "デイサービスセンター　アリフク",
    "address": "島根県江津市有福温泉町546",
    "lat": 34.9450919,
    "lng": 132.1983244,
    "tel": "0855-56-0234",
    "url": "http://www.arifuku-home.jp/",
    "pref": "島根県",
    "city": "江津市",
    "category": "community_day_service",
    "serviceType": "地域密着型通所介護",
    "capacity": null,
    "openDays": [
      "平日",
      "土曜日"
    ],
    "openDaysNote": ""
  },
  {
    "id": "3270600533",
    "name": "デイホームまったり",
    "kana": "デイホームマッタリ",
    "address": "島根県江津市嘉久志町イ1249-12",
    "lat": 35.0101863,
    "lng": 132.2161136,
    "tel": "0855-52-7300",
    "url": "mattari2341@outlook.jp",
    "pref": "島根県",
    "city": "江津市",
    "category": "community_day_service",
    "serviceType": "地域密着型通所介護",
    "capacity": 0,
    "openDays": [
      "平日",
      "土曜日",
      "日曜日",
      "祝日"
    ],
    "openDaysNote": "⑴サービス利用の際には、介護保険被保険者証を提示してください。（改行）⑵利用者又は利用者代理人、その家族は、体調の変化があった際には事業所の職員にご一報ください。（改行）⑶事業所内での金銭及び食物等のやりとりは、ご遠慮ください。（改行）⑷職員に対する贈物や飲食のもてなしは、お受けできません。（改行）⑸お弁当の持込はご希望により応じておりますが、持込まれた弁当等の管理や衛生面、及びこれに関わる事故（食中毒等）につきましては、責任を負いかねますのでご了承ください。（改行）⑹飲酒はご遠慮ください。喫煙については指定の場所以外では禁煙にご協力ください。"
  },
  {
    "id": "3271800363",
    "name": "桜寿園デイサービスセンター",
    "kana": "オウジュエンデイサービスセンター",
    "address": "島根県江津市桜江町小田138番地1桜江高齢者生活福祉センター　桜寿園 桜江高齢者生活福祉センター　桜寿園",
    "lat": 34.9502121,
    "lng": 132.3296258,
    "tel": "0855-92-1441",
    "url": "ｈｔｔp://www.sakuraefukushikai.jp/",
    "pref": "島根県",
    "city": "江津市",
    "category": "community_day_service",
    "serviceType": "地域密着型通所介護",
    "capacity": null,
    "openDays": [
      "平日",
      "土曜日",
      "祝日"
    ],
    "openDaysNote": "なし"
  },
  {
    "id": "3271800371",
    "name": "陽光苑デイサービスセンター",
    "kana": "ヨウコウエンデイサービスセンター",
    "address": "島根県江津市桜江町長谷2723番地2特別養護老人ホーム風の里　陽光苑 特別養護老人ホーム風の里　陽光苑",
    "lat": 34.9221032,
    "lng": 132.2702594,
    "tel": "0855-92-8450",
    "url": "http://.www.sakuraefukushikai.jp",
    "pref": "島根県",
    "city": "江津市",
    "category": "community_day_service",
    "serviceType": "地域密着型通所介護",
    "capacity": 10,
    "openDays": [
      "平日",
      "祝日"
    ],
    "openDaysNote": ""
  },
  {
    "id": "3270402781",
    "name": "NPO法人たすけあい平田デイサービスセンターさわやか",
    "kana": "エヌピーオーホウジンタスケアイヒラタデイサービスセンターサワヤカ",
    "address": "島根県出雲市西代町1032-4",
    "lat": 35.4219633,
    "lng": 132.8183671,
    "tel": "0853-31-6500",
    "url": "http://www.npo.lsnet.ne.jp/tasukeaihirata/",
    "pref": "島根県",
    "city": "出雲市",
    "category": "community_day_service",
    "serviceType": "地域密着型通所介護",
    "capacity": 5,
    "openDays": [
      "平日",
      "土曜日",
      "祝日"
    ],
    "openDaysNote": ""
  },
  {
    "id": "3290400740",
    "name": "アクティブDAYいぶき",
    "kana": "アクティブデイイブキ",
    "address": "島根県出雲市斐川町学頭1511-1",
    "lat": 35.3904073926122,
    "lng": 132.872225180687,
    "tel": "0853-72-5110",
    "url": "http://www.kintarounoie.jp",
    "pref": "島根県",
    "city": "出雲市",
    "category": "community_day_service",
    "serviceType": "地域密着型通所介護",
    "capacity": 0,
    "openDays": [
      "平日",
      "土曜日",
      "祝日"
    ],
    "openDaysNote": ""
  },
  {
    "id": "3290400625",
    "name": "あんのん",
    "kana": "アンノン",
    "address": "島根県出雲市荻杼町519-1北陽ビル1Ｆ 北陽ビル1Ｆ",
    "lat": 35.3839619,
    "lng": 132.7661372,
    "tel": "0853-22-0200",
    "url": "",
    "pref": "島根県",
    "city": "出雲市",
    "category": "community_day_service",
    "serviceType": "地域密着型通所介護",
    "capacity": 120,
    "openDays": [
      "平日",
      "土曜日",
      "祝日"
    ],
    "openDaysNote": ""
  },
  {
    "id": "3270402138",
    "name": "あんのんの里川跡",
    "kana": "アンノンノサトカワト",
    "address": "荻杼町666-1",
    "lat": 35.3822363,
    "lng": 132.7632298,
    "tel": "0853-31-4600",
    "url": "",
    "pref": "島根県",
    "city": "出雲市",
    "category": "community_day_service",
    "serviceType": "地域密着型通所介護",
    "capacity": 18,
    "openDays": [
      "平日",
      "祝日"
    ],
    "openDaysNote": ""
  },
  {
    "id": "3290400799",
    "name": "あんのん大社",
    "kana": "アンノンタイシャ",
    "address": "島根県出雲市大社町杵築西1735",
    "lat": 35.3903644,
    "lng": 132.6758293,
    "tel": "0853-31-4780",
    "url": "",
    "pref": "島根県",
    "city": "出雲市",
    "category": "community_day_service",
    "serviceType": "地域密着型通所介護",
    "capacity": null,
    "openDays": [
      "平日",
      "祝日"
    ],
    "openDaysNote": "①9：00～12：00（改行）②13：30～16：30"
  },
  {
    "id": "3270402666",
    "name": "ウェルファ出雲デイサービスセンターかえで",
    "kana": "ウェルファイズモデイサービスセンターカエデ",
    "address": "島根県出雲市塩冶神前１－６－２７CASA神前１階 CASA神前１階",
    "lat": 35.3494177,
    "lng": 132.7525239,
    "tel": "０８５３－２５－７１１０",
    "url": "",
    "pref": "島根県",
    "city": "出雲市",
    "category": "community_day_service",
    "serviceType": "地域密着型通所介護",
    "capacity": 0,
    "openDays": [
      "平日"
    ],
    "openDaysNote": "又、事業所の都合による休業日あり。"
  },
  {
    "id": "3270401171",
    "name": "えきまえデイサービス　夢のむら",
    "kana": "エキマエデイサービス　ユメノムラ",
    "address": "出雲市塩冶町　980-3",
    "lat": 35.354909075188,
    "lng": 132.755866757622,
    "tel": "0853-21-0986",
    "url": "https://care-service-izumo.biz/",
    "pref": "島根県",
    "city": "出雲市",
    "category": "community_day_service",
    "serviceType": "地域密着型通所介護",
    "capacity": 0,
    "openDays": [
      "平日",
      "土曜日"
    ],
    "openDaysNote": ""
  },
  {
    "id": "3270401114",
    "name": "ケアサポート　相生",
    "kana": "ケアサポート　アイオイ",
    "address": "出雲市今市町７４１－５",
    "lat": 35.3643937,
    "lng": 132.7544844,
    "tel": "0853-24-7733",
    "url": "http://jukokai.jp/",
    "pref": "島根県",
    "city": "出雲市",
    "category": "community_day_service",
    "serviceType": "地域密着型通所介護",
    "capacity": 0,
    "openDays": [
      "平日",
      "土曜日",
      "祝日"
    ],
    "openDaysNote": "なし"
  },
  {
    "id": "3270402336",
    "name": "ココ・リハ平田",
    "kana": "ココ・リハヒラタ",
    "address": "島根県出雲市西平田町104番地3",
    "lat": 35.4305402,
    "lng": 132.8153864,
    "tel": "0853－25－8400",
    "url": "",
    "pref": "島根県",
    "city": "出雲市",
    "category": "community_day_service",
    "serviceType": "地域密着型通所介護",
    "capacity": 0,
    "openDays": [
      "平日",
      "祝日"
    ],
    "openDaysNote": "祝日は営業しています。"
  },
  {
    "id": "3270402047",
    "name": "ﾃﾞｲｻｰﾋﾞｽ　ひまり",
    "kana": "デイサービス　ヒマリ",
    "address": "出雲市馬木町７５８番地２",
    "lat": 35.3329924,
    "lng": 132.7666366,
    "tel": "0853-48-9135",
    "url": "",
    "pref": "島根県",
    "city": "出雲市",
    "category": "community_day_service",
    "serviceType": "地域密着型通所介護",
    "capacity": 0,
    "openDays": [
      "平日",
      "土曜日",
      "祝日"
    ],
    "openDaysNote": ""
  },
  {
    "id": "3270402120",
    "name": "デイサービス　グッドライフ",
    "kana": "デイサービス　グッドライフ",
    "address": "島根県出雲市塩冶善行町14-3",
    "lat": 35.3582639,
    "lng": 132.7539041,
    "tel": "0853-27-9991",
    "url": "http://www.cosmos-izumo.jp",
    "pref": "島根県",
    "city": "出雲市",
    "category": "community_day_service",
    "serviceType": "地域密着型通所介護",
    "capacity": 15,
    "openDays": [
      "平日",
      "土曜日",
      "祝日"
    ],
    "openDaysNote": ""
  },
  {
    "id": "3290400567",
    "name": "デイサービス　こひまり",
    "kana": "デイサービス　　コヒマリ",
    "address": "島根県出雲市馬木町224-1",
    "lat": 35.3331756,
    "lng": 132.7658145,
    "tel": "０８５３－４８－９０５７",
    "url": "",
    "pref": "島根県",
    "city": "出雲市",
    "category": "community_day_service",
    "serviceType": "地域密着型通所介護",
    "capacity": 0,
    "openDays": [
      "平日",
      "土曜日",
      "祝日"
    ],
    "openDaysNote": "１２/３０～１/３までを除く"
  },
  {
    "id": "3270402641",
    "name": "デイサービス　さくら",
    "kana": "デイサービス　サクラ",
    "address": "矢尾町273番地プライム有限会社 プライム有限会社",
    "lat": 35.3955927,
    "lng": 132.7409644,
    "tel": "0853-25-0027",
    "url": "http://prime-conpany.jp",
    "pref": "島根県",
    "city": "出雲市",
    "category": "community_day_service",
    "serviceType": "地域密着型通所介護",
    "capacity": null,
    "openDays": [
      "平日",
      "土曜日",
      "祝日"
    ],
    "openDaysNote": ""
  },
  {
    "id": "3270401635",
    "name": "デイサービス　なすの花",
    "kana": "デイサービス　ナスノハナ",
    "address": "島根県出雲市白枝町７８１－８",
    "lat": 35.3632126,
    "lng": 132.7303616,
    "tel": "０８５３－２０－１２８８",
    "url": "",
    "pref": "島根県",
    "city": "出雲市",
    "category": "community_day_service",
    "serviceType": "地域密着型通所介護",
    "capacity": 0,
    "openDays": [
      "平日",
      "土曜日",
      "祝日"
    ],
    "openDaysNote": ""
  },
  {
    "id": "3270401437",
    "name": "デイサービス　ゆうらいふ",
    "kana": "デイサービス　ユウライフ",
    "address": "島根県出雲市荒茅町3501",
    "lat": 35.3617234,
    "lng": 132.6934679,
    "tel": "0853-28-0385",
    "url": "http://youlife-n.com",
    "pref": "島根県",
    "city": "出雲市",
    "category": "community_day_service",
    "serviceType": "地域密着型通所介護",
    "capacity": 18,
    "openDays": [
      "平日"
    ],
    "openDaysNote": "令和６年12月から半日のデイサービスを終了し、①単位目の営業のみとなっています。"
  },
  {
    "id": "3290400781",
    "name": "デイサービス　春の野",
    "kana": "デイサービス　ハルノノ",
    "address": "島根県出雲市小山町３３４番地板倉ビル１０３号室 板倉ビル１０３号室",
    "lat": 35.3732067576985,
    "lng": 132.741440167049,
    "tel": "0853-25-8550",
    "url": "https://www.facebook.com/people/デイサービス春の野/100094930075195/",
    "pref": "島根県",
    "city": "出雲市",
    "category": "community_day_service",
    "serviceType": "地域密着型通所介護",
    "capacity": 0,
    "openDays": [
      "平日",
      "土曜日"
    ],
    "openDaysNote": "（営業日及び営業時間）（改行）事業所の営業日及びサービス提供時間（改行）（１）営業日　月曜日から土曜日　（祝日及び１２月２９日から１月３日までを除く）（改行）（２）営業時間　午前８時３０分から午後１７時００分（改行）（３）サービス提供時間は、９時から１２時（３時間）　１３時３０分から１６時３０分（３時間）"
  },
  {
    "id": "3290400526",
    "name": "デイサービスMILK新",
    "kana": "デイサービスミルクシン",
    "address": "島根県出雲市斐川町上庄原1649番地",
    "lat": 35.3917111,
    "lng": 132.8407081,
    "tel": "0853-31-9722",
    "url": "",
    "pref": "島根県",
    "city": "出雲市",
    "category": "community_day_service",
    "serviceType": "地域密着型通所介護",
    "capacity": 14,
    "openDays": [
      "平日",
      "土曜日",
      "祝日"
    ],
    "openDaysNote": "年末年始休業　12/31　1/1　1/2　1/3"
  },
  {
    "id": "3290400716",
    "name": "デイサービスセンター高砂",
    "kana": "デイサービスセンタータカサゴ",
    "address": "島根県出雲市今市町822番地22",
    "lat": 35.3628667,
    "lng": 132.75287,
    "tel": "0853-21-5582",
    "url": "",
    "pref": "島根県",
    "city": "出雲市",
    "category": "community_day_service",
    "serviceType": "地域密着型通所介護",
    "capacity": null,
    "openDays": [
      "平日"
    ],
    "openDaysNote": ""
  },
  {
    "id": "3290400765",
    "name": "デイサービスセンター翔雲",
    "kana": "デイサービスセンター　ショウウン",
    "address": "島根県出雲市今市町822-22",
    "lat": 35.3628765,
    "lng": 132.752866,
    "tel": "0853-21‐5582",
    "url": "",
    "pref": "島根県",
    "city": "出雲市",
    "category": "community_day_service",
    "serviceType": "地域密着型通所介護",
    "capacity": null,
    "openDays": [
      "平日"
    ],
    "openDaysNote": ""
  },
  {
    "id": "3270401528",
    "name": "デイサービスもくれん",
    "kana": "デイサービスモクレン",
    "address": "出雲市松寄下町1286－1",
    "lat": 35.3629012,
    "lng": 132.7179822,
    "tel": "0853-25-7230",
    "url": "https://www.izumo-mokuren.com/",
    "pref": "島根県",
    "city": "出雲市",
    "category": "community_day_service",
    "serviceType": "地域密着型通所介護",
    "capacity": 11,
    "openDays": [
      "平日",
      "土曜日",
      "祝日"
    ],
    "openDaysNote": ""
  },
  {
    "id": "3270401965",
    "name": "デイサービスもくれん・荒茅",
    "kana": "デイサービスモクレン・アラカヤ",
    "address": "出雲市荒茅町2780番地32",
    "lat": 35.3606902,
    "lng": 132.6995424,
    "tel": "0853-27-9651",
    "url": "izumo-mokuren.com",
    "pref": "島根県",
    "city": "出雲市",
    "category": "community_day_service",
    "serviceType": "地域密着型通所介護",
    "capacity": 14,
    "openDays": [
      "平日",
      "土曜日",
      "祝日"
    ],
    "openDaysNote": ""
  },
  {
    "id": "3270401650",
    "name": "デイサービスゆうゆう広場",
    "kana": "デイサービスユウユウヒロバ",
    "address": "知井宮町５－１",
    "lat": 35.3388068,
    "lng": 132.7162638,
    "tel": "0853-23-8762",
    "url": "https://eikoh-elc.com",
    "pref": "島根県",
    "city": "出雲市",
    "category": "community_day_service",
    "serviceType": "地域密着型通所介護",
    "capacity": 5,
    "openDays": [
      "平日",
      "土曜日",
      "祝日"
    ],
    "openDaysNote": ""
  },
  {
    "id": "3270402419",
    "name": "デイサービス金太郎の家やまぶき",
    "kana": "デイサービスキンタロウノイエヤマブキ",
    "address": "島根県出雲市斐川町学頭1511番地1金太郎の家 金太郎の家",
    "lat": 35.3904550572181,
    "lng": 132.872239417999,
    "tel": "0853-72-5110",
    "url": "http://www.kintarounoie.jp/",
    "pref": "島根県",
    "city": "出雲市",
    "category": "community_day_service",
    "serviceType": "地域密着型通所介護",
    "capacity": 13,
    "openDays": [
      "平日",
      "土曜日",
      "祝日"
    ],
    "openDaysNote": ""
  },
  {
    "id": "3271600565",
    "name": "デイサービス向日葵の家",
    "kana": "デイサービスヒマワリノイエ",
    "address": "出雲市斐川町荘原3169-28",
    "lat": 35.4015101,
    "lng": 132.8656389,
    "tel": "0853-72-5109",
    "url": "http://tsukasaizumo.html.xdomain.jp/index.html",
    "pref": "島根県",
    "city": "出雲市",
    "category": "community_day_service",
    "serviceType": "地域密着型通所介護",
    "capacity": 0,
    "openDays": [
      "平日",
      "土曜日",
      "祝日"
    ],
    "openDaysNote": "なし"
  },
  {
    "id": "3270401411",
    "name": "デイサービス寿生の家",
    "kana": "デイサービスジュセイノイエ",
    "address": "出雲市上塩冶町2854-5",
    "lat": 35.3546654364406,
    "lng": 132.776860676057,
    "tel": "0853-25-0241",
    "url": "http://www.juseikai.jp",
    "pref": "島根県",
    "city": "出雲市",
    "category": "community_day_service",
    "serviceType": "地域密着型通所介護",
    "capacity": 15,
    "openDays": [
      "平日",
      "土曜日"
    ],
    "openDaysNote": "なし"
  },
  {
    "id": "3271600664",
    "name": "デイサービス新川",
    "kana": "デイサービスシンカワ",
    "address": "島根県出雲市斐川町大字上庄原字上新川1634番地5",
    "lat": 35.3880998145184,
    "lng": 132.831178101105,
    "tel": "0853-73-7363",
    "url": "http://www.h-ikkou.co.jp",
    "pref": "島根県",
    "city": "出雲市",
    "category": "community_day_service",
    "serviceType": "地域密着型通所介護",
    "capacity": 13,
    "openDays": [
      "平日",
      "祝日"
    ],
    "openDaysNote": ""
  },
  {
    "id": "3270400538",
    "name": "ハピネデイサービスセンター出雲",
    "kana": "ハピネデイサービスセンターイズモ",
    "address": "出雲市渡橋町303番地3",
    "lat": 35.3682208,
    "lng": 132.7451795,
    "tel": "0853-23-8840",
    "url": "http://www.hapine.com",
    "pref": "島根県",
    "city": "出雲市",
    "category": "community_day_service",
    "serviceType": "地域密着型通所介護",
    "capacity": 15,
    "openDays": [
      "平日",
      "土曜日",
      "祝日"
    ],
    "openDaysNote": "２８年９月１９日より祝祭日も営業"
  },
  {
    "id": "3271600656",
    "name": "ひかわ生協デイサービス　ふらみんご",
    "kana": "ヒカワセイキョウデイサービス　フラミンゴ",
    "address": "島根県出雲市斐川町直江４８８３番地１",
    "lat": 35.3927886,
    "lng": 132.8233347,
    "tel": "0853-72-0353",
    "url": "http://www.hikawa-hp.com",
    "pref": "島根県",
    "city": "出雲市",
    "category": "community_day_service",
    "serviceType": "地域密着型通所介護",
    "capacity": 0,
    "openDays": [
      "平日",
      "土曜日",
      "祝日"
    ],
    "openDaysNote": "なし"
  },
  {
    "id": "3290400583",
    "name": "フロディいずも",
    "kana": "フロディイズモ",
    "address": "塩冶有原町５丁目３６番地",
    "lat": 35.3578193,
    "lng": 132.7470297,
    "tel": "0853-25-7711",
    "url": "",
    "pref": "島根県",
    "city": "出雲市",
    "category": "community_day_service",
    "serviceType": "地域密着型通所介護",
    "capacity": 0,
    "openDays": [
      "平日"
    ],
    "openDaysNote": ""
  },
  {
    "id": "3290400807",
    "name": "やまねこデイサービス",
    "kana": "ヤマネコデイサービス",
    "address": "島根県出雲市芦渡町789-2",
    "lat": 35.3411306,
    "lng": 132.727903,
    "tel": "0853-31-6971",
    "url": "",
    "pref": "島根県",
    "city": "出雲市",
    "category": "community_day_service",
    "serviceType": "地域密着型通所介護",
    "capacity": null,
    "openDays": [
      "平日",
      "祝日"
    ],
    "openDaysNote": "１日2単位制の為、午前中は9：10～12：15、午後は13：40～16：45"
  },
  {
    "id": "3270401916",
    "name": "介護予防センター　早稲田イーライフきらり",
    "kana": "カイゴヨボウセンター　ワセダイーライフキラリ",
    "address": "島根県出雲市湖陵町二部1192番地1",
    "lat": 35.322219,
    "lng": 132.6794102,
    "tel": "0853-43-8080",
    "url": "http://www.h-sweet-home.com/",
    "pref": "島根県",
    "city": "出雲市",
    "category": "community_day_service",
    "serviceType": "地域密着型通所介護",
    "capacity": 100,
    "openDays": [
      "平日",
      "祝日"
    ],
    "openDaysNote": "お盆・年末年始についてはその年によって変動あり。"
  },
  {
    "id": "3270402310",
    "name": "介護予防センター　早稲田イーライフ出雲",
    "kana": "カイゴヨボウセンター　ワセダイーライフイズモ",
    "address": "大津新崎町1丁目29番地1",
    "lat": 35.3702295,
    "lng": 132.7663606,
    "tel": "0853－25－8412",
    "url": "http://www.h-sweet-home.com",
    "pref": "島根県",
    "city": "出雲市",
    "category": "community_day_service",
    "serviceType": "地域密着型通所介護",
    "capacity": 0,
    "openDays": [
      "平日",
      "祝日"
    ],
    "openDaysNote": ""
  },
  {
    "id": "3270401361",
    "name": "社会福祉法人やまゆり　通所やまゆり",
    "kana": "シャカイフクシホウジンヤマユリ　ツウショヤマユリ",
    "address": "島根県出雲市佐田町一窪田1961番地５",
    "lat": 35.2338617,
    "lng": 132.6715034,
    "tel": "0853-85-8100",
    "url": "http://www.izumo-yamayuri.or.jp",
    "pref": "島根県",
    "city": "出雲市",
    "category": "community_day_service",
    "serviceType": "地域密着型通所介護",
    "capacity": 0,
    "openDays": [
      "平日",
      "祝日"
    ],
    "openDaysNote": "なし"
  },
  {
    "id": "3290400773",
    "name": "社会福祉法人静和会プライム清流園デイサービスセンター",
    "kana": "シャカイフクシホウジンセイワカイプライムセイリュウエンデイサービスセンター",
    "address": "島根県出雲市大津町3529",
    "lat": 35.3592597,
    "lng": 132.7836612,
    "tel": "0583-25-8356",
    "url": "https://www.seiryuuen.com/page533016.html",
    "pref": "島根県",
    "city": "出雲市",
    "category": "community_day_service",
    "serviceType": "地域密着型通所介護",
    "capacity": null,
    "openDays": [
      "平日",
      "土曜日",
      "日曜日",
      "祝日"
    ],
    "openDaysNote": "なし"
  },
  {
    "id": "3270401551",
    "name": "出雲市里家センター",
    "kana": "イズモシサトイエセンター",
    "address": "出雲市乙立町3162番地",
    "lat": 35.2847589,
    "lng": 132.7253393,
    "tel": "0853-45-0378",
    "url": "",
    "pref": "島根県",
    "city": "出雲市",
    "category": "community_day_service",
    "serviceType": "地域密着型通所介護",
    "capacity": 12,
    "openDays": [
      "平日",
      "祝日"
    ],
    "openDaysNote": ""
  },
  {
    "id": "3271600144",
    "name": "出東デイサービスセンター",
    "kana": "シュットウデイサービスセンター",
    "address": "島根県出雲市斐川町三分市1077",
    "lat": 35.4149742,
    "lng": 132.8476064,
    "tel": "0853-63-3777",
    "url": "https://syuttou-fukushikai.net/day/",
    "pref": "島根県",
    "city": "出雲市",
    "category": "community_day_service",
    "serviceType": "地域密着型通所介護",
    "capacity": 0,
    "openDays": [
      "平日",
      "土曜日",
      "祝日"
    ],
    "openDaysNote": "令和6年7月より土曜日の営業を開始。令和6年度より年末年始の休みを変更し短縮。"
  },
  {
    "id": "3270401882",
    "name": "笑庵ことぶき通所介護事業所",
    "kana": "ショウアンコトブキツウショカイゴジギョウショ",
    "address": "古志町344",
    "lat": 35.3533807,
    "lng": 132.7384584,
    "tel": "0853-25-7701",
    "url": "http://kotobuki1071.jimdofree.com",
    "pref": "島根県",
    "city": "出雲市",
    "category": "community_day_service",
    "serviceType": "地域密着型通所介護",
    "capacity": null,
    "openDays": [
      "平日",
      "土曜日",
      "祝日"
    ],
    "openDaysNote": "時間外の利用や、定休日の急な利用も法人の自主事業での対応可能。"
  },
  {
    "id": "3270402534",
    "name": "茶話本舗デイサービス出雲",
    "kana": "サワホンポデイサービスイズモ",
    "address": "島根県出雲市大津新崎町5-38-1",
    "lat": 35.3681548,
    "lng": 132.7697241,
    "tel": "0853-25-8535",
    "url": "https://sawaizumo.wixsite.com/home",
    "pref": "島根県",
    "city": "出雲市",
    "category": "community_day_service",
    "serviceType": "地域密着型通所介護",
    "capacity": 10,
    "openDays": [
      "平日",
      "土曜日",
      "日曜日",
      "祝日"
    ],
    "openDaysNote": "昼食代　550円（おやつ代含む）"
  },
  {
    "id": "3270401403",
    "name": "通所　かがやきの家",
    "kana": "ツウショ　カガヤキノイエ",
    "address": "島根県出雲市佐田町須佐736番地2",
    "lat": 35.2356074,
    "lng": 132.7355983,
    "tel": "0853-84-9300",
    "url": "http://www.izumo-yamayuri.or.jp",
    "pref": "島根県",
    "city": "出雲市",
    "category": "community_day_service",
    "serviceType": "地域密着型通所介護",
    "capacity": 0,
    "openDays": [
      "平日",
      "祝日"
    ],
    "openDaysNote": "なし"
  },
  {
    "id": "3270401288",
    "name": "通所介護長浜味覚亭",
    "kana": "ツウショカイゴナガハマミカクテイ",
    "address": "出雲市西園町500番地1",
    "lat": 35.3506829,
    "lng": 132.6987374,
    "tel": "0853-28-2828",
    "url": "",
    "pref": "島根県",
    "city": "出雲市",
    "category": "community_day_service",
    "serviceType": "地域密着型通所介護",
    "capacity": 18,
    "openDays": [
      "平日",
      "土曜日",
      "祝日"
    ],
    "openDaysNote": ""
  },
  {
    "id": "3290400708",
    "name": "稗原デイサービスセンター　やまゆり",
    "kana": "ヒエバラデイサービスセンター　ヤマユリ",
    "address": "島根県出雲市稗原町1724番地",
    "lat": 35.305691,
    "lng": 132.802745,
    "tel": "0853-77-2497",
    "url": "http://www.izumo-yamayuri.or.jp",
    "pref": "島根県",
    "city": "出雲市",
    "category": "community_day_service",
    "serviceType": "地域密着型通所介護",
    "capacity": null,
    "openDays": [
      "平日"
    ],
    "openDaysNote": ""
  },
  {
    "id": "3290400674",
    "name": "穂なみデイサービスセンターひかわ",
    "kana": "ホナミデイサービスセンターヒカワ",
    "address": "島根県出雲市斐川町上直江２４３－３",
    "lat": 35.3867696,
    "lng": 132.807716,
    "tel": "0853-25-7946",
    "url": "http://cs-izumo.jp/",
    "pref": "島根県",
    "city": "出雲市",
    "category": "community_day_service",
    "serviceType": "地域密着型通所介護",
    "capacity": 18,
    "openDays": [
      "平日",
      "土曜日",
      "祝日"
    ],
    "openDaysNote": "その他天候等の状況により臨時休業することがあります。"
  },
  {
    "id": "3290400757",
    "name": "穂なみデイサービスセンターひらた",
    "kana": "ホナミデイサービスセンターヒラタ",
    "address": "島根県出雲市平田町1953－3",
    "lat": 35.4257875,
    "lng": 132.8187485,
    "tel": "0853－62－9365",
    "url": "",
    "pref": "島根県",
    "city": "出雲市",
    "category": "community_day_service",
    "serviceType": "地域密着型通所介護",
    "capacity": 0,
    "openDays": [
      "平日",
      "土曜日",
      "祝日"
    ],
    "openDaysNote": "なし"
  },
  {
    "id": "3290400724",
    "name": "穂なみデイサービスセンターみなみ",
    "kana": "ホナミデイサービスセンターミナミ",
    "address": "里方町116番地",
    "lat": 35.3921958,
    "lng": 132.7434938,
    "tel": "0853-20-1218",
    "url": "http://cs-izumo.jp/",
    "pref": "島根県",
    "city": "出雲市",
    "category": "community_day_service",
    "serviceType": "地域密着型通所介護",
    "capacity": 0,
    "openDays": [
      "平日",
      "土曜日",
      "祝日"
    ],
    "openDaysNote": ""
  },
  {
    "id": "3290400732",
    "name": "連珠　出雲四絡",
    "kana": "レンジュ　イズモヨツガネ",
    "address": "島根県出雲市小山町633-1",
    "lat": 35.375242,
    "lng": 132.7458026,
    "tel": "0853-25-7557",
    "url": "",
    "pref": "島根県",
    "city": "出雲市",
    "category": "community_day_service",
    "serviceType": "地域密着型通所介護",
    "capacity": 0,
    "openDays": [
      "平日",
      "土曜日"
    ],
    "openDaysNote": "午前と午後の二単位で、午前9：00～12：05、午後12：10～15：15となっております。"
  },
  {
    "id": "3290100803",
    "name": "cohamaterrace",
    "kana": "コハマ　テラス",
    "address": "島根県松江市東朝日町町234番地1",
    "lat": 35.4623856,
    "lng": 133.0758788,
    "tel": "0852-61-9060",
    "url": "",
    "pref": "島根県",
    "city": "松江市",
    "category": "community_day_service",
    "serviceType": "地域密着型通所介護",
    "capacity": 0,
    "openDays": [
      "平日",
      "土曜日",
      "祝日"
    ],
    "openDaysNote": ""
  },
  {
    "id": "3290100902",
    "name": "Ｌ．Ｃ．Ｃ．ういんぐ",
    "kana": "エルシーシーウイング",
    "address": "島根県松江市東持田町222",
    "lat": 35.4994139,
    "lng": 133.082285,
    "tel": "0852-24-8871",
    "url": "http://www.tidori.org/",
    "pref": "島根県",
    "city": "松江市",
    "category": "community_day_service",
    "serviceType": "地域密着型通所介護",
    "capacity": 0,
    "openDays": [
      "平日",
      "祝日"
    ],
    "openDaysNote": "盆休・年末年始休業はカレンダーにより変動あり"
  },
  {
    "id": "3270101037",
    "name": "あいかの里介護福祉サービスセンター",
    "kana": "アイカノサト　カイゴフクシサービスセンター",
    "address": "島根県松江市岡本町1138番地1",
    "lat": 35.4806301,
    "lng": 132.9509626,
    "tel": "0852-88-9015",
    "url": "http://kohoku-aikanosato.jp",
    "pref": "島根県",
    "city": "松江市",
    "category": "community_day_service",
    "serviceType": "地域密着型通所介護",
    "capacity": null,
    "openDays": [
      "平日",
      "土曜日",
      "祝日"
    ],
    "openDaysNote": "なし"
  },
  {
    "id": "3290100779",
    "name": "あいデイサービス",
    "kana": "アイデイサービス",
    "address": "島根県松江市大庭町1808-10",
    "lat": 35.4333179,
    "lng": 133.0861332,
    "tel": "0852-61-5157",
    "url": "",
    "pref": "島根県",
    "city": "松江市",
    "category": "community_day_service",
    "serviceType": "地域密着型通所介護",
    "capacity": null,
    "openDays": [
      "平日"
    ],
    "openDaysNote": ""
  },
  {
    "id": "3290100654",
    "name": "あおぞら八重垣デイサービスセンター",
    "kana": "アオゾラヤエガキデイサービスセンター",
    "address": "島根県松江市上乃木２丁目２７番２０号",
    "lat": 35.4502203,
    "lng": 133.062005,
    "tel": "０８５２－３１－６０３０",
    "url": "http://careguid,co,jp",
    "pref": "島根県",
    "city": "松江市",
    "category": "community_day_service",
    "serviceType": "地域密着型通所介護",
    "capacity": null,
    "openDays": [
      "平日"
    ],
    "openDaysNote": ""
  },
  {
    "id": "3290100829",
    "name": "あかつきデイサービス",
    "kana": "アカツキデイサービス",
    "address": "島根県松江市大庭町1811-3",
    "lat": 35.430084,
    "lng": 133.088557,
    "tel": "0852-31-2311",
    "url": "",
    "pref": "島根県",
    "city": "松江市",
    "category": "community_day_service",
    "serviceType": "地域密着型通所介護",
    "capacity": 0,
    "openDays": [
      "平日",
      "祝日"
    ],
    "openDaysNote": "一日2単位制の為、午前は9：00～12：05、午後は13：45～16：50"
  },
  {
    "id": "3270103124",
    "name": "ココ・リハ乃木",
    "kana": "ココリハ　ノギ",
    "address": "松江市上乃木5-12-21",
    "lat": 35.447779,
    "lng": 133.0679658,
    "tel": "0852-67-6125",
    "url": "",
    "pref": "島根県",
    "city": "松江市",
    "category": "community_day_service",
    "serviceType": "地域密着型通所介護",
    "capacity": 0,
    "openDays": [
      "平日",
      "土曜日",
      "祝日"
    ],
    "openDaysNote": ""
  },
  {
    "id": "3270103306",
    "name": "さくらデイサービス",
    "kana": "サクラデイサービス",
    "address": "島根県松江市大庭町1808-10",
    "lat": 35.4332845967365,
    "lng": 133.086009975533,
    "tel": "0852-61-5157",
    "url": "https://matue-dayservice.jimdofree.com/",
    "pref": "島根県",
    "city": "松江市",
    "category": "community_day_service",
    "serviceType": "地域密着型通所介護",
    "capacity": 200,
    "openDays": [
      "平日",
      "土曜日"
    ],
    "openDaysNote": ""
  },
  {
    "id": "3290100704",
    "name": "さくらデイサービス橋北",
    "kana": "サクラデイサービスキョウホク",
    "address": "島根県松江市石橋町２２５",
    "lat": 35.4825054,
    "lng": 133.0599124,
    "tel": "0852-78-9093",
    "url": "https://matue-dayservice.jimdofree.com/",
    "pref": "島根県",
    "city": "松江市",
    "category": "community_day_service",
    "serviceType": "地域密着型通所介護",
    "capacity": 0,
    "openDays": [
      "平日",
      "土曜日"
    ],
    "openDaysNote": ""
  },
  {
    "id": "3270103876",
    "name": "だんだんデイサービス東津田",
    "kana": "ダンダンデイサービスヒガシツダ",
    "address": "東津田町１８７７－３",
    "lat": 35.4542708,
    "lng": 133.09796,
    "tel": "0852-61-8871",
    "url": "",
    "pref": "島根県",
    "city": "松江市",
    "category": "community_day_service",
    "serviceType": "地域密着型通所介護",
    "capacity": 0,
    "openDays": [
      "平日",
      "土曜日",
      "祝日"
    ],
    "openDaysNote": "提供時間は　９：３０～１６：３５（但し、通所型サービスＡは　９：３０～１３：３０）（改行）その他は要相談"
  },
  {
    "id": "3270102464",
    "name": "デイサービス　かりん",
    "kana": "デイサービス　カリン",
    "address": "島根県松江市浜佐田町９５８－６",
    "lat": 35.4717696,
    "lng": 133.028099,
    "tel": "0852-36-4963",
    "url": "",
    "pref": "島根県",
    "city": "松江市",
    "category": "community_day_service",
    "serviceType": "地域密着型通所介護",
    "capacity": 14,
    "openDays": [
      "平日",
      "土曜日",
      "祝日"
    ],
    "openDaysNote": ""
  },
  {
    "id": "3270101250",
    "name": "デイサービス　きねづか",
    "kana": "デイサービス　キネヅカ",
    "address": "島根県松江市上本庄町５７２ー３",
    "lat": 35.5092222,
    "lng": 133.1285378,
    "tel": "0852-34-1088",
    "url": "https://www.kineduka-kami-honjou.jp",
    "pref": "島根県",
    "city": "松江市",
    "category": "community_day_service",
    "serviceType": "地域密着型通所介護",
    "capacity": 18,
    "openDays": [
      "平日",
      "祝日"
    ],
    "openDaysNote": ""
  },
  {
    "id": "3290100662",
    "name": "デイサービス　ノワ",
    "kana": "デイサービス　ノワ",
    "address": "島根県松江市上乃木8丁目3番30号",
    "lat": 35.4421543,
    "lng": 133.0665029,
    "tel": "0852-67-1911",
    "url": "uprice-nowa.com",
    "pref": "島根県",
    "city": "松江市",
    "category": "community_day_service",
    "serviceType": "地域密着型通所介護",
    "capacity": 10,
    "openDays": [
      "平日",
      "祝日"
    ],
    "openDaysNote": ""
  },
  {
    "id": "3270103280",
    "name": "デイサービス　もみの木苑",
    "kana": "デイサービス　モミノキエン",
    "address": "島根県松江市東出雲町出雲郷771－4",
    "lat": 35.4271207955731,
    "lng": 133.137920152115,
    "tel": "0852－67－1158",
    "url": "http://www.mominokien.jp/",
    "pref": "島根県",
    "city": "松江市",
    "category": "community_day_service",
    "serviceType": "地域密着型通所介護",
    "capacity": 18,
    "openDays": [
      "平日",
      "土曜日",
      "祝日"
    ],
    "openDaysNote": ""
  },
  {
    "id": "3271100426",
    "name": "デイサービス　愛桜",
    "kana": "デイサービス　アイザクラ",
    "address": "島根県松江市鹿島町名分1348番地2",
    "lat": 35.5090575,
    "lng": 133.0080639,
    "tel": "0852-82-9115",
    "url": "http//www.kashima-fukushikai.jp",
    "pref": "島根県",
    "city": "松江市",
    "category": "community_day_service",
    "serviceType": "地域密着型通所介護",
    "capacity": 0,
    "openDays": [
      "平日",
      "祝日"
    ],
    "openDaysNote": "なし"
  },
  {
    "id": "3270102803",
    "name": "デイサービス　晴春",
    "kana": "デイサービス　ハル",
    "address": "東出雲町揖屋１２０８－９",
    "lat": 35.4266197,
    "lng": 133.1518374,
    "tel": "0852-52-7078",
    "url": "http://asuka-mirai.com",
    "pref": "島根県",
    "city": "松江市",
    "category": "community_day_service",
    "serviceType": "地域密着型通所介護",
    "capacity": 0,
    "openDays": [
      "平日",
      "祝日"
    ],
    "openDaysNote": ""
  },
  {
    "id": "3290100647",
    "name": "デイサービスあかり",
    "kana": "デイサービスアカリ",
    "address": "松江市黒田町60アダージョ黒田 アダージョ黒田",
    "lat": 35.4842843985872,
    "lng": 133.039594665576,
    "tel": "0852-67-6548",
    "url": "",
    "pref": "島根県",
    "city": "松江市",
    "category": "community_day_service",
    "serviceType": "地域密着型通所介護",
    "capacity": 15,
    "openDays": [
      "平日",
      "土曜日"
    ],
    "openDaysNote": ""
  },
  {
    "id": "3290100688",
    "name": "デイサービスあったかホーム",
    "kana": "デイサービスアッタカホーム",
    "address": "島根県松江市大庭町432番地14",
    "lat": 35.4288285,
    "lng": 133.0908341,
    "tel": "0852-61-2031",
    "url": "",
    "pref": "島根県",
    "city": "松江市",
    "category": "community_day_service",
    "serviceType": "地域密着型通所介護",
    "capacity": 0,
    "openDays": [
      "平日",
      "土曜日",
      "祝日"
    ],
    "openDaysNote": ""
  },
  {
    "id": "3290100720",
    "name": "デイサービスセンターらいふ嫁",
    "kana": "デイサービスセンターライフヨメシマ",
    "address": "島根県松江市西嫁島1丁目3-3",
    "lat": 35.4484758,
    "lng": 133.048473,
    "tel": "0852-61-8868",
    "url": "",
    "pref": "島根県",
    "city": "松江市",
    "category": "community_day_service",
    "serviceType": "地域密着型通所介護",
    "capacity": null,
    "openDays": [
      "平日"
    ],
    "openDaysNote": ""
  },
  {
    "id": "3270103835",
    "name": "デイサービス一休庵・東津田",
    "kana": "デイサービスイッキュウアンヒガシツダ",
    "address": "島根県松江市東津田町465-3",
    "lat": 35.4589447,
    "lng": 133.0833197,
    "tel": "0852-24-8690",
    "url": "https://emukea-ikkyuuan.jimdo.com/%E3%83%87%E3%82%A4%E3%82%B5%E3%83%BC%E3%83%93%E3%82%B9%E4%B8%80%E4%BC%91%E5%BA%B5-%E6%9D%B1%E6%B4%A5%E7%94%B0/",
    "pref": "島根県",
    "city": "松江市",
    "category": "community_day_service",
    "serviceType": "地域密着型通所介護",
    "capacity": 7,
    "openDays": [
      "平日",
      "土曜日",
      "祝日"
    ],
    "openDaysNote": ""
  },
  {
    "id": "3270101185",
    "name": "デイサービス敬愛苑",
    "kana": "デイサービスケイアイエン",
    "address": "松江市寺町１９８－５７ボートピア松江ビル４階 ボートピア松江ビル４階",
    "lat": 35.4643448,
    "lng": 133.0584168,
    "tel": "0852-60-2330",
    "url": "",
    "pref": "島根県",
    "city": "松江市",
    "category": "community_day_service",
    "serviceType": "地域密着型通所介護",
    "capacity": 15,
    "openDays": [
      "平日",
      "祝日"
    ],
    "openDaysNote": "なし"
  },
  {
    "id": "3270103439",
    "name": "デイサービス松寿",
    "kana": "デイサービスショウジュ",
    "address": "比津町295番5",
    "lat": 35.4867264,
    "lng": 133.0361506,
    "tel": "0852-61-5678",
    "url": "http://hitsugaoka.com",
    "pref": "島根県",
    "city": "松江市",
    "category": "community_day_service",
    "serviceType": "地域密着型通所介護",
    "capacity": 15,
    "openDays": [
      "平日",
      "土曜日"
    ],
    "openDaysNote": ""
  },
  {
    "id": "3270102829",
    "name": "デイサービス陽恵苑",
    "kana": "デイサービスヨウケイエン",
    "address": "島根県松江市馬潟町92番地1",
    "lat": 35.4433999348914,
    "lng": 133.111700271342,
    "tel": "0852-38-8127",
    "url": "http://www.youkeien.or.jp/",
    "pref": "島根県",
    "city": "松江市",
    "category": "community_day_service",
    "serviceType": "地域密着型通所介護",
    "capacity": 0,
    "openDays": [
      "平日",
      "祝日"
    ],
    "openDaysNote": ""
  },
  {
    "id": "3270103660",
    "name": "デイサロンえんじゅ",
    "kana": "デイサロンエンジュ",
    "address": "島根県松江市北堀町32番地メゾン・ドゥ・イグレック1階 メゾン・ドゥ・イグレック1階",
    "lat": 35.4770697,
    "lng": 133.0531632,
    "tel": "0852-28-0127",
    "url": "http://www.enjyu-plus.jp/",
    "pref": "島根県",
    "city": "松江市",
    "category": "community_day_service",
    "serviceType": "地域密着型通所介護",
    "capacity": 15,
    "openDays": [
      "平日",
      "祝日"
    ],
    "openDaysNote": "ただし、悪天候の際は、状況を見て休止する場合があります。"
  },
  {
    "id": "3270101987",
    "name": "デイホームきたうら",
    "kana": "デイホームキタウラ",
    "address": "島根県松江市美保関町北浦978",
    "lat": 35.5643192165508,
    "lng": 133.159424617366,
    "tel": "0852-75-0180",
    "url": "http://siawase‐s.net",
    "pref": "島根県",
    "city": "松江市",
    "category": "community_day_service",
    "serviceType": "地域密着型通所介護",
    "capacity": 10,
    "openDays": [
      "平日"
    ],
    "openDaysNote": "なし"
  },
  {
    "id": "3270101292",
    "name": "デイホームしあわせ",
    "kana": "デイホームシアワセ",
    "address": "島根県松江市美保関町北浦978",
    "lat": 35.5642901406935,
    "lng": 133.15962475798,
    "tel": "0852-75-0111",
    "url": "http://siawase‐s.net",
    "pref": "島根県",
    "city": "松江市",
    "category": "community_day_service",
    "serviceType": "地域密着型通所介護",
    "capacity": 10,
    "openDays": [
      "平日"
    ],
    "openDaysNote": ""
  },
  {
    "id": "3270103686",
    "name": "デイホーム楽",
    "kana": "デイホームラク",
    "address": "島根県松江市美保関町北浦300",
    "lat": 35.560387,
    "lng": 133.1543671,
    "tel": "0852－75－0139",
    "url": "http://siawase-s.net",
    "pref": "島根県",
    "city": "松江市",
    "category": "community_day_service",
    "serviceType": "地域密着型通所介護",
    "capacity": 0,
    "openDays": [
      "平日"
    ],
    "openDaysNote": ""
  },
  {
    "id": "3290100787",
    "name": "はな福デイサービス",
    "kana": "ハナフクデイサービス",
    "address": "島根県松江市玉湯町玉造102番13",
    "lat": 35.4164493,
    "lng": 133.013058,
    "tel": "0852-61-0980",
    "url": "",
    "pref": "島根県",
    "city": "松江市",
    "category": "community_day_service",
    "serviceType": "地域密着型通所介護",
    "capacity": 0,
    "openDays": [
      "平日",
      "土曜日"
    ],
    "openDaysNote": ""
  },
  {
    "id": "3270100575",
    "name": "ハピネデイサービスセンター松江",
    "kana": "ハピネデイサービスセンターマツエ",
    "address": "松江市学園2丁目33番27号ハピネケアセンター松江 ハピネケアセンター松江",
    "lat": 35.4817002,
    "lng": 133.0693004,
    "tel": "0852-20-5115",
    "url": "",
    "pref": "島根県",
    "city": "松江市",
    "category": "community_day_service",
    "serviceType": "地域密着型通所介護",
    "capacity": 15,
    "openDays": [
      "平日",
      "土曜日",
      "祝日"
    ],
    "openDaysNote": "なし。"
  },
  {
    "id": "3270101961",
    "name": "ふれあいセンター　友愛",
    "kana": "フレアイセンター　ユウアイ",
    "address": "松江市宍道町佐々布2145-172",
    "lat": 35.3989082,
    "lng": 132.8874898,
    "tel": "0852-66-3923",
    "url": "",
    "pref": "島根県",
    "city": "松江市",
    "category": "community_day_service",
    "serviceType": "地域密着型通所介護",
    "capacity": 5,
    "openDays": [
      "平日",
      "土曜日",
      "祝日"
    ],
    "openDaysNote": ""
  },
  {
    "id": "3270103132",
    "name": "まる福デイサービス",
    "kana": "マルフクデイサービス",
    "address": "島根県松江市浜乃木2丁目15番32号",
    "lat": 35.4450674756817,
    "lng": 133.048683164453,
    "tel": "0852-61-6901",
    "url": "",
    "pref": "島根県",
    "city": "松江市",
    "category": "community_day_service",
    "serviceType": "地域密着型通所介護",
    "capacity": 14,
    "openDays": [
      "平日",
      "祝日"
    ],
    "openDaysNote": ""
  },
  {
    "id": "3270103504",
    "name": "もちだの郷デイサービス",
    "kana": "モチダノサト　デイサービス",
    "address": "島根県松江市東持田町520番地１",
    "lat": 35.5080949,
    "lng": 133.0857084,
    "tel": "0852-20-1770",
    "url": "https://mochidanosato.com/",
    "pref": "島根県",
    "city": "松江市",
    "category": "community_day_service",
    "serviceType": "地域密着型通所介護",
    "capacity": 0,
    "openDays": [
      "平日"
    ],
    "openDaysNote": ""
  },
  {
    "id": "3290100746",
    "name": "らぶらぶデイサービスセンター",
    "kana": "ラブラブデイサービスセンター",
    "address": "島根県松江市竹矢町１８３４番地",
    "lat": 35.4362379,
    "lng": 133.1237283,
    "tel": "0852-37-0683",
    "url": "",
    "pref": "島根県",
    "city": "松江市",
    "category": "community_day_service",
    "serviceType": "地域密着型通所介護",
    "capacity": 10,
    "openDays": [
      "平日",
      "土曜日",
      "祝日"
    ],
    "openDaysNote": "なし"
  },
  {
    "id": "3270103462",
    "name": "リハサロン　明日夢",
    "kana": "リハサロン　アスム",
    "address": "島根県松江市学園２丁目３０－２２",
    "lat": 35.4829389,
    "lng": 133.0697586,
    "tel": "０８５２－６１－３６００",
    "url": "",
    "pref": "島根県",
    "city": "松江市",
    "category": "community_day_service",
    "serviceType": "地域密着型通所介護",
    "capacity": 18,
    "openDays": [
      "平日"
    ],
    "openDaysNote": ""
  },
  {
    "id": "3270100914",
    "name": "健笑庵　いくま",
    "kana": "ケンショウアン　イクマ",
    "address": "島根県松江市西生馬482",
    "lat": 35.4952583,
    "lng": 133.0248763,
    "tel": "0852-36-4192",
    "url": "http://hot-matsue.com/kotobuki/index.html",
    "pref": "島根県",
    "city": "松江市",
    "category": "community_day_service",
    "serviceType": "地域密着型通所介護",
    "capacity": 0,
    "openDays": [
      "平日",
      "日曜日",
      "祝日"
    ],
    "openDaysNote": "日曜日は事前の計画に基づき、アクティビティー活動に特化した活動日として、月１回を営業日としています。また感染症の影響や自然災害や警報級の気象状況により関係機関からの要請や独自に安全を確保できないこと判断した場合は、定休日外に休業する場合もあります。この場合は事前に確認した連絡網を活用して周知致します。"
  },
  {
    "id": "3270101219",
    "name": "健笑庵　のぎ",
    "kana": "ケンショウアン　ノギ",
    "address": "島根県松江市浜乃木5-2-23",
    "lat": 35.4442736,
    "lng": 133.0528115,
    "tel": "0852-60-0660",
    "url": "http://hot-matue.com/kotobuki/index.html",
    "pref": "島根県",
    "city": "松江市",
    "category": "community_day_service",
    "serviceType": "地域密着型通所介護",
    "capacity": 15,
    "openDays": [
      "平日",
      "土曜日",
      "日曜日",
      "祝日"
    ],
    "openDaysNote": "日曜日は事前の計画に基づき、アクティビティー活動に特化した活動日として、月１回を営業日としています。また感染症の影響や自然災害や警報級の気象状況により関係機関からの要請や独自に安全を確保できないこと判断した場合は、定休日外に休業する場合もあります。この場合は事前に確認した連絡網を活用して周知致します。"
  },
  {
    "id": "3290100811",
    "name": "合同会社ほのぼの",
    "kana": "ゴウドウガイシャホノボノ",
    "address": "島根県松江市下東川津町２６８－６",
    "lat": 35.5028405,
    "lng": 133.0888947,
    "tel": "0852-24-0008",
    "url": "https://www.goudouhonobono.co.jp",
    "pref": "島根県",
    "city": "松江市",
    "category": "community_day_service",
    "serviceType": "地域密着型通所介護",
    "capacity": 10,
    "openDays": [
      "平日",
      "土曜日",
      "祝日"
    ],
    "openDaysNote": "台風や大雪など自然災害の発生時には、営業を行わない場合があります"
  },
  {
    "id": "3270100252",
    "name": "社会福祉法人ふれあい本庄デイサービスセンター",
    "kana": "シャカイフクシホウジンフレアイホンジョウデイサービスセンター",
    "address": "松江市野原町417番地2",
    "lat": 35.5161858,
    "lng": 133.1359562,
    "tel": "0852-34-1661",
    "url": "",
    "pref": "島根県",
    "city": "松江市",
    "category": "community_day_service",
    "serviceType": "地域密着型通所介護",
    "capacity": 0,
    "openDays": [
      "平日",
      "土曜日",
      "日曜日",
      "祝日"
    ],
    "openDaysNote": "なし"
  },
  {
    "id": "32A0100016",
    "name": "上口デイサービスセンター",
    "kana": "カミグチデイサービスセンター",
    "address": "島根県松江市古志原6丁目８番10号",
    "lat": 35.4409575,
    "lng": 133.0789765,
    "tel": "0852-61-0523",
    "url": "",
    "pref": "島根県",
    "city": "松江市",
    "category": "community_day_service",
    "serviceType": "地域密着型通所介護",
    "capacity": 0,
    "openDays": [
      "平日",
      "土曜日",
      "祝日"
    ],
    "openDaysNote": ""
  },
  {
    "id": "3290100753",
    "name": "第２らぶらぶデイサービス",
    "kana": "ダイニラブラブデイサービス",
    "address": "島根県松江市竹矢町１８３４番地",
    "lat": 35.4362379,
    "lng": 133.1237283,
    "tel": "0852-67-6066",
    "url": "",
    "pref": "島根県",
    "city": "松江市",
    "category": "community_day_service",
    "serviceType": "地域密着型通所介護",
    "capacity": 5,
    "openDays": [
      "平日",
      "土曜日"
    ],
    "openDaysNote": "なし"
  },
  {
    "id": "3270101656",
    "name": "地域密着型通所介護事業所　大野の郷",
    "kana": "チイキミッチャクガタツウショカイゴジギョウショオオノノサト",
    "address": "島根県松江市大野町167",
    "lat": 35.4724857,
    "lng": 132.9189884,
    "tel": "0852-88-3302",
    "url": "http://oono167.jp/",
    "pref": "島根県",
    "city": "松江市",
    "category": "community_day_service",
    "serviceType": "地域密着型通所介護",
    "capacity": 0,
    "openDays": [
      "平日",
      "祝日"
    ],
    "openDaysNote": "なし"
  },
  {
    "id": "3270102902",
    "name": "通所介護事業所　花きりん",
    "kana": "ツウショカイゴジギョウショ　ハナキリン",
    "address": "東出雲町意宇南5丁目4－1花きりんハウス東出雲 花きりんハウス東出雲",
    "lat": 35.4279508369679,
    "lng": 133.129668587697,
    "tel": "0852-67-5010",
    "url": "http://hanakirin.net",
    "pref": "島根県",
    "city": "松江市",
    "category": "community_day_service",
    "serviceType": "地域密着型通所介護",
    "capacity": 14,
    "openDays": [
      "平日",
      "祝日"
    ],
    "openDaysNote": "居宅サービス計画により、休業日及び営業時間外であってもサービスを提供する場合があります。"
  },
  {
    "id": "3270101763",
    "name": "堂形クラブ　デイサービス",
    "kana": "ドウガタクラブ　デイサービス",
    "address": "島根県松江市堂形町843",
    "lat": 35.4658762,
    "lng": 133.0405647,
    "tel": "0852-20-2000",
    "url": "https://202000.jp",
    "pref": "島根県",
    "city": "松江市",
    "category": "community_day_service",
    "serviceType": "地域密着型通所介護",
    "capacity": 0,
    "openDays": [
      "平日",
      "祝日"
    ],
    "openDaysNote": ""
  },
  {
    "id": "3290100894",
    "name": "明翔苑デイサービスセンター",
    "kana": "メイショウエン　デイサービスセンター",
    "address": "島根県松江市西浜佐陀町1399－34",
    "lat": 35.476404,
    "lng": 132.993447,
    "tel": "0852－36－3010",
    "url": "http://www.houshinkai-s.or.jp",
    "pref": "島根県",
    "city": "松江市",
    "category": "community_day_service",
    "serviceType": "地域密着型通所介護",
    "capacity": null,
    "openDays": [
      "平日",
      "土曜日",
      "祝日"
    ],
    "openDaysNote": "年末年始12/31～1/3は休み"
  },
  {
    "id": "3270100484",
    "name": "老人デイサービス事業きらめき",
    "kana": "ロウジンデイサービスジギョウキラメキ",
    "address": "松江市山代町934-5",
    "lat": 35.4399581,
    "lng": 133.0953609,
    "tel": "0852-31-3370",
    "url": "http://www.sirayurikai.or.jp/",
    "pref": "島根県",
    "city": "松江市",
    "category": "community_day_service",
    "serviceType": "地域密着型通所介護",
    "capacity": 10,
    "openDays": [
      "平日",
      "土曜日",
      "祝日"
    ],
    "openDaysNote": "なし"
  },
  {
    "id": "3272200712",
    "name": "ございな(デイサービスセンター)",
    "kana": "ゴザイナ(デイサービスセンター)",
    "address": "隠岐郡西ノ島町大字別府２０５番地１",
    "lat": 36.1126042,
    "lng": 133.0414571,
    "tel": "08514-7-8488",
    "url": "shion60.codmon.net",
    "pref": "島根県",
    "city": "西ノ島町",
    "category": "community_day_service",
    "serviceType": "地域密着型通所介護",
    "capacity": 0,
    "openDays": [
      "平日",
      "祝日"
    ],
    "openDaysNote": ""
  },
  {
    "id": "3270500642",
    "name": "デイサービス　李づみ野",
    "kana": "デイサービス　イヅミノ",
    "address": "大田町大田ロ204-18",
    "lat": 35.1845824,
    "lng": 132.5202857,
    "tel": "０８５４（８３）７３７６",
    "url": "",
    "pref": "島根県",
    "city": "大田市",
    "category": "community_day_service",
    "serviceType": "地域密着型通所介護",
    "capacity": 10,
    "openDays": [
      "平日",
      "祝日"
    ],
    "openDaysNote": ""
  },
  {
    "id": "3270500592",
    "name": "デイサービスセンター　きれんげ",
    "kana": "デイサービスセンター　キレンゲ",
    "address": "島根県大田市鳥井町鳥井1204番地",
    "lat": 35.2126272,
    "lng": 132.4789712,
    "tel": "0854-82-0233",
    "url": "http://kirenge.jp/",
    "pref": "島根県",
    "city": "大田市",
    "category": "community_day_service",
    "serviceType": "地域密着型通所介護",
    "capacity": 18,
    "openDays": [
      "平日",
      "土曜日",
      "日曜日",
      "祝日"
    ],
    "openDaysNote": ""
  },
  {
    "id": "3270500659",
    "name": "デイサービスセンターこころ路",
    "kana": "デイサービスセンターココロジ",
    "address": "島根県大田市静間町1241-6",
    "lat": 35.1920024780363,
    "lng": 132.470928775671,
    "tel": "0854-83-7555",
    "url": "",
    "pref": "島根県",
    "city": "大田市",
    "category": "community_day_service",
    "serviceType": "地域密着型通所介護",
    "capacity": 15,
    "openDays": [
      "平日",
      "土曜日",
      "祝日"
    ],
    "openDaysNote": ""
  },
  {
    "id": "3290500143",
    "name": "デイサービスセンターゆうイング",
    "kana": "デイサービスセンターユウイング",
    "address": "島根県大田市長久町土江55-2",
    "lat": 35.1950437,
    "lng": 132.4774484,
    "tel": "0854-84-0079",
    "url": "",
    "pref": "島根県",
    "city": "大田市",
    "category": "community_day_service",
    "serviceType": "地域密着型通所介護",
    "capacity": null,
    "openDays": [
      "平日",
      "土曜日",
      "祝日"
    ],
    "openDaysNote": ""
  },
  {
    "id": "3270500550",
    "name": "リハビリデイサービスnagomi大田店",
    "kana": "リハビリデイサービスナゴミオオダテン",
    "address": "島根県大田市長久町長久イ506-1",
    "lat": 35.198212865589,
    "lng": 132.4867114705,
    "tel": "0854-83-7099",
    "url": "http://www.my-nagomi.com/",
    "pref": "島根県",
    "city": "大田市",
    "category": "community_day_service",
    "serviceType": "地域密着型通所介護",
    "capacity": 15,
    "openDays": [
      "平日",
      "祝日"
    ],
    "openDaysNote": "但し、ゴールデンウィーク、お盆期間、年末年始は別途休業日有"
  },
  {
    "id": "3270500188",
    "name": "幸久の家ディサービスセンター",
    "kana": "コウキュウノイエデイサービスセンター",
    "address": "大田市久利町久利６９１",
    "lat": 35.1509838,
    "lng": 132.4748848,
    "tel": "0854-82-4669",
    "url": "http:www.koukyuunoie.co.jp",
    "pref": "島根県",
    "city": "大田市",
    "category": "community_day_service",
    "serviceType": "地域密着型通所介護",
    "capacity": 0,
    "openDays": [
      "平日",
      "祝日"
    ],
    "openDaysNote": "なし"
  },
  {
    "id": "3272200654",
    "name": "招福苑デイサービスセンター",
    "kana": "ショウフクエンデイサービスセンター",
    "address": "隠岐郡知夫村６６４番地",
    "lat": 36.0148231,
    "lng": 133.0425437,
    "tel": "08514-8-2001",
    "url": "",
    "pref": "島根県",
    "city": "知夫村",
    "category": "community_day_service",
    "serviceType": "地域密着型通所介護",
    "capacity": 25,
    "openDays": [
      "平日"
    ],
    "openDaysNote": "なし"
  },
  {
    "id": "3272100102",
    "name": "つわの指定通所介護事業所",
    "kana": "ツワノシテイツウショカイゴジギョウショ",
    "address": "島根県鹿足郡津和野町後田ロ１２６番地",
    "lat": 34.4674522609004,
    "lng": 131.775328683992,
    "tel": "0856-72-4050",
    "url": "http://www.silverleaf-tsuwano.server-shared.com/",
    "pref": "島根県",
    "city": "津和野町",
    "category": "community_day_service",
    "serviceType": "地域密着型通所介護",
    "capacity": null,
    "openDays": [
      "平日"
    ],
    "openDaysNote": "なし"
  },
  {
    "id": "3272100201",
    "name": "つわぶきデイホーム",
    "kana": "ツワブキデイホーム",
    "address": "島根県鹿足郡津和野町中座ロ66",
    "lat": 34.4554808,
    "lng": 131.7690837,
    "tel": "0856-72-4185",
    "url": "dayhome＠sun-net.jp",
    "pref": "島根県",
    "city": "津和野町",
    "category": "community_day_service",
    "serviceType": "地域密着型通所介護",
    "capacity": 0,
    "openDays": [
      "平日",
      "土曜日",
      "祝日"
    ],
    "openDaysNote": "なし"
  },
  {
    "id": "3272100276",
    "name": "つわぶきデイホーム➂",
    "kana": "ツワブキデイホーム",
    "address": "島根県鹿足郡津和野町町田イ82",
    "lat": 34.4585917,
    "lng": 131.7716,
    "tel": "0856-72-4185",
    "url": "dayhome＠sun-net.jp",
    "pref": "島根県",
    "city": "津和野町",
    "category": "community_day_service",
    "serviceType": "地域密着型通所介護",
    "capacity": 0,
    "openDays": [
      "平日",
      "土曜日",
      "祝日"
    ],
    "openDaysNote": "なし"
  },
  {
    "id": "3272100375",
    "name": "デイサービスセンター　希翔会",
    "kana": "デイサービスセンターキショウカイ",
    "address": "島根県鹿足郡津和野町後田ロ431",
    "lat": 34.4703045,
    "lng": 131.7761352,
    "tel": "0856-72-0835",
    "url": "kisyoukai-tuwano.webnode.jp",
    "pref": "島根県",
    "city": "津和野町",
    "category": "community_day_service",
    "serviceType": "地域密着型通所介護",
    "capacity": 6,
    "openDays": [
      "平日",
      "土曜日",
      "祝日"
    ],
    "openDaysNote": "早朝、時間延長、時間短縮など状況に応じて対応"
  },
  {
    "id": "3272100409",
    "name": "デイサービスセンター希翔会　2号館",
    "kana": "デイサービスセンターキショウカイ　ニゴウカン",
    "address": "島根県　鹿足郡　津和野町　森村イ605",
    "lat": 34.4648106,
    "lng": 131.774055,
    "tel": "0856-72-2950",
    "url": "https://kisyoukai-tuwano.webnode.jp/",
    "pref": "島根県",
    "city": "津和野町",
    "category": "community_day_service",
    "serviceType": "地域密着型通所介護",
    "capacity": 0,
    "openDays": [
      "平日",
      "土曜日",
      "祝日"
    ],
    "openDaysNote": "早朝、時間延長、時間短縮など状況に応じて対応"
  },
  {
    "id": "3272100086",
    "name": "にちはらデイサービスセンター",
    "kana": "ニチハラデイサービスセンター",
    "address": "島根県鹿足郡津和野町日原50番地2",
    "lat": 34.5429964,
    "lng": 131.8390857,
    "tel": "0856-74-0026",
    "url": "http://nichihara-hoshinosato.org",
    "pref": "島根県",
    "city": "津和野町",
    "category": "community_day_service",
    "serviceType": "地域密着型通所介護",
    "capacity": 0,
    "openDays": [
      "平日",
      "祝日"
    ],
    "openDaysNote": ""
  },
  {
    "id": "3272100250",
    "name": "通所介護事業所　ホリデイ",
    "kana": "ツウショカイゴジギョウショ　ホリデイ",
    "address": "津和野町河村506-3",
    "lat": 34.5454308,
    "lng": 131.8211067,
    "tel": "0856-74-2015",
    "url": "http://www.hori-kk.co.jp/about/kaigo/tsuwano/",
    "pref": "島根県",
    "city": "津和野町",
    "category": "community_day_service",
    "serviceType": "地域密着型通所介護",
    "capacity": null,
    "openDays": [
      "平日",
      "土曜日",
      "祝日"
    ],
    "openDaysNote": "なし"
  },
  {
    "id": "3271500369",
    "name": "デイサービスセンターまごのて",
    "kana": "デイサービスセンターマゴノテ",
    "address": "飯石郡飯南町下赤名116番地１",
    "lat": 35.0111586,
    "lng": 132.720901,
    "tel": "0854-76-3901",
    "url": "",
    "pref": "島根県",
    "city": "飯南町",
    "category": "community_day_service",
    "serviceType": "地域密着型通所介護",
    "capacity": 18,
    "openDays": [
      "平日",
      "土曜日",
      "祝日"
    ],
    "openDaysNote": "盆休み８月１４日から１６日（改行）年末年始休み１２月２９日から１月４日"
  },
  {
    "id": "3271500237",
    "name": "頓原デイサービスセンター",
    "kana": "トンバラデイサービスセンター",
    "address": "飯石郡飯南町佐見47番地2",
    "lat": 35.0795149,
    "lng": 132.7772299,
    "tel": "0854-72-1124",
    "url": "http://www.uaikai.jp/",
    "pref": "島根県",
    "city": "飯南町",
    "category": "community_day_service",
    "serviceType": "地域密着型通所介護",
    "capacity": 0,
    "openDays": [
      "平日",
      "土曜日",
      "祝日"
    ],
    "openDaysNote": "なし"
  },
  {
    "id": "3271500112",
    "name": "飯南町社会福祉協議会　地域密着型通所介護事業所",
    "kana": "イイナンチョウシャカイフクシキョウギカイ　チイキミッチャクガタツウショカイゴジギョウショ",
    "address": "野萱1826-2",
    "lat": 35.0294015,
    "lng": 132.7432207,
    "tel": "0854-76-2088",
    "url": "",
    "pref": "島根県",
    "city": "飯南町",
    "category": "community_day_service",
    "serviceType": "地域密着型通所介護",
    "capacity": 18,
    "openDays": [
      "平日",
      "土曜日",
      "祝日"
    ],
    "openDaysNote": "なし"
  },
  {
    "id": "3271900411",
    "name": "あさひデイサービス",
    "kana": "アサヒデイサービス",
    "address": "島根県浜田市旭町今市616番地",
    "lat": 34.8617808,
    "lng": 132.2577284,
    "tel": "0855-45-0330",
    "url": "",
    "pref": "島根県",
    "city": "浜田市",
    "category": "community_day_service",
    "serviceType": "地域密着型通所介護",
    "capacity": 0,
    "openDays": [
      "平日",
      "祝日"
    ],
    "openDaysNote": ""
  },
  {
    "id": "3290700263",
    "name": "いきいきプラス三隅店",
    "kana": "イキイキプラスミスミテン",
    "address": "島根県浜田市三隅町三隅1341",
    "lat": 34.7762433,
    "lng": 131.9642901,
    "tel": "0855-32-0039",
    "url": "https://mikawaen.com/",
    "pref": "島根県",
    "city": "浜田市",
    "category": "community_day_service",
    "serviceType": "地域密着型通所介護",
    "capacity": null,
    "openDays": [
      "平日",
      "祝日"
    ],
    "openDaysNote": "「平日・祝日」9時30分～16時35分の介護サービスを提供しております。（改行）「土曜・日曜」は営業しておりません。"
  },
  {
    "id": "3290700230",
    "name": "そうえんデイサービス熱田店",
    "kana": "ソウエンデイサービスアツタテン",
    "address": "島根県浜田市熱田t帳1265-1",
    "lat": 34.8687549,
    "lng": 132.0544837,
    "tel": "0855-25-5902",
    "url": "",
    "pref": "島根県",
    "city": "浜田市",
    "category": "community_day_service",
    "serviceType": "地域密着型通所介護",
    "capacity": 0,
    "openDays": [
      "平日",
      "祝日"
    ],
    "openDaysNote": ""
  },
  {
    "id": "3270701240",
    "name": "そうえんデイサービス浜田店",
    "kana": "ソウエンデイサービスハマダテン",
    "address": "島根県浜田市相生町3816番地相生第一ビル1Ｆ 相生第一ビル1Ｆ",
    "lat": 34.8971808,
    "lng": 132.0902796,
    "tel": "0855-25-5787",
    "url": "",
    "pref": "島根県",
    "city": "浜田市",
    "category": "community_day_service",
    "serviceType": "地域密着型通所介護",
    "capacity": 0,
    "openDays": [
      "平日",
      "祝日"
    ],
    "openDaysNote": "年末年始は定休日。"
  },
  {
    "id": "3270701174",
    "name": "デイサービス　あいあい",
    "kana": "デイサービス　アイアイ",
    "address": "島根県浜田市下府町875",
    "lat": 34.928436,
    "lng": 132.1097825,
    "tel": "0855-25-5019",
    "url": "",
    "pref": "島根県",
    "city": "浜田市",
    "category": "community_day_service",
    "serviceType": "地域密着型通所介護",
    "capacity": 15,
    "openDays": [
      "平日",
      "土曜日",
      "祝日"
    ],
    "openDaysNote": ""
  },
  {
    "id": "3270700499",
    "name": "デイサービス　おあしすかわのせ",
    "kana": "デイサービス　オアシスカワノセ",
    "address": "島根県浜田市下府町904",
    "lat": 34.9302816,
    "lng": 132.1085862,
    "tel": "0855-28-2088",
    "url": "",
    "pref": "島根県",
    "city": "浜田市",
    "category": "community_day_service",
    "serviceType": "地域密着型通所介護",
    "capacity": 0,
    "openDays": [
      "平日"
    ],
    "openDaysNote": ""
  },
  {
    "id": "3290700206",
    "name": "デイサービス　にこにこふくちゃん",
    "kana": "デイサービス　ニコニコフクチャン",
    "address": "島根県浜田市下府町327-43",
    "lat": 34.9156457,
    "lng": 132.1160601,
    "tel": "0855-25-0767",
    "url": "",
    "pref": "島根県",
    "city": "浜田市",
    "category": "community_day_service",
    "serviceType": "地域密着型通所介護",
    "capacity": null,
    "openDays": [
      "平日",
      "祝日"
    ],
    "openDaysNote": "なし。"
  },
  {
    "id": "3270701059",
    "name": "デイサービス　みたけや",
    "kana": "デイサービス　ミタケヤ",
    "address": "三隅町三隅1341",
    "lat": 34.7762905,
    "lng": 131.9642216,
    "tel": "0855-32-0039",
    "url": "http://hp.kaipoke.biz/arp/",
    "pref": "島根県",
    "city": "浜田市",
    "category": "community_day_service",
    "serviceType": "地域密着型通所介護",
    "capacity": 0,
    "openDays": [
      "平日",
      "祝日"
    ],
    "openDaysNote": ""
  },
  {
    "id": "3270701075",
    "name": "デイサービスセンター絆",
    "kana": "デイサービスセンターキズナ",
    "address": "島根県浜田市長沢町１４８３番４",
    "lat": 34.9104856489629,
    "lng": 132.103743857001,
    "tel": "0855－25-5844",
    "url": "kizunanihongi@chorus.ocn.ne.jp",
    "pref": "島根県",
    "city": "浜田市",
    "category": "community_day_service",
    "serviceType": "地域密着型通所介護",
    "capacity": 14,
    "openDays": [
      "平日",
      "土曜日",
      "祝日"
    ],
    "openDaysNote": ""
  },
  {
    "id": "3290700248",
    "name": "デイサービスセンター絆　黒川",
    "kana": "デイサービスセンターキズナ　クロカワ",
    "address": "島根県浜田市黒川町108番地49",
    "lat": 34.9019364,
    "lng": 132.0916851,
    "tel": "0855-28-7572",
    "url": "",
    "pref": "島根県",
    "city": "浜田市",
    "category": "community_day_service",
    "serviceType": "地域密着型通所介護",
    "capacity": 0,
    "openDays": [
      "平日",
      "土曜日",
      "祝日"
    ],
    "openDaysNote": "祝日は営業をしています。"
  },
  {
    "id": "3270700598",
    "name": "ディサービスほのぼのふくちゃん",
    "kana": "デイサービスホノボノフクチャン",
    "address": "浜田市熱田町1421-1",
    "lat": 34.8684657,
    "lng": 132.0519005,
    "tel": "0855-26-0933",
    "url": "",
    "pref": "島根県",
    "city": "浜田市",
    "category": "community_day_service",
    "serviceType": "地域密着型通所介護",
    "capacity": null,
    "openDays": [
      "平日",
      "祝日"
    ],
    "openDaysNote": "特になし"
  },
  {
    "id": "3270700523",
    "name": "デイサービスまつばら",
    "kana": "デイサービスマツバラ",
    "address": "浜田市松原町１１００－１",
    "lat": 34.9040214,
    "lng": 132.0749558,
    "tel": "0855-24-1225",
    "url": "http://www3.ocn.ne.jp/~asahien/asahien7.html",
    "pref": "島根県",
    "city": "浜田市",
    "category": "community_day_service",
    "serviceType": "地域密着型通所介護",
    "capacity": null,
    "openDays": [
      "平日",
      "祝日"
    ],
    "openDaysNote": "なし"
  },
  {
    "id": "3270700465",
    "name": "デイサービス偕生",
    "kana": "デイサービスカイセイ",
    "address": "浜田市黒川町196番地1",
    "lat": 34.8979723,
    "lng": 132.096804,
    "tel": "0855-24-1555",
    "url": "http://www.ssw.or.jp/korei_kaisei/",
    "pref": "島根県",
    "city": "浜田市",
    "category": "community_day_service",
    "serviceType": "地域密着型通所介護",
    "capacity": 0,
    "openDays": [
      "平日",
      "祝日"
    ],
    "openDaysNote": "なし"
  },
  {
    "id": "3290700198",
    "name": "ほっとリハ",
    "kana": "ホットリハ",
    "address": "島根県浜田市殿町61番地8",
    "lat": 34.9024077,
    "lng": 132.0774501,
    "tel": "0855-28-7811",
    "url": "http://hottokeasenta.hp.gogo.jp",
    "pref": "島根県",
    "city": "浜田市",
    "category": "community_day_service",
    "serviceType": "地域密着型通所介護",
    "capacity": 0,
    "openDays": [
      "平日"
    ],
    "openDaysNote": "12月31日～1月2日＝休業日"
  },
  {
    "id": "3290700255",
    "name": "リハトレケア浜田",
    "kana": "リハトレケアハマダ",
    "address": "黒川町岡本ビル1階",
    "lat": 43.174182,
    "lng": 140.794343,
    "tel": "0855-25-7600",
    "url": "",
    "pref": "島根県",
    "city": "浜田市",
    "category": "community_day_service",
    "serviceType": "地域密着型通所介護",
    "capacity": 0,
    "openDays": [
      "平日",
      "土曜日"
    ],
    "openDaysNote": ""
  },
  {
    "id": "3290700180",
    "name": "花あかり",
    "kana": "ハナアカリ",
    "address": "熱田町558-35",
    "lat": 34.8727849,
    "lng": 132.0611774,
    "tel": "855287417",
    "url": "https://hanaakari-hamada.amebaownd.com/",
    "pref": "島根県",
    "city": "浜田市",
    "category": "community_day_service",
    "serviceType": "地域密着型通所介護",
    "capacity": 0,
    "openDays": [
      "平日",
      "土曜日",
      "祝日"
    ],
    "openDaysNote": "1月1日～3日お休み"
  },
  {
    "id": "3290700214",
    "name": "共生型デイサービスお天氣いいね",
    "kana": "キョウセイガタデイサービスオテンキイイネ",
    "address": "島根県浜田市熱田町１１２９番地１",
    "lat": 34.8638857,
    "lng": 132.0566559,
    "tel": "(0855)27-4966",
    "url": "https://www.attakaiinet.com",
    "pref": "島根県",
    "city": "浜田市",
    "category": "community_day_service",
    "serviceType": "地域密着型通所介護",
    "capacity": 15,
    "openDays": [
      "平日",
      "土曜日",
      "祝日"
    ],
    "openDaysNote": ""
  },
  {
    "id": "3270700861",
    "name": "大麻山通所介護事業所",
    "kana": "タイマサンツウショカイゴジギョウショ",
    "address": "島根県浜田市西村町1031番地1",
    "lat": 34.825264,
    "lng": 131.9862415,
    "tel": "0855-27-2662",
    "url": "http://taimasan.jp/",
    "pref": "島根県",
    "city": "浜田市",
    "category": "community_day_service",
    "serviceType": "地域密着型通所介護",
    "capacity": 0,
    "openDays": [
      "平日",
      "日曜日",
      "祝日"
    ],
    "openDaysNote": "8/14・15（盆休暇）（改行）12/31～1/3（年末年始休暇）"
  },
  {
    "id": "3270701141",
    "name": "茶話本舗　花のある家　黒川邸",
    "kana": "サワホンポ　ハナノアルイエ　クロカワテイ",
    "address": "島根県浜田市黒川町4111番地",
    "lat": 34.8970460496175,
    "lng": 132.097908762952,
    "tel": "0855-28-7482",
    "url": "",
    "pref": "島根県",
    "city": "浜田市",
    "category": "community_day_service",
    "serviceType": "地域密着型通所介護",
    "capacity": 0,
    "openDays": [
      "平日",
      "土曜日",
      "日曜日",
      "祝日"
    ],
    "openDaysNote": "7"
  },
  {
    "id": "3271900064",
    "name": "弥栄デイサービスセンター",
    "kana": "ヤサカデイサービスセンター",
    "address": "島根県浜田市弥栄町木都賀イ539-1",
    "lat": 34.7654235,
    "lng": 132.0721178,
    "tel": "0855-48-2691",
    "url": "https://www.yasaka-fukushikai.com/",
    "pref": "島根県",
    "city": "浜田市",
    "category": "community_day_service",
    "serviceType": "地域密着型通所介護",
    "capacity": 0,
    "openDays": [
      "平日",
      "土曜日",
      "祝日"
    ],
    "openDaysNote": "なし"
  },
  {
    "id": "3270700481",
    "name": "有限会社　長寿の里",
    "kana": "ユウゲンガイシャ　チョウジュノサト",
    "address": "浜田市日脚町54番地2",
    "lat": 34.8632636,
    "lng": 132.0368071,
    "tel": "0855-27-2956",
    "url": "kuwanomi。０１＠rapid.ocn.ne.jp",
    "pref": "島根県",
    "city": "浜田市",
    "category": "community_day_service",
    "serviceType": "地域密着型通所介護",
    "capacity": 50,
    "openDays": [
      "平日",
      "祝日"
    ],
    "openDaysNote": "天候により大雪、大風で利用者さんが危険と感じられる場合は、休業することもある。"
  },
  {
    "id": "3271800652",
    "name": "楽屋",
    "kana": "ラクヤ",
    "address": "島根県邑智郡邑南町3207番地6",
    "lat": 34.906932,
    "lng": 132.4615785,
    "tel": "0855-95-1313",
    "url": "",
    "pref": "島根県",
    "city": "邑南町",
    "category": "community_day_service",
    "serviceType": "地域密着型通所介護",
    "capacity": 15,
    "openDays": [
      "平日",
      "土曜日",
      "祝日"
    ],
    "openDaysNote": "なし"
  }
]