[
  {
    "id": "3473600686",
    "name": "清風会もみじ",
    "kana": "セイフウカイモミジ",
    "address": "広島県安芸高田市吉田町竹原1891番地1",
    "lat": 34.6528614,
    "lng": 132.6852651,
    "tel": "0826-47-2610",
    "url": "http://www.seifu-kai.org/",
    "pref": "広島県",
    "city": "安芸高田市",
    "category": "community_day_service",
    "serviceType": "地域密着型通所介護",
    "capacity": 0,
    "openDays": [
      "平日",
      "土曜日",
      "祝日"
    ],
    "openDaysNote": "特になし"
  },
  {
    "id": "3473600801",
    "name": "通所介護事業所　吉田",
    "kana": "ツウショカイゴジギョウショ　ヨシダ",
    "address": "広島県安芸高田市吉田町山手字片正397-1",
    "lat": 34.6487896,
    "lng": 132.6742188,
    "tel": "0826-43-2555",
    "url": "yoshida＠ｍａｔｕｋｏ.ｂｉｚ",
    "pref": "広島県",
    "city": "安芸高田市",
    "category": "community_day_service",
    "serviceType": "地域密着型通所介護",
    "capacity": 12,
    "openDays": [
      "平日"
    ],
    "openDaysNote": ""
  },
  {
    "id": "3493500122",
    "name": "安芸太田町社協通所介護事業所「ふれあい」",
    "kana": "アキオオタチョウシャキョウツウショカイゴジギョウショフレアイ",
    "address": "広島県山県郡安芸太田町大字戸河内780番地15",
    "lat": 34.5774939,
    "lng": 132.2271624,
    "tel": "0826-28-2115",
    "url": "http://www.akiota-shakyo.jp/",
    "pref": "広島県",
    "city": "安芸太田町",
    "category": "community_day_service",
    "serviceType": "地域密着型通所介護",
    "capacity": 0,
    "openDays": [
      "平日",
      "土曜日",
      "祝日"
    ],
    "openDaysNote": "お盆期間1日定休日あり。（改行）警報時休業する場合あり。"
  },
  {
    "id": "3473100935",
    "name": "デイサービス　かむながら",
    "kana": "デイサービス　カムナガラ",
    "address": "広島県安芸郡熊野町初神二丁目23番5号",
    "lat": 34.3588033,
    "lng": 132.5927474,
    "tel": "082-854-1130",
    "url": "http://www.care-net.info/",
    "pref": "広島県",
    "city": "熊野町",
    "category": "community_day_service",
    "serviceType": "地域密着型通所介護",
    "capacity": 10,
    "openDays": [
      "平日",
      "土曜日",
      "祝日"
    ],
    "openDaysNote": "サービス提供時間は9：00～16：30となります。"
  },
  {
    "id": "3470502695",
    "name": "おかげさま通所介護",
    "kana": "オカゲサマツウショカイゴ",
    "address": "呉市焼山泉ヶ丘1-2-14",
    "lat": 34.3068465,
    "lng": 132.5596521,
    "tel": "0823-30-6550",
    "url": "",
    "pref": "広島県",
    "city": "呉市",
    "category": "community_day_service",
    "serviceType": "地域密着型通所介護",
    "capacity": 0,
    "openDays": [
      "平日",
      "土曜日",
      "祝日"
    ],
    "openDaysNote": "8月13・14・15日（改行）12月31日　1月1・2・3日はお休みいたします。"
  },
  {
    "id": "3470502992",
    "name": "おかげさま通所介護天応",
    "kana": "オカゲサマツウショカイゴテンノウ",
    "address": "呉市天応南町2番22号101 101",
    "lat": 34.2838183,
    "lng": 132.5183089,
    "tel": "0823-38-7373",
    "url": "",
    "pref": "広島県",
    "city": "呉市",
    "category": "community_day_service",
    "serviceType": "地域密着型通所介護",
    "capacity": 0,
    "openDays": [
      "平日",
      "土曜日",
      "祝日"
    ],
    "openDaysNote": "8月13.14.15日（改行）12月31日　1月1.2.3日はお休み致します。"
  },
  {
    "id": "3470502331",
    "name": "デイサービス・結いサロン",
    "kana": "デイサービス・ユイサロン",
    "address": "呉市音戸町波多見6丁目4番3号",
    "lat": 34.1770906,
    "lng": 132.5554871,
    "tel": "0823-50-0876",
    "url": "",
    "pref": "広島県",
    "city": "呉市",
    "category": "community_day_service",
    "serviceType": "地域密着型通所介護",
    "capacity": 0,
    "openDays": [
      "平日",
      "祝日"
    ],
    "openDaysNote": ""
  },
  {
    "id": "3470501366",
    "name": "デイサービスセンター（夢）",
    "kana": "デイサービスセンター（ユメ）",
    "address": "呉市焼山本庄四丁目2番1号",
    "lat": 34.3028606,
    "lng": 132.5541196,
    "tel": "0823-34-0617",
    "url": "http://yume-plus.co.jp/",
    "pref": "広島県",
    "city": "呉市",
    "category": "community_day_service",
    "serviceType": "地域密着型通所介護",
    "capacity": 0,
    "openDays": [
      "平日",
      "祝日"
    ],
    "openDaysNote": ""
  },
  {
    "id": "3473900508",
    "name": "デイサービスセンター豊浜",
    "kana": "デイサービスセンタートヨハマ",
    "address": "広島県呉市豊浜町大字豊島3082番地の28豊浜町高齢者福祉センター 豊浜町高齢者福祉センター",
    "lat": 34.1843346,
    "lng": 132.7916562,
    "tel": "0823-68-4800",
    "url": "",
    "pref": "広島県",
    "city": "呉市",
    "category": "community_day_service",
    "serviceType": "地域密着型通所介護",
    "capacity": 15,
    "openDays": [
      "平日",
      "祝日"
    ],
    "openDaysNote": ""
  },
  {
    "id": "3470502745",
    "name": "デイサービスまる・さんかく・しかく",
    "kana": "デイサービスマル・サンカク・シカク",
    "address": "呉市広横路2丁目2番18号",
    "lat": 34.2402756,
    "lng": 132.6100095,
    "tel": "0823-74-3360",
    "url": "",
    "pref": "広島県",
    "city": "呉市",
    "category": "community_day_service",
    "serviceType": "地域密着型通所介護",
    "capacity": 15,
    "openDays": [
      "平日",
      "土曜日",
      "祝日"
    ],
    "openDaysNote": "年末年始　12/29～1/3　休み"
  },
  {
    "id": "3490500448",
    "name": "リハビリテーション颯はるかぜ",
    "kana": "リハビリテーションソウハルカゼ",
    "address": "広島県呉市広中新開2丁目4-27",
    "lat": 34.2394361,
    "lng": 132.623736487076,
    "tel": "0823-27-5116",
    "url": "http://oozorakai.net",
    "pref": "広島県",
    "city": "呉市",
    "category": "community_day_service",
    "serviceType": "地域密着型通所介護",
    "capacity": null,
    "openDays": [
      "平日"
    ],
    "openDaysNote": "サービス提供時間（改行）午前　　9：15～12：15（改行）午後　13：30～16：30"
  },
  {
    "id": "3470502786",
    "name": "医療法人社団たつき会菅田医院　デイサービスセンターつばき",
    "kana": "イリョウホウジンシャダンタツキカイスガタイイン　デイサービスセンターツバキ",
    "address": "広島県呉市川尻町東1-21-10",
    "lat": 34.2363118,
    "lng": 132.6985465,
    "tel": "0823-87-0108",
    "url": "",
    "pref": "広島県",
    "city": "呉市",
    "category": "community_day_service",
    "serviceType": "地域密着型通所介護",
    "capacity": 18,
    "openDays": [
      "平日",
      "土曜日",
      "祝日"
    ],
    "openDaysNote": "１２月３０日から１月３日はお休みです。"
  },
  {
    "id": "3490500497",
    "name": "機能訓練特化型デイサービスリフィット焼山",
    "kana": "キノウクンレントッカガタデイサービスリフィットヤケヤマ",
    "address": "広島県呉市此原町1-30",
    "lat": 34.2810577,
    "lng": 132.5485184,
    "tel": "0823-27-8365",
    "url": "",
    "pref": "広島県",
    "city": "呉市",
    "category": "community_day_service",
    "serviceType": "地域密着型通所介護",
    "capacity": 150,
    "openDays": [
      "平日",
      "祝日"
    ],
    "openDaysNote": "年末年始・ゴールデンウィーク・夏季休暇は休業"
  },
  {
    "id": "3490500356",
    "name": "呉市社会福祉協議会　下蒲刈通所介護事業所",
    "kana": "クレシシャカイフクシキョウギカイ　シモカマガリツウショカイゴジギョウショ",
    "address": "呉市下蒲刈町下島1713番地1",
    "lat": 34.1916363,
    "lng": 132.6740834,
    "tel": "0823-65-3120",
    "url": "",
    "pref": "広島県",
    "city": "呉市",
    "category": "community_day_service",
    "serviceType": "地域密着型通所介護",
    "capacity": 18,
    "openDays": [
      "平日",
      "祝日"
    ],
    "openDaysNote": ""
  },
  {
    "id": "3490500372",
    "name": "呉市社会福祉協議会　蒲刈通所介護事業所",
    "kana": "クレシシャカイフクシキョウギカイ　カマガリツウショカイゴジギョウショ",
    "address": "呉市蒲刈町田戸2308-1",
    "lat": 34.1968394,
    "lng": 132.7224612,
    "tel": "0823-66-1165",
    "url": "",
    "pref": "広島県",
    "city": "呉市",
    "category": "community_day_service",
    "serviceType": "地域密着型通所介護",
    "capacity": 18,
    "openDays": [
      "平日",
      "祝日"
    ],
    "openDaysNote": ""
  },
  {
    "id": "3470501275",
    "name": "地域密着型通所介護事業所仁方",
    "kana": "チイキミッチャクガタツウショカイゴジギョウショニガタ",
    "address": "広島県呉市仁方町戸田4407番地",
    "lat": 34.2065312153949,
    "lng": 132.652065384088,
    "tel": "0823-70-2222",
    "url": "https://www.misasakai.or.jp/",
    "pref": "広島県",
    "city": "呉市",
    "category": "community_day_service",
    "serviceType": "地域密着型通所介護",
    "capacity": null,
    "openDays": [
      "平日",
      "土曜日",
      "祝日"
    ],
    "openDaysNote": "12/31～1/3は休業日とさせていただく。"
  },
  {
    "id": "3470503008",
    "name": "通所介護事業所さざんか",
    "kana": "ツウショカイゴジギョウショサザンカ",
    "address": "呉市警固屋４丁目１１番６１号２階 ２階",
    "lat": 34.2116084,
    "lng": 132.5461431,
    "tel": "0823-20-2101",
    "url": "",
    "pref": "広島県",
    "city": "呉市",
    "category": "community_day_service",
    "serviceType": "地域密着型通所介護",
    "capacity": 0,
    "openDays": [
      "平日",
      "祝日"
    ],
    "openDaysNote": "８月14日～8月16日及び12月29日～１月3日は休みです。（改行）現在、土曜日は休止中。"
  },
  {
    "id": "3470103502",
    "name": "サービスステーション庵寿",
    "kana": "サービスステーションアンジュ",
    "address": "広島市安芸区畑賀町4082-1",
    "lat": 34.3933792387779,
    "lng": 132.547019539217,
    "tel": "082-827-0504",
    "url": "https://anju.hiroshima.jp/",
    "pref": "広島県",
    "city": "広島市安芸区",
    "category": "community_day_service",
    "serviceType": "地域密着型通所介護",
    "capacity": 18,
    "openDays": [
      "平日",
      "土曜日",
      "祝日"
    ],
    "openDaysNote": "特になし"
  },
  {
    "id": "3470101738",
    "name": "はたのリハビリデイサービスセンター",
    "kana": "ハタノリハビリデイサービスセンター",
    "address": "広島市安芸区中野5丁目13-28",
    "lat": 34.4022817602906,
    "lng": 132.580708532541,
    "tel": "082-892-3535",
    "url": "https://hatano-group.jp/pages/69/",
    "pref": "広島県",
    "city": "広島市安芸区",
    "category": "community_day_service",
    "serviceType": "地域密着型通所介護",
    "capacity": 24,
    "openDays": [
      "平日",
      "土曜日",
      "日曜日",
      "祝日"
    ],
    "openDaysNote": ""
  },
  {
    "id": "3470206610",
    "name": "デイサービスセンターさくら",
    "kana": "デイサービスセンターサクラ",
    "address": "広島市安佐南区大塚西3丁目１１番１４号",
    "lat": 34.4428599,
    "lng": 132.4004441,
    "tel": "082-848-9100",
    "url": "http://www.yuuaien.jp",
    "pref": "広島県",
    "city": "広島市安佐南区",
    "category": "community_day_service",
    "serviceType": "地域密着型通所介護",
    "capacity": 15,
    "openDays": [
      "平日",
      "土曜日"
    ],
    "openDaysNote": "特になし"
  },
  {
    "id": "3470206867",
    "name": "デイサービスセンターとまとおおまち",
    "kana": "デイサービスセンタートマトオオマチ",
    "address": "広島市安佐南区大町東二丁目1番12号",
    "lat": 34.4631913377245,
    "lng": 132.470925131608,
    "tel": "082-877-6300",
    "url": "http://www.salute.co.jp/",
    "pref": "広島県",
    "city": "広島市安佐南区",
    "category": "community_day_service",
    "serviceType": "地域密着型通所介護",
    "capacity": 18,
    "openDays": [
      "平日",
      "土曜日",
      "祝日"
    ],
    "openDaysNote": ""
  },
  {
    "id": "3470210968",
    "name": "デイサービスセンター佐々木整形外科クリニック",
    "kana": "デイサービスセンターササキセイケイゲカクリニック",
    "address": "広島県広島市安佐南区伴中央2丁目8番7号",
    "lat": 35.0117511,
    "lng": 136.961024,
    "tel": "082－962－8520",
    "url": "",
    "pref": "広島県",
    "city": "広島市安佐南区",
    "category": "community_day_service",
    "serviceType": "地域密着型通所介護",
    "capacity": 18,
    "openDays": [
      "平日",
      "土曜日",
      "祝日"
    ],
    "openDaysNote": ""
  },
  {
    "id": "3470211362",
    "name": "デイサービスセンター楓＊グリーン",
    "kana": "デイサービスセンターカエデ＊グリーン",
    "address": "広島県広島市安佐南区川内六丁目２０番５号",
    "lat": 34.4718415923579,
    "lng": 132.490238300139,
    "tel": "082-555-8341",
    "url": "http://www.fukushi-greencoop.or.jp/",
    "pref": "広島県",
    "city": "広島市安佐南区",
    "category": "community_day_service",
    "serviceType": "地域密着型通所介護",
    "capacity": 0,
    "openDays": [
      "平日",
      "土曜日",
      "祝日"
    ],
    "openDaysNote": "ゴールデンウィーク　5/3～5/5（改行）お盆　8/13～8/15（改行）年末年始　12/29～1/3"
  },
  {
    "id": "3470210653",
    "name": "デイサービスつどい高取",
    "kana": "デイサービスツドイタカトリ",
    "address": "広島県広島市安佐南区高取北四丁目41番17号",
    "lat": 34.4793871,
    "lng": 132.4306633,
    "tel": "082－832－8070",
    "url": "https://withcare.amebaownd.com/",
    "pref": "広島県",
    "city": "広島市安佐南区",
    "category": "community_day_service",
    "serviceType": "地域密着型通所介護",
    "capacity": 10,
    "openDays": [
      "平日",
      "土曜日",
      "日曜日",
      "祝日"
    ],
    "openDaysNote": "年中無休で1年365日稼働しています。"
  },
  {
    "id": "3470203641",
    "name": "デイサービスひまわり",
    "kana": "デイサービスヒマワリ",
    "address": "広島市安佐南区相田一丁目10-8",
    "lat": 34.4711025,
    "lng": 132.4561251,
    "tel": "082-878-8096",
    "url": "http://www.okamoto-clinic.or.jp/",
    "pref": "広島県",
    "city": "広島市安佐南区",
    "category": "community_day_service",
    "serviceType": "地域密着型通所介護",
    "capacity": 0,
    "openDays": [
      "平日"
    ],
    "openDaysNote": ""
  },
  {
    "id": "3470210398",
    "name": "デイサービスほうじゃね上安",
    "kana": "デイサービスホウジャネカミヤス",
    "address": "広島市安佐南区上安5丁目３０-１２",
    "lat": 34.4876588,
    "lng": 132.4513084,
    "tel": "082-872-6316",
    "url": "http://volo-jp.com/",
    "pref": "広島県",
    "city": "広島市安佐南区",
    "category": "community_day_service",
    "serviceType": "地域密着型通所介護",
    "capacity": 10,
    "openDays": [
      "平日",
      "土曜日",
      "祝日"
    ],
    "openDaysNote": ""
  },
  {
    "id": "3490201757",
    "name": "デイサービス笑夢",
    "kana": "デイサービスエム",
    "address": "広島県広島市安佐南区祇園2丁目5-15ファミーユ祇園 ファミーユ祇園",
    "lat": 34.4467866,
    "lng": 132.4678432,
    "tel": "082-846-1300",
    "url": "http://www.doell.jp/",
    "pref": "広島県",
    "city": "広島市安佐南区",
    "category": "community_day_service",
    "serviceType": "地域密着型通所介護",
    "capacity": 0,
    "openDays": [
      "平日",
      "日曜日",
      "祝日"
    ],
    "openDaysNote": ""
  },
  {
    "id": "3490201153",
    "name": "ほねつぎ介護デイサービス緑井",
    "kana": "ホネツギカイゴデイサービスミドリイ",
    "address": "広島県広島市安佐南区緑井三丁目15番27号",
    "lat": 34.4695836,
    "lng": 132.4670464,
    "tel": "082-554-0058",
    "url": "http://attecc.co.jp/",
    "pref": "広島県",
    "city": "広島市安佐南区",
    "category": "community_day_service",
    "serviceType": "地域密着型通所介護",
    "capacity": 10,
    "openDays": [
      "平日",
      "祝日"
    ],
    "openDaysNote": "お盆休暇　年末年始休暇"
  },
  {
    "id": "3470211388",
    "name": "みこころデイサービスセンター",
    "kana": "ミココロデイサービスセンター",
    "address": "広島県広島市安佐南区長束六丁目4番1号",
    "lat": 34.4347402,
    "lng": 132.4574651,
    "tel": "082-874-3556",
    "url": "http://micocoro-care.jp/index.html",
    "pref": "広島県",
    "city": "広島市安佐南区",
    "category": "community_day_service",
    "serviceType": "地域密着型通所介護",
    "capacity": 0,
    "openDays": [
      "平日",
      "祝日"
    ],
    "openDaysNote": ""
  },
  {
    "id": "3470211354",
    "name": "ゆめか大町",
    "kana": "ユメカオオマチ",
    "address": "広島県広島市安佐南区大町東4丁目7-5",
    "lat": 34.468396558551,
    "lng": 132.464401191295,
    "tel": "082-554-0855",
    "url": "http://www.kd-seven.com",
    "pref": "広島県",
    "city": "広島市安佐南区",
    "category": "community_day_service",
    "serviceType": "地域密着型通所介護",
    "capacity": null,
    "openDays": [
      "平日",
      "土曜日",
      "祝日"
    ],
    "openDaysNote": ""
  },
  {
    "id": "3490201476",
    "name": "リハビリサロンおひさま",
    "kana": "リハビリサロンオヒサマ",
    "address": "広島県広島市安佐南区緑井１丁目１０番７号",
    "lat": 34.4646234,
    "lng": 132.4772431,
    "tel": "082-836-6000",
    "url": "https://salon-ohisama.com",
    "pref": "広島県",
    "city": "広島市安佐南区",
    "category": "community_day_service",
    "serviceType": "地域密着型通所介護",
    "capacity": 10,
    "openDays": [
      "平日",
      "土曜日",
      "祝日"
    ],
    "openDaysNote": ""
  },
  {
    "id": "3470208590",
    "name": "リハビリデイサービスＤo！たなか",
    "kana": "リハビリデイサービスドゥタナカ",
    "address": "広島市安佐南区祇園一丁目１４－７",
    "lat": 34.4371104,
    "lng": 132.4633465,
    "tel": "082-871-5177",
    "url": "http://r.goope.jp/do-tanaka",
    "pref": "広島県",
    "city": "広島市安佐南区",
    "category": "community_day_service",
    "serviceType": "地域密着型通所介護",
    "capacity": 10,
    "openDays": [
      "平日",
      "祝日"
    ],
    "openDaysNote": ""
  },
  {
    "id": "3470211420",
    "name": "リハビリデイサービスあらき",
    "kana": "リハビリデイサービスアラキ",
    "address": "広島県広島市安佐南区中筋三丁目６番２３号",
    "lat": 34.454616,
    "lng": 132.4793794,
    "tel": "082-209-8830",
    "url": "http://araki.home-p.info/",
    "pref": "広島県",
    "city": "広島市安佐南区",
    "category": "community_day_service",
    "serviceType": "地域密着型通所介護",
    "capacity": 100,
    "openDays": [
      "平日"
    ],
    "openDaysNote": "夏季8/13～8/14、年末年始12/31～1/2は定休日"
  },
  {
    "id": "3490201286",
    "name": "リハプライド・中筋",
    "kana": "リハプライド・ナカスジ",
    "address": "広島県広島市安佐南区中筋1-16-8第2植野ビル104 第2植野ビル104",
    "lat": 34.4486741,
    "lng": 132.4755397,
    "tel": "082-962-5886",
    "url": "http://www.rehapride.co.jp/nakasuji/",
    "pref": "広島県",
    "city": "広島市安佐南区",
    "category": "community_day_service",
    "serviceType": "地域密着型通所介護",
    "capacity": 0,
    "openDays": [
      "平日",
      "祝日"
    ],
    "openDaysNote": "祝日の場合は営業"
  },
  {
    "id": "3490201229",
    "name": "リハプライド大原駅前",
    "kana": "リハプライドオオバラエキマエ",
    "address": "広島県広島市安佐南区伴東7-55-9",
    "lat": 34.4629163,
    "lng": 132.4127013,
    "tel": "082-848-8817",
    "url": "",
    "pref": "広島県",
    "city": "広島市安佐南区",
    "category": "community_day_service",
    "serviceType": "地域密着型通所介護",
    "capacity": 0,
    "openDays": [
      "平日",
      "土曜日",
      "祝日"
    ],
    "openDaysNote": ""
  },
  {
    "id": "3490200999",
    "name": "機能訓練デイ　そらメディカルケア大町",
    "kana": "キノウクンレンデイ　ソラメディカルケアオオマチ",
    "address": "広島県広島市安佐南区大町東3丁目21-22",
    "lat": 34.4656977768823,
    "lng": 132.467320677479,
    "tel": "082-870-5505",
    "url": "",
    "pref": "広島県",
    "city": "広島市安佐南区",
    "category": "community_day_service",
    "serviceType": "地域密着型通所介護",
    "capacity": 0,
    "openDays": [
      "平日",
      "祝日"
    ],
    "openDaysNote": "AM9：00～12：00/PM13：30～16：30（3時間の機能訓練）（改行）ゴールデンウィーク：5月3日～5日（改行）お盆：8月13日～15日（改行）年末年始：12月30日～1月3日（改行）※変動あり"
  },
  {
    "id": "3490201716",
    "name": "健康ストレッチデイサービス　メディスポ",
    "kana": "ケンコウストレッチデイサービス　メディスポ",
    "address": "広島県広島市安佐南区西原5丁目7-8101号室 101号室",
    "lat": 34.4451526,
    "lng": 132.468967,
    "tel": "082-209-0803",
    "url": "",
    "pref": "広島県",
    "city": "広島市安佐南区",
    "category": "community_day_service",
    "serviceType": "地域密着型通所介護",
    "capacity": null,
    "openDays": [
      "平日",
      "土曜日",
      "祝日"
    ],
    "openDaysNote": ""
  },
  {
    "id": "3470207717",
    "name": "在宅介護支援センター　デイサービスたまゆら",
    "kana": "ザイタクカイゴシエンセンター　デイサービスタマユラ",
    "address": "広島市安佐南区西原一丁目1番8号",
    "lat": 34.4377149,
    "lng": 132.4659256,
    "tel": "082-850-0016",
    "url": "http://jinushi-clinic.jp",
    "pref": "広島県",
    "city": "広島市安佐南区",
    "category": "community_day_service",
    "serviceType": "地域密着型通所介護",
    "capacity": 15,
    "openDays": [
      "平日",
      "土曜日",
      "祝日"
    ],
    "openDaysNote": ""
  },
  {
    "id": "3490201336",
    "name": "通所介護事業所　若葉台",
    "kana": "ツウショカイゴジギョウショ　ワカバダイ",
    "address": "広島県広島市安佐南区伴北七丁目32番27号",
    "lat": 34.4848798,
    "lng": 132.403312,
    "tel": "082-849-0861",
    "url": "https://www.gukuru.co/",
    "pref": "広島県",
    "city": "広島市安佐南区",
    "category": "community_day_service",
    "serviceType": "地域密着型通所介護",
    "capacity": 0,
    "openDays": [
      "平日",
      "土曜日",
      "祝日"
    ],
    "openDaysNote": ""
  },
  {
    "id": "3490201468",
    "name": "日常生活リハ　そらメディカルケア毘沙門台",
    "kana": "ニチジョウセイカツリハ　ソラメディカルケアビシャモンダイ",
    "address": "広島県広島市安佐南区毘沙門台4丁目18-7",
    "lat": 34.4842661,
    "lng": 132.4611212,
    "tel": "082-879-1923",
    "url": "",
    "pref": "広島県",
    "city": "広島市安佐南区",
    "category": "community_day_service",
    "serviceType": "地域密着型通所介護",
    "capacity": 75,
    "openDays": [
      "平日"
    ],
    "openDaysNote": ""
  },
  {
    "id": "3470106356",
    "name": "ＩＧＬデイサービスあさひが丘",
    "kana": "アイジイエルデイサービスアサヒガオカ",
    "address": "広島市安佐北区あさひが丘三丁目18番13-7ふれ愛ケアセンター　３F ふれ愛ケアセンター　３F",
    "lat": 34.50604,
    "lng": 132.4369286,
    "tel": "082-810-4788",
    "url": "http://www.igl.or.jp/kourei/dayasahigaoka.html",
    "pref": "広島県",
    "city": "広島市安佐北区",
    "category": "community_day_service",
    "serviceType": "地域密着型通所介護",
    "capacity": 18,
    "openDays": [
      "平日",
      "土曜日",
      "祝日"
    ],
    "openDaysNote": ""
  },
  {
    "id": "3470104179",
    "name": "あすなろ生協診療所デイサービス",
    "kana": "アスナロセイキョウシンリョウショデイサービス",
    "address": "広島市安佐北区口田一丁目10-1",
    "lat": 34.4608797,
    "lng": 132.4952973,
    "tel": "082-841-2021",
    "url": "",
    "pref": "広島県",
    "city": "広島市安佐北区",
    "category": "community_day_service",
    "serviceType": "地域密着型通所介護",
    "capacity": 15,
    "openDays": [
      "平日",
      "祝日"
    ],
    "openDaysNote": ""
  },
  {
    "id": "3470103882",
    "name": "コープデイサービス高陽＜自悠館＞",
    "kana": "コープデイサービスコウヨウ＜ジユウカン＞",
    "address": "広島市安佐北区口田南7-31-5",
    "lat": 34.4613576,
    "lng": 132.5024052,
    "tel": "082-845-2725",
    "url": "",
    "pref": "広島県",
    "city": "広島市安佐北区",
    "category": "community_day_service",
    "serviceType": "地域密着型通所介護",
    "capacity": 0,
    "openDays": [
      "平日",
      "土曜日",
      "祝日"
    ],
    "openDaysNote": "特になし"
  },
  {
    "id": "3490100918",
    "name": "デイサービスセンター　くるみ",
    "kana": "デイサービスセンター　クルミ",
    "address": "広島市安佐北区口田南８丁目１７番１８号メロウリストビル　１０２号室 メロウリストビル　１０２号室",
    "lat": 34.4633353,
    "lng": 132.5060937,
    "tel": "０８２－５５４－６５４０",
    "url": "https://kurumids.com",
    "pref": "広島県",
    "city": "広島市安佐北区",
    "category": "community_day_service",
    "serviceType": "地域密着型通所介護",
    "capacity": 13,
    "openDays": [
      "平日",
      "土曜日",
      "日曜日",
      "祝日"
    ],
    "openDaysNote": ""
  },
  {
    "id": "3470101514",
    "name": "デイサービスセンターあゆみ",
    "kana": "デイサービスセンターアユミ",
    "address": "広島市安佐北区三入東1丁目30-21",
    "lat": 34.5348358,
    "lng": 132.5417356,
    "tel": "082-818-1162",
    "url": "",
    "pref": "広島県",
    "city": "広島市安佐北区",
    "category": "community_day_service",
    "serviceType": "地域密着型通所介護",
    "capacity": null,
    "openDays": [
      "平日",
      "土曜日",
      "祝日"
    ],
    "openDaysNote": ""
  },
  {
    "id": "3490101122",
    "name": "デイサービスセンターたんぽぽ",
    "kana": "デイサービスセンタータンポポ",
    "address": "広島県広島市安佐北区白木町小越３００",
    "lat": 34.5531251,
    "lng": 132.6643267,
    "tel": "082-828-7930",
    "url": "https://www.tanpopoday.com/",
    "pref": "広島県",
    "city": "広島市安佐北区",
    "category": "community_day_service",
    "serviceType": "地域密着型通所介護",
    "capacity": null,
    "openDays": [
      "平日",
      "土曜日"
    ],
    "openDaysNote": "なし"
  },
  {
    "id": "3490101056",
    "name": "デイサービスセンター可部きらり",
    "kana": "デイサービスセンター　カベキラリ",
    "address": "広島県広島市安佐北区可部南二丁目4番20号グランデール松広Ⅱ　1階 グランデール松広Ⅱ　1階",
    "lat": 34.5045930561773,
    "lng": 132.515891681437,
    "tel": "082-516-6077",
    "url": "https://premonet.co.jp/",
    "pref": "広島県",
    "city": "広島市安佐北区",
    "category": "community_day_service",
    "serviceType": "地域密着型通所介護",
    "capacity": 18,
    "openDays": [
      "平日",
      "土曜日",
      "祝日"
    ],
    "openDaysNote": "サービス提供時間は9:00～16:00"
  },
  {
    "id": "3470106364",
    "name": "デイサービスほうじゃね可部",
    "kana": "デイサービスホウジャネカベ",
    "address": "広島市安佐北区可部1-6-16",
    "lat": 34.515532,
    "lng": 132.5052616,
    "tel": "082-847-3240",
    "url": "",
    "pref": "広島県",
    "city": "広島市安佐北区",
    "category": "community_day_service",
    "serviceType": "地域密着型通所介護",
    "capacity": 18,
    "openDays": [
      "平日",
      "土曜日",
      "日曜日",
      "祝日"
    ],
    "openDaysNote": ""
  },
  {
    "id": "3490101379",
    "name": "リハ美リ　デイサービス　リコ",
    "kana": "リハビリ　デイサービス　リコ",
    "address": "広島県広島市安佐北区落合二丁目19番6イワタ落合ビル105 イワタ落合ビル105",
    "lat": 34.480171266027,
    "lng": 132.50838295582,
    "tel": "082-516-7096",
    "url": "",
    "pref": "広島県",
    "city": "広島市安佐北区",
    "category": "community_day_service",
    "serviceType": "地域密着型通所介護",
    "capacity": null,
    "openDays": [
      "平日",
      "祝日"
    ],
    "openDaysNote": ""
  },
  {
    "id": "3470106968",
    "name": "絵手がみ",
    "kana": "エテガミ",
    "address": "広島市安佐北区三入1-8-2",
    "lat": 34.5357828,
    "lng": 132.5213451,
    "tel": "082-847-6870",
    "url": "",
    "pref": "広島県",
    "city": "広島市安佐北区",
    "category": "community_day_service",
    "serviceType": "地域密着型通所介護",
    "capacity": 0,
    "openDays": [
      "平日",
      "土曜日",
      "日曜日",
      "祝日"
    ],
    "openDaysNote": "ご家族の状況等によって時間延長可能（改行）事情によって施設などのショート利用ができない方のお泊りも対応しています（デイ利用者のみ）"
  },
  {
    "id": "3490101114",
    "name": "希の実",
    "kana": "キノミ",
    "address": "広島県広島市安佐北区三入1-8-19",
    "lat": 34.5356521,
    "lng": 132.5207692,
    "tel": "082-847-5885",
    "url": "https://blog.goo.ne.jp/etegami-miiri",
    "pref": "広島県",
    "city": "広島市安佐北区",
    "category": "community_day_service",
    "serviceType": "地域密着型通所介護",
    "capacity": 1,
    "openDays": [
      "平日",
      "祝日"
    ],
    "openDaysNote": "年末の営業時間について時短営業とします"
  },
  {
    "id": "3490101205",
    "name": "宅老所となりん家",
    "kana": "タクロウショトナリンチ",
    "address": "広島県広島市安佐北区可部2-1-3",
    "lat": 34.5153344,
    "lng": 132.5140811,
    "tel": "082-847-3231",
    "url": "https://tonarinchi.1web.jp/",
    "pref": "広島県",
    "city": "広島市安佐北区",
    "category": "community_day_service",
    "serviceType": "地域密着型通所介護",
    "capacity": null,
    "openDays": [
      "平日",
      "土曜日",
      "祝日"
    ],
    "openDaysNote": ""
  },
  {
    "id": "3470209598",
    "name": "デイサービス　季楽・リハ　五日市中央",
    "kana": "デイサービス　キラク・リハ　イツカイチチュウオウ",
    "address": "広島市佐伯区五日市中央1丁目3番25号",
    "lat": 34.3785735166078,
    "lng": 132.353541142328,
    "tel": "082-942-5202",
    "url": "http://www.season-hc.com/",
    "pref": "広島県",
    "city": "広島市佐伯区",
    "category": "community_day_service",
    "serviceType": "地域密着型通所介護",
    "capacity": 0,
    "openDays": [
      "平日",
      "土曜日",
      "祝日"
    ],
    "openDaysNote": ""
  },
  {
    "id": "3470205141",
    "name": "デイサービスあおぞら",
    "kana": "デイサービスアオゾラ",
    "address": "広島市佐伯区五日市7丁目8-41",
    "lat": 34.3775886,
    "lng": 132.3602508,
    "tel": "082-943-1165",
    "url": "",
    "pref": "広島県",
    "city": "広島市佐伯区",
    "category": "community_day_service",
    "serviceType": "地域密着型通所介護",
    "capacity": 18,
    "openDays": [
      "平日",
      "土曜日",
      "祝日"
    ],
    "openDaysNote": "特になし"
  },
  {
    "id": "3490201674",
    "name": "デイサービスセンター　鈴が峰",
    "kana": "デイサービスセンター　スズガミネ",
    "address": "広島県広島市佐伯区五日市町皆賀104-27",
    "lat": 34.3811248,
    "lng": 132.3723192,
    "tel": "082-943-8888",
    "url": "https://misasakai.ecat.jp/catalog/products/detail?id=14",
    "pref": "広島県",
    "city": "広島市佐伯区",
    "category": "community_day_service",
    "serviceType": "地域密着型通所介護",
    "capacity": 18,
    "openDays": [
      "平日",
      "土曜日",
      "祝日"
    ],
    "openDaysNote": ""
  },
  {
    "id": "3470211412",
    "name": "デイサービスなかごう",
    "kana": "デイサービスナカゴウ",
    "address": "広島県広島市佐伯区五日市町上河内721-1",
    "lat": 34.4160951596723,
    "lng": 132.355279676196,
    "tel": "082-208-3315",
    "url": "",
    "pref": "広島県",
    "city": "広島市佐伯区",
    "category": "community_day_service",
    "serviceType": "地域密着型通所介護",
    "capacity": 0,
    "openDays": [
      "平日",
      "祝日"
    ],
    "openDaysNote": ""
  },
  {
    "id": "3490200908",
    "name": "デイサービス季楽　五月",
    "kana": "デイサービスキラク　サツキ",
    "address": "広島県広島市佐伯区五月が丘1丁目12-11",
    "lat": 34.4180601,
    "lng": 132.4023334,
    "tel": "082-942-5202",
    "url": "http://www.season-hc.com/",
    "pref": "広島県",
    "city": "広島市佐伯区",
    "category": "community_day_service",
    "serviceType": "地域密着型通所介護",
    "capacity": 0,
    "openDays": [
      "平日",
      "土曜日",
      "祝日"
    ],
    "openDaysNote": ""
  },
  {
    "id": "3470211974",
    "name": "デイサービス季楽・リハ",
    "kana": "デイサービス　キラク・リハ",
    "address": "広島県広島市佐伯区五日市一丁目4番10号",
    "lat": 34.3662232,
    "lng": 132.3594617,
    "tel": "082-942-5202",
    "url": "http://www.season-hc.com/",
    "pref": "広島県",
    "city": "広島市佐伯区",
    "category": "community_day_service",
    "serviceType": "地域密着型通所介護",
    "capacity": 18,
    "openDays": [
      "平日",
      "土曜日",
      "祝日"
    ],
    "openDaysNote": ""
  },
  {
    "id": "3490201666",
    "name": "デイサービス季楽・リハ　八幡",
    "kana": "デイサービスキラク・リハ　ヤハタ",
    "address": "広島県広島市佐伯区八幡東3丁目25番14-1号",
    "lat": 34.3843965,
    "lng": 132.3635749,
    "tel": "082-942-5202",
    "url": "https://www.season-hc.com/",
    "pref": "広島県",
    "city": "広島市佐伯区",
    "category": "community_day_service",
    "serviceType": "地域密着型通所介護",
    "capacity": 0,
    "openDays": [
      "平日",
      "土曜日",
      "祝日"
    ],
    "openDaysNote": ""
  },
  {
    "id": "3470210232",
    "name": "まつむらデイサービスぽぴー",
    "kana": "マツムラデイサービスポピー",
    "address": "広島市佐伯区楽々園四丁目6番10号",
    "lat": 34.3633733,
    "lng": 132.3528961,
    "tel": "082-275-5002",
    "url": "http://www.matsumura-cc.jp/",
    "pref": "広島県",
    "city": "広島市佐伯区",
    "category": "community_day_service",
    "serviceType": "地域密着型通所介護",
    "capacity": 0,
    "openDays": [
      "平日"
    ],
    "openDaysNote": ""
  },
  {
    "id": "3470210158",
    "name": "一期一縁　広島",
    "kana": "イチゴイチエン　ヒロシマ",
    "address": "広島市佐伯区坪井３－７１－１",
    "lat": 34.3809432,
    "lng": 132.3386618,
    "tel": "082-275-5440",
    "url": "http://www.1go1e.jp/",
    "pref": "広島県",
    "city": "広島市佐伯区",
    "category": "community_day_service",
    "serviceType": "地域密着型通所介護",
    "capacity": 18,
    "openDays": [
      "平日",
      "土曜日",
      "日曜日",
      "祝日"
    ],
    "openDaysNote": "１年３６５日年中無休。（改行）盆もお正月も開いています。"
  },
  {
    "id": "3490201807",
    "name": "アースサポート広島",
    "kana": "アースサポートヒロシマ",
    "address": "広島県広島市西区打越町12－21",
    "lat": 34.4110126,
    "lng": 132.4494139,
    "tel": "082-239-6811",
    "url": "https://www.earthsupport.co.jp",
    "pref": "広島県",
    "city": "広島市西区",
    "category": "community_day_service",
    "serviceType": "地域密着型通所介護",
    "capacity": 0,
    "openDays": [
      "平日",
      "祝日"
    ],
    "openDaysNote": "なし"
  },
  {
    "id": "3490201237",
    "name": "おれんじ己斐上てらす",
    "kana": "オレンジコイウエテラス",
    "address": "広島県広島市西区己斐上四丁目２６番１号",
    "lat": 34.4100008747736,
    "lng": 132.418338406082,
    "tel": "082-554-5725",
    "url": "",
    "pref": "広島県",
    "city": "広島市西区",
    "category": "community_day_service",
    "serviceType": "地域密着型通所介護",
    "capacity": 0,
    "openDays": [
      "平日",
      "祝日"
    ],
    "openDaysNote": "夏季休業8月13～15日・年末年始休業12月30日～1月3日"
  },
  {
    "id": "3470204961",
    "name": "でいさーびす・ちゅーりっぷ",
    "kana": "デイサービス・チューリップ",
    "address": "広島市西区楠木町3丁目13-36カルチェヴェールE棟302 カルチェヴェールE棟302",
    "lat": 34.41157,
    "lng": 132.4580247,
    "tel": "082-537-0511",
    "url": "http://tulip-d.com/",
    "pref": "広島県",
    "city": "広島市西区",
    "category": "community_day_service",
    "serviceType": "地域密着型通所介護",
    "capacity": 10,
    "openDays": [
      "平日",
      "土曜日",
      "祝日"
    ],
    "openDaysNote": ""
  },
  {
    "id": "3470206859",
    "name": "デイサービスおれんじ",
    "kana": "デイサービスオレンジ",
    "address": "広島市西区己斐上2-11-3",
    "lat": 34.4051316,
    "lng": 132.4192933,
    "tel": "082-272-2134",
    "url": "",
    "pref": "広島県",
    "city": "広島市西区",
    "category": "community_day_service",
    "serviceType": "地域密着型通所介護",
    "capacity": 18,
    "openDays": [
      "平日",
      "土曜日"
    ],
    "openDaysNote": "夏季休業　8月13～15日（改行）年末年始休業　12月30日～1月3日"
  },
  {
    "id": "3470106539",
    "name": "デイサービスセンター　やまぼうし",
    "kana": "デイサービスセンター　ヤマボウシ",
    "address": "広島県広島市西区三篠北町18-4-201サニーヴィラゆうき2階 サニーヴィラゆうき2階",
    "lat": 34.4174781223093,
    "lng": 132.455597160178,
    "tel": "082-238-2846",
    "url": "",
    "pref": "広島県",
    "city": "広島市西区",
    "category": "community_day_service",
    "serviceType": "地域密着型通所介護",
    "capacity": 0,
    "openDays": [
      "平日",
      "祝日"
    ],
    "openDaysNote": ""
  },
  {
    "id": "3470214689",
    "name": "デイサービスセンターこころ楠木",
    "kana": "デイサービスセンターココロクスノキ",
    "address": "広島市西区楠木町四丁目16番6号",
    "lat": 34.4149549417126,
    "lng": 132.458133396295,
    "tel": "082-237-1055",
    "url": "https://kokorohome.wordpress.com/",
    "pref": "広島県",
    "city": "広島市西区",
    "category": "community_day_service",
    "serviceType": "地域密着型通所介護",
    "capacity": 0,
    "openDays": [
      "平日",
      "祝日"
    ],
    "openDaysNote": "月、水、金曜日は地域密着型通所介護事業所として運営（改行）火、木曜日は認知症対応型通所介護事業所として運営"
  },
  {
    "id": "3470209648",
    "name": "デイサービスセンター夢＊グリーン",
    "kana": "デイサービスセンターユメ＊グリーン",
    "address": "広島県広島市西区高須二丁目２番２８号１階 １階",
    "lat": 34.3908717,
    "lng": 132.4147719,
    "tel": "082-942-5821",
    "url": "http://www.fukushi-greencoop.or.jp/",
    "pref": "広島県",
    "city": "広島市西区",
    "category": "community_day_service",
    "serviceType": "地域密着型通所介護",
    "capacity": 0,
    "openDays": [
      "平日",
      "土曜日",
      "祝日"
    ],
    "openDaysNote": "ゴールデンウイーク5/3～5/5（改行）お盆8/13～8/15（改行）年末年始12/29～1/3"
  },
  {
    "id": "3470211644",
    "name": "デイサービスともの家",
    "kana": "デイサービストモノイエ",
    "address": "広島県広島市西区鈴が峰町41-18",
    "lat": 34.3801504,
    "lng": 132.3929125,
    "tel": "082-270-0145",
    "url": "http://tomoe-fukushikai.or.jp/",
    "pref": "広島県",
    "city": "広島市西区",
    "category": "community_day_service",
    "serviceType": "地域密着型通所介護",
    "capacity": 0,
    "openDays": [
      "平日",
      "祝日"
    ],
    "openDaysNote": ""
  },
  {
    "id": "3470210646",
    "name": "デイサービスにこにこ倶楽部",
    "kana": "デイサービスニコニコクラブ",
    "address": "広島市西区井口鈴が台1－5－22",
    "lat": 34.3740703,
    "lng": 132.3821132,
    "tel": "082－276-1202",
    "url": "https://nikonikoclub.jimdofree.com/",
    "pref": "広島県",
    "city": "広島市西区",
    "category": "community_day_service",
    "serviceType": "地域密着型通所介護",
    "capacity": 11,
    "openDays": [
      "平日",
      "祝日"
    ],
    "openDaysNote": "5月3～5日、8月13～16日、12月30日～1月4日(12月29日が土・日の場合営業)"
  },
  {
    "id": "3470210620",
    "name": "デイサービス季楽　井口",
    "kana": "デイサービスキラク　イノクチ",
    "address": "広島県広島市西区井口４丁目３５－２６",
    "lat": 34.3760115,
    "lng": 132.3758053,
    "tel": "082-942-5202",
    "url": "http://www.season-hc.com/",
    "pref": "広島県",
    "city": "広島市西区",
    "category": "community_day_service",
    "serviceType": "地域密着型通所介護",
    "capacity": 0,
    "openDays": [
      "平日",
      "土曜日"
    ],
    "openDaysNote": "サービス提供時間　９時３０分から１６時３０分"
  },
  {
    "id": "3470208632",
    "name": "デイサービス古田のおうち",
    "kana": "デイサービスフルタノオウチ",
    "address": "広島市西区古江新町８番３２号",
    "lat": 34.3844058292274,
    "lng": 132.410474794443,
    "tel": "082-272-2701",
    "url": "http://mochi2.stars.ne.jp",
    "pref": "広島県",
    "city": "広島市西区",
    "category": "community_day_service",
    "serviceType": "地域密着型通所介護",
    "capacity": 18,
    "openDays": [
      "平日",
      "日曜日",
      "祝日"
    ],
    "openDaysNote": "利用者の要望があれば相談後対応"
  },
  {
    "id": "3470210927",
    "name": "ふれあいデイサービス・広島西",
    "kana": "フレアイデイサービス・ヒロシマニシ",
    "address": "広島県広島市西区草津新町一丁目４番１３号吉田ビル１０１ 吉田ビル１０１",
    "lat": 34.3754299019061,
    "lng": 132.405184388955,
    "tel": "082-275-4570",
    "url": "http://fureaikaigo.jp/",
    "pref": "広島県",
    "city": "広島市西区",
    "category": "community_day_service",
    "serviceType": "地域密着型通所介護",
    "capacity": null,
    "openDays": [
      "平日",
      "土曜日",
      "祝日"
    ],
    "openDaysNote": "特になし"
  },
  {
    "id": "3490201377",
    "name": "ポシブル広島西",
    "kana": "ポシブルヒロシマニシ",
    "address": "広島県広島市西区大芝一丁目19－25",
    "lat": 34.4184597499626,
    "lng": 132.456835188361,
    "tel": "082-238-8870",
    "url": "https://www.possible-plus.co.jp/store/ポシブル広島西/",
    "pref": "広島県",
    "city": "広島市西区",
    "category": "community_day_service",
    "serviceType": "地域密着型通所介護",
    "capacity": 0,
    "openDays": [
      "平日",
      "祝日"
    ],
    "openDaysNote": "祝日営業。"
  },
  {
    "id": "3490201559",
    "name": "ほねつぎデイサービス観音",
    "kana": "ホネツギデイサービスカンオン",
    "address": "広島県広島市西区観音町１６番９号みさおビル１階 みさおビル１階",
    "lat": 34.394827,
    "lng": 132.4375045,
    "tel": "０８２－５３３－８２２０",
    "url": "",
    "pref": "広島県",
    "city": "広島市西区",
    "category": "community_day_service",
    "serviceType": "地域密着型通所介護",
    "capacity": null,
    "openDays": [
      "平日",
      "祝日"
    ],
    "openDaysNote": ""
  },
  {
    "id": "3490200924",
    "name": "リハビリデイサービスnagomi西区己斐店",
    "kana": "リハビリデイサービスナゴミニシクコイテン",
    "address": "広島県広島市西区己斐本町二丁目18番28号ルミエール己斐本町 ルミエール己斐本町",
    "lat": 34.3923884,
    "lng": 132.4245573,
    "tel": "082-507-0753",
    "url": "http://www.my-nagomi.com/html/facility/html/nishikukoi.html",
    "pref": "広島県",
    "city": "広島市西区",
    "category": "community_day_service",
    "serviceType": "地域密着型通所介護",
    "capacity": 15,
    "openDays": [
      "平日",
      "祝日"
    ],
    "openDaysNote": "その他休業日：ゴールデンウィーク、お盆期間、年末年始"
  },
  {
    "id": "3470211719",
    "name": "リハプライド井口",
    "kana": "リハプライドイノクチ",
    "address": "広島県広島市西区井口5-29-3伊藤ビル１階 伊藤ビル１階",
    "lat": 34.3654019,
    "lng": 132.3807023,
    "tel": "082-533-7028",
    "url": "http://rehapride.co.jp/",
    "pref": "広島県",
    "city": "広島市西区",
    "category": "community_day_service",
    "serviceType": "地域密着型通所介護",
    "capacity": 160,
    "openDays": [
      "平日",
      "土曜日",
      "祝日"
    ],
    "openDaysNote": "午前　9：00～12：15　午後13：30～16：45の２単位です。"
  },
  {
    "id": "3470210729",
    "name": "わくわくハウス横川",
    "kana": "ワクワクハウスヨコガワ",
    "address": "広島県広島市西区三篠町三丁目１２番１５号ベルビィ三篠１階 ベルビィ三篠１階",
    "lat": 34.4153020703395,
    "lng": 132.453266936771,
    "tel": "082-509-1101",
    "url": "http://www.wakuwakuhouse-tat.com/company.html",
    "pref": "広島県",
    "city": "広島市西区",
    "category": "community_day_service",
    "serviceType": "地域密着型通所介護",
    "capacity": 0,
    "openDays": [
      "平日",
      "祝日"
    ],
    "openDaysNote": "ＧＷ・盆休み・年末年始に休業日あり"
  },
  {
    "id": "3490201187",
    "name": "わくわくハウス己斐",
    "kana": "ワクワクハウスコイ",
    "address": "広島県広島市西区己斐中3丁目３９－２５",
    "lat": 34.4047928,
    "lng": 132.4246902,
    "tel": "０８２－５５４－５５６０",
    "url": "http://www.wakuwakuhouse-tat.com/about.html",
    "pref": "広島県",
    "city": "広島市西区",
    "category": "community_day_service",
    "serviceType": "地域密着型通所介護",
    "capacity": null,
    "openDays": [
      "平日",
      "祝日"
    ],
    "openDaysNote": ""
  },
  {
    "id": "3470209549",
    "name": "わくわくハウス庚午",
    "kana": "ワクワクハウスコウゴ",
    "address": "広島市西区庚午中４－１９－２６サンヨウビル１０１ サンヨウビル１０１",
    "lat": 34.3816691606724,
    "lng": 132.412991093254,
    "tel": "082-507-6166",
    "url": "http://www.wakuwakuhouse-tat.com/about.html",
    "pref": "広島県",
    "city": "広島市西区",
    "category": "community_day_service",
    "serviceType": "地域密着型通所介護",
    "capacity": 17,
    "openDays": [
      "平日",
      "祝日"
    ],
    "openDaysNote": "ＧＷ・盆休み・年末年始に休業日あり"
  },
  {
    "id": "3470211883",
    "name": "わくわくハウス天満町",
    "kana": "ワクワクハウステンマチョウ",
    "address": "広島県広島市西区天満町19－7クリエイトビル1階 クリエイトビル1階",
    "lat": 34.3951632,
    "lng": 132.44159,
    "tel": "082-942-4955",
    "url": "http://www.wakuwakuhouse-tat.com/company.html",
    "pref": "広島県",
    "city": "広島市西区",
    "category": "community_day_service",
    "serviceType": "地域密着型通所介護",
    "capacity": 15,
    "openDays": [
      "平日",
      "祝日"
    ],
    "openDaysNote": "祝日は営業しています。"
  },
  {
    "id": "3470210208",
    "name": "縁がわデイひなたぼっこ",
    "kana": "エンガワデイヒナタボッコ",
    "address": "広島県広島市西区南観音一丁目２番１６号",
    "lat": 34.3844947,
    "lng": 132.4352822,
    "tel": "082-942-1930",
    "url": "https://engawa-hinata.jimdofree.com/",
    "pref": "広島県",
    "city": "広島市西区",
    "category": "community_day_service",
    "serviceType": "地域密着型通所介護",
    "capacity": 18,
    "openDays": [
      "平日",
      "土曜日",
      "祝日"
    ],
    "openDaysNote": "事業所の都合で臨時休業させて頂く場合があります。"
  },
  {
    "id": "3470208871",
    "name": "三ツ星デイサービスセンター",
    "kana": "ミツボシデイサービスセンター",
    "address": "広島県広島市西区打越町１２－６サンパレスマツモト２階 サンパレスマツモト２階",
    "lat": 34.410795,
    "lng": 132.4494002,
    "tel": "082-962-6297",
    "url": "https://yasashio.com/",
    "pref": "広島県",
    "city": "広島市西区",
    "category": "community_day_service",
    "serviceType": "地域密着型通所介護",
    "capacity": 18,
    "openDays": [
      "平日",
      "土曜日",
      "祝日"
    ],
    "openDaysNote": "特になし"
  },
  {
    "id": "3470208012",
    "name": "宅老所　庵",
    "kana": "タクロウショ　イオリ",
    "address": "広島市西区古江西町5-42",
    "lat": 34.3872803,
    "lng": 132.4089752,
    "tel": "082-942-1771",
    "url": "https://takuroujyo-iori.com/",
    "pref": "広島県",
    "city": "広島市西区",
    "category": "community_day_service",
    "serviceType": "地域密着型通所介護",
    "capacity": 14,
    "openDays": [
      "平日",
      "土曜日",
      "祝日"
    ],
    "openDaysNote": "特になし"
  },
  {
    "id": "3470211255",
    "name": "通所介護事業所かがやき高須",
    "kana": "ツウショカイゴジギョウショカガヤキタカス",
    "address": "広島県広島市西区高須4丁目12-22Sグラン高須 Sグラン高須",
    "lat": 34.3954785264931,
    "lng": 132.414498957008,
    "tel": "082-942-5953",
    "url": "http://lsi-kk.co.jp/",
    "pref": "広島県",
    "city": "広島市西区",
    "category": "community_day_service",
    "serviceType": "地域密着型通所介護",
    "capacity": 0,
    "openDays": [
      "平日",
      "祝日"
    ],
    "openDaysNote": ""
  },
  {
    "id": "3470209994",
    "name": "アルファデイサービスセンター吉島通り",
    "kana": "アルファデイサービスセンターヨシジマドオリ",
    "address": "広島市中区光南1丁目2番23号アルファリビング広島吉島通り内 アルファリビング広島吉島通り内",
    "lat": 34.3691128,
    "lng": 132.4485489,
    "tel": "082-236-6186",
    "url": "https://www.a-living.jp/hiroshima/yoshijima/",
    "pref": "広島県",
    "city": "広島市中区",
    "category": "community_day_service",
    "serviceType": "地域密着型通所介護",
    "capacity": 18,
    "openDays": [
      "平日",
      "祝日"
    ],
    "openDaysNote": ""
  },
  {
    "id": "3490201385",
    "name": "グリーンライフ広島デイサービスセンター",
    "kana": "グリーンライフヒロシマデイサービスセンター",
    "address": "広島県広島市中区舟入町3－9グレイスシムラ3階 グレイスシムラ3階",
    "lat": 34.3915065124499,
    "lng": 132.443947113133,
    "tel": "082-836-6781",
    "url": "http://www.greenlife-inc.co.jp/",
    "pref": "広島県",
    "city": "広島市中区",
    "category": "community_day_service",
    "serviceType": "地域密着型通所介護",
    "capacity": 0,
    "openDays": [
      "平日",
      "土曜日"
    ],
    "openDaysNote": "平日祝日の場合は営業します。"
  },
  {
    "id": "3490201013",
    "name": "こころねデイサービスセンター",
    "kana": "ココロネデイサービスセンター",
    "address": "広島県広島市中区江波栄町１１番２７号アテリエ１階 アテリエ１階",
    "lat": 34.3646633,
    "lng": 132.4296246,
    "tel": "082-533-7987",
    "url": "http://simba.co.jp",
    "pref": "広島県",
    "city": "広島市中区",
    "category": "community_day_service",
    "serviceType": "地域密着型通所介護",
    "capacity": 0,
    "openDays": [
      "平日",
      "土曜日",
      "祝日"
    ],
    "openDaysNote": ""
  },
  {
    "id": "3470209259",
    "name": "ご近所デイ千田町",
    "kana": "ゴキンジョデイセンダマチ",
    "address": "広島市中区南千田東町4-32グループホーム千田みどりの家１F グループホーム千田みどりの家１F",
    "lat": 34.3742463238911,
    "lng": 132.457757439812,
    "tel": "082-236-3010",
    "url": "https://epocacs.co.jp/midorinoie/home/home-134/",
    "pref": "広島県",
    "city": "広島市中区",
    "category": "community_day_service",
    "serviceType": "地域密着型通所介護",
    "capacity": 10,
    "openDays": [
      "平日"
    ],
    "openDaysNote": "コロナ禍において、情勢を踏まえ臨時休業をとる場合がある。（改行）台風等の自然災害発生時、公共交通機関(JR、広電)の計画運休が発表された際は、その運休期間において臨時休業をとる場合がある。"
  },
  {
    "id": "3470207618",
    "name": "デイサービス　みなみたけやの湯",
    "kana": "デイサービス　ミナミタケヤノユ",
    "address": "広島市中区南竹屋町５番８号メディカルケアセンター絆 メディカルケアセンター絆",
    "lat": 34.3816784,
    "lng": 132.4608951,
    "tel": "082-504-9802",
    "url": "https://www.kizuna-mc.jp/",
    "pref": "広島県",
    "city": "広島市中区",
    "category": "community_day_service",
    "serviceType": "地域密着型通所介護",
    "capacity": 20,
    "openDays": [
      "平日",
      "祝日"
    ],
    "openDaysNote": "夏季休暇・年末年始については、変動することあり。"
  },
  {
    "id": "3470210364",
    "name": "デイサービス　縁～ゆかり～",
    "kana": "デイサービス　ユカリ",
    "address": "広島市中区光南2丁目1番4号在宅サポ―トセンター絆 在宅サポ―トセンター絆",
    "lat": 34.6235,
    "lng": 135.6002665,
    "tel": "082-543-5121",
    "url": "http://www.kizuna-mc.jp",
    "pref": "広島県",
    "city": "広島市中区",
    "category": "community_day_service",
    "serviceType": "地域密着型通所介護",
    "capacity": 18,
    "openDays": [
      "平日",
      "祝日"
    ],
    "openDaysNote": ""
  },
  {
    "id": "3490200940",
    "name": "デイサービスセンターLiberte",
    "kana": "デイサービスセンターリベルテ",
    "address": "広島県広島市中区南竹屋町9-23",
    "lat": 34.3806813,
    "lng": 132.4616395,
    "tel": "082-298-9889",
    "url": "http://www.h-leciel.co.jp",
    "pref": "広島県",
    "city": "広島市中区",
    "category": "community_day_service",
    "serviceType": "地域密着型通所介護",
    "capacity": 75,
    "openDays": [
      "平日",
      "祝日"
    ],
    "openDaysNote": "平成28年9月開設。"
  },
  {
    "id": "3470205125",
    "name": "デイサービスセンターまごころ",
    "kana": "デイサービスセンターマゴコロ",
    "address": "広島市中区昭和町4番27号HKビル1F HKビル1F",
    "lat": 34.3839336607917,
    "lng": 132.463869310467,
    "tel": "082-242-0262",
    "url": "http://www.k-business.net/",
    "pref": "広島県",
    "city": "広島市中区",
    "category": "community_day_service",
    "serviceType": "地域密着型通所介護",
    "capacity": 30,
    "openDays": [
      "平日",
      "土曜日"
    ],
    "openDaysNote": ""
  },
  {
    "id": "3470207436",
    "name": "デイサービスセンター赤とんぼ",
    "kana": "デイサービスセンターアカトンボ",
    "address": "広島市中区舟入中町2-38パレ舟入1Ｆ",
    "lat": 34.387984,
    "lng": 132.4448505,
    "tel": "082-234-1470",
    "url": "http://hiroshima-akatombom.net",
    "pref": "広島県",
    "city": "広島市中区",
    "category": "community_day_service",
    "serviceType": "地域密着型通所介護",
    "capacity": 5,
    "openDays": [
      "平日",
      "土曜日",
      "祝日"
    ],
    "openDaysNote": ""
  },
  {
    "id": "3490201633",
    "name": "デイサービス未来おおうち大手町",
    "kana": "デイサービスミライオオウチオオテマチ",
    "address": "広島県広島市中区大手町3丁目6-12おおうちビル3階 おおうちビル3階",
    "lat": 34.3877463,
    "lng": 132.4541761,
    "tel": "082-298-5258",
    "url": "",
    "pref": "広島県",
    "city": "広島市中区",
    "category": "community_day_service",
    "serviceType": "地域密着型通所介護",
    "capacity": 0,
    "openDays": [
      "平日",
      "祝日"
    ],
    "openDaysNote": "但し、夏季休業として（8月13日～15日）、年末年始休業として（12月30日～1月3日）"
  },
  {
    "id": "3490201310",
    "name": "リハビリデイサービスnagomi中区吉島店",
    "kana": "リハビリデイサービスナゴミナカクヨシジマテン",
    "address": "広島県広島市中区光南1-15-7",
    "lat": 34.3673842,
    "lng": 132.4470815,
    "tel": "082-546-0753",
    "url": "http://www.my-nagomi.com/html/facility/html/nakakuyoshijima.html",
    "pref": "広島県",
    "city": "広島市中区",
    "category": "community_day_service",
    "serviceType": "地域密着型通所介護",
    "capacity": 85,
    "openDays": [
      "平日",
      "祝日"
    ],
    "openDaysNote": ""
  },
  {
    "id": "3470210034",
    "name": "リハプライド広島千田",
    "kana": "リハプライドヒロシマセンダ",
    "address": "広島市中区千田町１－５－１７五島ビル１階 五島ビル１階",
    "lat": 34.3811533,
    "lng": 132.4531651,
    "tel": "０８２－５４３－４１３０",
    "url": "https://www.rehapride.co.jp/hiroshimasenda",
    "pref": "広島県",
    "city": "広島市中区",
    "category": "community_day_service",
    "serviceType": "地域密着型通所介護",
    "capacity": 18,
    "openDays": [
      "平日",
      "土曜日",
      "祝日"
    ],
    "openDaysNote": "午前・午後の２単位制（改行）午前9:15~12:15（改行）午後13:30~16:30"
  },
  {
    "id": "3490201443",
    "name": "レコードブック広島住吉町",
    "kana": "レコードブックヒロシマスミヨシチョウ",
    "address": "広島県広島市中区住吉町8番16号MTビル1階1号室 MTビル1階1号室",
    "lat": 34.3837492,
    "lng": 132.4488803,
    "tel": "082-236-9690",
    "url": "https://www.recordbook.jp/",
    "pref": "広島県",
    "city": "広島市中区",
    "category": "community_day_service",
    "serviceType": "地域密着型通所介護",
    "capacity": 0,
    "openDays": [
      "平日",
      "祝日"
    ],
    "openDaysNote": "祝日は営業"
  },
  {
    "id": "3470207154",
    "name": "わだ内科医院デイサービス",
    "kana": "ワダナイカイインデイサービス",
    "address": "広島市中区大手町５丁目７番11号２階 ２階",
    "lat": 34.3825556435741,
    "lng": 132.453126774869,
    "tel": "082-240-8025",
    "url": "https://www.wadanaika.com/",
    "pref": "広島県",
    "city": "広島市中区",
    "category": "community_day_service",
    "serviceType": "地域密着型通所介護",
    "capacity": 18,
    "openDays": [
      "平日"
    ],
    "openDaysNote": ""
  },
  {
    "id": "3470205711",
    "name": "光南デイサービスセンターすみれ",
    "kana": "コウナンデイサービスセンタースミレ",
    "address": "広島市中区光南二丁目３番４６号光南ビル 光南ビル",
    "lat": 34.3696016,
    "lng": 132.4450129,
    "tel": "082-247-9808",
    "url": "https://sumire-day.jimdofree.com/",
    "pref": "広島県",
    "city": "広島市中区",
    "category": "community_day_service",
    "serviceType": "地域密着型通所介護",
    "capacity": 18,
    "openDays": [
      "平日",
      "土曜日",
      "祝日"
    ],
    "openDaysNote": "8/14～1612/31～1/3　休業"
  },
  {
    "id": "3470203054",
    "name": "富士見デイサービスセンター",
    "kana": "フジミデイサービスセンター",
    "address": "広島市中区富士見町2-21西村ビル４階 西村ビル４階",
    "lat": 34.3874251,
    "lng": 132.4627781,
    "tel": "082-244-6422",
    "url": "",
    "pref": "広島県",
    "city": "広島市中区",
    "category": "community_day_service",
    "serviceType": "地域密着型通所介護",
    "capacity": 18,
    "openDays": [
      "平日"
    ],
    "openDaysNote": "盆休みや年末年始の営業日は時に若干の変更があります"
  },
  {
    "id": "3490201484",
    "name": "療養通所介護　あいりす",
    "kana": "リョウヨウツウショカイゴ　アイリス",
    "address": "広島県広島市中区光南2丁目11番4号",
    "lat": 34.3681976,
    "lng": 132.4453686,
    "tel": "082-546-9037",
    "url": "http://www.airisu.net/",
    "pref": "広島県",
    "city": "広島市中区",
    "category": "community_day_service",
    "serviceType": "地域密着型通所介護",
    "capacity": 0,
    "openDays": [
      "平日"
    ],
    "openDaysNote": ""
  },
  {
    "id": "3470108634",
    "name": "clubsora夕凪",
    "kana": "クラブ　ソラ　ユウナギ",
    "address": "広島県広島市東区光町二丁目１４－３３花幸ビル１F 花幸ビル１F",
    "lat": 34.3995184,
    "lng": 132.4838564,
    "tel": "082-258-5707",
    "url": "http://hiroshimacare.wixsite.com/index",
    "pref": "広島県",
    "city": "広島市東区",
    "category": "community_day_service",
    "serviceType": "地域密着型通所介護",
    "capacity": 2,
    "openDays": [
      "平日",
      "土曜日",
      "祝日"
    ],
    "openDaysNote": ""
  },
  {
    "id": "3470107321",
    "name": "アーチ尾長デイサービス",
    "kana": "アーチオナガデイサービス",
    "address": "広島市東区尾長東一丁目９番３号",
    "lat": 34.3965051153668,
    "lng": 132.490941471793,
    "tel": "082-569-5388",
    "url": "https://www.ai-well-hiroshima.com/",
    "pref": "広島県",
    "city": "広島市東区",
    "category": "community_day_service",
    "serviceType": "地域密着型通所介護",
    "capacity": 18,
    "openDays": [
      "平日",
      "祝日"
    ],
    "openDaysNote": "祝日は営業"
  },
  {
    "id": "3470108493",
    "name": "デイサービスこうこう",
    "kana": "デイサービスコウコウ",
    "address": "広島県広島市東区山根町30-13",
    "lat": 34.4027097,
    "lng": 132.4813454,
    "tel": "０８２－２５８－５５４１",
    "url": "",
    "pref": "広島県",
    "city": "広島市東区",
    "category": "community_day_service",
    "serviceType": "地域密着型通所介護",
    "capacity": 15,
    "openDays": [
      "平日",
      "土曜日",
      "祝日"
    ],
    "openDaysNote": ""
  },
  {
    "id": "3470107065",
    "name": "デイサービスセンターみのり",
    "kana": "デイサービスセンターミノリ",
    "address": "広島市東区矢賀新町4-1-7",
    "lat": 34.3916752,
    "lng": 132.4982331,
    "tel": "082-258-3371",
    "url": "",
    "pref": "広島県",
    "city": "広島市東区",
    "category": "community_day_service",
    "serviceType": "地域密着型通所介護",
    "capacity": 0,
    "openDays": [
      "平日",
      "土曜日",
      "祝日"
    ],
    "openDaysNote": ""
  },
  {
    "id": "3470103429",
    "name": "デイサービスセンター青葉",
    "kana": "デイサービスセンターアオバ",
    "address": "広島市東区戸坂出江2丁目10-31",
    "lat": 34.4334958,
    "lng": 132.4882855,
    "tel": "082-229-2562",
    "url": "https://www.ishidaiin-hesaka.jp/facility",
    "pref": "広島県",
    "city": "広島市東区",
    "category": "community_day_service",
    "serviceType": "地域密着型通所介護",
    "capacity": 15,
    "openDays": [
      "平日",
      "土曜日"
    ],
    "openDaysNote": ""
  },
  {
    "id": "3470107537",
    "name": "デイサービストパーズ戸坂",
    "kana": "デイサービストパーズヘサカ",
    "address": "広島県広島市東区戸坂大上四丁目21－7",
    "lat": 34.423958,
    "lng": 132.4964184,
    "tel": "082－220－5211",
    "url": "https://www.r-plus-limited.com/",
    "pref": "広島県",
    "city": "広島市東区",
    "category": "community_day_service",
    "serviceType": "地域密着型通所介護",
    "capacity": 100,
    "openDays": [
      "平日",
      "土曜日"
    ],
    "openDaysNote": "火曜、土曜日は午前中のみ（8時30分から12時30分まで）"
  },
  {
    "id": "3470107289",
    "name": "デイサービス梅の花",
    "kana": "デイサービスウメノハナ",
    "address": "広島市東区牛田新町3-5-21",
    "lat": 34.427052,
    "lng": 132.4719618,
    "tel": "082-836-4321",
    "url": "http://heart.hiroshima.jp/",
    "pref": "広島県",
    "city": "広島市東区",
    "category": "community_day_service",
    "serviceType": "地域密着型通所介護",
    "capacity": 9,
    "openDays": [
      "平日",
      "土曜日",
      "日曜日",
      "祝日"
    ],
    "openDaysNote": "日曜日のみのご利用は要相談"
  },
  {
    "id": "3470108196",
    "name": "デイホームきらめき",
    "kana": "デイホームキラメキ",
    "address": "広島県広島市東区戸坂くるめ木２丁目7-28",
    "lat": 34.4316904,
    "lng": 132.4810054,
    "tel": "082-516-4621",
    "url": "",
    "pref": "広島県",
    "city": "広島市東区",
    "category": "community_day_service",
    "serviceType": "地域密着型通所介護",
    "capacity": 0,
    "openDays": [
      "平日",
      "祝日"
    ],
    "openDaysNote": ""
  },
  {
    "id": "3490101304",
    "name": "ほねつぎデイサービス中山東",
    "kana": "ホネツギデイサービスナカヤマヒガシ",
    "address": "広島県広島市東区中山東３丁目２番２号",
    "lat": 34.4106072,
    "lng": 132.5031481,
    "tel": "082-508-4606",
    "url": "https://www.honetsugi-kaigo.com/",
    "pref": "広島県",
    "city": "広島市東区",
    "category": "community_day_service",
    "serviceType": "地域密着型通所介護",
    "capacity": null,
    "openDays": [
      "平日",
      "祝日"
    ],
    "openDaysNote": "お盆（８/１３～８/１５）年末年始（１２/３０～１/３）は休業"
  },
  {
    "id": "3470108444",
    "name": "リハプライド広島不動院前",
    "kana": "リハプライドヒロシマフドウインマエ",
    "address": "広島県広島市東区牛田新町4-4-29",
    "lat": 34.4298086182084,
    "lng": 132.473428168787,
    "tel": "082-516-7522",
    "url": "https://www.rehapride.co.jp/hiroshimafudoinmae/",
    "pref": "広島県",
    "city": "広島市東区",
    "category": "community_day_service",
    "serviceType": "地域密着型通所介護",
    "capacity": 18,
    "openDays": [
      "平日",
      "土曜日",
      "祝日"
    ],
    "openDaysNote": ""
  },
  {
    "id": "3470108154",
    "name": "早稲田イーライフ温品",
    "kana": "ワセダイーライフヌクシナ",
    "address": "広島市東区温品2丁目8番24-9号ケアビレッジライル温品 ケアビレッジライル温品",
    "lat": 34.4042260753435,
    "lng": 132.50556445582,
    "tel": "082-289-0066",
    "url": "http://www.lile-style.biz",
    "pref": "広島県",
    "city": "広島市東区",
    "category": "community_day_service",
    "serviceType": "地域密着型通所介護",
    "capacity": 150,
    "openDays": [
      "平日",
      "祝日"
    ],
    "openDaysNote": "お盆（8月13日～8月15日）年末年始（12月31日～1月3日）は休業"
  },
  {
    "id": "3470107610",
    "name": "通所介護事業所かがやき中山東",
    "kana": "ツウショカイゴジギョウショカガヤキナカヤマヒガシ",
    "address": "広島県広島市東区中山東3丁目2-7Ｓグラン中山東 Ｓグラン中山東",
    "lat": 34.4104219377563,
    "lng": 132.502299697403,
    "tel": "082-508-4355",
    "url": "https://www.lsi-kk.co.jp/",
    "pref": "広島県",
    "city": "広島市東区",
    "category": "community_day_service",
    "serviceType": "地域密着型通所介護",
    "capacity": 0,
    "openDays": [
      "平日",
      "祝日"
    ],
    "openDaysNote": ""
  },
  {
    "id": "3470107792",
    "name": "あるケア",
    "kana": "アルケア",
    "address": "広島市南区皆実町1丁目１９－５",
    "lat": 34.377229,
    "lng": 132.4705138,
    "tel": "０８２－２５８－２０８８",
    "url": "",
    "pref": "広島県",
    "city": "広島市南区",
    "category": "community_day_service",
    "serviceType": "地域密着型通所介護",
    "capacity": 18,
    "openDays": [
      "平日",
      "祝日"
    ],
    "openDaysNote": ""
  },
  {
    "id": "3490101239",
    "name": "さくらデイサービス満天のリハ",
    "kana": "サクラデサービスマンテンノリハ",
    "address": "広島県広島市南区松川町6-16第3佐野ビル1F 第3佐野ビル1F",
    "lat": 34.3896555837869,
    "lng": 132.473634846242,
    "tel": "082-569-4545",
    "url": "https://sakura39.hp.peraichi.com/manten.reha",
    "pref": "広島県",
    "city": "広島市南区",
    "category": "community_day_service",
    "serviceType": "地域密着型通所介護",
    "capacity": null,
    "openDays": [
      "平日",
      "土曜日",
      "祝日"
    ],
    "openDaysNote": ""
  },
  {
    "id": "3470105374",
    "name": "デイサービス　スクエア　あきもと",
    "kana": "デイサービス　スクエア　アキモト",
    "address": "広島市南区東本浦町5-22",
    "lat": 34.3755768,
    "lng": 132.4877928,
    "tel": "082-288-4114",
    "url": "http://akimoto-geka.byoinnavi.jp",
    "pref": "広島県",
    "city": "広島市南区",
    "category": "community_day_service",
    "serviceType": "地域密着型通所介護",
    "capacity": 0,
    "openDays": [
      "平日",
      "祝日"
    ],
    "openDaysNote": "上記定休日以外の、月曜日から金曜日までの祝日は営業しています。"
  },
  {
    "id": "3490101296",
    "name": "デイサービスセンターあさぎり",
    "kana": "デイサービスセンターアサギリ",
    "address": "広島県広島市南区翠3丁目13-20蓮花ビル１階 蓮花ビル１階",
    "lat": 34.3709538,
    "lng": 132.4725154,
    "tel": "082-567-5970",
    "url": "http://www.kk-komorebi.jp/",
    "pref": "広島県",
    "city": "広島市南区",
    "category": "community_day_service",
    "serviceType": "地域密着型通所介護",
    "capacity": 18,
    "openDays": [
      "平日",
      "土曜日"
    ],
    "openDaysNote": ""
  },
  {
    "id": "3490101023",
    "name": "デイサービスセンターこもれびの杜",
    "kana": "デイサービスセンターコモレビノモリ",
    "address": "広島県広島市南区東雲2丁目18-8",
    "lat": 34.3795114,
    "lng": 132.4905798,
    "tel": "082-510-1077",
    "url": "http://kk-komorebi.jp/",
    "pref": "広島県",
    "city": "広島市南区",
    "category": "community_day_service",
    "serviceType": "地域密着型通所介護",
    "capacity": 11,
    "openDays": [
      "平日"
    ],
    "openDaysNote": ""
  },
  {
    "id": "3470101712",
    "name": "デイサービスセンターにのしま",
    "kana": "デイサービスセンターニノシマ",
    "address": "広島市南区似島町字東大谷３０７３－５",
    "lat": 34.3117363,
    "lng": 132.4330785,
    "tel": "082-259-2709",
    "url": "https://heiwa-youroukan.jp/contents/index.html",
    "pref": "広島県",
    "city": "広島市南区",
    "category": "community_day_service",
    "serviceType": "地域密着型通所介護",
    "capacity": 0,
    "openDays": [
      "平日",
      "土曜日"
    ],
    "openDaysNote": ""
  },
  {
    "id": "3470104690",
    "name": "デイサービスセンター楽園",
    "kana": "デイサービスセンターラクエン",
    "address": "広島市南区比治山本町7-3",
    "lat": 34.3807676,
    "lng": 132.4725163,
    "tel": "082-255-7773",
    "url": "http://www.rakuen7773.com/",
    "pref": "広島県",
    "city": "広島市南区",
    "category": "community_day_service",
    "serviceType": "地域密着型通所介護",
    "capacity": 0,
    "openDays": [
      "平日",
      "土曜日",
      "祝日"
    ],
    "openDaysNote": ""
  },
  {
    "id": "3470107412",
    "name": "デイサービスセンター丹那",
    "kana": "デイサービスセンタータンナ",
    "address": "広島市南区丹那町22-10-5クラシオン丹那 クラシオン丹那",
    "lat": 34.3661221,
    "lng": 132.4779717,
    "tel": "082-259-3366",
    "url": "http://curacion.life/",
    "pref": "広島県",
    "city": "広島市南区",
    "category": "community_day_service",
    "serviceType": "地域密着型通所介護",
    "capacity": 0,
    "openDays": [
      "平日",
      "祝日"
    ],
    "openDaysNote": "8/13～8/16お盆休業（改行）12/30～1/3は年末年始休業"
  },
  {
    "id": "3470106745",
    "name": "デイサービスみんなの家",
    "kana": "デイサービスミンナノイエ",
    "address": "広島市南区翠三丁目６番３号檜山ビル1階 檜山ビル1階",
    "lat": 34.3729323,
    "lng": 132.471636,
    "tel": "082-256-6338",
    "url": "http://hp.kaipoke.biz/3zw/",
    "pref": "広島県",
    "city": "広島市南区",
    "category": "community_day_service",
    "serviceType": "地域密着型通所介護",
    "capacity": 78,
    "openDays": [
      "平日",
      "土曜日",
      "祝日"
    ],
    "openDaysNote": "特になし"
  },
  {
    "id": "3490101049",
    "name": "とまと倶楽部だんばら",
    "kana": "トマトクラブダンバラ",
    "address": "広島県広島市南区段原二丁目15番2号堤ビル１階 堤ビル１階",
    "lat": 34.3873995,
    "lng": 132.4763512,
    "tel": "082-207-3540",
    "url": "http://www.salute.co.jp/",
    "pref": "広島県",
    "city": "広島市南区",
    "category": "community_day_service",
    "serviceType": "地域密着型通所介護",
    "capacity": null,
    "openDays": [
      "平日",
      "土曜日",
      "祝日"
    ],
    "openDaysNote": "サービス提供時間（改行）午前：9時00分～12時00分（改行）午後：13時40分～16時40分"
  },
  {
    "id": "3490101015",
    "name": "ポシブルJR広島駅東店",
    "kana": "ポシブルジェイアールヒロシマエキヒガシテン",
    "address": "広島県広島市南区東駅町1-5-5",
    "lat": 34.3945273,
    "lng": 132.4832399,
    "tel": "082-568-0775",
    "url": "http://www.possible-plus.co.jp/",
    "pref": "広島県",
    "city": "広島市南区",
    "category": "community_day_service",
    "serviceType": "地域密着型通所介護",
    "capacity": 0,
    "openDays": [
      "平日",
      "祝日"
    ],
    "openDaysNote": "年末年始休み　12月31日～1月3日"
  },
  {
    "id": "3490101072",
    "name": "リハビリデイサービスnagomi南区出汐店",
    "kana": "リハビリデイサービス　ナゴミ　ミナミクデシオテン",
    "address": "広島県広島市南区出汐3丁目4-1",
    "lat": 34.3773575,
    "lng": 132.4777686,
    "tel": "082-250-0753",
    "url": "http://www.my-nagomi.com/html/facility/html/minamikudeshio.html",
    "pref": "広島県",
    "city": "広島市南区",
    "category": "community_day_service",
    "serviceType": "地域密着型通所介護",
    "capacity": null,
    "openDays": [
      "平日",
      "祝日"
    ],
    "openDaysNote": "ゴールデンウィーク（改行）お盆期間（改行）年末年始"
  },
  {
    "id": "3470107453",
    "name": "わくわくハウス宇品",
    "kana": "ワクワクハウスウジナ",
    "address": "広島県広島市南区宇品御幸３－１－２２山口ビル1階 山口ビル1階",
    "lat": 34.3638442,
    "lng": 132.4640063,
    "tel": "082-259-3787",
    "url": "http://www.wakuwakuhouse-tat.com/company.html",
    "pref": "広島県",
    "city": "広島市南区",
    "category": "community_day_service",
    "serviceType": "地域密着型通所介護",
    "capacity": 0,
    "openDays": [
      "平日"
    ],
    "openDaysNote": "ＧＷ・盆休み・年末年始に休業日あり"
  },
  {
    "id": "3470104617",
    "name": "高齢者総合福祉施設なだの郷デイサービス",
    "kana": "コウレイシャソウゴウフクシシセツナダノサトデイサービス",
    "address": "広島県広島市南区青崎2丁目16番15号",
    "lat": 34.3718696,
    "lng": 132.5087827,
    "tel": "082-281-3393",
    "url": "http://www7b.biglobe.ne.jp/~hyakuju-nadanosato/",
    "pref": "広島県",
    "city": "広島市南区",
    "category": "community_day_service",
    "serviceType": "地域密着型通所介護",
    "capacity": 15,
    "openDays": [
      "平日",
      "祝日"
    ],
    "openDaysNote": ""
  },
  {
    "id": "3470207030",
    "name": "通所介護事業所　玄玄",
    "kana": "ツウショカイゴジギョウショ　ゲンゲン",
    "address": "広島市南区仁保二丁目5番39号",
    "lat": 34.3735485012495,
    "lng": 132.496523374469,
    "tel": "082-890-6686",
    "url": "http://gen-gen.com/",
    "pref": "広島県",
    "city": "広島市南区",
    "category": "community_day_service",
    "serviceType": "地域密着型通所介護",
    "capacity": 18,
    "openDays": [
      "平日",
      "土曜日"
    ],
    "openDaysNote": "特に無し"
  },
  {
    "id": "3470105895",
    "name": "日和庵",
    "kana": "ヒヨリアン",
    "address": "広島市南区仁保二丁目5番39号",
    "lat": 34.3734814808273,
    "lng": 132.496711568123,
    "tel": "082-890-8025",
    "url": "http://magokoro-net.com/",
    "pref": "広島県",
    "city": "広島市南区",
    "category": "community_day_service",
    "serviceType": "地域密着型通所介護",
    "capacity": 18,
    "openDays": [
      "平日",
      "祝日"
    ],
    "openDaysNote": ""
  },
  {
    "id": "3475000224",
    "name": "デイサービス　はまい",
    "kana": "デイサービス　ハマイ",
    "address": "広島県江田島市大柿町柿浦1557番地",
    "lat": 34.1815575,
    "lng": 132.4702455,
    "tel": "0823-57-5050",
    "url": "",
    "pref": "広島県",
    "city": "江田島市",
    "category": "community_day_service",
    "serviceType": "地域密着型通所介護",
    "capacity": null,
    "openDays": [
      "平日",
      "祝日"
    ],
    "openDaysNote": "お盆休み　　　8月14日15日16日（改行）年末年始休み　12月29日30日31日　1月1日2日3日"
  },
  {
    "id": "3475000042",
    "name": "デイサービスセンター　そよかぜ",
    "kana": "デイサービスセンター　ソヨカゼ",
    "address": "江田島市大柿町飛渡瀬４０２２番地",
    "lat": 34.2145896,
    "lng": 132.4665837,
    "tel": "0823-40-3300",
    "url": "http://enou01.com/",
    "pref": "広島県",
    "city": "江田島市",
    "category": "community_day_service",
    "serviceType": "地域密着型通所介護",
    "capacity": null,
    "openDays": [
      "平日",
      "土曜日",
      "祝日"
    ],
    "openDaysNote": "特になし"
  },
  {
    "id": "3475000133",
    "name": "デイサービスセンター「江田島ビハーラ」",
    "kana": "デイサービスセンター「エタジマビハーラ」",
    "address": "広島県江田島市大柿町飛渡瀬1619",
    "lat": 34.2035354,
    "lng": 132.4725946,
    "tel": "0823-57-2319",
    "url": "http:/ww7.enjoy.ne.jp/~daizen/",
    "pref": "広島県",
    "city": "江田島市",
    "category": "community_day_service",
    "serviceType": "地域密着型通所介護",
    "capacity": 10,
    "openDays": [
      "平日"
    ],
    "openDaysNote": ""
  },
  {
    "id": "3470901343",
    "name": "いとざきデイサービスセンター",
    "kana": "イトザキデイサービスセンター",
    "address": "三原市糸崎二丁目４番５号広島オフィス産業ビル 広島オフィス産業ビル",
    "lat": 34.397439,
    "lng": 133.0969368,
    "tel": "0848-64-3851",
    "url": "https://www.itozakiday.com/",
    "pref": "広島県",
    "city": "三原市",
    "category": "community_day_service",
    "serviceType": "地域密着型通所介護",
    "capacity": 18,
    "openDays": [
      "平日",
      "祝日"
    ],
    "openDaysNote": "特になし"
  },
  {
    "id": "3490900382",
    "name": "くらすば",
    "kana": "クラスバ",
    "address": "広島県三原市西町二丁目4番39号暮らり　1階 暮らり　1階",
    "lat": 34.402565,
    "lng": 133.0731869,
    "tel": "070-3795-9809",
    "url": "https://kurari.jp/dayservice/",
    "pref": "広島県",
    "city": "三原市",
    "category": "community_day_service",
    "serviceType": "地域密着型通所介護",
    "capacity": 0,
    "openDays": [
      "平日",
      "土曜日",
      "祝日"
    ],
    "openDaysNote": ""
  },
  {
    "id": "3490900390",
    "name": "たいようデイサービスセンター",
    "kana": "タイヨウデイサービスセンター",
    "address": "広島県三原市中之町3丁目24番34号",
    "lat": 34.4160943,
    "lng": 133.1003457,
    "tel": "0848-38-2660",
    "url": "nagomi8360.rs-sv.com",
    "pref": "広島県",
    "city": "三原市",
    "category": "community_day_service",
    "serviceType": "地域密着型通所介護",
    "capacity": null,
    "openDays": [
      "平日",
      "土曜日",
      "日曜日",
      "祝日"
    ],
    "openDaysNote": ""
  },
  {
    "id": "3470901236",
    "name": "デイサービス　こすもす",
    "kana": "デイサービス　コスモス",
    "address": "三原市沼田東町片島242-3",
    "lat": 34.3901998,
    "lng": 133.0219929,
    "tel": "0848-66-5581",
    "url": "",
    "pref": "広島県",
    "city": "三原市",
    "category": "community_day_service",
    "serviceType": "地域密着型通所介護",
    "capacity": 15,
    "openDays": [
      "平日",
      "土曜日",
      "祝日"
    ],
    "openDaysNote": ""
  },
  {
    "id": "3470901160",
    "name": "デイサービスきぼう",
    "kana": "デイサービスキボウ",
    "address": "広島県三原市明神3-16-16",
    "lat": 34.3871979,
    "lng": 133.0542456,
    "tel": "0848-36-6145",
    "url": "https://mihara-nozomi.jp/",
    "pref": "広島県",
    "city": "三原市",
    "category": "community_day_service",
    "serviceType": "地域密着型通所介護",
    "capacity": 18,
    "openDays": [
      "平日",
      "土曜日"
    ],
    "openDaysNote": ""
  },
  {
    "id": "3470900584",
    "name": "デイサービスセンター　ゆめホーム",
    "kana": "デイサービスセンター　ユメホーム",
    "address": "三原市明神１－１２－２５",
    "lat": 34.3849425,
    "lng": 133.0547734,
    "tel": "0848-62-5974",
    "url": "",
    "pref": "広島県",
    "city": "三原市",
    "category": "community_day_service",
    "serviceType": "地域密着型通所介護",
    "capacity": 10,
    "openDays": [
      "平日",
      "土曜日"
    ],
    "openDaysNote": ""
  },
  {
    "id": "3470901418",
    "name": "デイサービス隣ご縁皆実",
    "kana": "デイサービスリンゴエンミナミ",
    "address": "三原市皆実6丁目7番31号",
    "lat": 34.3903699,
    "lng": 133.0616644,
    "tel": "0848-38-2250",
    "url": "https://www.ckksp.co.jp/facilities/dayservice_ringoen-minami/#contentsmain",
    "pref": "広島県",
    "city": "三原市",
    "category": "community_day_service",
    "serviceType": "地域密着型通所介護",
    "capacity": 10,
    "openDays": [
      "平日",
      "土曜日",
      "日曜日",
      "祝日"
    ],
    "openDaysNote": ""
  },
  {
    "id": "3490900325",
    "name": "リハプライド皆実",
    "kana": "リハプライドミナミ",
    "address": "広島県三原市皆実1丁目24-21",
    "lat": 34.3947339615227,
    "lng": 133.066864018385,
    "tel": "0848-38-9003",
    "url": "",
    "pref": "広島県",
    "city": "三原市",
    "category": "community_day_service",
    "serviceType": "地域密着型通所介護",
    "capacity": 12,
    "openDays": [
      "平日"
    ],
    "openDaysNote": ""
  },
  {
    "id": "3490900291",
    "name": "三原市デイサービスセンターさぎうら",
    "kana": "ミハラシデイサービスセンターサギウラ",
    "address": "広島県三原市鷺浦町向田野浦1712番地",
    "lat": 34.3281137,
    "lng": 133.1062395,
    "tel": "0848-60-7055",
    "url": "",
    "pref": "広島県",
    "city": "三原市",
    "category": "community_day_service",
    "serviceType": "地域密着型通所介護",
    "capacity": null,
    "openDays": [
      "平日",
      "土曜日"
    ],
    "openDaysNote": ""
  },
  {
    "id": "3490900317",
    "name": "梅菅園通所介護事業所",
    "kana": "バイカンエンツウショカイゴジギョウショ",
    "address": "広島県三原市下北方二丁目９番１号",
    "lat": 34.4108081,
    "lng": 132.9738471,
    "tel": "0848-86-1750",
    "url": "http://baikanen.jp/",
    "pref": "広島県",
    "city": "三原市",
    "category": "community_day_service",
    "serviceType": "地域密着型通所介護",
    "capacity": 0,
    "openDays": [
      "平日",
      "土曜日",
      "祝日"
    ],
    "openDaysNote": "特になし"
  },
  {
    "id": "3471900906",
    "name": "デイサービスセンター　ウイズ",
    "kana": "デイサービスセンター　ウイズ",
    "address": "広島県三次市三良坂町田利３３７番地",
    "lat": 34.7844809,
    "lng": 132.9622687,
    "tel": "0824-44-4222",
    "url": "",
    "pref": "広島県",
    "city": "三次市",
    "category": "community_day_service",
    "serviceType": "地域密着型通所介護",
    "capacity": 18,
    "openDays": [
      "平日",
      "土曜日",
      "祝日"
    ],
    "openDaysNote": "お盆休暇，年末年始休暇については，曜日の並びによって若干の変更有。"
  },
  {
    "id": "3474800228",
    "name": "デイサービスセンターさくぎ",
    "kana": "デイサービスセンターサクギ",
    "address": "広島県三次市作木町下作木1503",
    "lat": 34.869477,
    "lng": 132.705963,
    "tel": "0824-55-2119",
    "url": "http://miyoshi-shakyo.com/",
    "pref": "広島県",
    "city": "三次市",
    "category": "community_day_service",
    "serviceType": "地域密着型通所介護",
    "capacity": null,
    "openDays": [
      "平日",
      "祝日"
    ],
    "openDaysNote": ""
  },
  {
    "id": "3474800251",
    "name": "デイサービスセンターふの",
    "kana": "デイサービスセンターフノ",
    "address": "広島県三次市布野町上布野11093-1布野保健福祉センター 布野保健福祉センター",
    "lat": 34.9072761,
    "lng": 132.7759964,
    "tel": "0824-54-2042",
    "url": "https://miyoshi-shakyo.com/",
    "pref": "広島県",
    "city": "三次市",
    "category": "community_day_service",
    "serviceType": "地域密着型通所介護",
    "capacity": null,
    "openDays": [
      "平日",
      "祝日"
    ],
    "openDaysNote": "河川の増水積雪、その他自然現象などにより営業を行うことが利用者の方に不利益を及ぼす可能性が高いと判断した場合には、営業を中止する場合があります。"
  },
  {
    "id": "3471900930",
    "name": "デイサービスセンターみよし",
    "kana": "デイサービスセンターミヨシ",
    "address": "広島県三次市日下町１４３番地１三次西健康づくりセンター 三次西健康づくりセンター",
    "lat": 34.8188268,
    "lng": 132.8196155,
    "tel": "0824-65-0321",
    "url": "http://www.miyoshi-shakyo.com/",
    "pref": "広島県",
    "city": "三次市",
    "category": "community_day_service",
    "serviceType": "地域密着型通所介護",
    "capacity": 0,
    "openDays": [
      "平日",
      "祝日"
    ],
    "openDaysNote": ""
  },
  {
    "id": "3471900757",
    "name": "デイサービスセンターみわ",
    "kana": "デイサービスセンターミワ",
    "address": "三次市三和町敷名11460番地２",
    "lat": 34.6649683,
    "lng": 132.8464501,
    "tel": "0824-52-3143",
    "url": "http://miyoshi-shakyo.com",
    "pref": "広島県",
    "city": "三次市",
    "category": "community_day_service",
    "serviceType": "地域密着型通所介護",
    "capacity": 0,
    "openDays": [
      "平日",
      "祝日"
    ],
    "openDaysNote": ""
  },
  {
    "id": "3471901086",
    "name": "デイサービスゆーあい",
    "kana": "デイサービスユーアイ",
    "address": "広島県三次市三和町上壱241",
    "lat": 34.6188271289696,
    "lng": 132.836051753967,
    "tel": "0824-52-2148",
    "url": "",
    "pref": "広島県",
    "city": "三次市",
    "category": "community_day_service",
    "serviceType": "地域密着型通所介護",
    "capacity": 8,
    "openDays": [
      "平日",
      "土曜日",
      "祝日"
    ],
    "openDaysNote": ""
  },
  {
    "id": "3471900484",
    "name": "デイサービスらくらく",
    "kana": "デイサービスラクラク",
    "address": "三次市南畑敷町227番地の1",
    "lat": 34.8047712,
    "lng": 132.8719333,
    "tel": "0824-62-1321",
    "url": "https://tomomi-kai-med.com/",
    "pref": "広島県",
    "city": "三次市",
    "category": "community_day_service",
    "serviceType": "地域密着型通所介護",
    "capacity": 90,
    "openDays": [
      "平日"
    ],
    "openDaysNote": "なし"
  },
  {
    "id": "3471900401",
    "name": "岡崎医院デイサービスセンター「たすく」",
    "kana": "オカザキイインデイサービスセンター「タスク」",
    "address": "三次市十日市西3丁目13-1",
    "lat": 34.7976360571072,
    "lng": 132.844910492704,
    "tel": "0824-55-6215",
    "url": "https://www.or-okazaki.jp/",
    "pref": "広島県",
    "city": "三次市",
    "category": "community_day_service",
    "serviceType": "地域密着型通所介護",
    "capacity": 0,
    "openDays": [
      "平日",
      "土曜日",
      "祝日"
    ],
    "openDaysNote": ""
  },
  {
    "id": "3471901052",
    "name": "機能訓練型　リハ＆サロンR",
    "kana": "キノウクンレンガタリハアンドサロンアール",
    "address": "広島県三次市十日市南7-1-8",
    "lat": 34.8018771,
    "lng": 132.8536794,
    "tel": "0824-53-1170",
    "url": "https://www.rehasalon-r.com/",
    "pref": "広島県",
    "city": "三次市",
    "category": "community_day_service",
    "serviceType": "地域密着型通所介護",
    "capacity": 100,
    "openDays": [
      "平日",
      "土曜日"
    ],
    "openDaysNote": "水曜日　9：00～12：05"
  },
  {
    "id": "3471900559",
    "name": "通所介護事業所吉舎",
    "kana": "ツウショカイゴジギョウショキサ",
    "address": "三次市吉舎町吉舎606",
    "lat": 34.7142669,
    "lng": 132.9928687,
    "tel": "0824-43-3110",
    "url": "http://www.yuukifukushikai.com",
    "pref": "広島県",
    "city": "三次市",
    "category": "community_day_service",
    "serviceType": "地域密着型通所介護",
    "capacity": 0,
    "openDays": [
      "平日",
      "土曜日",
      "祝日"
    ],
    "openDaysNote": ""
  },
  {
    "id": "3474900317",
    "name": "デイサービスさくら",
    "kana": "デイサービスサクラ",
    "address": "庄原市東城町川西1332-5",
    "lat": 34.9110674107351,
    "lng": 133.260658517197,
    "tel": "08477-2-3745",
    "url": "http://www.alice.or.jp/",
    "pref": "広島県",
    "city": "庄原市",
    "category": "community_day_service",
    "serviceType": "地域密着型通所介護",
    "capacity": 0,
    "openDays": [
      "平日",
      "土曜日",
      "祝日"
    ],
    "openDaysNote": "特に定めず、大雪等自然災害時やむを得ないと判断した時休日とする"
  },
  {
    "id": "3474900358",
    "name": "デイサービスセンター吾妻園",
    "kana": "デイサービスセンターアヅマエン",
    "address": "広島県庄原市比和町比和1190",
    "lat": 34.9854141784148,
    "lng": 132.982034449423,
    "tel": "0824-85-2515",
    "url": "",
    "pref": "広島県",
    "city": "庄原市",
    "category": "community_day_service",
    "serviceType": "地域密着型通所介護",
    "capacity": 0,
    "openDays": [
      "平日",
      "土曜日",
      "祝日"
    ],
    "openDaysNote": ""
  },
  {
    "id": "3472100373",
    "name": "庄原市社協通所介護事業所だんだん",
    "kana": "ショウバラシシャキョウツウショカイゴジギョウショダンダン",
    "address": "庄原市高野町新市1150-1",
    "lat": 35.0322603,
    "lng": 132.9056866,
    "tel": "0824-86-3044",
    "url": "http://www.shakyoshobara-city.or.jp",
    "pref": "広島県",
    "city": "庄原市",
    "category": "community_day_service",
    "serviceType": "地域密着型通所介護",
    "capacity": 10,
    "openDays": [
      "平日",
      "土曜日",
      "祝日"
    ],
    "openDaysNote": ""
  },
  {
    "id": "3472100381",
    "name": "通所介護事業所　萌",
    "kana": "ツウショカイゴジギョウショ　モエ",
    "address": "庄原市西城町西城191-1番地",
    "lat": 34.9347684306485,
    "lng": 133.118298107687,
    "tel": "0824-82-1646",
    "url": "https://daysevice2moe.site.com/mysite1",
    "pref": "広島県",
    "city": "庄原市",
    "category": "community_day_service",
    "serviceType": "地域密着型通所介護",
    "capacity": null,
    "openDays": [
      "平日",
      "土曜日",
      "日曜日",
      "祝日"
    ],
    "openDaysNote": "特になし"
  },
  {
    "id": "3474700170",
    "name": "通所介護事業所ユーシャイン",
    "kana": "ツウショカイゴジギョウショユーシャイン",
    "address": "庄原市総領町中領家４７６番地",
    "lat": 34.7932239,
    "lng": 133.1070102,
    "tel": "0824-88-3000",
    "url": "https://www.yuukifukushikai.com/",
    "pref": "広島県",
    "city": "庄原市",
    "category": "community_day_service",
    "serviceType": "地域密着型通所介護",
    "capacity": 0,
    "openDays": [
      "平日",
      "土曜日",
      "祝日"
    ],
    "openDaysNote": ""
  },
  {
    "id": "3472100365",
    "name": "通所介護事業所美湯",
    "kana": "ツウショカイゴジギョウショミトウ",
    "address": "庄原市宮内町美湯6353-2",
    "lat": 34.8598067809726,
    "lng": 133.040290856483,
    "tel": "0824-75-0310",
    "url": "https://www.yuukifukushikai.com/",
    "pref": "広島県",
    "city": "庄原市",
    "category": "community_day_service",
    "serviceType": "地域密着型通所介護",
    "capacity": 0,
    "openDays": [
      "平日",
      "土曜日",
      "祝日"
    ],
    "openDaysNote": ""
  },
  {
    "id": "3474600214",
    "name": "デイサービスポーラスター",
    "kana": "デイサービスポーラスター",
    "address": "広島県神石郡神石高原町階見９３０番地",
    "lat": 34.6829484,
    "lng": 133.1964336,
    "tel": "0847-85-3617",
    "url": "",
    "pref": "広島県",
    "city": "神石高原町",
    "category": "community_day_service",
    "serviceType": "地域密着型通所介護",
    "capacity": 10,
    "openDays": [
      "平日",
      "土曜日",
      "日曜日",
      "祝日"
    ],
    "openDaysNote": "午前８時の時点で気象警戒レベル４状態、又は警報３種同時発令、特別警報発令時は臨時休業。　　　　　　　　　　　　　　　　　　　　　　　　　　　　　　　　　　　　　　　　　　　　　　　　　　　　　　　　　　　　　　　　　　営業中に同状態と成った場合は営業中止する場合も有ります。　　　　　　　　　　　　　　　　　　　　　　　　　　　　　　　　　　　　　　　　　　　　　　　　　　　　　　　　　　　　　　　　　　　　　　　　　　　また送迎通勤路等が気象庁キキクル土砂災害の危険度「非常に危険」以上該当色と成った場合は該当利用者様や従業員の帰宅を促す為、営業中止判断する場合も有ります。　　　　　　　　　　　　　　　　　　　　　　　　　　　　　　　　　　　　　　　　　　　　　　　　　　　　　　　　　　　　気象条件により上記処置を行う場合は利用者・家族様・関係各所へ前日までに対応策を事前連絡致します。"
  },
  {
    "id": "3494600079",
    "name": "紅輝会指定通所介護事業所　メルシーさんわ",
    "kana": "コウキカイシテイツウショカイゴジギョウショメルシーサンワ",
    "address": "広島県神石郡神石高原町小畠1530番地1",
    "lat": 34.7043412,
    "lng": 133.251533,
    "tel": "0847-85-4004",
    "url": "http://kbk-group.or.jp/",
    "pref": "広島県",
    "city": "神石高原町",
    "category": "community_day_service",
    "serviceType": "地域密着型通所介護",
    "capacity": 0,
    "openDays": [
      "平日",
      "土曜日",
      "祝日"
    ],
    "openDaysNote": "特になし"
  },
  {
    "id": "3474600107",
    "name": "紅輝会指定通所介護事業所　陽光の里",
    "kana": "コウキカイシテイツウショカイゴジギョウショ　ヒカリノサト",
    "address": "広島県神石郡神石高原町下豊松534番地1",
    "lat": 34.777811,
    "lng": 133.3402377,
    "tel": "0847-84-2160",
    "url": "",
    "pref": "広島県",
    "city": "神石高原町",
    "category": "community_day_service",
    "serviceType": "地域密着型通所介護",
    "capacity": 0,
    "openDays": [
      "平日",
      "土曜日",
      "祝日"
    ],
    "openDaysNote": "特になし（改行）平成22年7月16日から祝日営業しています"
  },
  {
    "id": "3494200045",
    "name": "Ａｖｏｎｌｅａ",
    "kana": "アヴォンリー",
    "address": "広島県世羅郡世羅町小国4507番地1",
    "lat": 34.6191032585287,
    "lng": 132.93159892209,
    "tel": "0847-37-1388",
    "url": "",
    "pref": "広島県",
    "city": "世羅町",
    "category": "community_day_service",
    "serviceType": "地域密着型通所介護",
    "capacity": 0,
    "openDays": [
      "平日",
      "祝日"
    ],
    "openDaysNote": "12月29日～1月3日の年末年始は休業"
  },
  {
    "id": "3474200478",
    "name": "ショート・デイきらめき",
    "kana": "ショート・デイキラメキ",
    "address": "広島県世羅郡世羅町本郷1265-2",
    "lat": 34.5931662157496,
    "lng": 133.044473859524,
    "tel": "0847-22-5133",
    "url": "",
    "pref": "広島県",
    "city": "世羅町",
    "category": "community_day_service",
    "serviceType": "地域密着型通所介護",
    "capacity": 15,
    "openDays": [
      "平日",
      "土曜日",
      "祝日"
    ],
    "openDaysNote": "正月及びお盆に休業日あり"
  },
  {
    "id": "3473900276",
    "name": "大崎荘デイサービスセンター",
    "kana": "オオサキソウデイサービスセンター",
    "address": "広島県豊田郡大崎上島町沖浦1539番地1",
    "lat": 34.2150759,
    "lng": 132.9046557,
    "tel": "0846-63-1112",
    "url": "http://www.osakifukushikai.jp/",
    "pref": "広島県",
    "city": "大崎上島町",
    "category": "community_day_service",
    "serviceType": "地域密着型通所介護",
    "capacity": 0,
    "openDays": [
      "平日",
      "祝日"
    ],
    "openDaysNote": "定休日も営業することがある。事業所の諸般の事情により営業日も休業することがある。その場合事前に周知し利用日の変更等利用者へ配慮する。"
  },
  {
    "id": "3492300102",
    "name": "HEROES",
    "kana": "ヒーローズ",
    "address": "広島県大竹市元町2丁目4-18",
    "lat": 34.2047506,
    "lng": 132.2129455,
    "tel": "0827-28-6388",
    "url": "",
    "pref": "広島県",
    "city": "大竹市",
    "category": "community_day_service",
    "serviceType": "地域密着型通所介護",
    "capacity": null,
    "openDays": [
      "平日",
      "土曜日",
      "祝日"
    ],
    "openDaysNote": ""
  },
  {
    "id": "3472300411",
    "name": "希望の杜さかえデイサービス",
    "kana": "キボウノモリサカエデイサービス",
    "address": "広島県大竹市北栄３番２１号",
    "lat": 34.2207890623333,
    "lng": 132.224310701894,
    "tel": "0827-35-6682",
    "url": "",
    "pref": "広島県",
    "city": "大竹市",
    "category": "community_day_service",
    "serviceType": "地域密着型通所介護",
    "capacity": null,
    "openDays": [
      "平日",
      "土曜日",
      "祝日"
    ],
    "openDaysNote": ""
  },
  {
    "id": "3470700588",
    "name": "ケアセンターわかば",
    "kana": "ケアセンターワカバ",
    "address": "竹原市竹原町3644",
    "lat": 34.3492695071364,
    "lng": 132.904365360084,
    "tel": "0846-24-6328",
    "url": "",
    "pref": "広島県",
    "city": "竹原市",
    "category": "community_day_service",
    "serviceType": "地域密着型通所介護",
    "capacity": 5,
    "openDays": [
      "平日",
      "土曜日"
    ],
    "openDaysNote": ""
  },
  {
    "id": "3470700554",
    "name": "デイサービス　かもがわ",
    "kana": "デイサービス　カモガワ",
    "address": "広島県竹原市竹原町２２１９番地ケアビレッジ　かもがわ　１階デイルーム ケアビレッジ　かもがわ　１階デイルーム",
    "lat": 34.3339051678982,
    "lng": 132.902670839842,
    "tel": "0846-22-8330",
    "url": "http://www.kamogawa2011.com",
    "pref": "広島県",
    "city": "竹原市",
    "category": "community_day_service",
    "serviceType": "地域密着型通所介護",
    "capacity": 60,
    "openDays": [
      "平日",
      "土曜日",
      "祝日"
    ],
    "openDaysNote": "特になし"
  },
  {
    "id": "3490700055",
    "name": "デイサービス　ここから塩町",
    "kana": "デイサービス　ココカラシオマチ",
    "address": "広島県竹原市塩町四丁目9番1号",
    "lat": 34.3325234,
    "lng": 132.9080452,
    "tel": "0846-22-6527",
    "url": "",
    "pref": "広島県",
    "city": "竹原市",
    "category": "community_day_service",
    "serviceType": "地域密着型通所介護",
    "capacity": 18,
    "openDays": [
      "平日",
      "土曜日",
      "日曜日",
      "祝日"
    ],
    "openDaysNote": ""
  },
  {
    "id": "3470700596",
    "name": "デイサービスセンター　四季",
    "kana": "デイサービスセンター　シキ",
    "address": "広島県竹原市福田町字西小島2625番地",
    "lat": 34.3405509,
    "lng": 132.9520379,
    "tel": "0846-24-1411",
    "url": "",
    "pref": "広島県",
    "city": "竹原市",
    "category": "community_day_service",
    "serviceType": "地域密着型通所介護",
    "capacity": 10,
    "openDays": [
      "平日",
      "土曜日",
      "祝日"
    ],
    "openDaysNote": "サービス提供時間は9：00～16：00（改行）8/13～8/15、12/30～1/3定休日扱いとします"
  },
  {
    "id": "3492500388",
    "name": "SPROUTデイサービスゆずっこSHITAMI",
    "kana": "スプラウトデイサービスユズッコシタミ",
    "address": "東広島市西条下見6丁目4－36MAYFAIR101 MAYFAIR101",
    "lat": 34.4076666,
    "lng": 132.7123456,
    "tel": "082-437-3202",
    "url": "",
    "pref": "広島県",
    "city": "東広島市",
    "category": "community_day_service",
    "serviceType": "地域密着型通所介護",
    "capacity": 0,
    "openDays": [
      "平日",
      "祝日"
    ],
    "openDaysNote": "土曜も営業予定"
  },
  {
    "id": "3472502750",
    "name": "あかつきデイサービスセンター",
    "kana": "アカツキデイサービスセンター",
    "address": "広島県東広島市八本松南二丁目８番５号",
    "lat": 34.4419724,
    "lng": 132.6976523,
    "tel": "０８２－４３７－３２２２",
    "url": "",
    "pref": "広島県",
    "city": "東広島市",
    "category": "community_day_service",
    "serviceType": "地域密着型通所介護",
    "capacity": 0,
    "openDays": [
      "平日",
      "祝日"
    ],
    "openDaysNote": ""
  },
  {
    "id": "3492500446",
    "name": "だんらんの家ソライエ東広島",
    "kana": "ダンランノイエソライエヒガシヒロシマ",
    "address": "広島県東広島市高屋町中島284番地3だんらんの家ソライエ東広島 だんらんの家ソライエ東広島",
    "lat": 34.4485086,
    "lng": 132.7905991,
    "tel": "082-426-5670",
    "url": "",
    "pref": "広島県",
    "city": "東広島市",
    "category": "community_day_service",
    "serviceType": "地域密着型通所介護",
    "capacity": null,
    "openDays": [
      "平日",
      "土曜日",
      "日曜日",
      "祝日"
    ],
    "openDaysNote": ""
  },
  {
    "id": "3472502578",
    "name": "デイサービス　おうぎの里",
    "kana": "デイサービス　オウギノサト",
    "address": "広島県東広島市志和町志和東3976番地の1",
    "lat": 34.4842087,
    "lng": 132.6807587,
    "tel": "082-433-0016",
    "url": "http://ougi-fukushikai.com/",
    "pref": "広島県",
    "city": "東広島市",
    "category": "community_day_service",
    "serviceType": "地域密着型通所介護",
    "capacity": 10,
    "openDays": [
      "平日",
      "祝日"
    ],
    "openDaysNote": ""
  },
  {
    "id": "3472502735",
    "name": "デイサービス　たまぼこの里",
    "kana": "デイサービス　タマボコノサト",
    "address": "東広島市河内町中河内1375-1",
    "lat": 34.4731694,
    "lng": 132.8895295,
    "tel": "082-437-0233",
    "url": "",
    "pref": "広島県",
    "city": "東広島市",
    "category": "community_day_service",
    "serviceType": "地域密着型通所介護",
    "capacity": 18,
    "openDays": [
      "平日",
      "土曜日",
      "日曜日",
      "祝日"
    ],
    "openDaysNote": ""
  },
  {
    "id": "3472502420",
    "name": "デイサービス　ひまわり",
    "kana": "デイサービス　ヒマワリ",
    "address": "広島県東広島市八本松西一丁目１１番１号",
    "lat": 34.4451827,
    "lng": 132.6807623,
    "tel": "082-426-5539",
    "url": "http://www.dayservice-himawari.com/",
    "pref": "広島県",
    "city": "東広島市",
    "category": "community_day_service",
    "serviceType": "地域密着型通所介護",
    "capacity": 0,
    "openDays": [
      "平日",
      "祝日"
    ],
    "openDaysNote": "5月3日～5月6日　8月11日～8月15日　12月29日～1月3日は休みとなる"
  },
  {
    "id": "3472502404",
    "name": "デイサービスあぽろ",
    "kana": "デイサービスアポロ",
    "address": "東広島市黒瀬町楢原字燈明平948",
    "lat": 34.3326910760055,
    "lng": 132.657962520979,
    "tel": "0823-83-1535",
    "url": "",
    "pref": "広島県",
    "city": "東広島市",
    "category": "community_day_service",
    "serviceType": "地域密着型通所介護",
    "capacity": 0,
    "openDays": [
      "平日",
      "土曜日",
      "日曜日",
      "祝日"
    ],
    "openDaysNote": ""
  },
  {
    "id": "3472502032",
    "name": "デイサービスげんきハウス",
    "kana": "デイサービスゲンキハウス",
    "address": "東広島市八本松町正力字重信1306番1",
    "lat": 34.461368,
    "lng": 132.7219661,
    "tel": "082-490-5739",
    "url": "https://care-net.biz/34/n-reha3/",
    "pref": "広島県",
    "city": "東広島市",
    "category": "community_day_service",
    "serviceType": "地域密着型通所介護",
    "capacity": 18,
    "openDays": [
      "平日",
      "祝日"
    ],
    "openDaysNote": ""
  },
  {
    "id": "3492500297",
    "name": "デイサービスセンター高屋",
    "kana": "デイサービスセンタータカヤ",
    "address": "広島県東広島市高屋町大畠129番地3",
    "lat": 34.4425923,
    "lng": 132.7759309,
    "tel": "082-434-9000",
    "url": "http://www.seijukai-welfare.jp/top.html",
    "pref": "広島県",
    "city": "東広島市",
    "category": "community_day_service",
    "serviceType": "地域密着型通所介護",
    "capacity": 0,
    "openDays": [
      "平日",
      "祝日"
    ],
    "openDaysNote": "令和3年9月より、定休日は日曜日のみから定休日は土曜日・日曜日に変更。"
  },
  {
    "id": "3472501497",
    "name": "デイサービスセンター田口",
    "kana": "デイサービスセンタータグチ",
    "address": "東広島市西条町田口字東子２７２９‐１",
    "lat": 34.3899806025132,
    "lng": 132.736192531908,
    "tel": "082-425-5678",
    "url": "http://www.seijukai-welfare.jp/top.html",
    "pref": "広島県",
    "city": "東広島市",
    "category": "community_day_service",
    "serviceType": "地域密着型通所介護",
    "capacity": 18,
    "openDays": [
      "平日",
      "祝日"
    ],
    "openDaysNote": "特になし"
  },
  {
    "id": "3472502263",
    "name": "デイサービスちろる",
    "kana": "デイサービスチロル",
    "address": "広島県東広島市河内町中河内1399番地2",
    "lat": 34.4734944,
    "lng": 132.889935,
    "tel": "082-437-2630",
    "url": "",
    "pref": "広島県",
    "city": "東広島市",
    "category": "community_day_service",
    "serviceType": "地域密着型通所介護",
    "capacity": 0,
    "openDays": [
      "平日",
      "土曜日",
      "日曜日",
      "祝日"
    ],
    "openDaysNote": ""
  },
  {
    "id": "3492500354",
    "name": "デイサービス笑脳",
    "kana": "デイサービスエーノウ",
    "address": "広島県東広島市八本松東2-17-25",
    "lat": 34.441939,
    "lng": 132.71032,
    "tel": "082-426-6678",
    "url": "https://wan-pura.com/",
    "pref": "広島県",
    "city": "東広島市",
    "category": "community_day_service",
    "serviceType": "地域密着型通所介護",
    "capacity": 0,
    "openDays": [
      "平日",
      "土曜日",
      "日曜日",
      "祝日"
    ],
    "openDaysNote": "火曜日・水曜日　9：00から16：40"
  },
  {
    "id": "3492500271",
    "name": "デイサービス青春の家",
    "kana": "デイサービスセイシュンノイエ",
    "address": "広島県東広島市黒瀬町宗近柳国3100",
    "lat": 34.3416921,
    "lng": 132.7103516,
    "tel": "0823-69-7160",
    "url": "https://www.seishunnoie.com/",
    "pref": "広島県",
    "city": "東広島市",
    "category": "community_day_service",
    "serviceType": "地域密着型通所介護",
    "capacity": 18,
    "openDays": [
      "平日"
    ],
    "openDaysNote": "-"
  },
  {
    "id": "3472501711",
    "name": "はなみずきデイサービスセンター",
    "kana": "ハナミズキデイサービスセンター",
    "address": "東広島市黒瀬町上保田99番地４",
    "lat": 34.3195878,
    "lng": 132.6674419,
    "tel": "0823-83-6275",
    "url": "",
    "pref": "広島県",
    "city": "東広島市",
    "category": "community_day_service",
    "serviceType": "地域密着型通所介護",
    "capacity": 18,
    "openDays": [
      "平日",
      "土曜日",
      "日曜日",
      "祝日"
    ],
    "openDaysNote": "特に無し。"
  },
  {
    "id": "3472501257",
    "name": "ヘルスケアみながデイサービス",
    "kana": "ヘルスケアミナガデイサービス",
    "address": "広島県東広島市西条町大字上三永塚迫１656番地２",
    "lat": 34.400679420722,
    "lng": 132.792329911714,
    "tel": "082-420-6545",
    "url": "http://www.heartgrand.sakura.ne.jp/",
    "pref": "広島県",
    "city": "東広島市",
    "category": "community_day_service",
    "serviceType": "地域密着型通所介護",
    "capacity": 0,
    "openDays": [
      "平日",
      "祝日"
    ],
    "openDaysNote": ""
  },
  {
    "id": "3473800245",
    "name": "ヘルスケア入野デイサービス",
    "kana": "ヘルスケアニュウノデイサービス",
    "address": "東広島市河内町入野5024番地12",
    "lat": 34.4400816,
    "lng": 132.8610034,
    "tel": "082-420-7580",
    "url": "http://www.heartgrand.sakura.ne.jp/",
    "pref": "広島県",
    "city": "東広島市",
    "category": "community_day_service",
    "serviceType": "地域密着型通所介護",
    "capacity": 28,
    "openDays": [
      "平日",
      "祝日"
    ],
    "openDaysNote": ""
  },
  {
    "id": "3492500420",
    "name": "ほねつぎデイサービス東広島西条",
    "kana": "ホネツギデイサービスヒガシヒロシマサイジョウ",
    "address": "広島県東広島市西条町吉行２１５４－１",
    "lat": 34.4368789645573,
    "lng": 132.747383042328,
    "tel": "082-422-1257",
    "url": "https://www.honetsugi-kaigo.com/",
    "pref": "広島県",
    "city": "東広島市",
    "category": "community_day_service",
    "serviceType": "地域密着型通所介護",
    "capacity": 0,
    "openDays": [
      "平日",
      "祝日"
    ],
    "openDaysNote": "お盆（８／１３～８／１５）・年末年始（１２／３０～１／３）は休業"
  },
  {
    "id": "3472502115",
    "name": "宅老所あざみ",
    "kana": "タクロウショアザミ",
    "address": "東広島市河内町入野652-6",
    "lat": 34.4611678269692,
    "lng": 132.850578439511,
    "tel": "082-437-0415",
    "url": "",
    "pref": "広島県",
    "city": "東広島市",
    "category": "community_day_service",
    "serviceType": "地域密着型通所介護",
    "capacity": 10,
    "openDays": [
      "平日",
      "土曜日",
      "祝日"
    ],
    "openDaysNote": ""
  },
  {
    "id": "3472501794",
    "name": "通所介護　神郷の家",
    "kana": "ツウショカイゴ　カミゴウノイエ",
    "address": "東広島市福富町久芳3416番地",
    "lat": 34.5410437,
    "lng": 132.7876035,
    "tel": "082-430-1250",
    "url": "",
    "pref": "広島県",
    "city": "東広島市",
    "category": "community_day_service",
    "serviceType": "地域密着型通所介護",
    "capacity": 18,
    "openDays": [
      "平日",
      "土曜日",
      "祝日"
    ],
    "openDaysNote": ""
  },
  {
    "id": "3472502776",
    "name": "通所介護事業所新ときわ",
    "kana": "ツウショカイゴジギョウショ　シントキワ",
    "address": "広島県東広島市八本松町原5693番地の3",
    "lat": 34.4046238,
    "lng": 132.6900793,
    "tel": "082-420-9208",
    "url": "http://www.tokiwadaihome.or.jp/tokuyou/",
    "pref": "広島県",
    "city": "東広島市",
    "category": "community_day_service",
    "serviceType": "地域密着型通所介護",
    "capacity": 0,
    "openDays": [
      "平日",
      "祝日"
    ],
    "openDaysNote": "お盆休み：8月13日～15日（改行）正月休み：12月29日～1月3日"
  },
  {
    "id": "3492700301",
    "name": "Gymデイらいとす廿日市",
    "kana": "ジムデイライトスハツカイチ",
    "address": "広島県廿日市市宮内4丁目10-5",
    "lat": 34.3489298,
    "lng": 132.3130601,
    "tel": "0829-39-8155",
    "url": "http://rehacare-net.or.jp/",
    "pref": "広島県",
    "city": "廿日市市",
    "category": "community_day_service",
    "serviceType": "地域密着型通所介護",
    "capacity": 18,
    "openDays": [
      "平日",
      "土曜日",
      "祝日"
    ],
    "openDaysNote": ""
  },
  {
    "id": "3492700368",
    "name": "TEGOALL宮島口",
    "kana": "テゴオールミヤジマグチ",
    "address": "広島県廿日市市宮島口1丁目12-12カルム宮島口101 カルム宮島口101",
    "lat": 34.3121534,
    "lng": 132.3039795,
    "tel": "0829-30-7064",
    "url": "https://momijicare.co.jp",
    "pref": "広島県",
    "city": "廿日市市",
    "category": "community_day_service",
    "serviceType": "地域密着型通所介護",
    "capacity": 0,
    "openDays": [
      "平日",
      "土曜日",
      "祝日"
    ],
    "openDaysNote": ""
  },
  {
    "id": "3492700327",
    "name": "グッドタイムクラブ・宮島",
    "kana": "グッドタイムクラブ・ミヤジマ",
    "address": "広島県廿日市市阿品4丁目51番26号",
    "lat": 34.3193183,
    "lng": 132.3102128,
    "tel": "0829-36-1660",
    "url": "http://www.sousei-hiroshima.com",
    "pref": "広島県",
    "city": "廿日市市",
    "category": "community_day_service",
    "serviceType": "地域密着型通所介護",
    "capacity": 0,
    "openDays": [
      "平日",
      "祝日"
    ],
    "openDaysNote": ""
  },
  {
    "id": "3472701113",
    "name": "セカンドハウスYEAHYEAHYEAH",
    "kana": "セカンドハウスヤーヤーヤー",
    "address": "廿日市市玖島4340番1",
    "lat": 34.3910993,
    "lng": 132.248233,
    "tel": "0829-74-1118",
    "url": "http://yeahyeahyeah.p2.weblife.me/",
    "pref": "広島県",
    "city": "廿日市市",
    "category": "community_day_service",
    "serviceType": "地域密着型通所介護",
    "capacity": 14,
    "openDays": [
      "平日",
      "土曜日",
      "祝日"
    ],
    "openDaysNote": "年末年始休み12/31～1/3（改行）盆休み8/14～8/16（改行）ＧＷ　5/3～5/5（改行）※曜日により連休に変更あり"
  },
  {
    "id": "3472700644",
    "name": "デイサービスセンター　かたらい",
    "kana": "デイサービスセンター　カタライ",
    "address": "廿日市市宮島口東３丁目10-25",
    "lat": 34.3212771,
    "lng": 132.3045196,
    "tel": "0829-30-8651",
    "url": "",
    "pref": "広島県",
    "city": "廿日市市",
    "category": "community_day_service",
    "serviceType": "地域密着型通所介護",
    "capacity": 15,
    "openDays": [
      "平日",
      "土曜日",
      "祝日"
    ],
    "openDaysNote": ""
  },
  {
    "id": "3492700244",
    "name": "デイサービスセンターしあわせの里",
    "kana": "デイサービスセンターシアワセノサト",
    "address": "広島県廿日市市前空2丁目1-7ほうらいの里「宮島」1001号室 ほうらいの里「宮島」1001号室",
    "lat": 34.2996858557579,
    "lng": 132.288693423942,
    "tel": "0829-30-7261",
    "url": "",
    "pref": "広島県",
    "city": "廿日市市",
    "category": "community_day_service",
    "serviceType": "地域密着型通所介護",
    "capacity": 0,
    "openDays": [
      "平日",
      "土曜日",
      "日曜日",
      "祝日"
    ],
    "openDaysNote": ""
  },
  {
    "id": "3492700210",
    "name": "デイサービスセンターみどり",
    "kana": "デイサービスセンターミドリ",
    "address": "広島県廿日市市宮島町960-2廿日市市宮島福祉センター内 廿日市市宮島福祉センター内",
    "lat": 34.3052603,
    "lng": 132.3304953,
    "tel": "0829-44-0250",
    "url": "",
    "pref": "広島県",
    "city": "廿日市市",
    "category": "community_day_service",
    "serviceType": "地域密着型通所介護",
    "capacity": 0,
    "openDays": [
      "平日",
      "土曜日"
    ],
    "openDaysNote": ""
  },
  {
    "id": "3473300634",
    "name": "デイサービスセンターよしわせせらぎ園",
    "kana": "デイサービスセンターヨシワセセラギエン",
    "address": "広島県廿日市市吉和１７７１番地１",
    "lat": 34.4853335,
    "lng": 132.1419683,
    "tel": "0829-77-2377",
    "url": "http://saikisatsukikai.jp",
    "pref": "広島県",
    "city": "廿日市市",
    "category": "community_day_service",
    "serviceType": "地域密着型通所介護",
    "capacity": 10,
    "openDays": [
      "平日"
    ],
    "openDaysNote": ""
  },
  {
    "id": "3472700818",
    "name": "デイサービスセンター早時かたらい",
    "kana": "デイサービスセンターソウトキカタライ",
    "address": "廿日市市大野早時378-22",
    "lat": 34.3051571491229,
    "lng": 132.291929160889,
    "tel": "0829-56-5641",
    "url": "",
    "pref": "広島県",
    "city": "廿日市市",
    "category": "community_day_service",
    "serviceType": "地域密着型通所介護",
    "capacity": 0,
    "openDays": [
      "平日",
      "土曜日",
      "祝日"
    ],
    "openDaysNote": ""
  },
  {
    "id": "3472701485",
    "name": "デイサービスてのひら",
    "kana": "デイサービステノヒラ",
    "address": "広島県廿日市市宮内1302番地３",
    "lat": 34.3501767,
    "lng": 132.3091021,
    "tel": "0829-30-7586",
    "url": "",
    "pref": "広島県",
    "city": "廿日市市",
    "category": "community_day_service",
    "serviceType": "地域密着型通所介護",
    "capacity": null,
    "openDays": [
      "平日",
      "土曜日"
    ],
    "openDaysNote": "時間延長、日曜祝日利用は相談に応じます"
  },
  {
    "id": "3472701188",
    "name": "デイサービス季楽　串戸",
    "kana": "デイサービスキラク　クシド",
    "address": "広島県廿日市市串戸四丁目４番６号",
    "lat": 34.3501241,
    "lng": 132.323173,
    "tel": "082-942-5202",
    "url": "http://www.season-hc.com/",
    "pref": "広島県",
    "city": "廿日市市",
    "category": "community_day_service",
    "serviceType": "地域密着型通所介護",
    "capacity": 0,
    "openDays": [
      "平日",
      "土曜日",
      "祝日"
    ],
    "openDaysNote": ""
  },
  {
    "id": "3492700228",
    "name": "デイサービス季楽　佐方",
    "kana": "デイサービスキラク　サガタ",
    "address": "広島県廿日市市佐方574",
    "lat": 34.3646922,
    "lng": 132.3361763,
    "tel": "082-942-5202",
    "url": "http://www.season-hc.com/",
    "pref": "広島県",
    "city": "廿日市市",
    "category": "community_day_service",
    "serviceType": "地域密着型通所介護",
    "capacity": 0,
    "openDays": [
      "平日",
      "土曜日"
    ],
    "openDaysNote": ""
  },
  {
    "id": "3492700293",
    "name": "デイサービス季楽・リハ　宮内串戸",
    "kana": "デイサービスキラク・リハ　ミヤウチクシド",
    "address": "広島県廿日市市串戸4丁目9-46",
    "lat": 34.3486522,
    "lng": 132.3230054,
    "tel": "082-942-5202",
    "url": "https://www.season-hc.com/",
    "pref": "広島県",
    "city": "廿日市市",
    "category": "community_day_service",
    "serviceType": "地域密着型通所介護",
    "capacity": 0,
    "openDays": [
      "平日",
      "土曜日",
      "祝日"
    ],
    "openDaysNote": "※サービス提供時間（改行）❶９時３０分から１２時３０分（改行）❷１３時３０分～１６時３０分（改行）❸９時３０分～１６時３０分"
  },
  {
    "id": "3492700236",
    "name": "デイサービス季楽・リハ　廿日市",
    "kana": "デイサービスキラク・リハ　ハツカイチ",
    "address": "広島県廿日市市可愛11-29",
    "lat": 34.3521785,
    "lng": 132.3331411,
    "tel": "082-942-5202",
    "url": "https://www.season-hc.com/",
    "pref": "広島県",
    "city": "廿日市市",
    "category": "community_day_service",
    "serviceType": "地域密着型通所介護",
    "capacity": 0,
    "openDays": [
      "平日",
      "土曜日",
      "祝日"
    ],
    "openDaysNote": ""
  },
  {
    "id": "3472701345",
    "name": "デイサービス佐伯の里",
    "kana": "デイサービスサイキノサト",
    "address": "広島県廿日市市津田２１０４－２",
    "lat": 34.3710249,
    "lng": 132.1791445,
    "tel": "0829-72-2213",
    "url": "http://saikinosato.com/",
    "pref": "広島県",
    "city": "廿日市市",
    "category": "community_day_service",
    "serviceType": "地域密着型通所介護",
    "capacity": 15,
    "openDays": [
      "平日",
      "土曜日",
      "祝日"
    ],
    "openDaysNote": "８月１４日から１６日、１２月３０日から１月４日、５月３日から５日を年次休暇とする"
  },
  {
    "id": "3492700251",
    "name": "なないろプラス",
    "kana": "ナナイロプラス",
    "address": "広島県廿日市市宮内4298番地グランカーサ宮内1階 グランカーサ宮内1階",
    "lat": 34.343641,
    "lng": 132.3035363,
    "tel": "0829-20-5326",
    "url": "https://nanairo-2.jimdosite.com/",
    "pref": "広島県",
    "city": "廿日市市",
    "category": "community_day_service",
    "serviceType": "地域密着型通所介護",
    "capacity": 0,
    "openDays": [
      "平日"
    ],
    "openDaysNote": ""
  },
  {
    "id": "3492700277",
    "name": "リハビリテーションデイサービス風樹",
    "kana": "リハビリテーションデイサービスフウジュ",
    "address": "広島県廿日市市地御前一丁目９番２３号ビバブルⅢ－１階 ビバブルⅢ－１階",
    "lat": 34.3416531887457,
    "lng": 132.321419163789,
    "tel": "0829-30-8532",
    "url": "",
    "pref": "広島県",
    "city": "廿日市市",
    "category": "community_day_service",
    "serviceType": "地域密着型通所介護",
    "capacity": 5,
    "openDays": [
      "平日",
      "土曜日",
      "祝日"
    ],
    "openDaysNote": "お盆（8/13～8/16）は営業予定ですが、利用人数によって休みに変更する事があります。休みになる場合は、事前にお知らせします。"
  },
  {
    "id": "3492700269",
    "name": "リハビリ特化型デイサービス　かえる＋チェンジ",
    "kana": "リハビリトッカガタデイサービス　カエルプラスチェンジ",
    "address": "広島県廿日市市上平良１２２－３",
    "lat": 34.3552886,
    "lng": 132.320601,
    "tel": "0829-38-1212",
    "url": "http://leap-power.net/",
    "pref": "広島県",
    "city": "廿日市市",
    "category": "community_day_service",
    "serviceType": "地域密着型通所介護",
    "capacity": 0,
    "openDays": [
      "平日",
      "土曜日"
    ],
    "openDaysNote": ""
  },
  {
    "id": "3472701428",
    "name": "玖島デイサービスもみじ",
    "kana": "クジマデイサービスモミジ",
    "address": "広島県廿日市市玖島4851番地1",
    "lat": 34.3899705651352,
    "lng": 132.24549892209,
    "tel": "0829-74-2550",
    "url": "",
    "pref": "広島県",
    "city": "廿日市市",
    "category": "community_day_service",
    "serviceType": "地域密着型通所介護",
    "capacity": 0,
    "openDays": [
      "平日",
      "土曜日"
    ],
    "openDaysNote": ""
  },
  {
    "id": "3492700343",
    "name": "通所介護事業所デイ・ヴェリタス",
    "kana": "ツウショカイゴジギョウショデイ・ヴェリタス",
    "address": "広島県廿日市市大野3406番地17",
    "lat": 34.3012766,
    "lng": 132.2926636,
    "tel": "0829-30-6066",
    "url": "http://veritas-hiroshima.jp",
    "pref": "広島県",
    "city": "廿日市市",
    "category": "community_day_service",
    "serviceType": "地域密着型通所介護",
    "capacity": 15,
    "openDays": [
      "平日",
      "祝日"
    ],
    "openDaysNote": "・12月31日～1月3日休み"
  },
  {
    "id": "3471100697",
    "name": "ＪＡ尾道市ディサービスセンター百島",
    "kana": "ジェイエイオノミチシディサービスセンターモモシマ",
    "address": "広島県尾道市百島町字宮後1518番2",
    "lat": 34.3790075,
    "lng": 133.2719829,
    "tel": "0848-70-0290",
    "url": "",
    "pref": "広島県",
    "city": "尾道市",
    "category": "community_day_service",
    "serviceType": "地域密着型通所介護",
    "capacity": 5,
    "openDays": [
      "平日"
    ],
    "openDaysNote": ""
  },
  {
    "id": "3491100685",
    "name": "SPROUTデイサービスゆずっこMITSUGI",
    "kana": "スプラウトデイサービスユズッコミツギ",
    "address": "尾道市御調町神101",
    "lat": 34.5154433,
    "lng": 133.147162,
    "tel": "0848-38-7708",
    "url": "",
    "pref": "広島県",
    "city": "尾道市",
    "category": "community_day_service",
    "serviceType": "地域密着型通所介護",
    "capacity": null,
    "openDays": [
      "平日",
      "祝日"
    ],
    "openDaysNote": ""
  },
  {
    "id": "3491100677",
    "name": "デイサービスFunny",
    "kana": "デイサービスファニー",
    "address": "広島県尾道市因島三庄町1618-1",
    "lat": 34.29471472476,
    "lng": 133.195316484708,
    "tel": "0845-23-7355",
    "url": "https://hp.kaipoke.biz/w8f/174823/base_0004.html",
    "pref": "広島県",
    "city": "尾道市",
    "category": "community_day_service",
    "serviceType": "地域密着型通所介護",
    "capacity": 18,
    "openDays": [
      "平日",
      "土曜日",
      "日曜日",
      "祝日"
    ],
    "openDaysNote": "お盆（８月１３日～８月１５日）年末年始（１２月３０日～１月３日）休み"
  },
  {
    "id": "3471101729",
    "name": "デイサービスセンター　びんご倶楽部",
    "kana": "デイサービスセンター　ビンゴクラブ",
    "address": "尾道市因島三庄町3472",
    "lat": 34.288432,
    "lng": 133.1954043,
    "tel": "0845-26-6177",
    "url": "https://breakthrough-co.jp/",
    "pref": "広島県",
    "city": "尾道市",
    "category": "community_day_service",
    "serviceType": "地域密着型通所介護",
    "capacity": 0,
    "openDays": [
      "平日",
      "祝日"
    ],
    "openDaysNote": ""
  },
  {
    "id": "3491100651",
    "name": "デイサービスセンター・まりも",
    "kana": "デイサービスセンター・マリモ",
    "address": "広島県尾道市高須町4834番地13",
    "lat": 34.4294109,
    "lng": 133.2384156,
    "tel": "0848-55-7052",
    "url": "",
    "pref": "広島県",
    "city": "尾道市",
    "category": "community_day_service",
    "serviceType": "地域密着型通所介護",
    "capacity": 0,
    "openDays": [
      "平日",
      "土曜日",
      "祝日"
    ],
    "openDaysNote": "サービス提供時間：9：00～17：00"
  },
  {
    "id": "3473900565",
    "name": "デイサービスセンターももの樹",
    "kana": "デイサービスセンターモモノキ",
    "address": "尾道市瀬戸田町名荷字大戸529-1",
    "lat": 34.3102743,
    "lng": 133.1228485,
    "tel": "0845-27-3880",
    "url": "",
    "pref": "広島県",
    "city": "尾道市",
    "category": "community_day_service",
    "serviceType": "地域密着型通所介護",
    "capacity": null,
    "openDays": [
      "平日",
      "祝日"
    ],
    "openDaysNote": ""
  },
  {
    "id": "3471300230",
    "name": "デイサービスセンター花園",
    "kana": "デイサービスセンターハナゾノ",
    "address": "尾道市因島土生町1460-4",
    "lat": 34.2919792,
    "lng": 133.1742972,
    "tel": "0845-22-2525",
    "url": "https://fukushi-hanazono.jp",
    "pref": "広島県",
    "city": "尾道市",
    "category": "community_day_service",
    "serviceType": "地域密着型通所介護",
    "capacity": 0,
    "openDays": [
      "平日",
      "土曜日",
      "祝日"
    ],
    "openDaysNote": ""
  },
  {
    "id": "3471102198",
    "name": "デイサービスセンター福寿草",
    "kana": "デイサービスセンターフクジュソウ",
    "address": "尾道市因島中庄町3687番地",
    "lat": 34.3314427,
    "lng": 133.1663919,
    "tel": "0845-26-2106",
    "url": "",
    "pref": "広島県",
    "city": "尾道市",
    "category": "community_day_service",
    "serviceType": "地域密着型通所介護",
    "capacity": 0,
    "openDays": [
      "平日",
      "土曜日",
      "祝日"
    ],
    "openDaysNote": "お盆８月１３日～８月１５日　　年末年始１２月３０日～１月３日　（改行）（改行）上記の期間は休業です。"
  },
  {
    "id": "3491100701",
    "name": "デイサービスフィーグさんば",
    "kana": "デイサービスフィーグサンバ",
    "address": "広島県尾道市山波町1648-1",
    "lat": 34.4151935,
    "lng": 133.2255461,
    "tel": "0848-38-7815",
    "url": "https://figue-care.jp/",
    "pref": "広島県",
    "city": "尾道市",
    "category": "community_day_service",
    "serviceType": "地域密着型通所介護",
    "capacity": null,
    "openDays": [
      "平日",
      "土曜日",
      "祝日"
    ],
    "openDaysNote": ""
  },
  {
    "id": "3471102255",
    "name": "デイサービスみらい",
    "kana": "デイサービスミライ",
    "address": "広島県尾道市因島洲江町2140-1ライラックハイム髙田　１階 ライラックハイム髙田　１階",
    "lat": 34.3028473206977,
    "lng": 133.147233653304,
    "tel": "0845-28-0240",
    "url": "",
    "pref": "広島県",
    "city": "尾道市",
    "category": "community_day_service",
    "serviceType": "地域密着型通所介護",
    "capacity": 14,
    "openDays": [
      "平日",
      "土曜日",
      "祝日"
    ],
    "openDaysNote": ""
  },
  {
    "id": "3471101802",
    "name": "デイサービス汐風",
    "kana": "デイサービスシオカゼ",
    "address": "尾道市瀬戸田町林1286-11",
    "lat": 34.3070093727603,
    "lng": 133.103824891402,
    "tel": "0845-26-4610",
    "url": "http://www.issui.org",
    "pref": "広島県",
    "city": "尾道市",
    "category": "community_day_service",
    "serviceType": "地域密着型通所介護",
    "capacity": 90,
    "openDays": [
      "平日",
      "土曜日",
      "祝日"
    ],
    "openDaysNote": "特になし"
  },
  {
    "id": "3491100719",
    "name": "デイホーム原田のおうち",
    "kana": "デイホームハラダノオウチ",
    "address": "広島県尾道市原田町梶山田1525番地",
    "lat": 34.4801877,
    "lng": 133.2092093,
    "tel": "0848‐36‐6871",
    "url": "http://hp.kaipoke.biz/ux8/",
    "pref": "広島県",
    "city": "尾道市",
    "category": "community_day_service",
    "serviceType": "地域密着型通所介護",
    "capacity": 0,
    "openDays": [
      "平日",
      "土曜日",
      "祝日"
    ],
    "openDaysNote": ""
  },
  {
    "id": "3491100578",
    "name": "リハビリ型デイサービスセンター　ひかり苑",
    "kana": "リハビリガタデイサービスセンター　ヒカリエン",
    "address": "広島県尾道市美ノ郷町三成２３３番地５",
    "lat": 34.4881344,
    "lng": 133.2086085,
    "tel": "0848-48-3333",
    "url": "http://haradahikarikai.or.jp",
    "pref": "広島県",
    "city": "尾道市",
    "category": "community_day_service",
    "serviceType": "地域密着型通所介護",
    "capacity": 0,
    "openDays": [
      "平日",
      "土曜日",
      "祝日"
    ],
    "openDaysNote": "特になし"
  },
  {
    "id": "3491100636",
    "name": "株式会社シンシアー　デイサービス心音",
    "kana": "カブシキガイシャシンシアー　デイサービスココネ",
    "address": "広島県尾道市因島中庄町4982-43",
    "lat": 34.3313119944858,
    "lng": 133.181716437959,
    "tel": "0845-25-6330",
    "url": "",
    "pref": "広島県",
    "city": "尾道市",
    "category": "community_day_service",
    "serviceType": "地域密着型通所介護",
    "capacity": null,
    "openDays": [
      "平日",
      "祝日"
    ],
    "openDaysNote": "お盆8/14、15　　年末年始12/31、1/1、1/2"
  },
  {
    "id": "3491100552",
    "name": "機能訓練デイサービスゑべすや",
    "kana": "キノウクンレンデイサービスエベスヤ",
    "address": "広島県尾道市高須町5057-1",
    "lat": 34.434049524452,
    "lng": 133.228270257672,
    "tel": "0848-47-2469",
    "url": "",
    "pref": "広島県",
    "city": "尾道市",
    "category": "community_day_service",
    "serviceType": "地域密着型通所介護",
    "capacity": 0,
    "openDays": [
      "平日",
      "土曜日"
    ],
    "openDaysNote": "年末年始（１２月３０日から１月４日）及びお盆（８月１３日から１５日）を除く"
  },
  {
    "id": "3491100628",
    "name": "機能訓練型デイサービスタシマ　尾道",
    "kana": "キノウクンレンガタデイサービスタシマ　オノミチ",
    "address": "広島県尾道市西御所町6番13号",
    "lat": 34.4023219,
    "lng": 133.1894901,
    "tel": "0848-25-2002",
    "url": "https://tashima-day.jp/",
    "pref": "広島県",
    "city": "尾道市",
    "category": "community_day_service",
    "serviceType": "地域密着型通所介護",
    "capacity": null,
    "openDays": [
      "平日",
      "土曜日",
      "祝日"
    ],
    "openDaysNote": "年末年始・お盆休み・ゴールデンウイークはお休み"
  },
  {
    "id": "3491100594",
    "name": "機能訓練型デイサービスタシマ東尾道",
    "kana": "キノウクンレンガタデイサービスタシマヒガシオノミチ",
    "address": "広島県尾道市高須町584-1デイサービス デイサービス",
    "lat": 34.4428586,
    "lng": 133.2343529,
    "tel": "848382009",
    "url": "https://tashima-soken.co.jp",
    "pref": "広島県",
    "city": "尾道市",
    "category": "community_day_service",
    "serviceType": "地域密着型通所介護",
    "capacity": 18,
    "openDays": [
      "平日",
      "土曜日",
      "祝日"
    ],
    "openDaysNote": ""
  },
  {
    "id": "3473900532",
    "name": "通所介護事業所どんぐり",
    "kana": "ツウショカイゴジギョウショドングリ",
    "address": "広島県尾道市瀬戸田町中野407番地11",
    "lat": 34.3047354,
    "lng": 133.0955516,
    "tel": "0845-27-1749",
    "url": "",
    "pref": "広島県",
    "city": "尾道市",
    "category": "community_day_service",
    "serviceType": "地域密着型通所介護",
    "capacity": null,
    "openDays": [
      "平日",
      "土曜日",
      "日曜日",
      "祝日"
    ],
    "openDaysNote": "なし"
  },
  {
    "id": "3471100549",
    "name": "尾道市デイサービスセンター",
    "kana": "オノミチシデイサービスセンター",
    "address": "広島県尾道市浦崎町3598番地1",
    "lat": 34.4042379200873,
    "lng": 133.26782112719,
    "tel": "0848-73-3977",
    "url": "",
    "pref": "広島県",
    "city": "尾道市",
    "category": "community_day_service",
    "serviceType": "地域密着型通所介護",
    "capacity": 0,
    "openDays": [
      "平日",
      "土曜日",
      "祝日"
    ],
    "openDaysNote": ""
  },
  {
    "id": "3491100669",
    "name": "療養通所介護事業所　十夢",
    "kana": "リョウヨウツウショカイゴジギョウショ　トム",
    "address": "広島県尾道市高須町1436番地",
    "lat": 34.4278329,
    "lng": 133.2258296,
    "tel": "0848－38－2858",
    "url": "",
    "pref": "広島県",
    "city": "尾道市",
    "category": "community_day_service",
    "serviceType": "地域密着型通所介護",
    "capacity": 0,
    "openDays": [
      "平日"
    ],
    "openDaysNote": ""
  },
  {
    "id": "3471700660",
    "name": "デイサービスことぶき庵",
    "kana": "デイサービスコトブキアン",
    "address": "府中市中須町424番地の1",
    "lat": 34.5577845,
    "lng": 133.2637219,
    "tel": "0847-49-6565",
    "url": "http://saikou-network.jimdo.com/",
    "pref": "広島県",
    "city": "府中市",
    "category": "community_day_service",
    "serviceType": "地域密着型通所介護",
    "capacity": 0,
    "openDays": [
      "平日",
      "土曜日",
      "祝日"
    ],
    "openDaysNote": ""
  },
  {
    "id": "3471700603",
    "name": "デイサービスセンター　ケアビレッジ　ダイキチ",
    "kana": "デイサービスセンター　ケアビレッジ　ダイキチ",
    "address": "府中市府中町150-1",
    "lat": 34.5738487,
    "lng": 133.2321096,
    "tel": "0847-43-6339",
    "url": "http://www.megaegg.ne.jp/~daikichi/",
    "pref": "広島県",
    "city": "府中市",
    "category": "community_day_service",
    "serviceType": "地域密着型通所介護",
    "capacity": 15,
    "openDays": [
      "平日",
      "祝日"
    ],
    "openDaysNote": ""
  },
  {
    "id": "3473200537",
    "name": "サービスステーション　ほの花",
    "kana": "サービスステーション　ホノカ",
    "address": "広島県安芸郡府中町石井城2丁目11-16",
    "lat": 34.4005272,
    "lng": 132.5091429,
    "tel": "082-285-1004",
    "url": "http://www.shimada.co.jp/",
    "pref": "広島県",
    "city": "府中町",
    "category": "community_day_service",
    "serviceType": "地域密着型通所介護",
    "capacity": 0,
    "openDays": [
      "平日",
      "土曜日",
      "祝日"
    ],
    "openDaysNote": "特になし"
  },
  {
    "id": "3493200145",
    "name": "デイサービスセンターとまりぎ",
    "kana": "デイサービスセンタートマリギ",
    "address": "広島県安芸郡府中町本町４丁目１１－２",
    "lat": 34.398253951797,
    "lng": 132.506787782387,
    "tel": "082-259-3622",
    "url": "https://tomarigitomako.wixsite.com/tomarigi-deisa-bisu",
    "pref": "広島県",
    "city": "府中町",
    "category": "community_day_service",
    "serviceType": "地域密着型通所介護",
    "capacity": 0,
    "openDays": [
      "平日",
      "祝日"
    ],
    "openDaysNote": ""
  },
  {
    "id": "3493200152",
    "name": "デイサービス府中福寿苑",
    "kana": "デイサービスフチュウフクジュエン",
    "address": "広島県安芸郡府中町茂陰２丁目６番２号",
    "lat": 34.3850881,
    "lng": 132.5016042,
    "tel": "０８２－５０８－２１１０",
    "url": "https://fuchu-fukuzyuen.jimdosite.com/",
    "pref": "広島県",
    "city": "府中町",
    "category": "community_day_service",
    "serviceType": "地域密着型通所介護",
    "capacity": 0,
    "openDays": [
      "平日",
      "祝日"
    ],
    "openDaysNote": "年末年始１２/３１～１/３は休業としている。"
  },
  {
    "id": "3493200178",
    "name": "はなあやめ",
    "kana": "ハナアヤメ",
    "address": "広島県安芸郡府中町柳が丘65-29",
    "lat": 34.3825268,
    "lng": 132.5157123,
    "tel": "082-581-3568",
    "url": "",
    "pref": "広島県",
    "city": "府中町",
    "category": "community_day_service",
    "serviceType": "地域密着型通所介護",
    "capacity": 13,
    "openDays": [
      "平日",
      "土曜日",
      "祝日"
    ],
    "openDaysNote": ""
  },
  {
    "id": "3473201022",
    "name": "活リハ　トパーズ安芸府中",
    "kana": "カツリハ　トパーズアキフチュウ",
    "address": "広島県安芸郡府中町宮の町4丁目17-19ツカサハイム101号 ツカサハイム101号",
    "lat": 34.3923338,
    "lng": 132.5100875,
    "tel": "082-890-1122",
    "url": "https://www.r-plus-limited.com",
    "pref": "広島県",
    "city": "府中町",
    "category": "community_day_service",
    "serviceType": "地域密着型通所介護",
    "capacity": 180,
    "openDays": [
      "平日"
    ],
    "openDaysNote": ""
  },
  {
    "id": "3491502179",
    "name": "Ｓｍｉｌｅ　Ｂａｓｅ　まつなが",
    "kana": "スマイルベース　マツナガ",
    "address": "広島県福山市南松永町２丁目３番４８号",
    "lat": 34.439766,
    "lng": 133.2499122,
    "tel": "084-939-9422",
    "url": "https://smilebase-art-monodukuri.com/",
    "pref": "広島県",
    "city": "福山市",
    "category": "community_day_service",
    "serviceType": "地域密着型通所介護",
    "capacity": null,
    "openDays": [
      "平日",
      "土曜日",
      "祝日"
    ],
    "openDaysNote": ""
  },
  {
    "id": "3471505895",
    "name": "ありがとう　ビューティデイサービス",
    "kana": "アリガトウ　ビューティデイサービス",
    "address": "福山市春日町浦上1211番地",
    "lat": 34.5176089441499,
    "lng": 133.423528887168,
    "tel": "084-948-1511",
    "url": "http://www.takinouarigatou.com/",
    "pref": "広島県",
    "city": "福山市",
    "category": "community_day_service",
    "serviceType": "地域密着型通所介護",
    "capacity": 0,
    "openDays": [
      "平日",
      "祝日"
    ],
    "openDaysNote": ""
  },
  {
    "id": "3471503213",
    "name": "ありがとうデイサービス",
    "kana": "アリガトウデイサービス",
    "address": "福山市春日町浦上１２０３番地",
    "lat": 34.5202018,
    "lng": 133.4193433,
    "tel": "084-948-6030",
    "url": "http://www.takinouarigatou.com",
    "pref": "広島県",
    "city": "福山市",
    "category": "community_day_service",
    "serviceType": "地域密着型通所介護",
    "capacity": 0,
    "openDays": [
      "平日",
      "土曜日",
      "祝日"
    ],
    "openDaysNote": "その他、年末年始及びお盆に休日があります。"
  },
  {
    "id": "3471505903",
    "name": "ありがとうミラクルデイサービス",
    "kana": "アリガトウミラクルデイサービス",
    "address": "福山市春日町浦上1211",
    "lat": 34.5176409,
    "lng": 133.4235319,
    "tel": "084-948-3511",
    "url": "https://www.takinouarigatou.com/",
    "pref": "広島県",
    "city": "福山市",
    "category": "community_day_service",
    "serviceType": "地域密着型通所介護",
    "capacity": 18,
    "openDays": [
      "平日",
      "土曜日",
      "祝日"
    ],
    "openDaysNote": ""
  },
  {
    "id": "3471505762",
    "name": "ありがとう春日デイサービス",
    "kana": "アリガトウカスガデイサービス",
    "address": "広島県福山市春日町吉田750番地1",
    "lat": 34.5101888,
    "lng": 133.4087918,
    "tel": "084-941-6184",
    "url": "https://www.takinouarigatou.com/",
    "pref": "広島県",
    "city": "福山市",
    "category": "community_day_service",
    "serviceType": "地域密着型通所介護",
    "capacity": 0,
    "openDays": [
      "平日",
      "土曜日",
      "祝日"
    ],
    "openDaysNote": ""
  },
  {
    "id": "3471505853",
    "name": "ありがとう神辺川北デイサービス",
    "kana": "アリガトウカンナベカワキタデイサービス",
    "address": "福山市神辺町大字川北1691番地",
    "lat": 34.5518566,
    "lng": 133.3775298,
    "tel": "084-966-8600",
    "url": "https://www.takinouarigatou.com/",
    "pref": "広島県",
    "city": "福山市",
    "category": "community_day_service",
    "serviceType": "地域密着型通所介護",
    "capacity": 18,
    "openDays": [
      "平日",
      "祝日"
    ],
    "openDaysNote": "サービス提供時間は9時20分から16時30分まで"
  },
  {
    "id": "3471508014",
    "name": "ウキ浮きデイサービス",
    "kana": "ウキウキデイサービス",
    "address": "広島県福山市北本庄二丁目2番12号",
    "lat": 34.4961483,
    "lng": 133.349663,
    "tel": "084-925-8030",
    "url": "http://kaede4433.com",
    "pref": "広島県",
    "city": "福山市",
    "category": "community_day_service",
    "serviceType": "地域密着型通所介護",
    "capacity": 200,
    "openDays": [
      "平日",
      "祝日"
    ],
    "openDaysNote": ""
  },
  {
    "id": "3491502575",
    "name": "こころのかよい場",
    "kana": "ココロノカヨイバ",
    "address": "広島県福山市神辺町字道上498-6",
    "lat": 34.5496554,
    "lng": 133.3622926,
    "tel": "080-4795-1293",
    "url": "http://hp.kaipoke.biz/f9a/",
    "pref": "広島県",
    "city": "福山市",
    "category": "community_day_service",
    "serviceType": "地域密着型通所介護",
    "capacity": 0,
    "openDays": [
      "平日"
    ],
    "openDaysNote": ""
  },
  {
    "id": "3471504534",
    "name": "ちっちゃいもみじ",
    "kana": "チッチャイモミジ",
    "address": "福山市津之郷町津之郷412-45",
    "lat": 34.4800911,
    "lng": 133.3156048,
    "tel": "084-951-0304",
    "url": "",
    "pref": "広島県",
    "city": "福山市",
    "category": "community_day_service",
    "serviceType": "地域密着型通所介護",
    "capacity": 9,
    "openDays": [
      "平日",
      "土曜日",
      "日曜日",
      "祝日"
    ],
    "openDaysNote": ""
  },
  {
    "id": "3471507859",
    "name": "デイサ－ビスセンターぽるこ",
    "kana": "デイサービスセンターポルコ",
    "address": "広島県福山市新涯町１丁目７－４３",
    "lat": 34.4642154,
    "lng": 133.3898984,
    "tel": "084-959-2605",
    "url": "http://lsi-kk.co.jp/",
    "pref": "広島県",
    "city": "福山市",
    "category": "community_day_service",
    "serviceType": "地域密着型通所介護",
    "capacity": 17,
    "openDays": [
      "平日",
      "祝日"
    ],
    "openDaysNote": "常時24時間、お客様からの電話等による連絡体制を整備します。（改行）（改行）居宅介護サービス計画により、休業日及び営業時間外であってもサービスを提供する場合があります。"
  },
  {
    "id": "3491502500",
    "name": "デイサービス　さくらいふ",
    "kana": "デイサービス　サクライフ",
    "address": "広島県福山市駅家町法成寺125番地2",
    "lat": 34.5548922,
    "lng": 133.3254106,
    "tel": "084-972-2400",
    "url": "https://ekiya-sakura.jp/",
    "pref": "広島県",
    "city": "福山市",
    "category": "community_day_service",
    "serviceType": "地域密着型通所介護",
    "capacity": null,
    "openDays": [
      "平日",
      "土曜日",
      "祝日"
    ],
    "openDaysNote": ""
  },
  {
    "id": "3491502567",
    "name": "デイサービス　みなみまつなが",
    "kana": "デイサービス　ミナミマツナガ",
    "address": "広島県福山市南松永町2丁目17番13号",
    "lat": 34.4372186,
    "lng": 133.2479758,
    "tel": "084-930-6022",
    "url": "http://ogawa-fukuyama.jp/",
    "pref": "広島県",
    "city": "福山市",
    "category": "community_day_service",
    "serviceType": "地域密着型通所介護",
    "capacity": null,
    "openDays": [
      "平日",
      "祝日"
    ],
    "openDaysNote": ""
  },
  {
    "id": "3471507552",
    "name": "デイサービス　安井の里",
    "kana": "デイサービス　ヤスイノサト",
    "address": "福山市新市町下安井７５５番地",
    "lat": 34.5835935643228,
    "lng": 133.276487626706,
    "tel": "0847-54-2301",
    "url": "https://yasuinosato.net/",
    "pref": "広島県",
    "city": "福山市",
    "category": "community_day_service",
    "serviceType": "地域密着型通所介護",
    "capacity": 18,
    "openDays": [
      "平日",
      "土曜日",
      "祝日"
    ],
    "openDaysNote": ""
  },
  {
    "id": "3471506174",
    "name": "デイサービス　月うさぎ",
    "kana": "デイサービス　ツキウサギ",
    "address": "福山市神辺町川南2338番地",
    "lat": 34.5317146,
    "lng": 133.3882069,
    "tel": "084-963-6680",
    "url": "http://tukiusagi.kakurezato.com/",
    "pref": "広島県",
    "city": "福山市",
    "category": "community_day_service",
    "serviceType": "地域密着型通所介護",
    "capacity": 10,
    "openDays": [
      "平日",
      "土曜日",
      "祝日"
    ],
    "openDaysNote": ""
  },
  {
    "id": "3471508113",
    "name": "デイサービス　元気の扉",
    "kana": "デイサービス　ゲンキノトビラ",
    "address": "広島県福山市大門町3丁目22-20",
    "lat": 34.4939072,
    "lng": 133.4382618,
    "tel": "084-983-0212",
    "url": "http://www.kaigono-tobira.co.jp/",
    "pref": "広島県",
    "city": "福山市",
    "category": "community_day_service",
    "serviceType": "地域密着型通所介護",
    "capacity": 10,
    "openDays": [
      "平日",
      "土曜日",
      "祝日"
    ],
    "openDaysNote": ""
  },
  {
    "id": "3471508733",
    "name": "デイサービス「顔晴って」",
    "kana": "デイサービス「ガンバッテ」",
    "address": "広島県福山市御幸町中津原1918-2",
    "lat": 34.538541337826,
    "lng": 133.356560684131,
    "tel": "084-955-5009",
    "url": "http://ganbatte.jp",
    "pref": "広島県",
    "city": "福山市",
    "category": "community_day_service",
    "serviceType": "地域密着型通所介護",
    "capacity": 0,
    "openDays": [
      "平日",
      "祝日"
    ],
    "openDaysNote": ""
  },
  {
    "id": "3471507685",
    "name": "デイサービスあいうえお",
    "kana": "デイサービス　アイウエオ",
    "address": "福山市幕山台7-23-10",
    "lat": 34.5152272,
    "lng": 133.4376057,
    "tel": "084-961-4439",
    "url": "https://www.makuyama-aiueo.com",
    "pref": "広島県",
    "city": "福山市",
    "category": "community_day_service",
    "serviceType": "地域密着型通所介護",
    "capacity": 0,
    "openDays": [
      "平日",
      "土曜日",
      "祝日"
    ],
    "openDaysNote": "12月30日～1月3日休業"
  },
  {
    "id": "3471507206",
    "name": "デイサービスあいのさと曙",
    "kana": "デイサービスアイノサトアケボノ",
    "address": "広島県福山市曙町五丁目5番28号",
    "lat": 34.4682082,
    "lng": 133.3909534,
    "tel": "084-959-2226",
    "url": "http://www.elder-support.com",
    "pref": "広島県",
    "city": "福山市",
    "category": "community_day_service",
    "serviceType": "地域密着型通所介護",
    "capacity": 4,
    "openDays": [
      "平日",
      "土曜日"
    ],
    "openDaysNote": ""
  },
  {
    "id": "3491501957",
    "name": "デイサービスあそび",
    "kana": "デイサービスアソビ",
    "address": "広島県福山市内海町イ１９４９番地",
    "lat": 34.359959342808,
    "lng": 133.322580065301,
    "tel": "080-5351-5253",
    "url": "https://www.asobi123.com/",
    "pref": "広島県",
    "city": "福山市",
    "category": "community_day_service",
    "serviceType": "地域密着型通所介護",
    "capacity": 10,
    "openDays": [
      "平日",
      "土曜日",
      "祝日"
    ],
    "openDaysNote": ""
  },
  {
    "id": "3471507792",
    "name": "デイサービスありさんの家",
    "kana": "デイサービスアリサンノイエ",
    "address": "広島県福山市引野町五丁目１６番７号笠原ビル1階 笠原ビル1階",
    "lat": 34.4936821,
    "lng": 133.4062454,
    "tel": "084-945-7288",
    "url": "",
    "pref": "広島県",
    "city": "福山市",
    "category": "community_day_service",
    "serviceType": "地域密着型通所介護",
    "capacity": 10,
    "openDays": [
      "平日",
      "土曜日",
      "祝日"
    ],
    "openDaysNote": "-"
  },
  {
    "id": "3491502302",
    "name": "デイサービスエル",
    "kana": "デイサービスエル",
    "address": "広島県福山市春日台19番13号",
    "lat": 34.510893,
    "lng": 133.4251296,
    "tel": "084-999-0525",
    "url": "",
    "pref": "広島県",
    "city": "福山市",
    "category": "community_day_service",
    "serviceType": "地域密着型通所介護",
    "capacity": null,
    "openDays": [
      "平日",
      "土曜日",
      "祝日"
    ],
    "openDaysNote": "何末年始"
  },
  {
    "id": "3471506810",
    "name": "デイサービスさくらんぼの郷",
    "kana": "デイサービスサクランボノサト",
    "address": "福山市伊勢丘４－４－１６",
    "lat": 34.5043449,
    "lng": 133.4269375,
    "tel": "０８４－９８２－８９５６",
    "url": "sakuranbo-sato.jp/",
    "pref": "広島県",
    "city": "福山市",
    "category": "community_day_service",
    "serviceType": "地域密着型通所介護",
    "capacity": 10,
    "openDays": [
      "平日",
      "土曜日",
      "日曜日",
      "祝日"
    ],
    "openDaysNote": ""
  },
  {
    "id": "3471505291",
    "name": "デイサービスセンター　さぼく",
    "kana": "デイサービスセンター　サボク",
    "address": "広島県福山市瀬戸町山北４６５－１",
    "lat": 34.4713143,
    "lng": 133.3157717,
    "tel": "084-949-2577",
    "url": "http://www.tots.jp/",
    "pref": "広島県",
    "city": "福山市",
    "category": "community_day_service",
    "serviceType": "地域密着型通所介護",
    "capacity": null,
    "openDays": [
      "平日",
      "土曜日",
      "祝日"
    ],
    "openDaysNote": "特になし"
  },
  {
    "id": "3471506083",
    "name": "デイサービスセンター　よつば　みのみ",
    "kana": "デイサービスセンター　ヨツバ　ミノミ",
    "address": "福山市水呑町157-6",
    "lat": 34.4691627841556,
    "lng": 133.356169496108,
    "tel": "084-968-0533",
    "url": "http://care-net.biz/33/yotuba/",
    "pref": "広島県",
    "city": "福山市",
    "category": "community_day_service",
    "serviceType": "地域密着型通所介護",
    "capacity": 10,
    "openDays": [
      "平日",
      "土曜日",
      "祝日"
    ],
    "openDaysNote": ""
  },
  {
    "id": "3491502690",
    "name": "デイサービスセンター　リーフ服部",
    "kana": "デイサービスセンター　リーフハットリ",
    "address": "広島県福山市駅家町助元65-1",
    "lat": 34.5848884,
    "lng": 133.3112967,
    "tel": "084-978-0567",
    "url": "http://www.ryokuju.or.jp",
    "pref": "広島県",
    "city": "福山市",
    "category": "community_day_service",
    "serviceType": "地域密着型通所介護",
    "capacity": null,
    "openDays": [
      "平日",
      "土曜日",
      "祝日"
    ],
    "openDaysNote": ""
  },
  {
    "id": "3471503460",
    "name": "デイサービスセンター　鞆の浦・さくらホーム",
    "kana": "デイサービスセンター　トモノウラ・サクラホーム",
    "address": "福山市鞆町鞆552",
    "lat": 34.3841013,
    "lng": 133.3835246,
    "tel": "084-982-4110",
    "url": "https://www.tomo-sakurahome.net/",
    "pref": "広島県",
    "city": "福山市",
    "category": "community_day_service",
    "serviceType": "地域密着型通所介護",
    "capacity": 0,
    "openDays": [
      "平日",
      "土曜日",
      "祝日"
    ],
    "openDaysNote": "利用定員　18名"
  },
  {
    "id": "3471505242",
    "name": "デイサービスセンターえんじゅ新涯",
    "kana": "デイサービスセンターエンジュシンガイ",
    "address": "福山市新涯町1丁目23番32号",
    "lat": 34.4628212,
    "lng": 133.391951,
    "tel": "084-981-1661",
    "url": "https://higashinokai.jp/facility/detail?id=230",
    "pref": "広島県",
    "city": "福山市",
    "category": "community_day_service",
    "serviceType": "地域密着型通所介護",
    "capacity": 18,
    "openDays": [
      "平日",
      "祝日"
    ],
    "openDaysNote": ""
  },
  {
    "id": "3471508352",
    "name": "デイサービスセンターかがやき",
    "kana": "デイサービスセンターカガヤキ",
    "address": "広島県福山市新市町大字下安井2139-3",
    "lat": 34.5808513083644,
    "lng": 133.279626176058,
    "tel": "0847-54-2321",
    "url": "https://yuuki-kagayaki.com",
    "pref": "広島県",
    "city": "福山市",
    "category": "community_day_service",
    "serviceType": "地域密着型通所介護",
    "capacity": 10,
    "openDays": [
      "平日",
      "土曜日",
      "祝日"
    ],
    "openDaysNote": ""
  },
  {
    "id": "3491501924",
    "name": "デイサービスセンタークラシカル",
    "kana": "デイサービスセンタークラシカル",
    "address": "広島県福山市新涯町6丁目10番45号",
    "lat": 34.4571752564074,
    "lng": 133.395292057533,
    "tel": "084-983-2325",
    "url": "",
    "pref": "広島県",
    "city": "福山市",
    "category": "community_day_service",
    "serviceType": "地域密着型通所介護",
    "capacity": 10,
    "openDays": [
      "平日",
      "土曜日",
      "祝日"
    ],
    "openDaysNote": ""
  },
  {
    "id": "3471504161",
    "name": "デイサービスセンターさぽーと",
    "kana": "デイサービスセンターサポート",
    "address": "福山市松永町七丁目2番38号",
    "lat": 34.4409699,
    "lng": 133.2562352,
    "tel": "084-933-1261",
    "url": "http://www.fuyounoie.net/",
    "pref": "広島県",
    "city": "福山市",
    "category": "community_day_service",
    "serviceType": "地域密着型通所介護",
    "capacity": 18,
    "openDays": [
      "平日",
      "土曜日",
      "祝日"
    ],
    "openDaysNote": "特になし"
  },
  {
    "id": "3471508337",
    "name": "デイサービスセンターすまいる",
    "kana": "デイサービスセンタースマイル",
    "address": "広島県福山市大字近田９３７番地",
    "lat": 34.5430678,
    "lng": 133.3093043,
    "tel": "084-959-3082",
    "url": "",
    "pref": "広島県",
    "city": "福山市",
    "category": "community_day_service",
    "serviceType": "地域密着型通所介護",
    "capacity": 0,
    "openDays": [
      "平日"
    ],
    "openDaysNote": ""
  },
  {
    "id": "3471505234",
    "name": "デイサービスセンターとおり町きなこ",
    "kana": "デイサービスセンタートオリチョウキナコ",
    "address": "福山市今町2-9-2",
    "lat": 34.4896999797041,
    "lng": 133.367683859525,
    "tel": "084-922-0421",
    "url": "http://tamuzu.jp/",
    "pref": "広島県",
    "city": "福山市",
    "category": "community_day_service",
    "serviceType": "地域密着型通所介護",
    "capacity": 0,
    "openDays": [
      "平日",
      "土曜日",
      "祝日"
    ],
    "openDaysNote": "8/14～15　12/31～1/3　が休み"
  },
  {
    "id": "3471503759",
    "name": "デイサービスセンターはるうらら",
    "kana": "デイサービスセンターハルウララ",
    "address": "福山市青葉台1丁目10番6号",
    "lat": 34.5128663,
    "lng": 133.4278011,
    "tel": "084-948-6166",
    "url": "",
    "pref": "広島県",
    "city": "福山市",
    "category": "community_day_service",
    "serviceType": "地域密着型通所介護",
    "capacity": 18,
    "openDays": [
      "平日",
      "土曜日",
      "祝日"
    ],
    "openDaysNote": "特になし"
  },
  {
    "id": "3471507933",
    "name": "デイサービスセンターみらくる",
    "kana": "デイサービスセンターミラクル",
    "address": "広島県福山市神村町１５０３番地３１４",
    "lat": 34.4616569662745,
    "lng": 133.278822184656,
    "tel": "（０８４）９３９ー５７６７",
    "url": "http://www.fuyounoie.net",
    "pref": "広島県",
    "city": "福山市",
    "category": "community_day_service",
    "serviceType": "地域密着型通所介護",
    "capacity": 10,
    "openDays": [
      "平日",
      "祝日"
    ],
    "openDaysNote": ""
  },
  {
    "id": "3471502116",
    "name": "デイサービスセンター憩",
    "kana": "デイサービスセンターイコイ",
    "address": "福山市木之庄町五丁目18番22号",
    "lat": 34.4989648,
    "lng": 133.3573319,
    "tel": "084-924-2133",
    "url": "http://ikoi-kaigo.jp",
    "pref": "広島県",
    "city": "福山市",
    "category": "community_day_service",
    "serviceType": "地域密着型通所介護",
    "capacity": 12,
    "openDays": [
      "平日",
      "土曜日",
      "祝日"
    ],
    "openDaysNote": "12/31は午後13時30分まで営業します"
  },
  {
    "id": "3471506307",
    "name": "デイサービスひより",
    "kana": "デイサービスヒヨリ",
    "address": "福山市加茂町大字下加茂４１５番地1",
    "lat": 34.552984,
    "lng": 133.3439376,
    "tel": "084-983-2772",
    "url": "https://www.dayservice-hiyori.com/",
    "pref": "広島県",
    "city": "福山市",
    "category": "community_day_service",
    "serviceType": "地域密着型通所介護",
    "capacity": 0,
    "openDays": [
      "平日",
      "土曜日",
      "日曜日",
      "祝日"
    ],
    "openDaysNote": ""
  },
  {
    "id": "3471507560",
    "name": "デイサービスふれあい水呑",
    "kana": "デイサービスフレアイミノミ",
    "address": "広島県福山市水呑町631-1デイサービスふれあい水呑 デイサービスふれあい水呑",
    "lat": 34.4577052731266,
    "lng": 133.369879607488,
    "tel": "084-920-5312",
    "url": "",
    "pref": "広島県",
    "city": "福山市",
    "category": "community_day_service",
    "serviceType": "地域密着型通所介護",
    "capacity": 0,
    "openDays": [
      "平日",
      "土曜日",
      "祝日"
    ],
    "openDaysNote": "その他、日常生活においても通常必要となる費用については実費を徴収する。（改行）昼食:500円　紙おむつ、紙パンツ：100円　尿パッド：50円"
  },
  {
    "id": "3471502074",
    "name": "デイサービスホーム　蔵王の家",
    "kana": "デイサービスホーム　ザオウノイエ",
    "address": "福山市蔵王町3ー3-30",
    "lat": 34.5086473,
    "lng": 133.3913434,
    "tel": "084-991-3536",
    "url": "",
    "pref": "広島県",
    "city": "福山市",
    "category": "community_day_service",
    "serviceType": "地域密着型通所介護",
    "capacity": 0,
    "openDays": [
      "平日",
      "土曜日",
      "祝日"
    ],
    "openDaysNote": "営業時間外の利用も1時間1000円の料金で対応"
  },
  {
    "id": "3491502609",
    "name": "デイサービスむろの木",
    "kana": "デイサービスムロノキ",
    "address": "広島県福山市鞆町鞆908番地3",
    "lat": 34.3834747,
    "lng": 133.3805537,
    "tel": "090-4575-5053",
    "url": "https://www.tokunaga-iin.jp",
    "pref": "広島県",
    "city": "福山市",
    "category": "community_day_service",
    "serviceType": "地域密着型通所介護",
    "capacity": null,
    "openDays": [
      "平日",
      "土曜日",
      "祝日"
    ],
    "openDaysNote": ""
  },
  {
    "id": "3471506844",
    "name": "デイサービスやないづ",
    "kana": "デイサービスヤナイヅ",
    "address": "福山市柳津町五丁目３番21号",
    "lat": 34.437386552206,
    "lng": 133.269265451065,
    "tel": "084-933-5715",
    "url": "http://ogawa-fukuyama.jp/",
    "pref": "広島県",
    "city": "福山市",
    "category": "community_day_service",
    "serviceType": "地域密着型通所介護",
    "capacity": null,
    "openDays": [
      "平日",
      "祝日"
    ],
    "openDaysNote": ""
  },
  {
    "id": "3491502021",
    "name": "デイサービスゆずっこ高西",
    "kana": "デイサービスユズッコタカニシ",
    "address": "広島県福山市高西町三丁目7番22号",
    "lat": 34.4932128,
    "lng": 133.356336,
    "tel": "084-939-5539",
    "url": "https://yuzucco.com/",
    "pref": "広島県",
    "city": "福山市",
    "category": "community_day_service",
    "serviceType": "地域密着型通所介護",
    "capacity": 0,
    "openDays": [
      "平日",
      "土曜日",
      "祝日"
    ],
    "openDaysNote": "夏季休暇8/13～8/15　冬季休暇12/31～1/3"
  },
  {
    "id": "3471506836",
    "name": "デイサービスよろこび",
    "kana": "デイサービスヨロコビ",
    "address": "福山市松浜町三丁目８番２６号小林ビル１階 小林ビル１階",
    "lat": 34.4785333,
    "lng": 133.377204,
    "tel": "０８４－９７３－２９２７",
    "url": "http://yorokobikaigo.sakura.ne.jp/",
    "pref": "広島県",
    "city": "福山市",
    "category": "community_day_service",
    "serviceType": "地域密着型通所介護",
    "capacity": 10,
    "openDays": [
      "平日",
      "祝日"
    ],
    "openDaysNote": "営業時間外、又は休日については転送電話により携帯電話への24時間対応を行なっている。"
  },
  {
    "id": "3471507065",
    "name": "デイサービスリーベル",
    "kana": "デイサービス　リーベル",
    "address": "福山市御幸町中津原1602番地10",
    "lat": 34.531364,
    "lng": 133.3623869,
    "tel": "084-971-5705",
    "url": "",
    "pref": "広島県",
    "city": "福山市",
    "category": "community_day_service",
    "serviceType": "地域密着型通所介護",
    "capacity": 15,
    "openDays": [
      "平日",
      "祝日"
    ],
    "openDaysNote": ""
  },
  {
    "id": "3471502587",
    "name": "デイサービス愛の手",
    "kana": "デイサービスアイノテ",
    "address": "福山市東深津町四丁目14番16号",
    "lat": 34.4898573,
    "lng": 133.3867808,
    "tel": "084-920-9127",
    "url": "https://ainote-fukushi.com",
    "pref": "広島県",
    "city": "福山市",
    "category": "community_day_service",
    "serviceType": "地域密着型通所介護",
    "capacity": 10,
    "openDays": [
      "平日",
      "土曜日",
      "祝日"
    ],
    "openDaysNote": ""
  },
  {
    "id": "3471504476",
    "name": "デイサービス太陽",
    "kana": "デイサービスタイヨウ",
    "address": "福山市神村町6409-2",
    "lat": 34.4528657,
    "lng": 133.2699275,
    "tel": "084-934-2955",
    "url": "http://www.grouphome-taiyou.com",
    "pref": "広島県",
    "city": "福山市",
    "category": "community_day_service",
    "serviceType": "地域密着型通所介護",
    "capacity": 10,
    "openDays": [
      "平日",
      "祝日"
    ],
    "openDaysNote": ""
  },
  {
    "id": "3491502104",
    "name": "デイサービス福の木",
    "kana": "デイサービスフクノキ",
    "address": "広島県福山市沖野上町5丁目10-26",
    "lat": 34.4730707,
    "lng": 133.3664203,
    "tel": "084-994-5238",
    "url": "",
    "pref": "広島県",
    "city": "福山市",
    "category": "community_day_service",
    "serviceType": "地域密着型通所介護",
    "capacity": null,
    "openDays": [
      "平日",
      "土曜日",
      "祝日"
    ],
    "openDaysNote": ""
  },
  {
    "id": "3491502393",
    "name": "デイサービス来んさい家",
    "kana": "デイサービスキンサイヤ",
    "address": "広島県福山市駅家町倉光110-4",
    "lat": 34.5470882,
    "lng": 133.3260142,
    "tel": "084-959-3940",
    "url": "",
    "pref": "広島県",
    "city": "福山市",
    "category": "community_day_service",
    "serviceType": "地域密着型通所介護",
    "capacity": 0,
    "openDays": [
      "平日",
      "土曜日",
      "日曜日",
      "祝日"
    ],
    "openDaysNote": ""
  },
  {
    "id": "3491502237",
    "name": "でいほーむ　さかいの家",
    "kana": "デイホームサカイノイエ",
    "address": "広島県福山市郷分町１５９５番地",
    "lat": 34.5145022,
    "lng": 133.3407248,
    "tel": "084-959-5700",
    "url": "https://sakuranosato-eioukai.com/",
    "pref": "広島県",
    "city": "福山市",
    "category": "community_day_service",
    "serviceType": "地域密着型通所介護",
    "capacity": 0,
    "openDays": [
      "平日",
      "土曜日",
      "祝日"
    ],
    "openDaysNote": ""
  },
  {
    "id": "3471507636",
    "name": "デイホームふるさと庵",
    "kana": "デイホームフルサトアン",
    "address": "広島県福山市駅家町近田489番地の1",
    "lat": 34.5445095,
    "lng": 133.3138289,
    "tel": "084-976-2611",
    "url": "",
    "pref": "広島県",
    "city": "福山市",
    "category": "community_day_service",
    "serviceType": "地域密着型通所介護",
    "capacity": 0,
    "openDays": [
      "平日",
      "土曜日",
      "祝日"
    ],
    "openDaysNote": ""
  },
  {
    "id": "3471506372",
    "name": "デイホーム奥上",
    "kana": "デイホーム　オクジョウ",
    "address": "広島県福山市沼隈町大字草深1283-1",
    "lat": 34.394126,
    "lng": 133.3261575,
    "tel": "084-987-2234",
    "url": "https://hp.kaipoke.biz/f9e/14835/base_0004.html",
    "pref": "広島県",
    "city": "福山市",
    "category": "community_day_service",
    "serviceType": "地域密着型通所介護",
    "capacity": 10,
    "openDays": [
      "平日",
      "土曜日",
      "祝日"
    ],
    "openDaysNote": "特になし"
  },
  {
    "id": "3471505713",
    "name": "デイホーム新徳田",
    "kana": "デイホームシントクダ",
    "address": "福山市神辺町新徳田559",
    "lat": 34.5458182,
    "lng": 133.3660891,
    "tel": "084-963-3319",
    "url": "",
    "pref": "広島県",
    "city": "福山市",
    "category": "community_day_service",
    "serviceType": "地域密着型通所介護",
    "capacity": 13,
    "openDays": [
      "平日",
      "土曜日",
      "祝日"
    ],
    "openDaysNote": ""
  },
  {
    "id": "3491502120",
    "name": "ともケア沖野上",
    "kana": "トモケアオキノガミ",
    "address": "広島県福山市沖野上町4-23-23",
    "lat": 34.4695113,
    "lng": 133.3706984,
    "tel": "084-999-3181",
    "url": "https://www.pharmacy-net.co.jp/store/1116.html",
    "pref": "広島県",
    "city": "福山市",
    "category": "community_day_service",
    "serviceType": "地域密着型通所介護",
    "capacity": 0,
    "openDays": [
      "平日",
      "祝日"
    ],
    "openDaysNote": "サービス提供時間：１単位目　9時～12時10分（改行）　　　　　　　　：２単位目　13時10分～16時20分"
  },
  {
    "id": "3491502252",
    "name": "ともケア南蔵王",
    "kana": "トモケアミナミザオウ",
    "address": "福山市南蔵王町1-8-20",
    "lat": 34.5034621,
    "lng": 133.3897289,
    "tel": "084-924-8802",
    "url": "https://www.pharmacy-net.co.jp/store/1120.html",
    "pref": "広島県",
    "city": "福山市",
    "category": "community_day_service",
    "serviceType": "地域密着型通所介護",
    "capacity": 15,
    "openDays": [
      "平日",
      "祝日"
    ],
    "openDaysNote": "サービス提供時間：１単位目　９時～１２時１０分（改行）　　　　　　　　　２単位目　１３時１０分～１６時２０分"
  },
  {
    "id": "3471507412",
    "name": "ふくでんデイサービス",
    "kana": "フクデンデイサービス",
    "address": "広島県福山市三吉町５丁目７番１９号徳毛ビル１階 徳毛ビル１階",
    "lat": 34.4965623,
    "lng": 133.3783892,
    "tel": "０８４－９２２－２２５４",
    "url": "",
    "pref": "広島県",
    "city": "福山市",
    "category": "community_day_service",
    "serviceType": "地域密着型通所介護",
    "capacity": 6,
    "openDays": [
      "平日",
      "土曜日",
      "祝日"
    ],
    "openDaysNote": ""
  },
  {
    "id": "3471508808",
    "name": "ホスポさぬき船町店",
    "kana": "ホスポサヌキフナマチテン",
    "address": "広島県福山市船町4番7号さぬきビル1階 さぬきビル1階",
    "lat": 34.487202,
    "lng": 133.3678124,
    "tel": "084-922-2345",
    "url": "",
    "pref": "広島県",
    "city": "福山市",
    "category": "community_day_service",
    "serviceType": "地域密着型通所介護",
    "capacity": 0,
    "openDays": [
      "平日",
      "祝日"
    ],
    "openDaysNote": "12/29～1/3、8/13～8/15は休み"
  },
  {
    "id": "3471505531",
    "name": "ほっと　明日葉",
    "kana": "ホット　アシタバ",
    "address": "福山市神辺町東中条2429",
    "lat": 34.5773262,
    "lng": 133.3706019,
    "tel": "084-967-0480",
    "url": "http://ashitabanoie.com",
    "pref": "広島県",
    "city": "福山市",
    "category": "community_day_service",
    "serviceType": "地域密着型通所介護",
    "capacity": 7,
    "openDays": [
      "平日",
      "土曜日",
      "祝日"
    ],
    "openDaysNote": ""
  },
  {
    "id": "3491502336",
    "name": "ほねつぎデイサービス東深津",
    "kana": "ホネツギデイサービスヒガシフカツ",
    "address": "広島県福山市東深津町1-23-34",
    "lat": 34.4987832,
    "lng": 133.3870902,
    "tel": "084-961-4485",
    "url": "",
    "pref": "広島県",
    "city": "福山市",
    "category": "community_day_service",
    "serviceType": "地域密着型通所介護",
    "capacity": 10,
    "openDays": [
      "平日",
      "祝日"
    ],
    "openDaysNote": ""
  },
  {
    "id": "3474400250",
    "name": "ミニ介護ハウス　あしたばの家",
    "kana": "ミニカイゴハウス　アシタバノイエ",
    "address": "福山市神辺町東中条2429",
    "lat": 34.5773262,
    "lng": 133.3706019,
    "tel": "084-967-0480",
    "url": "http://ashitabanoie.com",
    "pref": "広島県",
    "city": "福山市",
    "category": "community_day_service",
    "serviceType": "地域密着型通所介護",
    "capacity": 5,
    "openDays": [
      "平日",
      "土曜日",
      "祝日"
    ],
    "openDaysNote": ""
  },
  {
    "id": "3471507404",
    "name": "メディカル介護センター楽園　福山",
    "kana": "メディカルカイゴセンターラクエン　フクヤマ",
    "address": "広島県福山市神辺町道上600番地7",
    "lat": 34.5498107418381,
    "lng": 133.359263720772,
    "tel": "084-963-8331",
    "url": "",
    "pref": "広島県",
    "city": "福山市",
    "category": "community_day_service",
    "serviceType": "地域密着型通所介護",
    "capacity": 0,
    "openDays": [
      "平日"
    ],
    "openDaysNote": "通所日が休日の場合は振替通所をしていただきます。"
  },
  {
    "id": "3471505168",
    "name": "もみの木　通所介護事業所",
    "kana": "モミノキ　ツウショカイゴジギョウショ",
    "address": "福山市神辺町川南2338番地",
    "lat": 34.5317146,
    "lng": 133.3882069,
    "tel": "084-960-3616",
    "url": "http://mominoki.kakurezato.com/",
    "pref": "広島県",
    "city": "福山市",
    "category": "community_day_service",
    "serviceType": "地域密着型通所介護",
    "capacity": 10,
    "openDays": [
      "平日",
      "土曜日",
      "日曜日",
      "祝日"
    ],
    "openDaysNote": ""
  },
  {
    "id": "3471508378",
    "name": "リハビリテーション颯福山駅家",
    "kana": "リハビリテーションソウフクヤマエキヤ",
    "address": "広島県福山市駅家町大字倉光２８２－１泉商店ビル１F 泉商店ビル１F",
    "lat": 34.5418294,
    "lng": 133.3257807,
    "tel": "084-977-1231",
    "url": "http://park10.wakwak.com/~sou.ekiya.sigma/",
    "pref": "広島県",
    "city": "福山市",
    "category": "community_day_service",
    "serviceType": "地域密着型通所介護",
    "capacity": 180,
    "openDays": [
      "平日",
      "祝日"
    ],
    "openDaysNote": ""
  },
  {
    "id": "3471508436",
    "name": "リハビリテーション颯福山手城",
    "kana": "リハビリテーションソウフクヤマテシロ",
    "address": "広島県福山市手城町四丁目１－４",
    "lat": 34.4890408,
    "lng": 133.3962383,
    "tel": "084-982-8061",
    "url": "http://www.signpost-days.jp/",
    "pref": "広島県",
    "city": "福山市",
    "category": "community_day_service",
    "serviceType": "地域密着型通所介護",
    "capacity": 18,
    "openDays": [
      "平日",
      "土曜日"
    ],
    "openDaysNote": "午前9時15分～12時15分、午後13時30分～16時30分の2単位制"
  },
  {
    "id": "3471508238",
    "name": "ローカルコモンズ・ゆかい",
    "kana": "ローカルコモンズ・ユカイ",
    "address": "広島県福山市新市町大字新市56番地1",
    "lat": 34.5503901571209,
    "lng": 133.279093127495,
    "tel": "0847-52-7033",
    "url": "http://www.teraoka-hosp.jp/localcommons/",
    "pref": "広島県",
    "city": "福山市",
    "category": "community_day_service",
    "serviceType": "地域密着型通所介護",
    "capacity": 15,
    "openDays": [
      "平日",
      "土曜日",
      "祝日"
    ],
    "openDaysNote": ""
  },
  {
    "id": "3471508071",
    "name": "運動デイサービスぷらす",
    "kana": "ウンドウデイサービスプラス",
    "address": "広島県福山市水呑町三新田２丁目381",
    "lat": 34.442111251484,
    "lng": 133.386203268321,
    "tel": "084-961-4151",
    "url": "",
    "pref": "広島県",
    "city": "福山市",
    "category": "community_day_service",
    "serviceType": "地域密着型通所介護",
    "capacity": 100,
    "openDays": [
      "平日"
    ],
    "openDaysNote": ""
  },
  {
    "id": "3491502351",
    "name": "運動特化型リハビリセンターREHAIIRO（リハイロ）",
    "kana": "ウンドウトッカガタリハビリセンターリハイロ",
    "address": "広島県福山市東深津町2丁目8-5",
    "lat": 34.4954937246813,
    "lng": 133.391121325012,
    "tel": "084-979-4886",
    "url": "",
    "pref": "広島県",
    "city": "福山市",
    "category": "community_day_service",
    "serviceType": "地域密着型通所介護",
    "capacity": 0,
    "openDays": [
      "平日"
    ],
    "openDaysNote": ""
  },
  {
    "id": "3491502666",
    "name": "運動特化型リハビリセンターREHAIRO引野店",
    "kana": "ウンドウトッカガタリハビリセンターリハイロ　ヒキノテン",
    "address": "広島県福山市引野町北4丁目23-15",
    "lat": 34.5025148,
    "lng": 133.420582,
    "tel": "084-975-7933",
    "url": "",
    "pref": "広島県",
    "city": "福山市",
    "category": "community_day_service",
    "serviceType": "地域密着型通所介護",
    "capacity": 0,
    "openDays": [
      "平日"
    ],
    "openDaysNote": ""
  },
  {
    "id": "3471507594",
    "name": "花あかりひだまり通所介護事業所",
    "kana": "ハナアカリヒダマリツウショカイゴジギョウショ",
    "address": "福山市南蔵王町一丁目9番27号",
    "lat": 34.5030061,
    "lng": 133.3893243,
    "tel": "084-923-3855",
    "url": "",
    "pref": "広島県",
    "city": "福山市",
    "category": "community_day_service",
    "serviceType": "地域密着型通所介護",
    "capacity": 0,
    "openDays": [
      "平日",
      "土曜日",
      "祝日"
    ],
    "openDaysNote": "特になし"
  },
  {
    "id": "3471506463",
    "name": "花あかり通所介護事業所",
    "kana": "ハナアカリツウショカイゴジギョウショ",
    "address": "福山市日吉台2丁目27番28号",
    "lat": 34.5161438,
    "lng": 133.403581,
    "tel": "084-982-8725",
    "url": "",
    "pref": "広島県",
    "city": "福山市",
    "category": "community_day_service",
    "serviceType": "地域密着型通所介護",
    "capacity": 0,
    "openDays": [
      "平日",
      "土曜日",
      "祝日"
    ],
    "openDaysNote": ""
  },
  {
    "id": "3491502641",
    "name": "共生型デイサービスからふる",
    "kana": "キョウセイガタデイサービスカラフル",
    "address": "広島県福山市清水ヶ丘１９番１０号",
    "lat": 34.5061979,
    "lng": 133.3664391,
    "tel": "084-917-3150",
    "url": "https://irodori-colorful.com/",
    "pref": "広島県",
    "city": "福山市",
    "category": "community_day_service",
    "serviceType": "地域密着型通所介護",
    "capacity": null,
    "openDays": [
      "平日"
    ],
    "openDaysNote": ""
  },
  {
    "id": "3491502526",
    "name": "健幸デイサービスまごころ",
    "kana": "ケンコウデイサービスマゴコロ",
    "address": "広島県福山市御幸町下岩成1295-1",
    "lat": 34.544579,
    "lng": 133.35146,
    "tel": "084-999-0556",
    "url": "https://magokorokaigo.amebaownd.com",
    "pref": "広島県",
    "city": "福山市",
    "category": "community_day_service",
    "serviceType": "地域密着型通所介護",
    "capacity": 0,
    "openDays": [
      "平日",
      "土曜日",
      "祝日"
    ],
    "openDaysNote": "特になし"
  },
  {
    "id": "3471506760",
    "name": "佐藤柔道接骨院デイサービス愛ホーム",
    "kana": "サトウジュウドウセッコツインデイサービスアイホーム",
    "address": "福山市曙町四丁目５番２０号",
    "lat": 34.4694318,
    "lng": 133.4018109,
    "tel": "084-954-9433",
    "url": "",
    "pref": "広島県",
    "city": "福山市",
    "category": "community_day_service",
    "serviceType": "地域密着型通所介護",
    "capacity": 60,
    "openDays": [
      "平日",
      "土曜日",
      "祝日"
    ],
    "openDaysNote": "5月3日・4日・5日　8月13日・14日・15日　12月30日・31日　1月1日・2日・3日は休み"
  },
  {
    "id": "3471501712",
    "name": "沼南医院通所介護事業所",
    "kana": "ショウナンイインツウショカイゴジギョウショ",
    "address": "福山市鞆町後地1296-2",
    "lat": 34.3847984,
    "lng": 133.3811748,
    "tel": "084-982-2044",
    "url": "http://sunsquare-1993.org/",
    "pref": "広島県",
    "city": "福山市",
    "category": "community_day_service",
    "serviceType": "地域密着型通所介護",
    "capacity": 0,
    "openDays": [
      "平日",
      "土曜日",
      "祝日"
    ],
    "openDaysNote": ""
  },
  {
    "id": "3474300294",
    "name": "鳥還荘デイサービスセンター",
    "kana": "チョウカンソウデイサービスセンター",
    "address": "福山市沼隈町中山南字永道上池尻265番地2",
    "lat": 34.4185393,
    "lng": 133.3038361,
    "tel": "084-988-1688",
    "url": "http://chokanso.or.jp",
    "pref": "広島県",
    "city": "福山市",
    "category": "community_day_service",
    "serviceType": "地域密着型通所介護",
    "capacity": 0,
    "openDays": [
      "平日",
      "土曜日",
      "祝日"
    ],
    "openDaysNote": "特になし"
  },
  {
    "id": "3471501811",
    "name": "通所介護施設ふれあい野上",
    "kana": "ツウショカイゴシセツフレアイノガミ",
    "address": "広島県福山市野上町2丁目10番29号",
    "lat": 34.4772647078913,
    "lng": 133.362874031165,
    "tel": "084-925-2569",
    "url": "https://www.kanbe.or.jp/",
    "pref": "広島県",
    "city": "福山市",
    "category": "community_day_service",
    "serviceType": "地域密着型通所介護",
    "capacity": 0,
    "openDays": [
      "平日",
      "土曜日"
    ],
    "openDaysNote": "特になし"
  },
  {
    "id": "3491502534",
    "name": "鶴寿通所介護事業所",
    "kana": "カクジュツウショカイゴジギョウショ",
    "address": "福山市神辺町大字川北788番地",
    "lat": 34.5423502,
    "lng": 133.378096,
    "tel": "084-965-6656",
    "url": "http://www.jisui.co.jp/",
    "pref": "広島県",
    "city": "福山市",
    "category": "community_day_service",
    "serviceType": "地域密着型通所介護",
    "capacity": null,
    "openDays": [
      "平日",
      "土曜日",
      "祝日"
    ],
    "openDaysNote": "特になし"
  },
  {
    "id": "3491502310",
    "name": "暮らしのデイサービスねっこ",
    "kana": "クラシノデイサービスネッコ",
    "address": "広島県福山市新市町下安井116-1",
    "lat": 34.5677486,
    "lng": 133.2793266,
    "tel": "0847-51-4451",
    "url": "",
    "pref": "広島県",
    "city": "福山市",
    "category": "community_day_service",
    "serviceType": "地域密着型通所介護",
    "capacity": null,
    "openDays": [
      "平日",
      "土曜日",
      "祝日"
    ],
    "openDaysNote": ""
  },
  {
    "id": "3471508857",
    "name": "陽のあたる家　デイサービスセンター",
    "kana": "ヒノアタルイエデイサービスセンター",
    "address": "広島県福山市大門町三丁目7番10号",
    "lat": 34.4936711,
    "lng": 133.4370786,
    "tel": "084-945-7611",
    "url": "https://hinoataruie.jp/",
    "pref": "広島県",
    "city": "福山市",
    "category": "community_day_service",
    "serviceType": "地域密着型通所介護",
    "capacity": 15,
    "openDays": [
      "平日",
      "土曜日",
      "祝日"
    ],
    "openDaysNote": ""
  },
  {
    "id": "3474400524",
    "name": "領家亀寿通所介護事業所",
    "kana": "リョウケカメジュツウショカイゴジギョウショ",
    "address": "福山市神辺町大字川北783番地",
    "lat": 34.5425216,
    "lng": 133.3782465,
    "tel": "084-962-0056",
    "url": "http://www.jisui.co.jp/",
    "pref": "広島県",
    "city": "福山市",
    "category": "community_day_service",
    "serviceType": "地域密着型通所介護",
    "capacity": null,
    "openDays": [
      "平日",
      "土曜日",
      "祝日"
    ],
    "openDaysNote": "特になし"
  },
  {
    "id": "3493500155",
    "name": "デイサービスセンターやすらぎ",
    "kana": "デイサービスセンターヤスラギ",
    "address": "広島県山県郡北広島町大朝13435番地1",
    "lat": 34.7707984,
    "lng": 132.4626367,
    "tel": "0826-82-3838",
    "url": "http://www.yurikagosou.or.jp/yasuragi.html",
    "pref": "広島県",
    "city": "北広島町",
    "category": "community_day_service",
    "serviceType": "地域密着型通所介護",
    "capacity": 0,
    "openDays": [
      "平日",
      "土曜日",
      "祝日"
    ],
    "openDaysNote": ""
  },
  {
    "id": "3473500860",
    "name": "芸北デイサービス",
    "kana": "ゲイホクデイサービス",
    "address": "広島県山県郡北広島町米沢字中ノ原436-13",
    "lat": 34.7928295,
    "lng": 132.4279745,
    "tel": "0826-38-0380",
    "url": "http://www.m-meiwakai.jp",
    "pref": "広島県",
    "city": "北広島町",
    "category": "community_day_service",
    "serviceType": "地域密着型通所介護",
    "capacity": 0,
    "openDays": [
      "平日",
      "土曜日"
    ],
    "openDaysNote": ""
  },
  {
    "id": "3473500746",
    "name": "通所介護事業所つれづれ",
    "kana": "ツウショカイゴジギョウショツレヅレ",
    "address": "広島県山県郡北広島町今田3850",
    "lat": 34.6825982255234,
    "lng": 132.523428986651,
    "tel": "0826-72-9753",
    "url": "http://www.chiyoda-hospital.or.jp",
    "pref": "広島県",
    "city": "北広島町",
    "category": "community_day_service",
    "serviceType": "地域密着型通所介護",
    "capacity": 0,
    "openDays": [
      "平日"
    ],
    "openDaysNote": "特になし"
  }
]