[
  {
    "id": "3671800567",
    "name": "つるぎ町高齢者生活福祉センター百寿荘",
    "kana": "ツルギチョウコウレイシャセイカツフクシセンターヒャクジュソウ",
    "address": "徳島県美馬郡つるぎ町一宇字赤松９０８－４",
    "lat": 33.9556327,
    "lng": 134.0560637,
    "tel": "０８８３－６７－２２２３",
    "url": "",
    "pref": "徳島県",
    "city": "つるぎ町",
    "category": "community_day_service",
    "serviceType": "地域密着型通所介護",
    "capacity": 10,
    "openDays": [
      "平日"
    ],
    "openDaysNote": ""
  },
  {
    "id": "3670400575",
    "name": "デイサービスセンターなかがわ苑",
    "kana": "デイサービスセンターナカガワエン",
    "address": "徳島県阿南市那賀川町大京原225-1デイサービスセンターなかがわ苑 デイサービスセンターなかがわ苑",
    "lat": 33.944403,
    "lng": 134.6487749,
    "tel": "884422050",
    "url": "",
    "pref": "徳島県",
    "city": "阿南市",
    "category": "community_day_service",
    "serviceType": "地域密着型通所介護",
    "capacity": 0,
    "openDays": [
      "平日"
    ],
    "openDaysNote": ""
  },
  {
    "id": "3670400427",
    "name": "デイサービスセンター那賀川たんぽぽ",
    "kana": "デイサービスセンターナカガワタンポポ",
    "address": "徳島県阿南市那賀川町今津浦宮面71番地１",
    "lat": 33.9613086,
    "lng": 134.6554598,
    "tel": "0884-42-4433",
    "url": "http://fujino.ezdns.jp",
    "pref": "徳島県",
    "city": "阿南市",
    "category": "community_day_service",
    "serviceType": "地域密着型通所介護",
    "capacity": null,
    "openDays": [
      "平日",
      "土曜日",
      "祝日"
    ],
    "openDaysNote": "1月1日・2日・3日は正月休み"
  },
  {
    "id": "3670400567",
    "name": "デイサービスらいず",
    "kana": "デイサービスライズ",
    "address": "徳島県阿南市見能林町ふちう2番地3",
    "lat": 33.900776,
    "lng": 134.6676845,
    "tel": "0884-24-3353",
    "url": "https://www.yuai-anan.com/",
    "pref": "徳島県",
    "city": "阿南市",
    "category": "community_day_service",
    "serviceType": "地域密着型通所介護",
    "capacity": 0,
    "openDays": [
      "平日",
      "祝日"
    ],
    "openDaysNote": ""
  },
  {
    "id": "3690400175",
    "name": "デイセンターモナ・リザ",
    "kana": "デイセンターモナ・リザ",
    "address": "徳島県阿南市福井町湊1番地8",
    "lat": 33.8494026,
    "lng": 134.623885,
    "tel": "0884-34-3201",
    "url": "http://www.ryokufu1984.or.jp/",
    "pref": "徳島県",
    "city": "阿南市",
    "category": "community_day_service",
    "serviceType": "地域密着型通所介護",
    "capacity": 0,
    "openDays": [
      "平日",
      "土曜日",
      "祝日"
    ],
    "openDaysNote": "12月31日～1月3日及び台風・積雪等の天候が極めて悪いときは休日することができる。"
  },
  {
    "id": "3671300287",
    "name": "デイセンターワーグナー",
    "kana": "デイセンターワーグナー",
    "address": "徳島県阿南市那賀川町苅屋289番地2",
    "lat": 33.9504324,
    "lng": 134.6596047,
    "tel": "0884-21-2430",
    "url": "https://www.kenshokai.group/",
    "pref": "徳島県",
    "city": "阿南市",
    "category": "community_day_service",
    "serviceType": "地域密着型通所介護",
    "capacity": 5,
    "openDays": [
      "平日",
      "土曜日",
      "日曜日",
      "祝日"
    ],
    "openDaysNote": "12月31日から1月1日まで及び台風・積雪等の天候状況の極めて悪いときは休日とすることができる。"
  },
  {
    "id": "3610410502",
    "name": "デイセンター富士",
    "kana": "デイセンターフジ",
    "address": "徳島県阿南市新野町西馬場３番地３",
    "lat": 33.8476808,
    "lng": 134.5809325,
    "tel": "0884-36-2024",
    "url": "http://fuji-clinic.net/",
    "pref": "徳島県",
    "city": "阿南市",
    "category": "community_day_service",
    "serviceType": "地域密着型通所介護",
    "capacity": 0,
    "openDays": [
      "平日",
      "土曜日",
      "祝日"
    ],
    "openDaysNote": ""
  },
  {
    "id": "3690400167",
    "name": "デイセンター緑風会尊氏",
    "kana": "デイセンターリョクフウカイタカウジ",
    "address": "徳島県阿南市下大野町五反畑126番地1",
    "lat": 33.9301753,
    "lng": 134.6095968,
    "tel": "0884-23-3300",
    "url": "http://www.ryokufu1984.or.jp/",
    "pref": "徳島県",
    "city": "阿南市",
    "category": "community_day_service",
    "serviceType": "地域密着型通所介護",
    "capacity": 33,
    "openDays": [
      "平日",
      "土曜日",
      "日曜日",
      "祝日"
    ],
    "openDaysNote": "１２月３１日から１月２日まで及び台風・積雪等の天候状況の極めて悪いときは休日とすることができる。"
  },
  {
    "id": "3670400773",
    "name": "リハビリ専科らいず",
    "kana": "リハビリセンカライズ",
    "address": "徳島県阿南市羽ノ浦町宮倉日開元19番地5",
    "lat": 33.9629566,
    "lng": 134.6212331,
    "tel": "0884-44-1777",
    "url": "",
    "pref": "徳島県",
    "city": "阿南市",
    "category": "community_day_service",
    "serviceType": "地域密着型通所介護",
    "capacity": 0,
    "openDays": [
      "平日"
    ],
    "openDaysNote": ""
  },
  {
    "id": "3690400209",
    "name": "健生リハビリデイサービス",
    "kana": "ケンセイリハビリデイサービス",
    "address": "徳島県阿南市津乃峰町新浜12",
    "lat": 33.8859613,
    "lng": 134.6618033,
    "tel": "0884-27-2848",
    "url": "http://kensei-anan.com/",
    "pref": "徳島県",
    "city": "阿南市",
    "category": "community_day_service",
    "serviceType": "地域密着型通所介護",
    "capacity": 0,
    "openDays": [
      "平日",
      "祝日"
    ],
    "openDaysNote": ""
  },
  {
    "id": "3690400191",
    "name": "心和会　デイサービスセンター悠和",
    "kana": "シンワカイ　デイサービスセンターユウワ",
    "address": "徳島県阿南市新野町信里65ケアハウス悠和館 ケアハウス悠和館",
    "lat": 33.8465841683275,
    "lng": 134.599424664418,
    "tel": "0884-36-3820",
    "url": "",
    "pref": "徳島県",
    "city": "阿南市",
    "category": "community_day_service",
    "serviceType": "地域密着型通所介護",
    "capacity": 0,
    "openDays": [
      "平日",
      "土曜日",
      "祝日"
    ],
    "openDaysNote": ""
  },
  {
    "id": "3690400217",
    "name": "双葉会デイサービスセンター",
    "kana": "フタバカイデイサービスセンター",
    "address": "徳島県阿南市見能林町南林260番地の7",
    "lat": 33.8948729,
    "lng": 134.681751,
    "tel": "0884-23-5887",
    "url": "http://www.futabakai.inho/",
    "pref": "徳島県",
    "city": "阿南市",
    "category": "community_day_service",
    "serviceType": "地域密着型通所介護",
    "capacity": 0,
    "openDays": [
      "平日",
      "土曜日",
      "祝日"
    ],
    "openDaysNote": "特になし"
  },
  {
    "id": "3670400526",
    "name": "有限会社すえひさ　デイサービスセンター杏の丘",
    "kana": "ユウゲンガイシャスエヒサ　デイサービスセンターアンズノオカ",
    "address": "徳島県阿南市内原町宮国33番地",
    "lat": 33.8845224,
    "lng": 134.6355487,
    "tel": "0884-21-1833",
    "url": "https://anzunooka.com/",
    "pref": "徳島県",
    "city": "阿南市",
    "category": "community_day_service",
    "serviceType": "地域密着型通所介護",
    "capacity": 15,
    "openDays": [
      "平日",
      "土曜日",
      "祝日"
    ],
    "openDaysNote": "12/31～1/3まではお休みです。"
  },
  {
    "id": "3671600355",
    "name": "すだちのさと",
    "kana": "スダチノサト",
    "address": "阿波町南五味知104-4",
    "lat": 34.0899116090438,
    "lng": 134.236503558348,
    "tel": "0883-35-7011",
    "url": "http://awasudachi.net/",
    "pref": "徳島県",
    "city": "阿波市",
    "category": "community_day_service",
    "serviceType": "地域密着型通所介護",
    "capacity": 0,
    "openDays": [
      "平日",
      "土曜日",
      "日曜日",
      "祝日"
    ],
    "openDaysNote": ""
  },
  {
    "id": "3671600462",
    "name": "デイサービスセンター　なごみの家",
    "kana": "デイサービスセンター　ナゴミノイエ",
    "address": "徳島県阿波市土成町土成字大法寺283-9",
    "lat": 34.1182333,
    "lng": 134.3329677,
    "tel": "088-695-3750",
    "url": "",
    "pref": "徳島県",
    "city": "阿波市",
    "category": "community_day_service",
    "serviceType": "地域密着型通所介護",
    "capacity": null,
    "openDays": [
      "平日",
      "土曜日",
      "日曜日",
      "祝日"
    ],
    "openDaysNote": ""
  },
  {
    "id": "3671600108",
    "name": "デイサービスセンターみどり",
    "kana": "デイサービスセンターミドリ",
    "address": "徳島県阿波市市場町香美字秋葉本80番地1",
    "lat": 34.0852037,
    "lng": 134.2839442,
    "tel": "0883-36-7771",
    "url": "http://www.yotsubakai-midori.jp",
    "pref": "徳島県",
    "city": "阿波市",
    "category": "community_day_service",
    "serviceType": "地域密着型通所介護",
    "capacity": null,
    "openDays": [
      "平日",
      "土曜日",
      "祝日"
    ],
    "openDaysNote": ""
  },
  {
    "id": "3691600054",
    "name": "デイサービスセンターよしの",
    "kana": "デイサービスセンターヨシノ",
    "address": "徳島県阿波市吉野町柿原字二条146番地1",
    "lat": 34.0932696,
    "lng": 134.3482796,
    "tel": "088-696-5533",
    "url": "http://www.hakuju-kai.or.jp",
    "pref": "徳島県",
    "city": "阿波市",
    "category": "community_day_service",
    "serviceType": "地域密着型通所介護",
    "capacity": null,
    "openDays": [
      "平日",
      "祝日"
    ],
    "openDaysNote": ""
  },
  {
    "id": "3671600371",
    "name": "デイサービスセンター安樹",
    "kana": "デイサービスセンターアンジュ",
    "address": "徳島県阿波市土成町吉田字原田市の一63番地4",
    "lat": 34.1049986,
    "lng": 134.3536116,
    "tel": "088-637-8855",
    "url": "https://shinohara-shoji.com/",
    "pref": "徳島県",
    "city": "阿波市",
    "category": "community_day_service",
    "serviceType": "地域密着型通所介護",
    "capacity": 0,
    "openDays": [
      "平日",
      "土曜日",
      "祝日"
    ],
    "openDaysNote": ""
  },
  {
    "id": "3671600538",
    "name": "デイサービス百福",
    "kana": "デイサービスモモフク",
    "address": "徳島県阿波市市場町上喜来字正田925番地1",
    "lat": 34.1051697395656,
    "lng": 134.274438462771,
    "tel": "0883-36-3914",
    "url": "",
    "pref": "徳島県",
    "city": "阿波市",
    "category": "community_day_service",
    "serviceType": "地域密着型通所介護",
    "capacity": 10,
    "openDays": [
      "平日",
      "土曜日",
      "祝日"
    ],
    "openDaysNote": "サービス提供時間は、9:00～16：00であるが、利用者・家族のニーズに合わせて、短時間利用、時間延長など柔軟に対応している。"
  },
  {
    "id": "3671700411",
    "name": "デイサービスセンターあわ",
    "kana": "デイサービスセンターアワ",
    "address": "徳島県吉野川市鴨島町鴨島538番地の8",
    "lat": 34.0732936,
    "lng": 134.3555258,
    "tel": "0883-26-1100",
    "url": "day.awa.itokawa@gmail.com",
    "pref": "徳島県",
    "city": "吉野川市",
    "category": "community_day_service",
    "serviceType": "地域密着型通所介護",
    "capacity": 0,
    "openDays": [
      "平日",
      "祝日"
    ],
    "openDaysNote": "特になし"
  },
  {
    "id": "3671700767",
    "name": "ナーシングホームあおいそら",
    "kana": "ナーシングホームアオイソラ",
    "address": "徳島県吉野川市鴨島町鴨島876番地",
    "lat": 34.0764323,
    "lng": 134.3506204,
    "tel": "0883-36-1121",
    "url": "https://www.harenohi0515.com/",
    "pref": "徳島県",
    "city": "吉野川市",
    "category": "community_day_service",
    "serviceType": "地域密着型通所介護",
    "capacity": 0,
    "openDays": [
      "平日",
      "土曜日"
    ],
    "openDaysNote": ""
  },
  {
    "id": "3691700110",
    "name": "ミニデイ・はらだ",
    "kana": "ミニデイ・ハラダ",
    "address": "徳島県吉野川市山川町前川１２－２",
    "lat": 34.059307,
    "lng": 134.2479685,
    "tel": "0883-22-9300",
    "url": "http://haradaseikotsu.com/miniday/",
    "pref": "徳島県",
    "city": "吉野川市",
    "category": "community_day_service",
    "serviceType": "地域密着型通所介護",
    "capacity": 0,
    "openDays": [
      "平日"
    ],
    "openDaysNote": ""
  },
  {
    "id": "3691700094",
    "name": "真　二号館",
    "kana": "マコト　ニゴウカン",
    "address": "徳島県吉野川市鴨島町飯尾1614番地20",
    "lat": 34.0532610832125,
    "lng": 134.352148708846,
    "tel": "0883-36-1555",
    "url": "https://care-net.biz/36/makoto/",
    "pref": "徳島県",
    "city": "吉野川市",
    "category": "community_day_service",
    "serviceType": "地域密着型通所介護",
    "capacity": 0,
    "openDays": [
      "平日",
      "土曜日",
      "祝日"
    ],
    "openDaysNote": "天候等サービス提供が困難な日"
  },
  {
    "id": "3691700086",
    "name": "真一号館",
    "kana": "マコトイチゴウカン",
    "address": "徳島県吉野川市鴨島町敷地514-1",
    "lat": 34.0554629,
    "lng": 134.3486155,
    "tel": "0883-26-1088",
    "url": "https://care-net.biz/36/makoto/",
    "pref": "徳島県",
    "city": "吉野川市",
    "category": "community_day_service",
    "serviceType": "地域密着型通所介護",
    "capacity": 0,
    "openDays": [
      "平日",
      "土曜日",
      "日曜日",
      "祝日"
    ],
    "openDaysNote": "天候等サービス提供が困難な日"
  },
  {
    "id": "3671700577",
    "name": "通所介護さくら",
    "kana": "ツウショカイゴサクラ",
    "address": "徳島県吉野川市山川町212-3",
    "lat": 34.0491667,
    "lng": 134.2230183,
    "tel": "0883-42-8113",
    "url": "",
    "pref": "徳島県",
    "city": "吉野川市",
    "category": "community_day_service",
    "serviceType": "地域密着型通所介護",
    "capacity": 0,
    "openDays": [
      "平日",
      "土曜日",
      "祝日"
    ],
    "openDaysNote": ""
  },
  {
    "id": "3670600281",
    "name": "さくらの里",
    "kana": "サクラノサト",
    "address": "徳島県三好市三野町太刀野山3796番地",
    "lat": 34.0718396,
    "lng": 133.9393579,
    "tel": "0883-76-2078",
    "url": "",
    "pref": "徳島県",
    "city": "三好市",
    "category": "community_day_service",
    "serviceType": "地域密着型通所介護",
    "capacity": 0,
    "openDays": [
      "平日",
      "祝日"
    ],
    "openDaysNote": ""
  },
  {
    "id": "3670600299",
    "name": "デイサービス西山笑楽校",
    "kana": "デイサービスニシヤマショウガッコウ",
    "address": "徳島県三好市池田町西山岡屋敷3563-1",
    "lat": 34.0440054,
    "lng": 133.8052801,
    "tel": "0883-72-6761",
    "url": "",
    "pref": "徳島県",
    "city": "三好市",
    "category": "community_day_service",
    "serviceType": "地域密着型通所介護",
    "capacity": 10,
    "openDays": [
      "平日"
    ],
    "openDaysNote": "上記以外の日、時間でのサービス提供は相談に応じます。"
  },
  {
    "id": "3671900359",
    "name": "ﾗｲﾌｻﾎﾟｰﾄｾﾝﾀｰ　桜",
    "kana": "ライフサポートセンターサクラ",
    "address": "徳島県三好市三野町芝生859-1",
    "lat": 34.0459078,
    "lng": 133.9676969,
    "tel": "0883-77-3131",
    "url": "",
    "pref": "徳島県",
    "city": "三好市",
    "category": "community_day_service",
    "serviceType": "地域密着型通所介護",
    "capacity": 10,
    "openDays": [
      "平日",
      "土曜日",
      "祝日"
    ],
    "openDaysNote": ""
  },
  {
    "id": "3670600224",
    "name": "健生西部デイサービスなでしこ",
    "kana": "ケンセイセイブデイサービスナデシコ",
    "address": "徳島県三好市池田町サラダ1877-1",
    "lat": 34.0262091,
    "lng": 133.8036901,
    "tel": "0883-72-1011",
    "url": "",
    "pref": "徳島県",
    "city": "三好市",
    "category": "community_day_service",
    "serviceType": "地域密着型通所介護",
    "capacity": null,
    "openDays": [
      "平日",
      "土曜日",
      "祝日"
    ],
    "openDaysNote": ""
  },
  {
    "id": "3690600105",
    "name": "紅葉温泉デイサービスセンター",
    "kana": "モミジオンセンデイサービスセンター",
    "address": "徳島県三好市三野町加茂野宮1803番地11",
    "lat": 34.0644274557072,
    "lng": 133.988814740753,
    "tel": "0883-77-4070",
    "url": "miyoshicity-shyakyo.jp",
    "pref": "徳島県",
    "city": "三好市",
    "category": "community_day_service",
    "serviceType": "地域密着型通所介護",
    "capacity": 0,
    "openDays": [
      "平日"
    ],
    "openDaysNote": "年末年始、連休時はこの限りではない。"
  },
  {
    "id": "3690600113",
    "name": "山城会デイサービスセンター",
    "kana": "ヤマシロカイデイサービスセンター",
    "address": "徳島県三好市山城町西宇1225-2",
    "lat": 33.9071348,
    "lng": 133.7477743,
    "tel": "0883-84-1187",
    "url": "https://www.yamashirokai.or.jp/",
    "pref": "徳島県",
    "city": "三好市",
    "category": "community_day_service",
    "serviceType": "地域密着型通所介護",
    "capacity": null,
    "openDays": [
      "平日",
      "祝日"
    ],
    "openDaysNote": ""
  },
  {
    "id": "3671900029",
    "name": "社会福祉法人　三美厚生団　みのだデイサービスセンター",
    "kana": "シャカイフクシホウジン　ミツミコウセイダン　ミノダデイサービスセンター",
    "address": "井川町大佐古２０番地１みのだデイサービスセンター",
    "lat": 34.031339,
    "lng": 133.8854962,
    "tel": "０８８３－７８－４０００",
    "url": "http://minodaen.com/",
    "pref": "徳島県",
    "city": "三好市",
    "category": "community_day_service",
    "serviceType": "地域密着型通所介護",
    "capacity": 0,
    "openDays": [
      "平日",
      "土曜日"
    ],
    "openDaysNote": "利用者家族様要望により（AM８：００～PM２０：００）までの延長あり"
  },
  {
    "id": "3690600089",
    "name": "西祖谷ﾃﾞｲｻｰﾋﾞｽｾﾝﾀｰ",
    "kana": "ニシイヤデイサービスセンター",
    "address": "徳島県三好市西祖谷山村一宇343-1",
    "lat": 33.8934584,
    "lng": 133.8166987,
    "tel": "0883-87-2088",
    "url": "http://miyoshicity-shakyo.jp/",
    "pref": "徳島県",
    "city": "三好市",
    "category": "community_day_service",
    "serviceType": "地域密着型通所介護",
    "capacity": 0,
    "openDays": [
      "平日",
      "祝日"
    ],
    "openDaysNote": ""
  },
  {
    "id": "3690600071",
    "name": "東祖谷デイサービスセンター",
    "kana": "ヒガシイヤデイサービスイセンター",
    "address": "徳島県三好市東祖谷京上１４番地３",
    "lat": 33.8680861,
    "lng": 133.9064967,
    "tel": "0883-88-2266",
    "url": "http://miyoshcity-shakyo.jp/",
    "pref": "徳島県",
    "city": "三好市",
    "category": "community_day_service",
    "serviceType": "地域密着型通所介護",
    "capacity": 18,
    "openDays": [
      "平日"
    ],
    "openDaysNote": ""
  },
  {
    "id": "3691000016",
    "name": "デイサービスセンターオレンジ荘",
    "kana": "デイサービスセンターオレンジソウ",
    "address": "徳島県勝浦郡勝浦町大字棚野字竹国１３番地の１",
    "lat": 33.9327438,
    "lng": 134.5049308,
    "tel": "0885-42-3700",
    "url": "https://syoujukai.or.jp",
    "pref": "徳島県",
    "city": "勝浦町",
    "category": "community_day_service",
    "serviceType": "地域密着型通所介護",
    "capacity": null,
    "openDays": [
      "平日",
      "土曜日",
      "祝日"
    ],
    "openDaysNote": ""
  },
  {
    "id": "3610310066",
    "name": "デイサービス　しおかぜ",
    "kana": "デイサービス　シオカゼ",
    "address": "徳島県小松島市和田島町字浜塚134番地13",
    "lat": 33.9922462321213,
    "lng": 134.635587671828,
    "tel": "0885-37-1115",
    "url": "https://meiwaen.rouken.jp/",
    "pref": "徳島県",
    "city": "小松島市",
    "category": "community_day_service",
    "serviceType": "地域密着型通所介護",
    "capacity": 18,
    "openDays": [
      "平日",
      "土曜日"
    ],
    "openDaysNote": "祝日が月に２回以上ある場合は、いずれかの１日を営業日とする。"
  },
  {
    "id": "3690300060",
    "name": "デイサービス　にこにこ苑",
    "kana": "デイサービス　ニコニコエン",
    "address": "徳島県小松島市金磯町11番100号デイサービスにこにこ苑 デイサービスにこにこ苑",
    "lat": 33.994727,
    "lng": 134.5998975,
    "tel": "0885-33-4165",
    "url": "http://a-zerokaigo.com",
    "pref": "徳島県",
    "city": "小松島市",
    "category": "community_day_service",
    "serviceType": "地域密着型通所介護",
    "capacity": null,
    "openDays": [
      "平日",
      "祝日"
    ],
    "openDaysNote": ""
  },
  {
    "id": "3690300086",
    "name": "リハビリここらday",
    "kana": "リハビリココラデイ",
    "address": "徳島県小松島市中田町字新開44-1光ビル1Fテナント 光ビル1Fテナント",
    "lat": 34.0129471,
    "lng": 134.5839983,
    "tel": "0885-35-0180",
    "url": "https://www.cocora-day.com",
    "pref": "徳島県",
    "city": "小松島市",
    "category": "community_day_service",
    "serviceType": "地域密着型通所介護",
    "capacity": 150,
    "openDays": [
      "平日",
      "祝日"
    ],
    "openDaysNote": ""
  },
  {
    "id": "3670300049",
    "name": "老人デイサービスセンターひかり苑",
    "kana": "ロウジンデイサービスセンターヒカリエン",
    "address": "小松島市坂野町字樫のべ32番地の1",
    "lat": 33.9696555,
    "lng": 134.625527,
    "tel": "0885-37-3000",
    "url": "http://fujino.ezdns.jp/keikouen/index.htm",
    "pref": "徳島県",
    "city": "小松島市",
    "category": "community_day_service",
    "serviceType": "地域密着型通所介護",
    "capacity": 0,
    "openDays": [
      "平日",
      "土曜日",
      "祝日"
    ],
    "openDaysNote": ""
  },
  {
    "id": "3671500134",
    "name": "えんじゅデイサービスセンター",
    "kana": "エンジュデイサービスセンター",
    "address": "徳島県板野郡松茂町広島字四番越５番地１",
    "lat": 34.1370468,
    "lng": 134.5825512,
    "tel": "088-699-8388",
    "url": "http://www.yujoukai.jp",
    "pref": "徳島県",
    "city": "松茂町",
    "category": "community_day_service",
    "serviceType": "地域密着型通所介護",
    "capacity": 0,
    "openDays": [
      "平日",
      "土曜日",
      "祝日"
    ],
    "openDaysNote": ""
  },
  {
    "id": "3671500092",
    "name": "せいけいかい指定通所介護事業所",
    "kana": "セイケイカイシテイツウショカイゴジギョウショ",
    "address": "徳島県板野郡松茂町笹木野字山東49-1",
    "lat": 34.1243262,
    "lng": 134.595426,
    "tel": "088-699-2745",
    "url": "http://wako-en.or.jp/",
    "pref": "徳島県",
    "city": "松茂町",
    "category": "community_day_service",
    "serviceType": "地域密着型通所介護",
    "capacity": 0,
    "openDays": [
      "平日",
      "祝日"
    ],
    "openDaysNote": ""
  },
  {
    "id": "3671501561",
    "name": "ふくゆうデイサービスセンター",
    "kana": "フクユウデイサービスセンター",
    "address": "徳島県板野郡松茂町笹木野字八北開拓175番地1",
    "lat": 34.1394398,
    "lng": 134.5919601,
    "tel": "088-678-7633",
    "url": "https://www.yujoukai.jp/",
    "pref": "徳島県",
    "city": "松茂町",
    "category": "community_day_service",
    "serviceType": "地域密着型通所介護",
    "capacity": 0,
    "openDays": [
      "平日",
      "土曜日"
    ],
    "openDaysNote": ""
  },
  {
    "id": "3671200412",
    "name": "デイサービスセンターひかりの家",
    "kana": "デイサービスセンターヒカリノイエ",
    "address": "徳島県名西郡石井町藍畑字東覚円２０２番地",
    "lat": 34.0965911,
    "lng": 134.4340186,
    "tel": "088-674-2358",
    "url": "",
    "pref": "徳島県",
    "city": "石井町",
    "category": "community_day_service",
    "serviceType": "地域密着型通所介護",
    "capacity": null,
    "openDays": [
      "平日",
      "祝日"
    ],
    "openDaysNote": ""
  },
  {
    "id": "3671200487",
    "name": "医療法人青鳳会　デイサービスくつろぎ",
    "kana": "イリョウホウジンセイホウカイ　デイサービスクツロギ",
    "address": "徳島県名西郡石井町浦庄字上浦524-10",
    "lat": 34.0694323,
    "lng": 134.4087352,
    "tel": "088-674-6210",
    "url": "ishii@mima-gr.jp",
    "pref": "徳島県",
    "city": "石井町",
    "category": "community_day_service",
    "serviceType": "地域密着型通所介護",
    "capacity": null,
    "openDays": [
      "平日",
      "土曜日",
      "日曜日",
      "祝日"
    ],
    "openDaysNote": "延長サービスあり（改行）宿泊サービスあり"
  },
  {
    "id": "3671200347",
    "name": "合同会社徳島県ふれあい介護支援センター　通所介護事業所",
    "kana": "ゴウドウカイシャトクシマケンフレアイカイゴシエンセンター",
    "address": "徳島県石井町高川原字天神671番地3",
    "lat": 34.0823079,
    "lng": 134.4424251,
    "tel": "088-674-7915",
    "url": "",
    "pref": "徳島県",
    "city": "石井町",
    "category": "community_day_service",
    "serviceType": "地域密着型通所介護",
    "capacity": null,
    "openDays": [
      "平日"
    ],
    "openDaysNote": "営業時間及び営業日以外は電話等により常時連絡が可能な体制をとっている。"
  },
  {
    "id": "3671200495",
    "name": "明日香デイサービスセンター",
    "kana": "アスカデイサービスセンター",
    "address": "徳島県名西郡石井町浦庄字下浦342番地1",
    "lat": 34.0682242,
    "lng": 134.4119515,
    "tel": "088-678-7181",
    "url": "https://asuka-lifecare.com/index.html",
    "pref": "徳島県",
    "city": "石井町",
    "category": "community_day_service",
    "serviceType": "地域密着型通所介護",
    "capacity": 5,
    "openDays": [
      "平日",
      "祝日"
    ],
    "openDaysNote": "電話での連絡は、常時可能な状態になっています。"
  },
  {
    "id": "3670104474",
    "name": "アシストケアクラブ徳島住吉",
    "kana": "アシストケアクラブトクシマスミヨシ",
    "address": "徳島県徳島市住吉3丁目1番23号第3三宅ビル1F 第3三宅ビル1F",
    "lat": 34.0775944,
    "lng": 134.5707644,
    "tel": "088-622-8184",
    "url": "http://coo-sys.jp/assist/member/tokushimasumiyoshi/",
    "pref": "徳島県",
    "city": "徳島市",
    "category": "community_day_service",
    "serviceType": "地域密着型通所介護",
    "capacity": 0,
    "openDays": [
      "平日",
      "祝日"
    ],
    "openDaysNote": ""
  },
  {
    "id": "3690168350",
    "name": "デイコミュニティマドンナ",
    "kana": "デイコミュニティマドンナ",
    "address": "新浜町1丁目1-8",
    "lat": 34.0504244831112,
    "lng": 134.545738777107,
    "tel": "088-678-5377",
    "url": "",
    "pref": "徳島県",
    "city": "徳島市",
    "category": "community_day_service",
    "serviceType": "地域密着型通所介護",
    "capacity": 10,
    "openDays": [
      "平日",
      "祝日"
    ],
    "openDaysNote": ""
  },
  {
    "id": "3670103260",
    "name": "デイサービス　おひさま",
    "kana": "デイサービス　オヒサマ",
    "address": "徳島県徳島市八百屋町２-16齋藤醫院ビル　５階 齋藤醫院ビル　５階",
    "lat": 34.0707266,
    "lng": 134.5594802,
    "tel": "088-657-7311",
    "url": "http://day-ohisama.com/",
    "pref": "徳島県",
    "city": "徳島市",
    "category": "community_day_service",
    "serviceType": "地域密着型通所介護",
    "capacity": 15,
    "openDays": [
      "平日"
    ],
    "openDaysNote": ""
  },
  {
    "id": "3690168327",
    "name": "デイサービス　響",
    "kana": "デイサービス　ヒビキ",
    "address": "徳島県徳島市国府町府中565-6",
    "lat": 34.0711642,
    "lng": 134.478449,
    "tel": "088-635-9770",
    "url": "",
    "pref": "徳島県",
    "city": "徳島市",
    "category": "community_day_service",
    "serviceType": "地域密着型通所介護",
    "capacity": 0,
    "openDays": [
      "平日",
      "土曜日",
      "祝日"
    ],
    "openDaysNote": ""
  },
  {
    "id": "3690167998",
    "name": "デイサービス　八万苑",
    "kana": "デイサービス　ハチマンエン",
    "address": "徳島県徳島市八万町下長谷234番地の1",
    "lat": 34.0449942,
    "lng": 134.5136907,
    "tel": "088-660-2188",
    "url": "",
    "pref": "徳島県",
    "city": "徳島市",
    "category": "community_day_service",
    "serviceType": "地域密着型通所介護",
    "capacity": 0,
    "openDays": [
      "平日",
      "土曜日",
      "祝日"
    ],
    "openDaysNote": "基本日曜日は定休日とするが利用者様の事情や緊急時のみ職員人事が確保できる日のみ営業する場合あり。"
  },
  {
    "id": "3670104045",
    "name": "デイサービスあいハート",
    "kana": "デイサービスアイハート",
    "address": "徳島県徳島市南内町1丁目41",
    "lat": 34.0691682,
    "lng": 134.5531962,
    "tel": "088-654-0202",
    "url": "http://mikawaclinic.net/dayservice/",
    "pref": "徳島県",
    "city": "徳島市",
    "category": "community_day_service",
    "serviceType": "地域密着型通所介護",
    "capacity": 0,
    "openDays": [
      "平日",
      "土曜日"
    ],
    "openDaysNote": "お盆休み1日、12月31日〜1月3日は休業"
  },
  {
    "id": "3670103104",
    "name": "デイサービスきらら苑",
    "kana": "デイサービスキララエン",
    "address": "徳島県徳島市北山町岩崎11番地3",
    "lat": 34.024125,
    "lng": 134.5355624,
    "tel": "088-669-3328",
    "url": "",
    "pref": "徳島県",
    "city": "徳島市",
    "category": "community_day_service",
    "serviceType": "地域密着型通所介護",
    "capacity": null,
    "openDays": [
      "平日",
      "祝日"
    ],
    "openDaysNote": ""
  },
  {
    "id": "3690168400",
    "name": "デイサービスセンターColore",
    "kana": "デイサービスセンターコロレ",
    "address": "国府町西黒田字南傍示243-1",
    "lat": 34.1007889,
    "lng": 134.4684093,
    "tel": "088-661-2589",
    "url": "",
    "pref": "徳島県",
    "city": "徳島市",
    "category": "community_day_service",
    "serviceType": "地域密着型通所介護",
    "capacity": 0,
    "openDays": [
      "平日",
      "土曜日",
      "祝日"
    ],
    "openDaysNote": "・営業時間外も電話等により､常時連絡が可能な体制とする。"
  },
  {
    "id": "3670103047",
    "name": "デイサービスセンターForYou",
    "kana": "デイサービスセンターフォーユー",
    "address": "徳島県徳島市東吉野町二丁目16番地",
    "lat": 34.0843105833776,
    "lng": 134.563658290419,
    "tel": "088-6789-777",
    "url": "http://www.foryou-kai.co.jp/",
    "pref": "徳島県",
    "city": "徳島市",
    "category": "community_day_service",
    "serviceType": "地域密着型通所介護",
    "capacity": 0,
    "openDays": [
      "平日",
      "土曜日",
      "祝日"
    ],
    "openDaysNote": "上記日時以外については、利用者の希望に応じてサービスの提供を行うものとします。"
  },
  {
    "id": "3670102908",
    "name": "デイサービスセンターあゆみ",
    "kana": "デイサービスセンターアユミ",
    "address": "徳島市中常三島町3丁目26",
    "lat": 34.0787609272404,
    "lng": 134.564075728836,
    "tel": "088-612-0333",
    "url": "http://www.hp-hashimoto.com",
    "pref": "徳島県",
    "city": "徳島市",
    "category": "community_day_service",
    "serviceType": "地域密着型通所介護",
    "capacity": 0,
    "openDays": [
      "平日",
      "土曜日",
      "祝日"
    ],
    "openDaysNote": ""
  },
  {
    "id": "3670102981",
    "name": "デイサービスセンターセレブ",
    "kana": "デイサービスセンターセレブ",
    "address": "徳島市沖浜東２丁目３０",
    "lat": 34.0527858,
    "lng": 134.5555049,
    "tel": "088-655-2266",
    "url": "http://www.royalceleb.sakura.ne.jp/",
    "pref": "徳島県",
    "city": "徳島市",
    "category": "community_day_service",
    "serviceType": "地域密着型通所介護",
    "capacity": 18,
    "openDays": [
      "平日",
      "土曜日",
      "祝日"
    ],
    "openDaysNote": ""
  },
  {
    "id": "3690168277",
    "name": "デイサービスセンターそよかぜ２号館幸町",
    "kana": "デイサービスセンターソヨカゼ２ゴウカンサイワイチョウ",
    "address": "徳島県徳島市幸町三丁目９７番地尾賀ビル１階１号室 尾賀ビル１階１号室",
    "lat": 34.0682722,
    "lng": 134.5552842,
    "tel": "088-611-3977",
    "url": "",
    "pref": "徳島県",
    "city": "徳島市",
    "category": "community_day_service",
    "serviceType": "地域密着型通所介護",
    "capacity": null,
    "openDays": [
      "平日",
      "土曜日",
      "祝日"
    ],
    "openDaysNote": ""
  },
  {
    "id": "3690167956",
    "name": "デイサービスセンターひまわり",
    "kana": "デイサービスセンターヒマワリ",
    "address": "徳島市かちどき橋２丁目５５番地",
    "lat": 34.0625475,
    "lng": 134.5552294,
    "tel": "088-623-3535",
    "url": "",
    "pref": "徳島県",
    "city": "徳島市",
    "category": "community_day_service",
    "serviceType": "地域密着型通所介護",
    "capacity": null,
    "openDays": [
      "平日",
      "土曜日",
      "祝日"
    ],
    "openDaysNote": "定休日であっても、施設行事等の開催により、営業する場合があります。"
  },
  {
    "id": "3690168046",
    "name": "デイサービスセンター万華鏡",
    "kana": "デイサービスセンターマンゲキョウ",
    "address": "徳島県徳島市八万町中津浦113-1番地",
    "lat": 34.0571211,
    "lng": 134.5328542,
    "tel": "０８８－６７６－２０１０",
    "url": "",
    "pref": "徳島県",
    "city": "徳島市",
    "category": "community_day_service",
    "serviceType": "地域密着型通所介護",
    "capacity": 0,
    "openDays": [
      "平日",
      "土曜日",
      "祝日"
    ],
    "openDaysNote": ""
  },
  {
    "id": "3670103476",
    "name": "デイサービスそのせ",
    "kana": "デイサービスソノセ",
    "address": "徳島市八万町下長谷259-1福祉ステーションそのせ 福祉ステーションそのせ",
    "lat": 34.0447080187772,
    "lng": 134.517683764581,
    "tel": "088-667-1336",
    "url": "http://www.shizenha.ne.jp",
    "pref": "徳島県",
    "city": "徳島市",
    "category": "community_day_service",
    "serviceType": "地域密着型通所介護",
    "capacity": 1,
    "openDays": [
      "平日",
      "土曜日",
      "祝日"
    ],
    "openDaysNote": ""
  },
  {
    "id": "3690168293",
    "name": "デイサービスとまと問屋町",
    "kana": "デイサービストマトトンヤマチ",
    "address": "徳島県徳島市問屋町19",
    "lat": 34.0476563,
    "lng": 134.5484062,
    "tel": "886796071",
    "url": "https://releap.co.jp/",
    "pref": "徳島県",
    "city": "徳島市",
    "category": "community_day_service",
    "serviceType": "地域密着型通所介護",
    "capacity": null,
    "openDays": [
      "平日"
    ],
    "openDaysNote": ""
  },
  {
    "id": "3690168335",
    "name": "デイサービスゆるり",
    "kana": "デイサービスユルリ",
    "address": "徳島県徳島市中吉野二丁目31番地1",
    "lat": 34.0861470855781,
    "lng": 134.556702671164,
    "tel": "088-678-5225",
    "url": "https://linkle-group.co.jp/",
    "pref": "徳島県",
    "city": "徳島市",
    "category": "community_day_service",
    "serviceType": "地域密着型通所介護",
    "capacity": 11,
    "openDays": [
      "平日",
      "土曜日",
      "祝日"
    ],
    "openDaysNote": ""
  },
  {
    "id": "3690168384",
    "name": "デイサービス余韻",
    "kana": "デイサービスヨイン",
    "address": "中吉野町３丁目８６−５",
    "lat": 34.0872826172895,
    "lng": 134.554752288886,
    "tel": "088-661-2221",
    "url": "",
    "pref": "徳島県",
    "city": "徳島市",
    "category": "community_day_service",
    "serviceType": "地域密着型通所介護",
    "capacity": 0,
    "openDays": [
      "平日",
      "祝日"
    ],
    "openDaysNote": "年末年始"
  },
  {
    "id": "3690168178",
    "name": "とくしま健生デイサービスセンター",
    "kana": "トクシマケンセイデイサービスセンター",
    "address": "徳島県徳島市吉野本町6丁目30-4健生在宅ケアセンター1階 健生在宅ケアセンター1階",
    "lat": 34.0868015,
    "lng": 134.5524741,
    "tel": "088-622-8102",
    "url": "http:／／www2.tch.ne.jp/～ｈcoopt",
    "pref": "徳島県",
    "city": "徳島市",
    "category": "community_day_service",
    "serviceType": "地域密着型通所介護",
    "capacity": 0,
    "openDays": [
      "平日",
      "土曜日",
      "祝日"
    ],
    "openDaysNote": ""
  },
  {
    "id": "3670101892",
    "name": "べんり堂みんなの家",
    "kana": "ベンリドウミンナノイエ",
    "address": "徳島県徳島市北矢三町２丁目３番地２６号",
    "lat": 34.087272313777,
    "lng": 134.522647051785,
    "tel": "088-633-3717",
    "url": "http://www.benrido.net/",
    "pref": "徳島県",
    "city": "徳島市",
    "category": "community_day_service",
    "serviceType": "地域密着型通所介護",
    "capacity": 18,
    "openDays": [
      "平日",
      "土曜日",
      "祝日"
    ],
    "openDaysNote": "台風・積雪等の天候が極めて悪いときは休日とする場合がある"
  },
  {
    "id": "3670104136",
    "name": "ライフケア　アライブ",
    "kana": "ライフケア　アライブ",
    "address": "徳島県徳島市八万町千鳥２０－１３パレスイーズ1F パレスイーズ1F",
    "lat": 34.0506496,
    "lng": 134.5359761,
    "tel": "088-678-4452",
    "url": "https://www.lifecare-alive.com",
    "pref": "徳島県",
    "city": "徳島市",
    "category": "community_day_service",
    "serviceType": "地域密着型通所介護",
    "capacity": 10,
    "openDays": [
      "平日",
      "祝日"
    ],
    "openDaysNote": ""
  },
  {
    "id": "3670104458",
    "name": "リハステーション楽",
    "kana": "リハステーションラク",
    "address": "徳島県徳島市かちどき橋6丁目4番地の1サービス付き高齢者向け住宅　洛Ｋａｃｈｉｄｏｋｉ サービス付き高齢者向け住宅　洛Ｋａｃｈｉｄｏｋｉ",
    "lat": 34.057652,
    "lng": 134.5534634,
    "tel": "088-679-6656",
    "url": "",
    "pref": "徳島県",
    "city": "徳島市",
    "category": "community_day_service",
    "serviceType": "地域密着型通所介護",
    "capacity": 0,
    "openDays": [
      "平日",
      "祝日"
    ],
    "openDaysNote": ""
  },
  {
    "id": "3670104037",
    "name": "リハビリデイサービスもりガーデン国府店",
    "kana": "リハビリデイサービス　モリガーデンコクフテン",
    "address": "徳島県徳島市国府町南岩延792-1西陣ビル1F 西陣ビル1F",
    "lat": 34.073132,
    "lng": 134.496113,
    "tel": "088-679-7448",
    "url": "http://mori-garden.jp/",
    "pref": "徳島県",
    "city": "徳島市",
    "category": "community_day_service",
    "serviceType": "地域密着型通所介護",
    "capacity": 10,
    "openDays": [
      "平日",
      "土曜日",
      "祝日"
    ],
    "openDaysNote": "８/１２～１５、１２/３０～１/４は、休日"
  },
  {
    "id": "3670104326",
    "name": "リハビリレストラン空と海",
    "kana": "リハビリレストランソラトウミ",
    "address": "徳島県徳島市南末広町37-2",
    "lat": 34.0593131,
    "lng": 134.5742669,
    "tel": "088-624-7667",
    "url": "http://www.okagawa-g.com/soratoumi/",
    "pref": "徳島県",
    "city": "徳島市",
    "category": "community_day_service",
    "serviceType": "地域密着型通所介護",
    "capacity": 18,
    "openDays": [
      "平日",
      "土曜日",
      "祝日"
    ],
    "openDaysNote": "土曜日は午前のみの営業"
  },
  {
    "id": "3690168418",
    "name": "一般社団法人マホロ",
    "kana": "イッパンシャダンホウジンマホロバ",
    "address": "徳島県徳島市仲之町２丁目１４",
    "lat": 34.0665664,
    "lng": 134.5532506,
    "tel": "088－602－7234",
    "url": "",
    "pref": "徳島県",
    "city": "徳島市",
    "category": "community_day_service",
    "serviceType": "地域密着型通所介護",
    "capacity": 18,
    "openDays": [
      "平日",
      "祝日"
    ],
    "openDaysNote": ""
  },
  {
    "id": "3670101561",
    "name": "元気の学校",
    "kana": "ゲンキノガッコウ",
    "address": "徳島県徳島市上八万町西山1430-2",
    "lat": 34.0314869,
    "lng": 134.4905163,
    "tel": "088-644-3508",
    "url": "http://www.npo-nanohana.or.jp",
    "pref": "徳島県",
    "city": "徳島市",
    "category": "community_day_service",
    "serviceType": "地域密着型通所介護",
    "capacity": 18,
    "openDays": [
      "平日",
      "土曜日",
      "祝日"
    ],
    "openDaysNote": "祭日は営業する。悪天候　台風等は営業の有無を検討し、ケアマネ　本人　ご家族等連絡し、生活に不都合の無いように配慮をする。"
  },
  {
    "id": "3690168285",
    "name": "山城デイサービスセンター",
    "kana": "ヤマシロデイサービスセンター",
    "address": "徳島県徳島市沖浜町北川730番地沖浜シルバーハイツ 沖浜シルバーハイツ",
    "lat": 34.0564435,
    "lng": 134.5520944,
    "tel": "088-678-6661",
    "url": "",
    "pref": "徳島県",
    "city": "徳島市",
    "category": "community_day_service",
    "serviceType": "地域密着型通所介護",
    "capacity": 0,
    "openDays": [
      "平日",
      "祝日"
    ],
    "openDaysNote": "12/31～1/3は休業させていただいています。"
  },
  {
    "id": "3690168376",
    "name": "社会福祉法人白寿会　白寿会西部デイサービスセンター",
    "kana": "シャカイフクシホウジンハクジュカイ　ハクジュカイセイブデイサービスセンター",
    "address": "徳島県徳島市不動西町3丁目1197-1",
    "lat": 34.0875542,
    "lng": 134.494534,
    "tel": "088-633-4411",
    "url": "http://www.hakuju-kai.or.jp/",
    "pref": "徳島県",
    "city": "徳島市",
    "category": "community_day_service",
    "serviceType": "地域密着型通所介護",
    "capacity": 0,
    "openDays": [
      "平日",
      "祝日"
    ],
    "openDaysNote": ""
  },
  {
    "id": "3670103856",
    "name": "常三島デイサービス",
    "kana": "ジョウサンジマデイサービス",
    "address": "徳島県徳島市北常三島町1丁目10-3",
    "lat": 34.0810579,
    "lng": 134.5612124,
    "tel": "088-624-8100",
    "url": "",
    "pref": "徳島県",
    "city": "徳島市",
    "category": "community_day_service",
    "serviceType": "地域密着型通所介護",
    "capacity": 10,
    "openDays": [
      "平日",
      "土曜日",
      "祝日"
    ],
    "openDaysNote": ""
  },
  {
    "id": "3690168368",
    "name": "然クロス",
    "kana": "ゼンクロス",
    "address": "徳島県徳島市大和町1丁目132-2",
    "lat": 34.0677024,
    "lng": 134.5712467,
    "tel": "088-678-6005",
    "url": "https://zencross.link/",
    "pref": "徳島県",
    "city": "徳島市",
    "category": "community_day_service",
    "serviceType": "地域密着型通所介護",
    "capacity": 18,
    "openDays": [
      "平日",
      "土曜日",
      "祝日"
    ],
    "openDaysNote": ""
  },
  {
    "id": "3690168129",
    "name": "茶話本舗デイサービス法花亭",
    "kana": "サワホンポデイサービスホッケテイ",
    "address": "徳島県徳島市大谷町新堤45-3",
    "lat": 34.0364136,
    "lng": 134.5404266,
    "tel": "088-679-7267",
    "url": "",
    "pref": "徳島県",
    "city": "徳島市",
    "category": "community_day_service",
    "serviceType": "地域密着型通所介護",
    "capacity": 0,
    "openDays": [
      "平日",
      "土曜日",
      "日曜日",
      "祝日"
    ],
    "openDaysNote": ""
  },
  {
    "id": "3690168137",
    "name": "茶話本舗デイサービス末広亭",
    "kana": "サワホンポデイサービススエヒロテイ",
    "address": "徳島県徳島市末広2丁目1－69",
    "lat": 34.064836,
    "lng": 134.5743168,
    "tel": "088-624-8617",
    "url": "",
    "pref": "徳島県",
    "city": "徳島市",
    "category": "community_day_service",
    "serviceType": "地域密着型通所介護",
    "capacity": 0,
    "openDays": [
      "平日",
      "土曜日",
      "日曜日",
      "祝日"
    ],
    "openDaysNote": ""
  },
  {
    "id": "3670103740",
    "name": "内町リハビリデイサービス",
    "kana": "ウチマチリハビリデイサービス",
    "address": "徳島県徳島市南内町３丁目２０－１KAMEYAビル１F KAMEYAビル１F",
    "lat": 34.0710561,
    "lng": 134.5495582,
    "tel": "088-679-6462",
    "url": "",
    "pref": "徳島県",
    "city": "徳島市",
    "category": "community_day_service",
    "serviceType": "地域密着型通所介護",
    "capacity": 20,
    "openDays": [
      "平日",
      "土曜日"
    ],
    "openDaysNote": ""
  },
  {
    "id": "3670104334",
    "name": "藍華苑デイサービス",
    "kana": "アイカエンデイサービス",
    "address": "徳島県徳島市国府町和田字居内５５番地の１",
    "lat": 34.0733763,
    "lng": 134.4908052,
    "tel": "088-643-1538",
    "url": "",
    "pref": "徳島県",
    "city": "徳島市",
    "category": "community_day_service",
    "serviceType": "地域密着型通所介護",
    "capacity": 0,
    "openDays": [
      "平日",
      "土曜日",
      "祝日"
    ],
    "openDaysNote": "１２月２９日から１月３日は除く。"
  },
  {
    "id": "3691300044",
    "name": "チロルデイサービスセンター",
    "kana": "チロルデイサービスセンター",
    "address": "徳島県那賀郡那賀町成瀬字小谷口2番地",
    "lat": 33.7829418,
    "lng": 134.2850057,
    "tel": "０８８４－６７－０８８８",
    "url": "http://www.ryokufu1984.or.jp/",
    "pref": "徳島県",
    "city": "那賀町",
    "category": "community_day_service",
    "serviceType": "地域密着型通所介護",
    "capacity": 0,
    "openDays": [
      "平日",
      "土曜日",
      "日曜日",
      "祝日"
    ],
    "openDaysNote": "月・水・金・日曜日営業（チロルデイサービスセンター）、火・木・土曜日営業（チロルデイサービスセンター「サテライト」きとうゆず）"
  },
  {
    "id": "3671300048",
    "name": "水の花デイサービスセンター",
    "kana": "スイノハナデイサービスセンター",
    "address": "徳島県那賀郡那賀町延野字大原４０番地１",
    "lat": 33.8195273,
    "lng": 134.483643,
    "tel": "0884-62-2010",
    "url": "http://care-net.biz/36/suinohana/",
    "pref": "徳島県",
    "city": "那賀町",
    "category": "community_day_service",
    "serviceType": "地域密着型通所介護",
    "capacity": null,
    "openDays": [
      "平日",
      "土曜日",
      "祝日"
    ],
    "openDaysNote": "原則として８月１４日から８月１６日、１２月２９日から１月３日までは休業とするが、利用者のニーズを踏まえて営業することがある。"
  },
  {
    "id": "3671300519",
    "name": "那賀町木沢デイサービスセンター",
    "kana": "ナカチョウキサワデイサービスセンター",
    "address": "徳島県那賀郡那賀町木頭字前田５２－１那賀町木沢デイサービスセンター 那賀町木沢デイサービスセンター",
    "lat": 33.8242241,
    "lng": 134.302007,
    "tel": "０８８４－６５－２１２６",
    "url": "",
    "pref": "徳島県",
    "city": "那賀町",
    "category": "community_day_service",
    "serviceType": "地域密着型通所介護",
    "capacity": 0,
    "openDays": [
      "平日"
    ],
    "openDaysNote": ""
  },
  {
    "id": "3671501702",
    "name": "デイサービスオアシス",
    "kana": "デイサービスオアシス",
    "address": "徳島県板野郡板野町中久保字中須賀19番地",
    "lat": 34.1182922659545,
    "lng": 134.451345603041,
    "tel": "088-678-4021",
    "url": "",
    "pref": "徳島県",
    "city": "板野町",
    "category": "community_day_service",
    "serviceType": "地域密着型通所介護",
    "capacity": null,
    "openDays": [
      "平日",
      "土曜日"
    ],
    "openDaysNote": ""
  },
  {
    "id": "3691400091",
    "name": "デイサービスセンター浦島",
    "kana": "デイサービスセンターウラシマ",
    "address": "徳島県海部郡美波町赤松字野田６１番地",
    "lat": 33.7712148,
    "lng": 134.4994148,
    "tel": "0884-79-3373",
    "url": "http://toukoukai.com/",
    "pref": "徳島県",
    "city": "美波町",
    "category": "community_day_service",
    "serviceType": "地域密着型通所介護",
    "capacity": null,
    "openDays": [
      "平日",
      "祝日"
    ],
    "openDaysNote": "事業所の都合により休業する場合があります"
  },
  {
    "id": "3670500424",
    "name": "ケアホームやすらぎの丘デイサービスセンター",
    "kana": "ケアホームヤスラギノオカデイサービスセンター",
    "address": "徳島県美馬市脇町字拝原1780番地1",
    "lat": 34.0620552,
    "lng": 134.1681414,
    "tel": "0883-53-5936",
    "url": "",
    "pref": "徳島県",
    "city": "美馬市",
    "category": "community_day_service",
    "serviceType": "地域密着型通所介護",
    "capacity": 0,
    "openDays": [
      "平日",
      "土曜日",
      "祝日"
    ],
    "openDaysNote": ""
  },
  {
    "id": "3670500259",
    "name": "デイサービスセンターぽっかぽか",
    "kana": "デイサービスセンターポッカポカ",
    "address": "美馬市美馬町字中通131番地1",
    "lat": 34.0485002,
    "lng": 134.0239903,
    "tel": "0883-63-3241",
    "url": "",
    "pref": "徳島県",
    "city": "美馬市",
    "category": "community_day_service",
    "serviceType": "地域密着型通所介護",
    "capacity": 2,
    "openDays": [
      "平日",
      "土曜日",
      "日曜日",
      "祝日"
    ],
    "openDaysNote": "特になし"
  },
  {
    "id": "3670500333",
    "name": "でいさーびすなかはちのおか",
    "kana": "デイサービスナカハチノ丘",
    "address": "徳島県美馬市脇町木ノ内字岡ノ西3945番地5",
    "lat": 34.0565461,
    "lng": 134.1019726,
    "tel": "0883-52-0366",
    "url": "",
    "pref": "徳島県",
    "city": "美馬市",
    "category": "community_day_service",
    "serviceType": "地域密着型通所介護",
    "capacity": 0,
    "openDays": [
      "平日",
      "土曜日",
      "祝日"
    ],
    "openDaysNote": "年末年始12月31日から1月3日まではお休みとさせていただきます。"
  },
  {
    "id": "3670500390",
    "name": "デイサービス若宮",
    "kana": "デイサービスワカミヤ",
    "address": "徳島県美馬市脇町大字猪尻若宮南79-1",
    "lat": 34.0681072,
    "lng": 134.1586064,
    "tel": "0883-52-5437",
    "url": "",
    "pref": "徳島県",
    "city": "美馬市",
    "category": "community_day_service",
    "serviceType": "地域密着型通所介護",
    "capacity": 0,
    "openDays": [
      "平日",
      "土曜日",
      "祝日"
    ],
    "openDaysNote": "年末年始（12月29日から翌年1月3日）"
  },
  {
    "id": "3670500051",
    "name": "美馬市木屋平デイサービスセンター「つるぎの里」",
    "kana": "ミマシコヤダイラデイサービスセンターツルギノサト",
    "address": "徳島県美馬市木屋平字谷口257番地4",
    "lat": 33.9153520043485,
    "lng": 134.177514411458,
    "tel": "(0883)68-3030",
    "url": "http://shakyo.ict-tokushima.jp/mima/",
    "pref": "徳島県",
    "city": "美馬市",
    "category": "community_day_service",
    "serviceType": "地域密着型通所介護",
    "capacity": 0,
    "openDays": [
      "平日",
      "祝日"
    ],
    "openDaysNote": "台風等による気象警報が出た場合は、臨時休業または短縮営業。（改行）また冬季の積雪・凍結時には、その日の道路状況に応じて営業時間を短縮したり、臨時休業にします。"
  },
  {
    "id": "3671800047",
    "name": "美馬市脇町西部デイサービスセンター",
    "kana": "ミマシワキマチセイブデイサービスセンター",
    "address": "徳島県美馬市脇町字小星672-2",
    "lat": 34.0625321337879,
    "lng": 134.096362626984,
    "tel": "0883-53-1850",
    "url": "http://www.koboshien.com/",
    "pref": "徳島県",
    "city": "美馬市",
    "category": "community_day_service",
    "serviceType": "地域密着型通所介護",
    "capacity": 0,
    "openDays": [
      "平日"
    ],
    "openDaysNote": ""
  },
  {
    "id": "3690200088",
    "name": "CoCoデイサービス",
    "kana": "ココデイサービス",
    "address": "徳島県鳴門市大津町矢倉字裏15-9",
    "lat": 34.1583753,
    "lng": 134.592787,
    "tel": "088-686-5587",
    "url": "",
    "pref": "徳島県",
    "city": "鳴門市",
    "category": "community_day_service",
    "serviceType": "地域密着型通所介護",
    "capacity": 0,
    "openDays": [
      "平日",
      "祝日"
    ],
    "openDaysNote": ""
  },
  {
    "id": "3670200710",
    "name": "あかりデイサービス瀬戸",
    "kana": "アカリデイサービスセト",
    "address": "徳島県鳴門市瀬戸町堂浦字地回り壱26番地５",
    "lat": 34.2119284,
    "lng": 134.579298,
    "tel": "088-688-2340",
    "url": "https://www.akari-dayservice.com/",
    "pref": "徳島県",
    "city": "鳴門市",
    "category": "community_day_service",
    "serviceType": "地域密着型通所介護",
    "capacity": 9,
    "openDays": [
      "平日",
      "祝日"
    ],
    "openDaysNote": ""
  },
  {
    "id": "3690200047",
    "name": "デイサービス　こだぬき",
    "kana": "デイサービス　コダヌキ",
    "address": "鳴門市鳴門町高島字南370番地",
    "lat": 34.2013408,
    "lng": 134.5936874,
    "tel": "088-678-4530",
    "url": "http://www13.plala.or.jp/tanukideikoi/kodanuki001.html",
    "pref": "徳島県",
    "city": "鳴門市",
    "category": "community_day_service",
    "serviceType": "地域密着型通所介護",
    "capacity": null,
    "openDays": [
      "平日",
      "祝日"
    ],
    "openDaysNote": ""
  },
  {
    "id": "3670200348",
    "name": "デイサービス　ハッピーズ",
    "kana": "デイサービス　ハッピーズ",
    "address": "徳島県鳴門市撫養町斎田字北浜46-1",
    "lat": 34.1784003,
    "lng": 134.6053613,
    "tel": "088-686-1862",
    "url": "",
    "pref": "徳島県",
    "city": "鳴門市",
    "category": "community_day_service",
    "serviceType": "地域密着型通所介護",
    "capacity": 18,
    "openDays": [
      "平日",
      "土曜日",
      "日曜日",
      "祝日"
    ],
    "openDaysNote": "8月13日～8月15日及び12月29日～1月3日は休み（改行）都合により、臨時営業、臨時休業あり"
  },
  {
    "id": "3670200686",
    "name": "デイサービスすみれ",
    "kana": "デイサービスミレ",
    "address": "徳島県鳴門市大津町吉永字三石野777番地",
    "lat": 34.1639853,
    "lng": 134.6030923,
    "tel": "088-683-1251",
    "url": "http://www.hashimoto-clinic.jp",
    "pref": "徳島県",
    "city": "鳴門市",
    "category": "community_day_service",
    "serviceType": "地域密着型通所介護",
    "capacity": 0,
    "openDays": [
      "平日",
      "祝日"
    ],
    "openDaysNote": "年末年始の提供日に関してはその年の曜日により変更する場合がある。"
  },
  {
    "id": "3690200013",
    "name": "デイサービスセンターそよかぜ",
    "kana": "デイサービスセンターソヨカゼ",
    "address": "瀬戸町明神字上本城77-2",
    "lat": 34.210721,
    "lng": 134.5828085,
    "tel": "088-683-7888",
    "url": "https://shikoku-ms.com/soyokaze/",
    "pref": "徳島県",
    "city": "鳴門市",
    "category": "community_day_service",
    "serviceType": "地域密着型通所介護",
    "capacity": 0,
    "openDays": [
      "平日",
      "土曜日",
      "祝日"
    ],
    "openDaysNote": ""
  },
  {
    "id": "3670200926",
    "name": "デイサービスセンター花雲",
    "kana": "デイサービスセンターカウン",
    "address": "徳島県鳴門市撫養町小桑島字前浜197番地サービス付き高齢者向け住宅しあわせ家族内 サービス付き高齢者向け住宅しあわせ家族内",
    "lat": 34.1819388,
    "lng": 134.6059584,
    "tel": "088-685-1266",
    "url": "http://www.kaun-shiawase.com",
    "pref": "徳島県",
    "city": "鳴門市",
    "category": "community_day_service",
    "serviceType": "地域密着型通所介護",
    "capacity": 0,
    "openDays": [
      "平日"
    ],
    "openDaysNote": "祝日（平日）においては、通常通りの営業とする。"
  },
  {
    "id": "3690200070",
    "name": "デイサービスセンター花雲高島",
    "kana": "デイサービスセンターカウンタカシマ",
    "address": "鳴門町高島字浜中74番地",
    "lat": 34.2037701875501,
    "lng": 134.590031254735,
    "tel": "088-687-2022",
    "url": "http://www.kaun-shiawase.com",
    "pref": "徳島県",
    "city": "鳴門市",
    "category": "community_day_service",
    "serviceType": "地域密着型通所介護",
    "capacity": 0,
    "openDays": [
      "平日"
    ],
    "openDaysNote": "祝日（平日）においては、通常通りの営業とする。"
  },
  {
    "id": "3670200850",
    "name": "デイサービスたぬき",
    "kana": "デイサービス　タヌキ",
    "address": "徳島県鳴門市瀬戸町明神字下本城262-1",
    "lat": 34.2090084,
    "lng": 134.5784939,
    "tel": "０８８－６８８－０３１０",
    "url": "http://www13.plala.or.jp/tanukideikoi/index.html",
    "pref": "徳島県",
    "city": "鳴門市",
    "category": "community_day_service",
    "serviceType": "地域密着型通所介護",
    "capacity": 0,
    "openDays": [
      "平日",
      "土曜日",
      "日曜日",
      "祝日"
    ],
    "openDaysNote": "年末年始（１２月３０日～１月３日）　８月１２日～１５日の内２日間"
  },
  {
    "id": "3690200039",
    "name": "デイサービスぱんどらのはこ",
    "kana": "デイサービスパンドラノハコ",
    "address": "徳島県鳴門市撫養町弁財天字ハマ１１－１",
    "lat": 34.1799505750738,
    "lng": 134.616544560049,
    "tel": "088-660-6901",
    "url": "",
    "pref": "徳島県",
    "city": "鳴門市",
    "category": "community_day_service",
    "serviceType": "地域密着型通所介護",
    "capacity": 8,
    "openDays": [
      "平日",
      "土曜日",
      "日曜日",
      "祝日"
    ],
    "openDaysNote": ""
  },
  {
    "id": "3690200112",
    "name": "デイサービス奈桜",
    "kana": "デイサービスナオ",
    "address": "徳島県鳴門市撫養町斎田字西発11番地2",
    "lat": 34.171988964682,
    "lng": 134.60216882209,
    "tel": "088-678-8247",
    "url": "",
    "pref": "徳島県",
    "city": "鳴門市",
    "category": "community_day_service",
    "serviceType": "地域密着型通所介護",
    "capacity": 0,
    "openDays": [
      "平日",
      "土曜日",
      "日曜日",
      "祝日"
    ],
    "openDaysNote": "年末年始（12月29日から1月3日まで）は休業致します。"
  },
  {
    "id": "3690200138",
    "name": "はーとデイサービス",
    "kana": "ハートデイサービス",
    "address": "鳴門町高島字浜中205番地",
    "lat": 34.2065515,
    "lng": 134.5918683,
    "tel": "088-687-3515",
    "url": "",
    "pref": "徳島県",
    "city": "鳴門市",
    "category": "community_day_service",
    "serviceType": "地域密着型通所介護",
    "capacity": 18,
    "openDays": [
      "平日",
      "祝日"
    ],
    "openDaysNote": ""
  },
  {
    "id": "3670200769",
    "name": "リハビリ型ディサービス　ヒューマニー",
    "kana": "リハビリガタ　ディサービス　ヒューマニー",
    "address": "徳島県鳴門市撫養町斎田字北浜37-5中野ビル1階 中野ビル1階",
    "lat": 34.1778237,
    "lng": 134.6054638,
    "tel": "088-685-7374",
    "url": "URL:www.humany.biz",
    "pref": "徳島県",
    "city": "鳴門市",
    "category": "community_day_service",
    "serviceType": "地域密着型通所介護",
    "capacity": 0,
    "openDays": [
      "平日",
      "祝日"
    ],
    "openDaysNote": "従業者看護師と機能訓練指導員兼務（改行）管理者と生活相談員兼務（改行）利用者が機能訓練を実施する場合は、職員立会いのもとで使用することまた、体調が思わしくない利用者にはその旨を説明し安全指導を図る。"
  },
  {
    "id": "3670200942",
    "name": "レッツ倶楽部鳴門",
    "kana": "レッツクラブナルト",
    "address": "徳島県鳴門市撫養町小桑島字前浜58",
    "lat": 34.178617,
    "lng": 134.6068333,
    "tel": "088-679-7657",
    "url": "",
    "pref": "徳島県",
    "city": "鳴門市",
    "category": "community_day_service",
    "serviceType": "地域密着型通所介護",
    "capacity": null,
    "openDays": [
      "平日",
      "土曜日",
      "祝日"
    ],
    "openDaysNote": "盆、正月は休日有り"
  },
  {
    "id": "3670200991",
    "name": "株式会社楓雅　デイサービスどんぐり",
    "kana": "カブシキカイシャ　フウガ　デイサービス　ドングリ",
    "address": "徳島県鳴門市撫養町黒崎字八幡６８－6",
    "lat": 34.1843272,
    "lng": 134.5977985,
    "tel": "088－684－1371",
    "url": "",
    "pref": "徳島県",
    "city": "鳴門市",
    "category": "community_day_service",
    "serviceType": "地域密着型通所介護",
    "capacity": 16,
    "openDays": [
      "平日",
      "土曜日",
      "祝日"
    ],
    "openDaysNote": ""
  },
  {
    "id": "3690200153",
    "name": "社会福祉法人緑会　デイサービス斎田",
    "kana": "シャカイフクシホウジンミドリカイ　デイサービスサイタ",
    "address": "徳島県鳴門市撫養町斎田字浜端南106",
    "lat": 34.1776072,
    "lng": 134.6039575,
    "tel": "088-676-3700",
    "url": "midorikai-naruto.jp",
    "pref": "徳島県",
    "city": "鳴門市",
    "category": "community_day_service",
    "serviceType": "地域密着型通所介護",
    "capacity": null,
    "openDays": [
      "平日",
      "祝日"
    ],
    "openDaysNote": "1/1～1/3迄　休み"
  },
  {
    "id": "3670200801",
    "name": "通所介護事業所　たんぽぽはうす",
    "kana": "ツウショカイゴジギョウショ　タンポポハウス",
    "address": "徳島県鳴門市大麻町姫田字久保ノ内26-18",
    "lat": 34.1649227,
    "lng": 134.5577517,
    "tel": "088-686-0670",
    "url": "",
    "pref": "徳島県",
    "city": "鳴門市",
    "category": "community_day_service",
    "serviceType": "地域密着型通所介護",
    "capacity": 0,
    "openDays": [
      "平日",
      "土曜日",
      "祝日"
    ],
    "openDaysNote": ""
  },
  {
    "id": "3690200096",
    "name": "緑会デイサービスセンター",
    "kana": "ミドリカイデイサービスセンター",
    "address": "徳島県鳴門市鳴門町三ツ石字江尻山74番地",
    "lat": 34.1976428,
    "lng": 134.6050545,
    "tel": "088-687-1136",
    "url": "http://www.carehouse-naruto.jp/",
    "pref": "徳島県",
    "city": "鳴門市",
    "category": "community_day_service",
    "serviceType": "地域密着型通所介護",
    "capacity": null,
    "openDays": [
      "平日",
      "土曜日",
      "祝日"
    ],
    "openDaysNote": ""
  },
  {
    "id": "3671501322",
    "name": "デイサービスかるがも苑",
    "kana": "デイサービスカルガモエン",
    "address": "徳島県板野郡藍住町奥野字乾４０－３",
    "lat": 34.1295748,
    "lng": 134.4905859,
    "tel": "088-692-3690",
    "url": "",
    "pref": "徳島県",
    "city": "藍住町",
    "category": "community_day_service",
    "serviceType": "地域密着型通所介護",
    "capacity": 9,
    "openDays": [
      "平日",
      "土曜日",
      "祝日"
    ],
    "openDaysNote": ""
  },
  {
    "id": "3671501629",
    "name": "デイサービスセンターかのん",
    "kana": "デイサービスセンターカノン",
    "address": "徳島県板野郡藍住町住吉字藤ノ木61番地1",
    "lat": 34.1262779478704,
    "lng": 134.504093319758,
    "tel": "088-692-2292",
    "url": "",
    "pref": "徳島県",
    "city": "藍住町",
    "category": "community_day_service",
    "serviceType": "地域密着型通所介護",
    "capacity": 0,
    "openDays": [
      "平日",
      "土曜日",
      "祝日"
    ],
    "openDaysNote": ""
  },
  {
    "id": "3691500080",
    "name": "デイサービスセンター藍",
    "kana": "デイサービスセンターアイ",
    "address": "徳島県板野郡藍住町乙瀬字中田98-20",
    "lat": 34.1393096,
    "lng": 134.4971595,
    "tel": "088-637-3011",
    "url": "http://www.ryoun.com/",
    "pref": "徳島県",
    "city": "藍住町",
    "category": "community_day_service",
    "serviceType": "地域密着型通所介護",
    "capacity": 18,
    "openDays": [
      "平日",
      "土曜日",
      "祝日"
    ],
    "openDaysNote": ""
  }
]