[
  {
    "id": "3874000692",
    "name": "デイサービス　諏訪の杜",
    "kana": "デイサービス　スワノモリ",
    "address": "愛媛県南宇和郡愛南町城辺甲2060番地１",
    "lat": 32.9600616,
    "lng": 132.5809882,
    "tel": "０８９５－７３－２３４９",
    "url": "",
    "pref": "愛媛県",
    "city": "愛南町",
    "category": "community_day_service",
    "serviceType": "地域密着型通所介護",
    "capacity": 15,
    "openDays": [
      "平日",
      "土曜日",
      "祝日"
    ],
    "openDaysNote": "利用者様のご希望により延長も可能。"
  },
  {
    "id": "3874000791",
    "name": "デイサービスセンターハピネス",
    "kana": "デイサービスセンターハピネス",
    "address": "愛媛県南宇和郡愛南町緑甲697-1",
    "lat": 32.9765558,
    "lng": 132.6084467,
    "tel": "0895-73-7172",
    "url": "",
    "pref": "愛媛県",
    "city": "愛南町",
    "category": "community_day_service",
    "serviceType": "地域密着型通所介護",
    "capacity": 0,
    "openDays": [
      "平日",
      "祝日"
    ],
    "openDaysNote": ""
  },
  {
    "id": "3874000239",
    "name": "デイサービス施設一本松荘",
    "kana": "デイサービスシセツイッポンマツソウ",
    "address": "愛媛県南宇和郡愛南町中川1438番地1",
    "lat": 32.9566424,
    "lng": 132.6448418,
    "tel": "0895-84-3588",
    "url": "http://www.nanpu.or.jp/",
    "pref": "愛媛県",
    "city": "愛南町",
    "category": "community_day_service",
    "serviceType": "地域密着型通所介護",
    "capacity": 0,
    "openDays": [
      "平日"
    ],
    "openDaysNote": "特にありません。"
  },
  {
    "id": "3874000247",
    "name": "デイサービス施設城辺みしま荘",
    "kana": "デイサービスシセツジョウヘンミシマソウ",
    "address": "愛媛県南宇和郡愛南町城辺乙561番地",
    "lat": 32.9637832,
    "lng": 132.5782689,
    "tel": "0895-70-1175",
    "url": "",
    "pref": "愛媛県",
    "city": "愛南町",
    "category": "community_day_service",
    "serviceType": "地域密着型通所介護",
    "capacity": 0,
    "openDays": [
      "平日"
    ],
    "openDaysNote": "なし。"
  },
  {
    "id": "3874000338",
    "name": "デイサービス施設柏寿園",
    "kana": "デイサービスシセツハクジュエン",
    "address": "愛媛県南宇和郡愛南町柏1542番地1",
    "lat": 33.0227204,
    "lng": 132.5046808,
    "tel": "0895-85-0008",
    "url": "https://www.nanpu.or.jp/gyosei/tokuyo.html",
    "pref": "愛媛県",
    "city": "愛南町",
    "category": "community_day_service",
    "serviceType": "地域密着型通所介護",
    "capacity": 18,
    "openDays": [
      "平日"
    ],
    "openDaysNote": "特になし"
  },
  {
    "id": "3874000783",
    "name": "リハプライド・愛南",
    "kana": "リハプライド　アイナン",
    "address": "愛媛県南宇和郡愛南町城辺甲2575番地4",
    "lat": 32.9624698,
    "lng": 132.5858653,
    "tel": "0895-73-7210",
    "url": "",
    "pref": "愛媛県",
    "city": "愛南町",
    "category": "community_day_service",
    "serviceType": "地域密着型通所介護",
    "capacity": 10,
    "openDays": [
      "平日",
      "土曜日",
      "祝日"
    ],
    "openDaysNote": "土曜日の利用は午前中のみ"
  },
  {
    "id": "3874000502",
    "name": "愛南町社協指定通所介護事業所",
    "kana": "アイナンチョウシャキョウシテイツウショカイゴジギョウショ",
    "address": "愛媛県南宇和郡愛南町樫月212番1",
    "lat": 32.9521025,
    "lng": 132.5171346,
    "tel": "0895-82-0067",
    "url": "http://www.ainan-shakyo.or.jp/",
    "pref": "愛媛県",
    "city": "愛南町",
    "category": "community_day_service",
    "serviceType": "地域密着型通所介護",
    "capacity": null,
    "openDays": [
      "平日",
      "土曜日",
      "祝日"
    ],
    "openDaysNote": "特になし。"
  },
  {
    "id": "3874000619",
    "name": "指定通所介護事業所　あいなんの里",
    "kana": "シテイツウショカイゴジギョウショ　アイナンノサト",
    "address": "愛媛県南宇和郡愛南町城辺甲211番地3",
    "lat": 32.9588723,
    "lng": 132.5706118,
    "tel": "0895-72-1377",
    "url": "",
    "pref": "愛媛県",
    "city": "愛南町",
    "category": "community_day_service",
    "serviceType": "地域密着型通所介護",
    "capacity": 0,
    "openDays": [
      "平日",
      "祝日"
    ],
    "openDaysNote": "特にありません"
  },
  {
    "id": "3871000679",
    "name": "デイサービス　あいらんど上野",
    "kana": "デイサービス　アイランドウエノ",
    "address": "愛媛県伊予市上野1267番地",
    "lat": 33.7756195,
    "lng": 132.7517517,
    "tel": "089-995-8850",
    "url": "",
    "pref": "愛媛県",
    "city": "伊予市",
    "category": "community_day_service",
    "serviceType": "地域密着型通所介護",
    "capacity": 0,
    "openDays": [
      "平日",
      "日曜日",
      "祝日"
    ],
    "openDaysNote": ""
  },
  {
    "id": "3871000471",
    "name": "デイサービスごしき",
    "kana": "デイサービスゴシキ",
    "address": "愛媛県伊予市米湊736-3",
    "lat": 33.7579181,
    "lng": 132.7044069,
    "tel": "089-983-4433",
    "url": "",
    "pref": "愛媛県",
    "city": "伊予市",
    "category": "community_day_service",
    "serviceType": "地域密着型通所介護",
    "capacity": 18,
    "openDays": [
      "平日",
      "土曜日",
      "祝日"
    ],
    "openDaysNote": "特にありません。"
  },
  {
    "id": "3871000661",
    "name": "リビングデイ　陽だまりの家",
    "kana": "リビングデイ　ヒダマリノイエ",
    "address": "愛媛県伊予市下吾川1411番地1",
    "lat": 33.7651922,
    "lng": 132.7042235,
    "tel": "899824475",
    "url": "www.npo-ls-ai.com",
    "pref": "愛媛県",
    "city": "伊予市",
    "category": "community_day_service",
    "serviceType": "地域密着型通所介護",
    "capacity": 10,
    "openDays": [
      "平日",
      "土曜日",
      "祝日"
    ],
    "openDaysNote": ""
  },
  {
    "id": "3873500387",
    "name": "指定通所介護事業所　佐礼谷",
    "kana": "シテイツウショカイゴジギョウショ　サレダニ",
    "address": "愛媛県伊予市中山町佐礼谷甲1121番地１",
    "lat": 33.6822822637385,
    "lng": 132.72082518815,
    "tel": "089-968-0600",
    "url": "http://www.koubaien-b.jp/",
    "pref": "愛媛県",
    "city": "伊予市",
    "category": "community_day_service",
    "serviceType": "地域密着型通所介護",
    "capacity": 0,
    "openDays": [
      "平日",
      "土曜日",
      "祝日"
    ],
    "openDaysNote": "特になし"
  },
  {
    "id": "3871000497",
    "name": "指定通所介護事業所　野中",
    "kana": "シテイツウショカイゴジギョウショ　ノナカ",
    "address": "愛媛県伊予市中山町出渕3番耕地21番地",
    "lat": 33.6405568,
    "lng": 132.7103797,
    "tel": "089-967-5610",
    "url": "http://www.koubaien-b.jp/",
    "pref": "愛媛県",
    "city": "伊予市",
    "category": "community_day_service",
    "serviceType": "地域密着型通所介護",
    "capacity": 0,
    "openDays": [
      "平日",
      "土曜日",
      "日曜日",
      "祝日"
    ],
    "openDaysNote": "特になし"
  },
  {
    "id": "3891000113",
    "name": "宅老所かざぐるま",
    "kana": "タクロウショカザグルマ",
    "address": "愛媛県伊予市灘町22番地",
    "lat": 33.7588480272752,
    "lng": 132.70213225582,
    "tel": "089-994-8303",
    "url": "",
    "pref": "愛媛県",
    "city": "伊予市",
    "category": "community_day_service",
    "serviceType": "地域密着型通所介護",
    "capacity": 15,
    "openDays": [
      "平日"
    ],
    "openDaysNote": ""
  },
  {
    "id": "3871000315",
    "name": "宅老所ほほえみ",
    "kana": "タクロウショ　ホホエミ",
    "address": "愛媛県伊予市大平乙215-9",
    "lat": 33.7114378,
    "lng": 132.7106704,
    "tel": "089-983-5392",
    "url": "",
    "pref": "愛媛県",
    "city": "伊予市",
    "category": "community_day_service",
    "serviceType": "地域密着型通所介護",
    "capacity": 10,
    "openDays": [
      "平日",
      "土曜日",
      "日曜日",
      "祝日"
    ],
    "openDaysNote": "サ－ビス提供時間は上記。早朝、延長にも対応中。朝食、夕食も必要な方には対応中。"
  },
  {
    "id": "3870301821",
    "name": "デイサ－ビスひまわり",
    "kana": "デイサ-ビスヒマワリ",
    "address": "明倫町５丁目５番１３号明倫ビル 明倫ビル",
    "lat": 33.2178014989318,
    "lng": 132.556592352493,
    "tel": "0895-24-0240",
    "url": "",
    "pref": "愛媛県",
    "city": "宇和島市",
    "category": "community_day_service",
    "serviceType": "地域密着型通所介護",
    "capacity": 0,
    "openDays": [
      "平日",
      "土曜日",
      "日曜日",
      "祝日"
    ],
    "openDaysNote": "１２月２９日～１月３日　間　　休業"
  },
  {
    "id": "3870301516",
    "name": "デイサービス　えん",
    "kana": "デイサービス　エン",
    "address": "愛媛県宇和島市丸之内２－１－７２F ２F",
    "lat": 33.2169523544808,
    "lng": 132.565021169312,
    "tel": "0895-22-0401",
    "url": "http://cc-uwajima.jp",
    "pref": "愛媛県",
    "city": "宇和島市",
    "category": "community_day_service",
    "serviceType": "地域密着型通所介護",
    "capacity": 18,
    "openDays": [
      "平日",
      "土曜日"
    ],
    "openDaysNote": ""
  },
  {
    "id": "3870301284",
    "name": "デイサービス　くつろぎの庭",
    "kana": "デイサービス　クツロギノニワ",
    "address": "愛媛県宇和島市伊吹町689",
    "lat": 33.2339283,
    "lng": 132.5731952,
    "tel": "0895-22-4194",
    "url": "",
    "pref": "愛媛県",
    "city": "宇和島市",
    "category": "community_day_service",
    "serviceType": "地域密着型通所介護",
    "capacity": 10,
    "openDays": [
      "平日"
    ],
    "openDaysNote": ""
  },
  {
    "id": "3870301201",
    "name": "デイサービスセンター　あいか",
    "kana": "デイサービスセンター　アイカ",
    "address": "愛媛県宇和島市高串2番耕地191番地1",
    "lat": 33.2443966,
    "lng": 132.5714204,
    "tel": "0895-26-2018",
    "url": "",
    "pref": "愛媛県",
    "city": "宇和島市",
    "category": "community_day_service",
    "serviceType": "地域密着型通所介護",
    "capacity": 10,
    "openDays": [
      "平日",
      "祝日"
    ],
    "openDaysNote": "必要時には営業いたします。"
  },
  {
    "id": "3870301409",
    "name": "デイサービスセンター　未来まるお",
    "kana": "デイサービスセンター　ミライマルオ",
    "address": "愛媛県宇和島市丸穂町１丁目９番３０号",
    "lat": 33.2232184,
    "lng": 132.5805695,
    "tel": "0895－23－3300",
    "url": "http//www.mirai-uwajima.com/",
    "pref": "愛媛県",
    "city": "宇和島市",
    "category": "community_day_service",
    "serviceType": "地域密着型通所介護",
    "capacity": 10,
    "openDays": [
      "平日",
      "土曜日",
      "祝日"
    ],
    "openDaysNote": ""
  },
  {
    "id": "3870301763",
    "name": "デイサービスセンター海",
    "kana": "デイサービスセンターウミ",
    "address": "愛媛県宇和島市吉田町立間尻甲１９３１番地",
    "lat": 33.2785171377556,
    "lng": 132.537303738068,
    "tel": "0895-52-7227",
    "url": "",
    "pref": "愛媛県",
    "city": "宇和島市",
    "category": "community_day_service",
    "serviceType": "地域密着型通所介護",
    "capacity": 15,
    "openDays": [
      "平日",
      "土曜日",
      "日曜日",
      "祝日"
    ],
    "openDaysNote": ""
  },
  {
    "id": "3870301789",
    "name": "デイサービスぼちぼち",
    "kana": "デイサービスボチボチ",
    "address": "高串3番耕地359番1",
    "lat": 33.2653743,
    "lng": 132.5653325,
    "tel": "0895-24-5656",
    "url": "https://www.big-advance.site/c/150/1434",
    "pref": "愛媛県",
    "city": "宇和島市",
    "category": "community_day_service",
    "serviceType": "地域密着型通所介護",
    "capacity": 12,
    "openDays": [
      "平日",
      "土曜日",
      "日曜日",
      "祝日"
    ],
    "openDaysNote": "特になし。"
  },
  {
    "id": "3870301995",
    "name": "デイサービス愛顔",
    "kana": "デイサービスエガオ",
    "address": "愛媛県宇和島市津島町高田甲2016",
    "lat": 33.1446871,
    "lng": 132.5243403,
    "tel": "0895-32-1900",
    "url": "http://kibou-e.jp/egao-house/",
    "pref": "愛媛県",
    "city": "宇和島市",
    "category": "community_day_service",
    "serviceType": "地域密着型通所介護",
    "capacity": 0,
    "openDays": [
      "平日"
    ],
    "openDaysNote": ""
  },
  {
    "id": "3870301029",
    "name": "デイサービス紙ふうせん",
    "kana": "デイサービスカミフウセン",
    "address": "愛媛県宇和島市三間町成家845番地デイサービス紙ふうせん デイサービス紙ふうせん",
    "lat": 33.2964275,
    "lng": 132.5935445,
    "tel": "0895-20-7675",
    "url": "https://angelhouse.co.jp",
    "pref": "愛媛県",
    "city": "宇和島市",
    "category": "community_day_service",
    "serviceType": "地域密着型通所介護",
    "capacity": 0,
    "openDays": [
      "平日",
      "土曜日",
      "祝日"
    ],
    "openDaysNote": "年末年始　　1/1～1/3休日"
  },
  {
    "id": "3890300290",
    "name": "デイホーム土屋　宇和島",
    "kana": "デイホームツチヤ　ウワジマ",
    "address": "愛媛県宇和島市保田甲1916-1",
    "lat": 33.1858133040473,
    "lng": 132.541029426839,
    "tel": "0895-27-3310",
    "url": "https://day-tsuchiya.com/day-uwajima/",
    "pref": "愛媛県",
    "city": "宇和島市",
    "category": "community_day_service",
    "serviceType": "地域密着型通所介護",
    "capacity": 18,
    "openDays": [
      "平日",
      "土曜日",
      "祝日"
    ],
    "openDaysNote": "年末年始の稼働もあり"
  },
  {
    "id": "3870302001",
    "name": "ほっとステーションきらり",
    "kana": "ホットステーション　キラリ",
    "address": "三間町黒井地1594－23",
    "lat": 33.3066266,
    "lng": 132.5995324,
    "tel": "0895－58－1120",
    "url": "",
    "pref": "愛媛県",
    "city": "宇和島市",
    "category": "community_day_service",
    "serviceType": "地域密着型通所介護",
    "capacity": 15,
    "openDays": [
      "平日",
      "土曜日",
      "日曜日",
      "祝日"
    ],
    "openDaysNote": ""
  },
  {
    "id": "3870301359",
    "name": "ランチデイ　さいさい",
    "kana": "ランチデイ　サイサイ",
    "address": "愛媛県宇和島市津島町下畑地甲１５９４番地",
    "lat": 33.0932368,
    "lng": 132.51632,
    "tel": "0895-32-3200",
    "url": "http://hp.kaipoke.biz/r95/",
    "pref": "愛媛県",
    "city": "宇和島市",
    "category": "community_day_service",
    "serviceType": "地域密着型通所介護",
    "capacity": 0,
    "openDays": [
      "平日",
      "祝日"
    ],
    "openDaysNote": ""
  },
  {
    "id": "3870301078",
    "name": "社会福祉法人　正和会　デイサービスセンターやすらぎ",
    "kana": "シャカイフクシホウジン　ショウワカイ　デイサービスセンターヤスラギ",
    "address": "愛媛県宇和島市蛤95番地3",
    "lat": 33.2285031,
    "lng": 132.5331566,
    "tel": "0895-22-6655",
    "url": "http://shouwakai.jp/",
    "pref": "愛媛県",
    "city": "宇和島市",
    "category": "community_day_service",
    "serviceType": "地域密着型通所介護",
    "capacity": 18,
    "openDays": [
      "平日",
      "土曜日"
    ],
    "openDaysNote": "特になし。"
  },
  {
    "id": "3870301003",
    "name": "地域密着型通所介護事業所ますほの里",
    "kana": "チイキミッチャクガタツウショカイゴジギョウショ　マスホノサト",
    "address": "愛媛県宇和島市津島町高田甲2920-1",
    "lat": 33.1305664,
    "lng": 132.524424,
    "tel": "0895-20-8110",
    "url": "",
    "pref": "愛媛県",
    "city": "宇和島市",
    "category": "community_day_service",
    "serviceType": "地域密着型通所介護",
    "capacity": 0,
    "openDays": [
      "平日",
      "土曜日",
      "祝日"
    ],
    "openDaysNote": "特にありません"
  },
  {
    "id": "3870301888",
    "name": "通所介護　　すみれ",
    "kana": "ツウショカイゴ　　スミレ",
    "address": "愛媛県宇和島市伊吹町甲３６７番地１サービス付き高齢者向け住宅　すみれ サービス付き高齢者向け住宅　すみれ",
    "lat": 33.2354435332839,
    "lng": 132.578358203041,
    "tel": "0895-22-6602",
    "url": "",
    "pref": "愛媛県",
    "city": "宇和島市",
    "category": "community_day_service",
    "serviceType": "地域密着型通所介護",
    "capacity": 18,
    "openDays": [
      "平日",
      "土曜日",
      "祝日"
    ],
    "openDaysNote": ""
  },
  {
    "id": "3890300274",
    "name": "通所介護　丸三",
    "kana": "ツウウショカイゴ　マルサン",
    "address": "愛媛県宇和島市天神町4-5",
    "lat": 33.2265419664714,
    "lng": 132.569931274622,
    "tel": "0895-23-7770",
    "url": "",
    "pref": "愛媛県",
    "city": "宇和島市",
    "category": "community_day_service",
    "serviceType": "地域密着型通所介護",
    "capacity": null,
    "openDays": [
      "平日",
      "土曜日"
    ],
    "openDaysNote": "ただし、お盆8月13日から15日、年末年始12月31日から1月3日は、（改行）休業致します。"
  },
  {
    "id": "3870300955",
    "name": "通所介護事業所おひさま",
    "kana": "ツウショカイゴジギョウショオヒサマ",
    "address": "愛媛県宇和島市三間町大内123番地1通所介護事業所・宅老所　おひさま 通所介護事業所・宅老所　おひさま",
    "lat": 33.2860740241252,
    "lng": 132.645157810451,
    "tel": "0895-58-4641",
    "url": "",
    "pref": "愛媛県",
    "city": "宇和島市",
    "category": "community_day_service",
    "serviceType": "地域密着型通所介護",
    "capacity": 10,
    "openDays": [
      "平日",
      "土曜日",
      "日曜日",
      "祝日"
    ],
    "openDaysNote": "特にありません。"
  },
  {
    "id": "3890300209",
    "name": "有限会社ひだまりの会　地域密着型通所介護事業所ながぼり",
    "kana": "ユウゲンガイシャヒダマリノカイ　チイキミッチャクガタツウショカイゴジギョウショ　ナガボリ",
    "address": "愛媛県宇和島市長堀3丁目8-6",
    "lat": 33.207167,
    "lng": 132.551442,
    "tel": "0895-23-3128",
    "url": "https://hidamari6200.com",
    "pref": "愛媛県",
    "city": "宇和島市",
    "category": "community_day_service",
    "serviceType": "地域密着型通所介護",
    "capacity": 0,
    "openDays": [
      "平日",
      "土曜日",
      "日曜日",
      "祝日"
    ],
    "openDaysNote": "1/1・1/2はお休み"
  },
  {
    "id": "3873900892",
    "name": "デイサービスおれんじ",
    "kana": "デイサービスオレンジ",
    "address": "愛媛県北宇和郡鬼北町大字国遠1440番地1",
    "lat": 33.2604053022408,
    "lng": 132.682946479762,
    "tel": "0895-49-1580",
    "url": "",
    "pref": "愛媛県",
    "city": "鬼北町",
    "category": "community_day_service",
    "serviceType": "地域密着型通所介護",
    "capacity": 0,
    "openDays": [
      "平日",
      "土曜日",
      "日曜日",
      "祝日"
    ],
    "openDaysNote": ""
  },
  {
    "id": "3873900850",
    "name": "デイサービス山茶花",
    "kana": "デイサービス　サザンカ",
    "address": "北宇和郡鬼北町大字清延９３３番地１",
    "lat": 33.2579012,
    "lng": 132.6725464,
    "tel": "０８９５－４５－３３３０",
    "url": "",
    "pref": "愛媛県",
    "city": "鬼北町",
    "category": "community_day_service",
    "serviceType": "地域密着型通所介護",
    "capacity": 17,
    "openDays": [
      "平日",
      "土曜日",
      "日曜日",
      "祝日"
    ],
    "openDaysNote": ""
  },
  {
    "id": "3873900397",
    "name": "デイサービス施設ひろみ奈良の里",
    "kana": "デイサービスシセツヒロミナラノサト",
    "address": "愛媛県北宇和郡鬼北町大字奈良2067番地",
    "lat": 33.2512321,
    "lng": 132.6574255,
    "tel": "0895-45-3800",
    "url": "https://www.nanpu.or.jp/",
    "pref": "愛媛県",
    "city": "鬼北町",
    "category": "community_day_service",
    "serviceType": "地域密着型通所介護",
    "capacity": 0,
    "openDays": [
      "平日"
    ],
    "openDaysNote": "施設長が必要と認めたときは、営業日の変更又は臨時に休業することがあります。"
  },
  {
    "id": "3873900744",
    "name": "デイホームよしふじ",
    "kana": "デイホームヨシフジ",
    "address": "愛媛県北宇和郡鬼北町大字東仲1016,1019番地",
    "lat": 33.2676967,
    "lng": 132.6541314,
    "tel": "0895-45-2222",
    "url": "http://www.care-village.jp/",
    "pref": "愛媛県",
    "city": "鬼北町",
    "category": "community_day_service",
    "serviceType": "地域密着型通所介護",
    "capacity": 0,
    "openDays": [
      "平日",
      "土曜日",
      "日曜日",
      "祝日"
    ],
    "openDaysNote": "特にありません。"
  },
  {
    "id": "3873900926",
    "name": "もも太郎",
    "kana": "モモタロウ",
    "address": "愛媛県北宇和郡鬼北町大字近永３５３番地１",
    "lat": 33.2568624,
    "lng": 132.6719936,
    "tel": "0895-49-6871",
    "url": "https://kihoku-momotaro.jp/",
    "pref": "愛媛県",
    "city": "鬼北町",
    "category": "community_day_service",
    "serviceType": "地域密着型通所介護",
    "capacity": 0,
    "openDays": [
      "平日",
      "土曜日"
    ],
    "openDaysNote": "単位１　　９：００～１２：１０　　定員１０人（改行）単位２　１３：３０～１６：４０　　定員１０人"
  },
  {
    "id": "3873400414",
    "name": "デイサービスセンターおもご",
    "kana": "デイサービスセンターオモゴ",
    "address": "愛媛県上浮穴郡久万高原町渋草2310番地おもご高齢者生活支援ハウス おもご高齢者生活支援ハウス",
    "lat": 33.6881627,
    "lng": 133.0332526,
    "tel": "0892-50-1833",
    "url": "http://www.kumakougen-shakyo.or.jp/",
    "pref": "愛媛県",
    "city": "久万高原町",
    "category": "community_day_service",
    "serviceType": "地域密着型通所介護",
    "capacity": 18,
    "openDays": [
      "平日",
      "祝日"
    ],
    "openDaysNote": "なし"
  },
  {
    "id": "3893400055",
    "name": "美川デイサービスセンター",
    "kana": "ミカワデイサービスセンター",
    "address": "愛媛県上浮穴郡久万高原町上黒岩2920番地1",
    "lat": 33.6144018,
    "lng": 132.9763305,
    "tel": "0892-56-0750",
    "url": "http://www.kumakougen-shakyo.or.jp",
    "pref": "愛媛県",
    "city": "久万高原町",
    "category": "community_day_service",
    "serviceType": "地域密着型通所介護",
    "capacity": null,
    "openDays": [
      "平日",
      "祝日"
    ],
    "openDaysNote": "営業日：月曜日から金曜日までとする。（但し、春の大型連休、夏季休業、年末年始を除く）"
  },
  {
    "id": "3870201245",
    "name": "アクティブライフ　デイサービスハウス夢",
    "kana": "アクティブライフデイサービスハウスユメ",
    "address": "愛媛県今治市阿方甲１８３－１",
    "lat": 34.061982118496,
    "lng": 132.973551164373,
    "tel": "0898-34-7525",
    "url": "",
    "pref": "愛媛県",
    "city": "今治市",
    "category": "community_day_service",
    "serviceType": "地域密着型通所介護",
    "capacity": 0,
    "openDays": [
      "平日",
      "祝日"
    ],
    "openDaysNote": ""
  },
  {
    "id": "3870202276",
    "name": "いよ路サロン",
    "kana": "イヨジサロン",
    "address": "愛媛県今治市鯉池町１丁目２番２２号",
    "lat": 34.0533713,
    "lng": 132.9881027,
    "tel": "0898-25-2552",
    "url": "http://care-net.biz/38/iyoji/",
    "pref": "愛媛県",
    "city": "今治市",
    "category": "community_day_service",
    "serviceType": "地域密着型通所介護",
    "capacity": 18,
    "openDays": [
      "平日",
      "祝日"
    ],
    "openDaysNote": "1/1～1/3　休み"
  },
  {
    "id": "3870201344",
    "name": "ウェルすまいる",
    "kana": "ウェルスマイル",
    "address": "愛媛県今治市恵美須町2-2-1",
    "lat": 34.0662929,
    "lng": 133.0053478,
    "tel": "0898-22-2313",
    "url": "http://www.welcare.ne.jp/",
    "pref": "愛媛県",
    "city": "今治市",
    "category": "community_day_service",
    "serviceType": "地域密着型通所介護",
    "capacity": 0,
    "openDays": [
      "平日",
      "祝日"
    ],
    "openDaysNote": "特にありません。"
  },
  {
    "id": "3870202326",
    "name": "デイサービス　みのり",
    "kana": "デイサービス　ミノリ",
    "address": "愛媛県今治市上徳甲717-1",
    "lat": 34.0396288009212,
    "lng": 133.012982513804,
    "tel": "0898-55-8363",
    "url": "",
    "pref": "愛媛県",
    "city": "今治市",
    "category": "community_day_service",
    "serviceType": "地域密着型通所介護",
    "capacity": 0,
    "openDays": [
      "平日",
      "土曜日",
      "祝日"
    ],
    "openDaysNote": ""
  },
  {
    "id": "3890200755",
    "name": "デイサービス　リーフガーデンあさくら",
    "kana": "デイサービス　リーフガーデンアサクラ",
    "address": "愛媛県今治市朝倉下乙102番2",
    "lat": 34.0011922,
    "lng": 133.0054615,
    "tel": "0898-56-1300",
    "url": "http://www.hirose-youseikai.org",
    "pref": "愛媛県",
    "city": "今治市",
    "category": "community_day_service",
    "serviceType": "地域密着型通所介護",
    "capacity": 0,
    "openDays": [
      "平日",
      "土曜日",
      "祝日"
    ],
    "openDaysNote": ""
  },
  {
    "id": "3890200557",
    "name": "デイサービス　リハビリベース多喜力",
    "kana": "デイサービス　リハビリベースタキリョク",
    "address": "愛媛県今治市波方町樋口甲2158番地6",
    "lat": 34.1025756708553,
    "lng": 132.9587406,
    "tel": "(0898)　43－800",
    "url": "https://www.takiryoku.com",
    "pref": "愛媛県",
    "city": "今治市",
    "category": "community_day_service",
    "serviceType": "地域密着型通所介護",
    "capacity": 0,
    "openDays": [
      "平日",
      "土曜日"
    ],
    "openDaysNote": ""
  },
  {
    "id": "3870202250",
    "name": "デイサービスいろは",
    "kana": "デイサービスイロハ",
    "address": "愛媛県今治市延喜甲１３３",
    "lat": 34.0666921,
    "lng": 132.9607414,
    "tel": "0898-35-5002",
    "url": "",
    "pref": "愛媛県",
    "city": "今治市",
    "category": "community_day_service",
    "serviceType": "地域密着型通所介護",
    "capacity": 0,
    "openDays": [
      "平日",
      "土曜日",
      "日曜日",
      "祝日"
    ],
    "openDaysNote": ""
  },
  {
    "id": "3890200698",
    "name": "デイサービスセンターオリーブ",
    "kana": "デイサービスセンターオリーブ",
    "address": "愛媛県今治市大西町紺原甲８２８番地１",
    "lat": 34.066967,
    "lng": 132.938358,
    "tel": "０８９８－５３ー３６０１",
    "url": "https://oonishiclinic.com",
    "pref": "愛媛県",
    "city": "今治市",
    "category": "community_day_service",
    "serviceType": "地域密着型通所介護",
    "capacity": 0,
    "openDays": [
      "平日",
      "祝日"
    ],
    "openDaysNote": "サービス提供時間　月～金　9：00～16：00"
  },
  {
    "id": "3870201666",
    "name": "デイサービスセンターはなみずき",
    "kana": "デイサービスセンターハナミズキ",
    "address": "愛媛県今治市伯方町北浦甲2458番地",
    "lat": 34.2298773,
    "lng": 133.094229,
    "tel": "0897-73-0333",
    "url": "",
    "pref": "愛媛県",
    "city": "今治市",
    "category": "community_day_service",
    "serviceType": "地域密着型通所介護",
    "capacity": 0,
    "openDays": [
      "平日",
      "土曜日",
      "祝日"
    ],
    "openDaysNote": "なし。"
  },
  {
    "id": "3870200312",
    "name": "デイサービスセンターみどりの郷",
    "kana": "デイサービスセンターミドリノサト",
    "address": "愛媛県今治市上徳甲１１０番地１",
    "lat": 34.0400992,
    "lng": 133.0145824,
    "tel": "0898-48-6106",
    "url": "https://www.kiharabyouin.jp/midori/",
    "pref": "愛媛県",
    "city": "今治市",
    "category": "community_day_service",
    "serviceType": "地域密着型通所介護",
    "capacity": null,
    "openDays": [
      "平日",
      "土曜日",
      "祝日"
    ],
    "openDaysNote": ""
  },
  {
    "id": "3890200730",
    "name": "デイサービスたんぽぽ",
    "kana": "デイサービスタンポポ",
    "address": "愛媛県今治市桜井4丁目6番52号ハートウォーミングライフ志々満内 ハートウォーミングライフ志々満内",
    "lat": 34.0166764,
    "lng": 133.0402849,
    "tel": "0898-47-4200",
    "url": "https://heartwarming.jp",
    "pref": "愛媛県",
    "city": "今治市",
    "category": "community_day_service",
    "serviceType": "地域密着型通所介護",
    "capacity": null,
    "openDays": [
      "平日",
      "土曜日",
      "祝日"
    ],
    "openDaysNote": ""
  },
  {
    "id": "3890200565",
    "name": "デイサービスつくし",
    "kana": "デイサービスツクシ",
    "address": "愛媛県今治市東村１丁目７番１９号",
    "lat": 34.0443796,
    "lng": 133.0281428,
    "tel": "０８９８－５２－７５１６",
    "url": "",
    "pref": "愛媛県",
    "city": "今治市",
    "category": "community_day_service",
    "serviceType": "地域密着型通所介護",
    "capacity": 18,
    "openDays": [
      "平日",
      "土曜日",
      "祝日"
    ],
    "openDaysNote": ""
  },
  {
    "id": "3890200458",
    "name": "デイサービスはなび",
    "kana": "デイサービスハナビ",
    "address": "愛媛県今治市美須賀町4丁目1番22号デイサービスはなび デイサービスはなび",
    "lat": 34.0595484488632,
    "lng": 133.012159360188,
    "tel": "0898-55-8263",
    "url": "http://www.yuyusya.co.jp/",
    "pref": "愛媛県",
    "city": "今治市",
    "category": "community_day_service",
    "serviceType": "地域密着型通所介護",
    "capacity": 0,
    "openDays": [
      "平日",
      "土曜日",
      "祝日"
    ],
    "openDaysNote": ""
  },
  {
    "id": "3890200748",
    "name": "デイサービスはまなす",
    "kana": "デイサービスハマナス",
    "address": "愛媛県今治市伯方町木浦甲1226-3",
    "lat": 34.2043743,
    "lng": 133.1137509,
    "tel": "090-4979-6918",
    "url": "",
    "pref": "愛媛県",
    "city": "今治市",
    "category": "community_day_service",
    "serviceType": "地域密着型通所介護",
    "capacity": 0,
    "openDays": [
      "平日",
      "土曜日",
      "祝日"
    ],
    "openDaysNote": "月・水・木・土の祝日は営業"
  },
  {
    "id": "3870202300",
    "name": "デイサービスめぐちゃん",
    "kana": "デイサービスメグチャン",
    "address": "愛媛県今治市上徳甲396-5",
    "lat": 34.0344293355373,
    "lng": 133.01483943886,
    "tel": "0898-52-8836",
    "url": "",
    "pref": "愛媛県",
    "city": "今治市",
    "category": "community_day_service",
    "serviceType": "地域密着型通所介護",
    "capacity": 0,
    "openDays": [
      "平日",
      "土曜日",
      "祝日"
    ],
    "openDaysNote": ""
  },
  {
    "id": "3890200631",
    "name": "デイサービスよしの",
    "kana": "デイサービスヨシノ",
    "address": "愛媛県今治市黄金町一丁目9番地2サービス付き高齢者向け住宅よしの内2階 サービス付き高齢者向け住宅よしの内2階",
    "lat": 34.065738,
    "lng": 133.0030314,
    "tel": "0898-52-8336",
    "url": "",
    "pref": "愛媛県",
    "city": "今治市",
    "category": "community_day_service",
    "serviceType": "地域密着型通所介護",
    "capacity": 0,
    "openDays": [
      "平日",
      "土曜日",
      "祝日"
    ],
    "openDaysNote": "但し、年末年始（12月31日から1月3日）及び8月16日（お盆）は休業"
  },
  {
    "id": "3890200615",
    "name": "デイサービス縁～えにし～",
    "kana": "デイサービスエニシ～エニシ～",
    "address": "愛媛県今治市上徳甲465-8",
    "lat": 34.0365572,
    "lng": 133.0186078,
    "tel": "0898-52-8243",
    "url": "http://ds-enishi.jp",
    "pref": "愛媛県",
    "city": "今治市",
    "category": "community_day_service",
    "serviceType": "地域密着型通所介護",
    "capacity": 15,
    "openDays": [
      "平日",
      "祝日"
    ],
    "openDaysNote": "火曜日の提供時間はは9：00～14：10となっています。"
  },
  {
    "id": "3890200623",
    "name": "デイサービス湯ノ浦レンガ亭",
    "kana": "デイサービスユノウラレンガテイ",
    "address": "愛媛県今治市湯ノ浦40",
    "lat": 33.9946019234678,
    "lng": 133.051503683467,
    "tel": "0898-48-8615",
    "url": "",
    "pref": "愛媛県",
    "city": "今治市",
    "category": "community_day_service",
    "serviceType": "地域密着型通所介護",
    "capacity": 0,
    "openDays": [
      "平日",
      "土曜日"
    ],
    "openDaysNote": ""
  },
  {
    "id": "3870202185",
    "name": "デイサービス廣寿苑",
    "kana": "デイサービスコウジュエン",
    "address": "愛媛県今治市高橋甲1142-1廣寿苑 廣寿苑",
    "lat": 34.0679133681403,
    "lng": 132.993104974182,
    "tel": "0898-25-1122",
    "url": "",
    "pref": "愛媛県",
    "city": "今治市",
    "category": "community_day_service",
    "serviceType": "地域密着型通所介護",
    "capacity": 13,
    "openDays": [
      "平日"
    ],
    "openDaysNote": "８月１４日から８月１６日（改行）１２月３０日から１月３日は休み"
  },
  {
    "id": "3870201922",
    "name": "ときわデイサービス",
    "kana": "トキワデイサービス",
    "address": "愛媛県今治市中日吉町」2-1-35",
    "lat": 34.0594705,
    "lng": 132.9916274,
    "tel": "0898-55-8112",
    "url": "",
    "pref": "愛媛県",
    "city": "今治市",
    "category": "community_day_service",
    "serviceType": "地域密着型通所介護",
    "capacity": 5,
    "openDays": [
      "平日",
      "土曜日",
      "祝日"
    ],
    "openDaysNote": ""
  },
  {
    "id": "3870202201",
    "name": "ハーフデイリハビリステーション晃誠",
    "kana": "ハーフデイリハビリステーションコウセイ",
    "address": "愛媛県今治市美須賀３丁目3-2アビタ’31 アビタ’31",
    "lat": 34.0606962768742,
    "lng": 133.011165130671,
    "tel": "0898-35-5788",
    "url": "http://activevision.co.jp",
    "pref": "愛媛県",
    "city": "今治市",
    "category": "community_day_service",
    "serviceType": "地域密着型通所介護",
    "capacity": 15,
    "openDays": [
      "平日",
      "土曜日"
    ],
    "openDaysNote": "特になし"
  },
  {
    "id": "3870200775",
    "name": "ふれあい",
    "kana": "フレアイ",
    "address": "愛媛県今治市常盤町8丁目4-31",
    "lat": 34.0541184,
    "lng": 132.9860944,
    "tel": "0898-33-9515",
    "url": "http://www.hp-yamauchi.or.jp",
    "pref": "愛媛県",
    "city": "今治市",
    "category": "community_day_service",
    "serviceType": "地域密着型通所介護",
    "capacity": null,
    "openDays": [
      "平日",
      "土曜日",
      "祝日"
    ],
    "openDaysNote": "特にありません。"
  },
  {
    "id": "3870202052",
    "name": "リハビリデイサービス　じんの",
    "kana": "リハビリデイサービス　ジンノ",
    "address": "愛媛県今治市阿方甲４４１番地６",
    "lat": 34.0646701521253,
    "lng": 132.966965375563,
    "tel": "０８９８－３５－３６８７",
    "url": "",
    "pref": "愛媛県",
    "city": "今治市",
    "category": "community_day_service",
    "serviceType": "地域密着型通所介護",
    "capacity": 0,
    "openDays": [
      "平日",
      "土曜日"
    ],
    "openDaysNote": ""
  },
  {
    "id": "3870202169",
    "name": "リハビリデイサービス和香",
    "kana": "リハビリデイサービスワカ",
    "address": "愛媛県今治市波方町波方甲2620-1",
    "lat": 34.125448523457,
    "lng": 132.952042389796,
    "tel": "0898-41-6642",
    "url": "",
    "pref": "愛媛県",
    "city": "今治市",
    "category": "community_day_service",
    "serviceType": "地域密着型通所介護",
    "capacity": 0,
    "openDays": [
      "平日",
      "祝日"
    ],
    "openDaysNote": ""
  },
  {
    "id": "3890200490",
    "name": "リハプライド武田脳神経外科",
    "kana": "リハプライド　タケダノウシンケイゲカ",
    "address": "愛媛県今治市旭町3-3-31",
    "lat": 34.0605799470072,
    "lng": 133.002469228776,
    "tel": "0898-52-7010",
    "url": "http://rehapride.co.jp/takedanoushinkeigeka/",
    "pref": "愛媛県",
    "city": "今治市",
    "category": "community_day_service",
    "serviceType": "地域密着型通所介護",
    "capacity": 0,
    "openDays": [
      "平日",
      "祝日"
    ],
    "openDaysNote": "非常災害時、地震、台風、大雪、警報時などサービス継続できない気象状況になった場合はやむ得ず、（改行）サービスを打ち切りとさせて頂く場合がございます。その際はご連絡させて頂きます。"
  },
  {
    "id": "3890200581",
    "name": "株式会社　ﾃﾞｲサービス愛",
    "kana": "カブシキガイシャ　デイサービスアイ",
    "address": "愛媛県今治市東鳥生町1丁目6番7号",
    "lat": 34.0580267,
    "lng": 133.0178594,
    "tel": "0898-24-0892",
    "url": "",
    "pref": "愛媛県",
    "city": "今治市",
    "category": "community_day_service",
    "serviceType": "地域密着型通所介護",
    "capacity": 0,
    "openDays": [
      "平日",
      "祝日"
    ],
    "openDaysNote": ""
  },
  {
    "id": "3890200607",
    "name": "機能訓練サービス　ゆず",
    "kana": "キノウクンレンサービス　ユズ",
    "address": "愛媛県今治市片山2-5-28ヴィラクォーレ101 ヴィラクォーレ101",
    "lat": 34.0513047,
    "lng": 132.9808176,
    "tel": "0898-24-1178",
    "url": "https://kabuyuzu.com",
    "pref": "愛媛県",
    "city": "今治市",
    "category": "community_day_service",
    "serviceType": "地域密着型通所介護",
    "capacity": 0,
    "openDays": [
      "平日",
      "土曜日"
    ],
    "openDaysNote": "木曜日午後休み（改行）年末年始（12/30～1/4）お盆（8/13～8/16）"
  },
  {
    "id": "3890200532",
    "name": "機能訓練特化型デイサービスまいか",
    "kana": "キノウクンレントッカガタデイサービスマイカ",
    "address": "愛媛県今治市別名194-1",
    "lat": 34.0427766,
    "lng": 132.9777788,
    "tel": "0898-52-8020",
    "url": "",
    "pref": "愛媛県",
    "city": "今治市",
    "category": "community_day_service",
    "serviceType": "地域密着型通所介護",
    "capacity": 10,
    "openDays": [
      "平日",
      "土曜日",
      "祝日"
    ],
    "openDaysNote": ""
  },
  {
    "id": "3870202268",
    "name": "高齢者福祉施設げんき室屋町の家　　デイサービスぽかぽか",
    "kana": "コウレイシャフクシシセツゲンキムロヤマチノイエ　デイサービスポカポカ",
    "address": "愛媛県今治市室屋町5丁目3-6",
    "lat": 34.0729693,
    "lng": 132.9974294,
    "tel": "（0898）23-9737",
    "url": "http://www.ehime-med.or.jp/infomation/coop.html",
    "pref": "愛媛県",
    "city": "今治市",
    "category": "community_day_service",
    "serviceType": "地域密着型通所介護",
    "capacity": 18,
    "openDays": [
      "平日",
      "土曜日",
      "祝日"
    ],
    "openDaysNote": ""
  },
  {
    "id": "3890200441",
    "name": "今治市社協介護サービスセンター関前",
    "kana": "イマバリシシャキョウカイゴサービスセンターセキゼン",
    "address": "愛媛県今治市関前岡村甲２５２５-１今治市関前高齢者生活福祉センター 今治市関前高齢者生活福祉センター",
    "lat": 34.184887475203,
    "lng": 132.890434828095,
    "tel": "0897-88-2455",
    "url": "http://www.imabari-shakyo.jp",
    "pref": "愛媛県",
    "city": "今治市",
    "category": "community_day_service",
    "serviceType": "地域密着型通所介護",
    "capacity": 0,
    "openDays": [
      "平日"
    ],
    "openDaysNote": "年末・年始は変更する場合があります。"
  },
  {
    "id": "3870202292",
    "name": "通所介護事業所おあしす中央",
    "kana": "ツウショカイゴジギョウショオアシスチュウオウ",
    "address": "愛媛県今治市八町西3丁目3番35号",
    "lat": 34.0441588,
    "lng": 132.9907854,
    "tel": "0898-35-2010",
    "url": "http://www.oasis-care.jp/",
    "pref": "愛媛県",
    "city": "今治市",
    "category": "community_day_service",
    "serviceType": "地域密着型通所介護",
    "capacity": 18,
    "openDays": [
      "平日",
      "祝日"
    ],
    "openDaysNote": ""
  },
  {
    "id": "3891300315",
    "name": "かざみどり三島",
    "kana": "カザミドリミシマ",
    "address": "愛媛県四国中央市中之庄町625-4",
    "lat": 33.9743042,
    "lng": 133.5355504,
    "tel": "0896-77-5630",
    "url": "",
    "pref": "愛媛県",
    "city": "四国中央市",
    "category": "community_day_service",
    "serviceType": "地域密着型通所介護",
    "capacity": 0,
    "openDays": [
      "平日",
      "土曜日",
      "祝日"
    ],
    "openDaysNote": ""
  },
  {
    "id": "3871300822",
    "name": "ケアスタジオ　ココロココ",
    "kana": "ケアスタジオ　ココロココ",
    "address": "愛媛県四国中央市妻鳥町１０１２－３サンライズⅡ　１階 サンライズⅡ　１階",
    "lat": 33.9967288401127,
    "lng": 133.572733809227,
    "tel": "0896-56-0066",
    "url": "",
    "pref": "愛媛県",
    "city": "四国中央市",
    "category": "community_day_service",
    "serviceType": "地域密着型通所介護",
    "capacity": 0,
    "openDays": [
      "平日",
      "土曜日"
    ],
    "openDaysNote": "1単位目　8：45～11：55（改行）2単位目　13：00～16：10"
  },
  {
    "id": "3891300380",
    "name": "すきっぷリハビリデイサービスセンター",
    "kana": "スキップリハビリデイサービスセンター",
    "address": "愛媛県四国中央市土居町土居252-1",
    "lat": 33.962714,
    "lng": 133.4297764,
    "tel": "0896-77-5507",
    "url": "",
    "pref": "愛媛県",
    "city": "四国中央市",
    "category": "community_day_service",
    "serviceType": "地域密着型通所介護",
    "capacity": 0,
    "openDays": [
      "平日",
      "祝日"
    ],
    "openDaysNote": ""
  },
  {
    "id": "3871300871",
    "name": "デイ・サービスセンター「むらまつ」",
    "kana": "デイ・サービスセンター「ムラマツ」",
    "address": "愛媛県四国中央市村松町７８１番地１",
    "lat": 33.9935092581855,
    "lng": 133.558876150926,
    "tel": "0896-28-8226",
    "url": "https://kenkou-kai.jp/",
    "pref": "愛媛県",
    "city": "四国中央市",
    "category": "community_day_service",
    "serviceType": "地域密着型通所介護",
    "capacity": 10,
    "openDays": [
      "平日",
      "土曜日",
      "祝日"
    ],
    "openDaysNote": "連休が重なる等、利用者のニーズがある場合はこの限りではない。"
  },
  {
    "id": "3871300996",
    "name": "ディサービス　かざみどり",
    "kana": "ディサービス　カザミドリ",
    "address": "愛媛県四国中央市妻鳥町980番地1森商第2ビル　1F 森商第2ビル　1F",
    "lat": 33.9955306,
    "lng": 133.5721566,
    "tel": "0896-77-5221",
    "url": "",
    "pref": "愛媛県",
    "city": "四国中央市",
    "category": "community_day_service",
    "serviceType": "地域密着型通所介護",
    "capacity": 0,
    "openDays": [
      "平日",
      "土曜日",
      "祝日"
    ],
    "openDaysNote": ""
  },
  {
    "id": "3891300273",
    "name": "デイサービスセンターリハスタジオWell",
    "kana": "デイサービスセンターリハスタジオウェル",
    "address": "愛媛県四国中央市三島金子１丁目４番６号",
    "lat": 33.9812323,
    "lng": 133.5375977,
    "tel": "（0896）23-5386",
    "url": "https://www.takemura-sekkotsu.com/company",
    "pref": "愛媛県",
    "city": "四国中央市",
    "category": "community_day_service",
    "serviceType": "地域密着型通所介護",
    "capacity": 50,
    "openDays": [
      "平日",
      "土曜日"
    ],
    "openDaysNote": "利用予定日が祝祭日等の場合、別に設定する営業日以外の日を振替利用日として設けることがある。"
  },
  {
    "id": "3870800194",
    "name": "デイサービスセンターレオナ",
    "kana": "デイサービスセンターレオナ",
    "address": "愛媛県四国中央市金生町下分1423",
    "lat": 34.0003299,
    "lng": 133.5820137,
    "tel": "0896-58-9782",
    "url": "http://www2.patt.gr.jp/~leona",
    "pref": "愛媛県",
    "city": "四国中央市",
    "category": "community_day_service",
    "serviceType": "地域密着型通所介護",
    "capacity": 0,
    "openDays": [
      "平日",
      "土曜日",
      "日曜日"
    ],
    "openDaysNote": "特になし。"
  },
  {
    "id": "3891300349",
    "name": "デイサービスセンター煌き",
    "kana": "デイサービスセンターキラメキ",
    "address": "愛媛県四国中央市中曾根町1257番地",
    "lat": 33.9729446566179,
    "lng": 133.550570611639,
    "tel": "0896-23-6511",
    "url": "http://hp.kaipoke.biz/85e/",
    "pref": "愛媛県",
    "city": "四国中央市",
    "category": "community_day_service",
    "serviceType": "地域密着型通所介護",
    "capacity": null,
    "openDays": [
      "平日",
      "祝日"
    ],
    "openDaysNote": ""
  },
  {
    "id": "3871300988",
    "name": "デイサービスなごみ",
    "kana": "デイサービスナゴミ",
    "address": "愛媛県四国中央市土居町小林1205",
    "lat": 33.9580994,
    "lng": 133.435718,
    "tel": "0896-74-7503",
    "url": "https://www.nagomi.dd8.jp",
    "pref": "愛媛県",
    "city": "四国中央市",
    "category": "community_day_service",
    "serviceType": "地域密着型通所介護",
    "capacity": 10,
    "openDays": [
      "平日",
      "土曜日",
      "祝日"
    ],
    "openDaysNote": ""
  },
  {
    "id": "3891300364",
    "name": "デイサービスねんりん",
    "kana": "デイサービスネンリン",
    "address": "愛媛県四国中央市中曽根町2207-1",
    "lat": 33.9647985,
    "lng": 133.5558883,
    "tel": "0896-22-4967",
    "url": "http://www.nenrin-support.com/service02/",
    "pref": "愛媛県",
    "city": "四国中央市",
    "category": "community_day_service",
    "serviceType": "地域密着型通所介護",
    "capacity": 5,
    "openDays": [
      "平日",
      "土曜日"
    ],
    "openDaysNote": ""
  },
  {
    "id": "3871300384",
    "name": "デイサービスのぞみ",
    "kana": "デイサービスノゾミ",
    "address": "愛媛県四国中央市土居町入野970番地",
    "lat": 33.9557466,
    "lng": 133.4217028,
    "tel": "0896-74-2332",
    "url": "http://matsukaze-hp.com",
    "pref": "愛媛県",
    "city": "四国中央市",
    "category": "community_day_service",
    "serviceType": "地域密着型通所介護",
    "capacity": 17,
    "openDays": [
      "平日",
      "土曜日",
      "祝日"
    ],
    "openDaysNote": "特になし。"
  },
  {
    "id": "3871300905",
    "name": "ディサービス愛",
    "kana": "ディサービスアイ",
    "address": "愛媛県四国中央市土居町上野乙１５６－2",
    "lat": 33.9435421,
    "lng": 133.3869903,
    "tel": "０８９６－７４－３０６９",
    "url": "",
    "pref": "愛媛県",
    "city": "四国中央市",
    "category": "community_day_service",
    "serviceType": "地域密着型通所介護",
    "capacity": 0,
    "openDays": [
      "平日",
      "土曜日",
      "祝日"
    ],
    "openDaysNote": ""
  },
  {
    "id": "3871300749",
    "name": "デイサービス喜楽",
    "kana": "デイサービス　キラク",
    "address": "愛媛県四国中央市川之江町1887-9",
    "lat": 34.0118867,
    "lng": 133.5743505,
    "tel": "0896-58-2322",
    "url": "http://home.cosmostv.jp/kiraku/",
    "pref": "愛媛県",
    "city": "四国中央市",
    "category": "community_day_service",
    "serviceType": "地域密着型通所介護",
    "capacity": 13,
    "openDays": [
      "平日",
      "土曜日",
      "祝日"
    ],
    "openDaysNote": ""
  },
  {
    "id": "3871301051",
    "name": "デイサービス元気いっぱい",
    "kana": "デイサービスゲンキイッパイ",
    "address": "愛媛県四国中央市寒川町4154",
    "lat": 33.9653811,
    "lng": 133.5003312,
    "tel": "0896-29-5081",
    "url": "https://www.genki5081.com/",
    "pref": "愛媛県",
    "city": "四国中央市",
    "category": "community_day_service",
    "serviceType": "地域密着型通所介護",
    "capacity": 15,
    "openDays": [
      "平日",
      "祝日"
    ],
    "openDaysNote": ""
  },
  {
    "id": "3871300723",
    "name": "まごころはうす　かまやん",
    "kana": "マゴコロハウス　カマヤン",
    "address": "愛媛県四国中央市川之江町1660番地8",
    "lat": 34.0143292489501,
    "lng": 133.574153823074,
    "tel": "0896-59-1150",
    "url": "",
    "pref": "愛媛県",
    "city": "四国中央市",
    "category": "community_day_service",
    "serviceType": "地域密着型通所介護",
    "capacity": 0,
    "openDays": [
      "平日",
      "土曜日",
      "祝日"
    ],
    "openDaysNote": ""
  },
  {
    "id": "3871301119",
    "name": "リハビリデイサービスきらり",
    "kana": "リハビリデイサービスキラリ",
    "address": "愛媛県四国中央市村松町629番地1",
    "lat": 33.9899181495399,
    "lng": 133.557327594431,
    "tel": "0896-77-5783",
    "url": "https://rsc60210.amebaownd.com/",
    "pref": "愛媛県",
    "city": "四国中央市",
    "category": "community_day_service",
    "serviceType": "地域密着型通所介護",
    "capacity": 0,
    "openDays": [
      "平日",
      "祝日"
    ],
    "openDaysNote": "特になし。"
  },
  {
    "id": "3891300281",
    "name": "リハプライドシンシア",
    "kana": "リハプライドシンシア",
    "address": "愛媛県四国中央市金生町山田井乙18番3",
    "lat": 34.0067681429631,
    "lng": 133.589100636631,
    "tel": "0896-22-4722",
    "url": "http://rehapride.co.jp/shinshiamendori/",
    "pref": "愛媛県",
    "city": "四国中央市",
    "category": "community_day_service",
    "serviceType": "地域密着型通所介護",
    "capacity": 0,
    "openDays": [
      "平日",
      "祝日"
    ],
    "openDaysNote": ""
  },
  {
    "id": "3871300772",
    "name": "一般型通所介護いしかわ",
    "kana": "イッパンガタツウショカイゴイシカワ",
    "address": "愛媛県四国中央市上分町738-2",
    "lat": 33.9914729,
    "lng": 133.5896825,
    "tel": "0896-56-3209",
    "url": "https://kenkou-kai.jp/",
    "pref": "愛媛県",
    "city": "四国中央市",
    "category": "community_day_service",
    "serviceType": "地域密着型通所介護",
    "capacity": 0,
    "openDays": [
      "平日",
      "土曜日"
    ],
    "openDaysNote": "特になし"
  },
  {
    "id": "3871300616",
    "name": "元気デイサービスまんなか",
    "kana": "ゲンキデイサービスマンナカ",
    "address": "愛媛県四国中央市上柏町7番地3",
    "lat": 33.9832074,
    "lng": 133.555939,
    "tel": "0896-24-0039",
    "url": "https://suzuran-kaigo.net/",
    "pref": "愛媛県",
    "city": "四国中央市",
    "category": "community_day_service",
    "serviceType": "地域密着型通所介護",
    "capacity": 18,
    "openDays": [
      "平日",
      "土曜日",
      "日曜日",
      "祝日"
    ],
    "openDaysNote": ""
  },
  {
    "id": "3871300079",
    "name": "四国中央市新宮デイサービスセンター",
    "kana": "シコクチュウオウシシングウデイサービスセンター",
    "address": "愛媛県四国中央市新宮町新宮50番地",
    "lat": 33.9474474,
    "lng": 133.6398417,
    "tel": "0896-72-2578",
    "url": "http://www.sikochu-syakyo.jp/",
    "pref": "愛媛県",
    "city": "四国中央市",
    "category": "community_day_service",
    "serviceType": "地域密着型通所介護",
    "capacity": 0,
    "openDays": [
      "平日"
    ],
    "openDaysNote": "特にありません。"
  },
  {
    "id": "3870107830",
    "name": "ＪＡえひめ中央デイサービスセンターサンケア坂本",
    "kana": "ジェイエーエヒメチュウオウデイサービスセンターサンケアサカモト",
    "address": "愛媛県松山市久谷町甲77番地",
    "lat": 33.7480747,
    "lng": 132.8258358,
    "tel": "089-960-8012",
    "url": "http://www.ja-e-chuo.or.jp",
    "pref": "愛媛県",
    "city": "松山市",
    "category": "community_day_service",
    "serviceType": "地域密着型通所介護",
    "capacity": 15,
    "openDays": [
      "平日",
      "土曜日",
      "祝日"
    ],
    "openDaysNote": "年末年始（12/31～1/3）は休み"
  },
  {
    "id": "3870110222",
    "name": "アクティブ・リハすまいる",
    "kana": "アクティブ・リハスマイル",
    "address": "愛媛県松山市天山３丁目9-24",
    "lat": 33.8201545,
    "lng": 132.7758412,
    "tel": "089-948-4016",
    "url": "http://www.aqua-community.jp/",
    "pref": "愛媛県",
    "city": "松山市",
    "category": "community_day_service",
    "serviceType": "地域密着型通所介護",
    "capacity": 18,
    "openDays": [
      "平日"
    ],
    "openDaysNote": ""
  },
  {
    "id": "3870108952",
    "name": "アルファデイサービスセンター久万の台",
    "kana": "アルファデイサービスセンタークマノダイ",
    "address": "松山市久万ノ台１２１７番地アルファリビング松山久万の台 アルファリビング松山久万の台",
    "lat": 33.8627233,
    "lng": 132.739647,
    "tel": "089-917-5170",
    "url": "http://www.anabuki-medical.jp/",
    "pref": "愛媛県",
    "city": "松山市",
    "category": "community_day_service",
    "serviceType": "地域密着型通所介護",
    "capacity": 18,
    "openDays": [
      "平日",
      "祝日"
    ],
    "openDaysNote": "上記に加え、年末年始12/31～1/3までは休業"
  },
  {
    "id": "3870110321",
    "name": "アルファデイサービスセンター南江戸",
    "kana": "アルファデイサービスセンターミナミエド",
    "address": "愛媛県松山市南江戸4丁目5番40号",
    "lat": 33.8383968473486,
    "lng": 132.741400075533,
    "tel": "089-989-5535",
    "url": "http://www.a-living.jp/dayservice.html",
    "pref": "愛媛県",
    "city": "松山市",
    "category": "community_day_service",
    "serviceType": "地域密着型通所介護",
    "capacity": 0,
    "openDays": [
      "平日",
      "祝日"
    ],
    "openDaysNote": "月曜日から金曜日の営業（祝日を含む）"
  },
  {
    "id": "3870107699",
    "name": "ケアリビングながと",
    "kana": "ケアリビングナガト",
    "address": "愛媛県松山市安城寺町969-6",
    "lat": 33.8760194582498,
    "lng": 132.741069333066,
    "tel": "089-989-9902",
    "url": "",
    "pref": "愛媛県",
    "city": "松山市",
    "category": "community_day_service",
    "serviceType": "地域密着型通所介護",
    "capacity": 18,
    "openDays": [
      "平日",
      "土曜日",
      "祝日"
    ],
    "openDaysNote": ""
  },
  {
    "id": "3890101755",
    "name": "コンシェリナ松山城北",
    "kana": "コンシェリナマツヤマジョウホク",
    "address": "愛媛県松山市山越五丁目９番６号",
    "lat": 33.8597965,
    "lng": 132.7505722,
    "tel": "089-911-1118",
    "url": "concierina-mj@solasto.co.jp",
    "pref": "愛媛県",
    "city": "松山市",
    "category": "community_day_service",
    "serviceType": "地域密着型通所介護",
    "capacity": 0,
    "openDays": [
      "平日",
      "土曜日",
      "日曜日",
      "祝日"
    ],
    "openDaysNote": ""
  },
  {
    "id": "3870109513",
    "name": "さきやま接骨院デイサービス",
    "kana": "サキヤマセッコツインデイサービス",
    "address": "松山市永代町４－５ラッセルスクエア松山市駅１０１ ラッセルスクエア松山市駅１０１",
    "lat": 33.8337686005951,
    "lng": 132.76007491386,
    "tel": "０８９－９１３－０２２０",
    "url": "https://sakiyama-sekkotuin.com/",
    "pref": "愛媛県",
    "city": "松山市",
    "category": "community_day_service",
    "serviceType": "地域密着型通所介護",
    "capacity": 50,
    "openDays": [
      "平日"
    ],
    "openDaysNote": "１２月３０日から１月３日を除く"
  },
  {
    "id": "3870109422",
    "name": "スポーツデイ　歩風里　ふるみつ",
    "kana": "スポーツデイ　ホフリ　フルミツ",
    "address": "愛媛県松山市古三津2丁目8‐13",
    "lat": 33.8583123,
    "lng": 132.7265204,
    "tel": "089-994-6622",
    "url": "http://www.hofuri‐h.com",
    "pref": "愛媛県",
    "city": "松山市",
    "category": "community_day_service",
    "serviceType": "地域密着型通所介護",
    "capacity": 0,
    "openDays": [
      "平日",
      "土曜日",
      "祝日"
    ],
    "openDaysNote": "年末年始の12月30日～1月3日はお休みとさせて頂きます。"
  },
  {
    "id": "3890102191",
    "name": "デイサービス　あんき十人十色",
    "kana": "デイサービス　アンキイロドリ",
    "address": "松山市西垣生町1680番地1",
    "lat": 33.8135648,
    "lng": 132.6988618,
    "tel": "089-971-3318",
    "url": "info@anki-m.",
    "pref": "愛媛県",
    "city": "松山市",
    "category": "community_day_service",
    "serviceType": "地域密着型通所介護",
    "capacity": null,
    "openDays": [
      "平日",
      "土曜日",
      "日曜日",
      "祝日"
    ],
    "openDaysNote": ""
  },
  {
    "id": "3870110032",
    "name": "デイサービス　いろり",
    "kana": "デイサービス　イロリ",
    "address": "愛媛県松山市立花1丁目12番27号",
    "lat": 33.8314564733253,
    "lng": 132.772777567459,
    "tel": "089-968-1241",
    "url": "https://te-to-te-kaigo.jp/",
    "pref": "愛媛県",
    "city": "松山市",
    "category": "community_day_service",
    "serviceType": "地域密着型通所介護",
    "capacity": 10,
    "openDays": [
      "平日"
    ],
    "openDaysNote": "但し年末年始など休日が5日以上続く場合は除く。"
  },
  {
    "id": "3890101805",
    "name": "デイサービス　いろり　２号館",
    "kana": "デイサービス　イロリ　２ゴウカン",
    "address": "愛媛県松山市中村四丁目8番14号エキサイトビル エキサイトビル",
    "lat": 33.8298993,
    "lng": 132.7761069,
    "tel": "089-933-0025",
    "url": "https://www.te-to-te-kaigo.jp",
    "pref": "愛媛県",
    "city": "松山市",
    "category": "community_day_service",
    "serviceType": "地域密着型通所介護",
    "capacity": null,
    "openDays": [
      "平日"
    ],
    "openDaysNote": ""
  },
  {
    "id": "3870108671",
    "name": "デイサービス　かしま",
    "kana": "デイサービス　カシマ",
    "address": "愛媛県松山市苞木甲２００番地",
    "lat": 33.9411772961453,
    "lng": 132.776042227678,
    "tel": "089-994-0067",
    "url": "http://www.taitofukushikai.jp/",
    "pref": "愛媛県",
    "city": "松山市",
    "category": "community_day_service",
    "serviceType": "地域密着型通所介護",
    "capacity": 18,
    "openDays": [
      "平日",
      "土曜日",
      "祝日"
    ],
    "openDaysNote": "年末年始（12/30～1/3）"
  },
  {
    "id": "3870110586",
    "name": "デイサービス　クリア",
    "kana": "デイサービス　クリア",
    "address": "愛媛県松山市空港通6丁目6番30号",
    "lat": 33.8262163,
    "lng": 132.7310284,
    "tel": "089-992-9996",
    "url": "www.clears.life",
    "pref": "愛媛県",
    "city": "松山市",
    "category": "community_day_service",
    "serviceType": "地域密着型通所介護",
    "capacity": 0,
    "openDays": [
      "平日",
      "土曜日"
    ],
    "openDaysNote": "なし"
  },
  {
    "id": "3890102241",
    "name": "デイサービス　さくら",
    "kana": "デイサービス　サクラ",
    "address": "愛媛県松山市桑原７丁目５番24号",
    "lat": 33.8295265,
    "lng": 132.7905318,
    "tel": "089-948-9820",
    "url": "https://sakura-2024.maqe.site",
    "pref": "愛媛県",
    "city": "松山市",
    "category": "community_day_service",
    "serviceType": "地域密着型通所介護",
    "capacity": 10,
    "openDays": [
      "平日",
      "土曜日"
    ],
    "openDaysNote": ""
  },
  {
    "id": "3870106659",
    "name": "デイサービス　シン",
    "kana": "デイサービスシン",
    "address": "愛媛県松山市土居田町583番地",
    "lat": 33.8200008,
    "lng": 132.7441553,
    "tel": "089-906-1712",
    "url": "",
    "pref": "愛媛県",
    "city": "松山市",
    "category": "community_day_service",
    "serviceType": "地域密着型通所介護",
    "capacity": null,
    "openDays": [
      "平日",
      "祝日"
    ],
    "openDaysNote": "特になし。"
  },
  {
    "id": "3870109018",
    "name": "デイサービス　ひがし野　真心庵",
    "kana": "デイサービス　ヒガシノ　マゴコロアン",
    "address": "愛媛県松山市東野４丁目12番９号",
    "lat": 33.8415475478028,
    "lng": 132.802026322939,
    "tel": "089-914-0556",
    "url": "http://www.higashino-group.com/",
    "pref": "愛媛県",
    "city": "松山市",
    "category": "community_day_service",
    "serviceType": "地域密着型通所介護",
    "capacity": 10,
    "openDays": [
      "平日",
      "土曜日",
      "祝日"
    ],
    "openDaysNote": "12/31～1/2休み"
  },
  {
    "id": "3870106162",
    "name": "デイサービス　ひめ",
    "kana": "デイサービスヒメ",
    "address": "愛媛県松山市太山寺町477番2",
    "lat": 33.8821121145153,
    "lng": 132.73591543585,
    "tel": "089-978-7707",
    "url": "",
    "pref": "愛媛県",
    "city": "松山市",
    "category": "community_day_service",
    "serviceType": "地域密着型通所介護",
    "capacity": 10,
    "openDays": [
      "平日",
      "祝日"
    ],
    "openDaysNote": "※暴風警報など自然災害がおきた場合、送迎の運転に危険が生じたり、困難な場合については休業、利用時間の変更を行う場合があります。"
  },
  {
    "id": "3870109919",
    "name": "デイサービス　ルーツ",
    "kana": "デイサービス　ルーツ",
    "address": "愛媛県松山市山越四丁目１１番３６号",
    "lat": 33.8614099366639,
    "lng": 132.752291406249,
    "tel": "089-925-5112",
    "url": "https://roots.ehime.jp",
    "pref": "愛媛県",
    "city": "松山市",
    "category": "community_day_service",
    "serviceType": "地域密着型通所介護",
    "capacity": 18,
    "openDays": [
      "平日",
      "土曜日",
      "日曜日",
      "祝日"
    ],
    "openDaysNote": "特になし"
  },
  {
    "id": "3870110628",
    "name": "デイサービスlife",
    "kana": "デイサービス　ライフ",
    "address": "愛媛県松山市内宮町2201番地",
    "lat": 33.8933788,
    "lng": 132.7468158,
    "tel": "089-978-7255",
    "url": "",
    "pref": "愛媛県",
    "city": "松山市",
    "category": "community_day_service",
    "serviceType": "地域密着型通所介護",
    "capacity": 1,
    "openDays": [
      "平日",
      "祝日"
    ],
    "openDaysNote": ""
  },
  {
    "id": "3890101508",
    "name": "デイサービスガリラヤ久米",
    "kana": "デイサービスガリラヤクメ",
    "address": "愛媛県松山市久米窪田町667番地1高齢者総合福祉施設ガリラヤ久米 高齢者総合福祉施設ガリラヤ久米",
    "lat": 33.8056850512228,
    "lng": 132.8134245294,
    "tel": "089-970-9101",
    "url": "https://www.galilaya-ailin.com/",
    "pref": "愛媛県",
    "city": "松山市",
    "category": "community_day_service",
    "serviceType": "地域密着型通所介護",
    "capacity": 0,
    "openDays": [
      "平日",
      "土曜日",
      "祝日"
    ],
    "openDaysNote": "特になし"
  },
  {
    "id": "3870102344",
    "name": "デイサービスさんわ",
    "kana": "デイサービスサンワ",
    "address": "愛媛県松山市松ノ木1丁目5-35",
    "lat": 33.8692631881452,
    "lng": 132.718843786586,
    "tel": "089-968-3138",
    "url": "http://www.sanwa-kaigo.com",
    "pref": "愛媛県",
    "city": "松山市",
    "category": "community_day_service",
    "serviceType": "地域密着型通所介護",
    "capacity": 0,
    "openDays": [
      "平日",
      "土曜日",
      "日曜日",
      "祝日"
    ],
    "openDaysNote": "サービスの利用に関する留意事項（改行）　(１)事業所の秩序を乱さないこと。（改行）　　　　喧嘩、口論、飲酒、暴力行為等迷惑行為は、お断りします。（改行）　(２)建物・器物について、破損・持ち出しの行為はお断りします。"
  },
  {
    "id": "3890101888",
    "name": "デイサービスセンター　ケアフル朝生田",
    "kana": "デイサービスセンター　ケアフルアソダ",
    "address": "愛媛県松山市朝生田町一丁目12番2号サービス付き高齢者向け住宅朝生田あるる館　1階 サービス付き高齢者向け住宅朝生田あるる館　1階",
    "lat": 33.8228821589595,
    "lng": 132.772482335582,
    "tel": "089-931-0551",
    "url": "http://yamakikai.com/",
    "pref": "愛媛県",
    "city": "松山市",
    "category": "community_day_service",
    "serviceType": "地域密着型通所介護",
    "capacity": 0,
    "openDays": [
      "平日",
      "土曜日",
      "祝日"
    ],
    "openDaysNote": ""
  },
  {
    "id": "3870109828",
    "name": "デイサービスセンター　ジェントルハートみつ",
    "kana": "デイサービスセンター　ジェントルハートミツ",
    "address": "愛媛県松山市梅田町４番３５号高齢者福祉施設　ジェントルハートみつ 高齢者福祉施設　ジェントルハートみつ",
    "lat": 33.8603087,
    "lng": 132.7128332,
    "tel": "089-953-3200",
    "url": "http://www.aijukai-group.com/",
    "pref": "愛媛県",
    "city": "松山市",
    "category": "community_day_service",
    "serviceType": "地域密着型通所介護",
    "capacity": 15,
    "openDays": [
      "平日"
    ],
    "openDaysNote": ""
  },
  {
    "id": "3890101987",
    "name": "デイサービスセンター　ハッピー余戸",
    "kana": "デイサービスセンター　ハッピーヨウゴ",
    "address": "愛媛県松山市余戸東２丁目７番１３号",
    "lat": 33.8139991,
    "lng": 132.7336858,
    "tel": "089-965-3303",
    "url": "http://www.carejapan.co.jp/",
    "pref": "愛媛県",
    "city": "松山市",
    "category": "community_day_service",
    "serviceType": "地域密着型通所介護",
    "capacity": 0,
    "openDays": [
      "平日",
      "祝日"
    ],
    "openDaysNote": "特にありません。"
  },
  {
    "id": "3870105792",
    "name": "デイサービスセンター　ひめやまの里",
    "kana": "デイサービスセンター　ヒメヤマノサト",
    "address": "愛媛県松山市山越三丁目6番15号",
    "lat": 33.860488,
    "lng": 132.7595285,
    "tel": "089-989-0752",
    "url": "",
    "pref": "愛媛県",
    "city": "松山市",
    "category": "community_day_service",
    "serviceType": "地域密着型通所介護",
    "capacity": 0,
    "openDays": [
      "平日",
      "土曜日",
      "祝日"
    ],
    "openDaysNote": "特にありません"
  },
  {
    "id": "3870110495",
    "name": "デイサービスセンター　笑歩会　保免",
    "kana": "デイサービスセンター　ショウホカイ　ホウメン",
    "address": "愛媛県松山市保免中一丁目9番15号",
    "lat": 33.8191593,
    "lng": 132.7482939,
    "tel": "089-989-8710",
    "url": "http://shouhokai.jp/",
    "pref": "愛媛県",
    "city": "松山市",
    "category": "community_day_service",
    "serviceType": "地域密着型通所介護",
    "capacity": 0,
    "openDays": [
      "平日",
      "祝日"
    ],
    "openDaysNote": ""
  },
  {
    "id": "3870106113",
    "name": "デイサービスセンター・ゆあーず",
    "kana": "デイサービスセンター・ユアーズ",
    "address": "愛媛県松山市東方町甲1291番地１",
    "lat": 33.7695910343142,
    "lng": 132.818919723279,
    "tel": "089-963-5277",
    "url": "http://yours-care.jp/",
    "pref": "愛媛県",
    "city": "松山市",
    "category": "community_day_service",
    "serviceType": "地域密着型通所介護",
    "capacity": 0,
    "openDays": [
      "平日",
      "土曜日",
      "祝日"
    ],
    "openDaysNote": ""
  },
  {
    "id": "3870109000",
    "name": "デイサービスセンターこころ",
    "kana": "デイサービスセンターココロ",
    "address": "松山市針田町16－3",
    "lat": 33.8233189203803,
    "lng": 132.737115302047,
    "tel": "089－904－1296",
    "url": "http://cocorokaigo.com/",
    "pref": "愛媛県",
    "city": "松山市",
    "category": "community_day_service",
    "serviceType": "地域密着型通所介護",
    "capacity": 0,
    "openDays": [
      "平日",
      "土曜日",
      "祝日"
    ],
    "openDaysNote": "年末年始　12月30～1月3日まで"
  },
  {
    "id": "3870102773",
    "name": "デイサービスセンターすみれの家",
    "kana": "デイサービスセンタースミレノイエ",
    "address": "愛媛県松山市北斎院町1072-1",
    "lat": 33.8361371,
    "lng": 132.7241651,
    "tel": "089-905-6014",
    "url": "http://sumire-group.jp",
    "pref": "愛媛県",
    "city": "松山市",
    "category": "community_day_service",
    "serviceType": "地域密着型通所介護",
    "capacity": 0,
    "openDays": [
      "平日",
      "土曜日",
      "祝日"
    ],
    "openDaysNote": "特に無し"
  },
  {
    "id": "3890101722",
    "name": "デイサービスセンターふくすけ",
    "kana": "デイサービスセンターフクスケ",
    "address": "愛媛県松山市空港通四丁目7番１号",
    "lat": 33.8291022,
    "lng": 132.7349364,
    "tel": "089‐973-2929",
    "url": "http://www.mitsuwat.co.jp/fukunokami/",
    "pref": "愛媛県",
    "city": "松山市",
    "category": "community_day_service",
    "serviceType": "地域密着型通所介護",
    "capacity": null,
    "openDays": [
      "平日",
      "土曜日",
      "祝日"
    ],
    "openDaysNote": "12月30日から1月3日の間は休業"
  },
  {
    "id": "3890101565",
    "name": "デイサービスセンターみかん　リハビリクラブ",
    "kana": "デイサービスセンターミカン　リハビリクラブ",
    "address": "愛媛県松山市東長戸3丁目4番27号",
    "lat": 33.8691033,
    "lng": 132.7482712,
    "tel": "089-989-7203",
    "url": "http://www.rihasta-mikan.com/",
    "pref": "愛媛県",
    "city": "松山市",
    "category": "community_day_service",
    "serviceType": "地域密着型通所介護",
    "capacity": 0,
    "openDays": [
      "平日",
      "土曜日",
      "祝日"
    ],
    "openDaysNote": "年末年始（12/30～1/3)は休業"
  },
  {
    "id": "3870110537",
    "name": "デイサービスセンターみかん　幸号館",
    "kana": "デイサービスセンターミカン　シゴウカン",
    "address": "愛媛県松山市古川南3丁目758-1",
    "lat": 33.8055809,
    "lng": 132.7647093,
    "tel": "089-916-7691",
    "url": "http://rihasta-mikan.com/",
    "pref": "愛媛県",
    "city": "松山市",
    "category": "community_day_service",
    "serviceType": "地域密着型通所介護",
    "capacity": 15,
    "openDays": [
      "平日",
      "土曜日",
      "祝日"
    ],
    "openDaysNote": ""
  },
  {
    "id": "3870109273",
    "name": "デイサービスセンターみかん参号館",
    "kana": "デイサービスセンターミカンサンゴウカン",
    "address": "愛媛県松山市久万ノ台737番地",
    "lat": 33.8601236,
    "lng": 132.7412219,
    "tel": "089-904-1277",
    "url": "http://rihasta-mikan.com/",
    "pref": "愛媛県",
    "city": "松山市",
    "category": "community_day_service",
    "serviceType": "地域密着型通所介護",
    "capacity": 0,
    "openDays": [
      "平日",
      "土曜日",
      "祝日"
    ],
    "openDaysNote": ""
  },
  {
    "id": "3890101441",
    "name": "デイサービスセンターみかん七星",
    "kana": "デイサービスセンターミカンナナツボシ",
    "address": "愛媛県松山市鷹子町284番地1",
    "lat": 33.8113927,
    "lng": 132.8158559,
    "tel": "089-916-3868",
    "url": "http://www.rihasta-mikan.com/",
    "pref": "愛媛県",
    "city": "松山市",
    "category": "community_day_service",
    "serviceType": "地域密着型通所介護",
    "capacity": 0,
    "openDays": [
      "平日",
      "土曜日",
      "祝日"
    ],
    "openDaysNote": ""
  },
  {
    "id": "3890102050",
    "name": "デイサービスセンターみかん弐号館",
    "kana": "デイサービスセンターミカンニゴウカン",
    "address": "愛媛県松山市樽味2丁目1番7号",
    "lat": 33.8399237238664,
    "lng": 132.792914278989,
    "tel": "089-904-8178",
    "url": "http://www.rihasta-mikan.com/",
    "pref": "愛媛県",
    "city": "松山市",
    "category": "community_day_service",
    "serviceType": "地域密着型通所介護",
    "capacity": null,
    "openDays": [
      "平日",
      "土曜日",
      "祝日"
    ],
    "openDaysNote": "年末・年始（12月31日～1月3日）"
  },
  {
    "id": "3870110750",
    "name": "デイサービスセンターみかん陸号館",
    "kana": "デイサービスセンターミカンロクゴウカン",
    "address": "愛媛県松山市西長戸町293-21",
    "lat": 33.8691364,
    "lng": 132.7414663,
    "tel": "089-904-2459",
    "url": "http://rihasta-mikan.com/",
    "pref": "愛媛県",
    "city": "松山市",
    "category": "community_day_service",
    "serviceType": "地域密着型通所介護",
    "capacity": 0,
    "openDays": [
      "平日",
      "土曜日",
      "祝日"
    ],
    "openDaysNote": ""
  },
  {
    "id": "3890101607",
    "name": "デイサービスセンターりはらぼ",
    "kana": "デイサービスセンターリハラボ",
    "address": "愛媛県松山市竹原2丁目1-50エバーグリーン松山 エバーグリーン松山",
    "lat": 33.8316774,
    "lng": 132.7529654,
    "tel": "899936710",
    "url": "https://ameblo.jp/hirokikono",
    "pref": "愛媛県",
    "city": "松山市",
    "category": "community_day_service",
    "serviceType": "地域密着型通所介護",
    "capacity": 0,
    "openDays": [
      "平日",
      "土曜日",
      "祝日"
    ],
    "openDaysNote": "年末年始(12/30～1/3)は休み"
  },
  {
    "id": "3870110974",
    "name": "デイサービスセンター伊央里",
    "kana": "デイサービスセンターイオリ",
    "address": "愛媛県松山市南土居293-4",
    "lat": 33.7997085198787,
    "lng": 132.802075173016,
    "tel": "089-907-3220",
    "url": "",
    "pref": "愛媛県",
    "city": "松山市",
    "category": "community_day_service",
    "serviceType": "地域密着型通所介護",
    "capacity": 10,
    "openDays": [
      "平日",
      "祝日"
    ],
    "openDaysNote": ""
  },
  {
    "id": "3871100461",
    "name": "デイサービスセンター難波",
    "kana": "デイサービスセンターナンバ",
    "address": "愛媛県松山市中通甲898番1",
    "lat": 33.9837103,
    "lng": 132.7917319,
    "tel": "089-960-2711",
    "url": "http://www.anjukai.com",
    "pref": "愛媛県",
    "city": "松山市",
    "category": "community_day_service",
    "serviceType": "地域密着型通所介護",
    "capacity": 0,
    "openDays": [
      "平日",
      "土曜日",
      "祝日"
    ],
    "openDaysNote": "特になし。"
  },
  {
    "id": "3890101821",
    "name": "デイサービスセンター和楽",
    "kana": "デイサービスセンターワラク",
    "address": "愛媛県松山市味酒町1丁目9番地15株式会社ケアセンターとかじ　5階 株式会社ケアセンターとかじ　5階",
    "lat": 33.8421722,
    "lng": 132.7560341,
    "tel": "089-998-2255",
    "url": "http://www.carecenter-tokaji.co.jp",
    "pref": "愛媛県",
    "city": "松山市",
    "category": "community_day_service",
    "serviceType": "地域密着型通所介護",
    "capacity": 18,
    "openDays": [
      "平日",
      "土曜日",
      "祝日"
    ],
    "openDaysNote": "特にありません。"
  },
  {
    "id": "3870104258",
    "name": "デイサービスセンター和気",
    "kana": "デイサービスセンターワケ",
    "address": "愛媛県松山市和気町1丁目685番地",
    "lat": 33.8950339,
    "lng": 132.7363723,
    "tel": "089-960-4611",
    "url": "http://www.anju-kai.jp",
    "pref": "愛媛県",
    "city": "松山市",
    "category": "community_day_service",
    "serviceType": "地域密着型通所介護",
    "capacity": null,
    "openDays": [
      "平日",
      "土曜日",
      "祝日"
    ],
    "openDaysNote": "特にありません。"
  },
  {
    "id": "3870110735",
    "name": "デイサービスセンター和光苑ゆうぐん",
    "kana": "デイサービスセンターワコウエンユウグン",
    "address": "愛媛県松山市雄郡2丁目5-8",
    "lat": 33.829329190977,
    "lng": 132.752309392098,
    "tel": "089-909-7600",
    "url": "http://wakouen.okoshi-yasu.com/",
    "pref": "愛媛県",
    "city": "松山市",
    "category": "community_day_service",
    "serviceType": "地域密着型通所介護",
    "capacity": 0,
    "openDays": [
      "平日",
      "祝日"
    ],
    "openDaysNote": "特になし"
  },
  {
    "id": "3870108267",
    "name": "デイサービスセンター櫻",
    "kana": "デイサービスセンターサクラ",
    "address": "愛媛県松山市別府町４４７番地２",
    "lat": 33.8440556,
    "lng": 132.7226235,
    "tel": "089-994-6101",
    "url": "",
    "pref": "愛媛県",
    "city": "松山市",
    "category": "community_day_service",
    "serviceType": "地域密着型通所介護",
    "capacity": 0,
    "openDays": [
      "平日",
      "土曜日",
      "日曜日",
      "祝日"
    ],
    "openDaysNote": "1月１日～３日まで休み"
  },
  {
    "id": "3890101391",
    "name": "デイサービスてんこう",
    "kana": "デイサービステンコウ",
    "address": "愛媛県松山市南斎院町1338番地105",
    "lat": 33.8437781,
    "lng": 132.7308589,
    "tel": "089-906-5583",
    "url": "http://hp.kaipoke.biz/mmu/",
    "pref": "愛媛県",
    "city": "松山市",
    "category": "community_day_service",
    "serviceType": "地域密着型通所介護",
    "capacity": 18,
    "openDays": [
      "平日",
      "土曜日",
      "日曜日",
      "祝日"
    ],
    "openDaysNote": ""
  },
  {
    "id": "3890102076",
    "name": "デイサービスなないろ",
    "kana": "デイサービスナナイロ",
    "address": "愛媛県松山市立花二丁目2番15号",
    "lat": 33.8284574,
    "lng": 132.7724237,
    "tel": "089-915-7717",
    "url": "http://kyowahp.com",
    "pref": "愛媛県",
    "city": "松山市",
    "category": "community_day_service",
    "serviceType": "地域密着型通所介護",
    "capacity": null,
    "openDays": [
      "平日",
      "土曜日",
      "祝日"
    ],
    "openDaysNote": ""
  },
  {
    "id": "3890102233",
    "name": "デイサービスねこの手",
    "kana": "デイサービスネコノテ",
    "address": "松山市古川南３丁目23-22",
    "lat": 33.8045229,
    "lng": 132.7615407,
    "tel": "089-993-5353",
    "url": "https://yuyusya.co.jp",
    "pref": "愛媛県",
    "city": "松山市",
    "category": "community_day_service",
    "serviceType": "地域密着型通所介護",
    "capacity": null,
    "openDays": [
      "平日",
      "土曜日",
      "祝日"
    ],
    "openDaysNote": ""
  },
  {
    "id": "3870103813",
    "name": "デイサービスふくい",
    "kana": "デイサービスフクイ",
    "address": "愛媛県松山市高井町795番地1",
    "lat": 33.7966937,
    "lng": 132.814443,
    "tel": "089-970-3016",
    "url": "http://www.fukui-g.com/fukui_clinic",
    "pref": "愛媛県",
    "city": "松山市",
    "category": "community_day_service",
    "serviceType": "地域密着型通所介護",
    "capacity": 0,
    "openDays": [
      "平日",
      "祝日"
    ],
    "openDaysNote": "特にありません。"
  },
  {
    "id": "3870110719",
    "name": "デイサービスゆい",
    "kana": "デイサービスユイ",
    "address": "愛媛県松山市馬木町２２５１番地２",
    "lat": 33.8916244547644,
    "lng": 132.745536142328,
    "tel": "０８９－９９５－８６６１",
    "url": "http://yui-cm.wix.com/architect-co-jp",
    "pref": "愛媛県",
    "city": "松山市",
    "category": "community_day_service",
    "serviceType": "地域密着型通所介護",
    "capacity": 4,
    "openDays": [
      "平日",
      "土曜日",
      "祝日"
    ],
    "openDaysNote": ""
  },
  {
    "id": "3870104076",
    "name": "デイサービスよかよか倶楽部",
    "kana": "デイサービスヨカヨカクラブ",
    "address": "愛媛県松山市築山町8番3号",
    "lat": 33.8381468,
    "lng": 132.7790685,
    "tel": "089-998-2800",
    "url": "http://www.h6.dion.ne.jp/~alte/",
    "pref": "愛媛県",
    "city": "松山市",
    "category": "community_day_service",
    "serviceType": "地域密着型通所介護",
    "capacity": 0,
    "openDays": [
      "平日",
      "祝日"
    ],
    "openDaysNote": "事業所の都合により、休む場合もある。"
  },
  {
    "id": "3870111121",
    "name": "デイサービス愛・家族",
    "kana": "デイサービスアイ・カゾク",
    "address": "愛媛県松山市港山町4番17号サービス付き高齢者向け住宅　愛・家族 サービス付き高齢者向け住宅　愛・家族",
    "lat": 33.8681260541969,
    "lng": 132.713451350926,
    "tel": "089-952-7777",
    "url": "http://aikazoku.com/",
    "pref": "愛媛県",
    "city": "松山市",
    "category": "community_day_service",
    "serviceType": "地域密着型通所介護",
    "capacity": 12,
    "openDays": [
      "平日",
      "土曜日",
      "祝日"
    ],
    "openDaysNote": "サービス提供時間は、2単位になっています。（改行）平日・祝日・土曜日ともに①9時～12時30分②13時30分～16時45分になります。"
  },
  {
    "id": "3870104027",
    "name": "デイサービス愛と心えひめ",
    "kana": "デイサービスアイトココロエヒメ",
    "address": "愛媛県松山市末町甲9番地1愛媛県在宅介護研修センター 愛媛県在宅介護研修センター",
    "lat": 33.8637977,
    "lng": 132.8181002,
    "tel": "089-914-0731",
    "url": "http://iyocom.jp/aitokokoro.e/",
    "pref": "愛媛県",
    "city": "松山市",
    "category": "community_day_service",
    "serviceType": "地域密着型通所介護",
    "capacity": 0,
    "openDays": [
      "平日",
      "土曜日",
      "日曜日",
      "祝日"
    ],
    "openDaysNote": "年2回程度の臨時休業あり。"
  },
  {
    "id": "3890102027",
    "name": "デイサービス花へんろ",
    "kana": "デイサービスハナヘンロ",
    "address": "愛媛県松山市河野中須賀145番地20",
    "lat": 33.9461774,
    "lng": 132.7702374,
    "tel": "089-989-7628",
    "url": "https://yuyusya.co.jp/hanahenro/",
    "pref": "愛媛県",
    "city": "松山市",
    "category": "community_day_service",
    "serviceType": "地域密着型通所介護",
    "capacity": null,
    "openDays": [
      "平日",
      "土曜日",
      "祝日"
    ],
    "openDaysNote": ""
  },
  {
    "id": "3890102126",
    "name": "デイサービス笑音",
    "kana": "デイサービス　エミネ",
    "address": "愛媛県松山市南斉院町935-1",
    "lat": 33.8330528002937,
    "lng": 132.731964287944,
    "tel": "089-968-6223",
    "url": "https://yuyusya.co.jp/",
    "pref": "愛媛県",
    "city": "松山市",
    "category": "community_day_service",
    "serviceType": "地域密着型通所介護",
    "capacity": 45,
    "openDays": [
      "平日",
      "土曜日",
      "祝日"
    ],
    "openDaysNote": ""
  },
  {
    "id": "3890102225",
    "name": "デイサービス智温苑",
    "kana": "デイサービスチハルエン",
    "address": "愛媛県松山市西垣生町1184番地5",
    "lat": 33.8150634,
    "lng": 132.7037443,
    "tel": "089-971-0010",
    "url": "http://familycare.co.jp",
    "pref": "愛媛県",
    "city": "松山市",
    "category": "community_day_service",
    "serviceType": "地域密着型通所介護",
    "capacity": 0,
    "openDays": [
      "平日",
      "土曜日",
      "日曜日",
      "祝日"
    ],
    "openDaysNote": ""
  },
  {
    "id": "3870107889",
    "name": "デイサービス道後茶寮",
    "kana": "デイサービス　ドウゴサリョウ",
    "address": "愛媛県松山市枝松6丁目6-16　山内SKYビル2F",
    "lat": 33.8256914380404,
    "lng": 132.784373003323,
    "tel": "089-968-1765",
    "url": "http://www.healthy-planet.jp",
    "pref": "愛媛県",
    "city": "松山市",
    "category": "community_day_service",
    "serviceType": "地域密着型通所介護",
    "capacity": 300,
    "openDays": [
      "平日"
    ],
    "openDaysNote": ""
  },
  {
    "id": "3870107400",
    "name": "デイサービス坊っちゃん",
    "kana": "デイサービスボッチャン",
    "address": "愛媛県松山市梅津寺町乙56-214",
    "lat": 33.8777454,
    "lng": 132.7071786,
    "tel": "089-946-8886",
    "url": "http://www.sumire-group.jp/",
    "pref": "愛媛県",
    "city": "松山市",
    "category": "community_day_service",
    "serviceType": "地域密着型通所介護",
    "capacity": 18,
    "openDays": [
      "平日",
      "祝日"
    ],
    "openDaysNote": "1/1～1/3の間お休み"
  },
  {
    "id": "3870109034",
    "name": "デイサービス民家　あすなろ",
    "kana": "デイサービスミンカ　アスナロ",
    "address": "松山市北井門二丁目２６番２１号",
    "lat": 33.804312,
    "lng": 132.7797742,
    "tel": "089-997-7114",
    "url": "http://www.ikiikikaigo.com/",
    "pref": "愛媛県",
    "city": "松山市",
    "category": "community_day_service",
    "serviceType": "地域密着型通所介護",
    "capacity": 0,
    "openDays": [
      "平日",
      "土曜日",
      "祝日"
    ],
    "openDaysNote": ""
  },
  {
    "id": "3870108382",
    "name": "デイサービス民家いろは",
    "kana": "デイサービスミンカイロハ",
    "address": "愛媛県松山市畑寺2丁目8番10号",
    "lat": 33.8316371,
    "lng": 132.798747,
    "tel": "(089)943-8122",
    "url": "http://www.ikiikikaigo.com",
    "pref": "愛媛県",
    "city": "松山市",
    "category": "community_day_service",
    "serviceType": "地域密着型通所介護",
    "capacity": 15,
    "openDays": [
      "平日",
      "土曜日",
      "祝日"
    ],
    "openDaysNote": ""
  },
  {
    "id": "3870111196",
    "name": "デイサービス民家いろは　はなれ",
    "kana": "デイサービスミンカイロハ　ハナレ",
    "address": "愛媛県松山市古川北二丁目16番6号",
    "lat": 33.8118912,
    "lng": 132.7626039,
    "tel": "089－909-9172",
    "url": "",
    "pref": "愛媛県",
    "city": "松山市",
    "category": "community_day_service",
    "serviceType": "地域密着型通所介護",
    "capacity": 0,
    "openDays": [
      "平日",
      "土曜日",
      "祝日"
    ],
    "openDaysNote": ""
  },
  {
    "id": "3870108788",
    "name": "デイサービス柳井町",
    "kana": "デイサービスヤナイマチ",
    "address": "愛媛県松山市柳井町1-11-15",
    "lat": 33.8339276834913,
    "lng": 132.76996225159,
    "tel": "０８９－９６１－４１１１",
    "url": "",
    "pref": "愛媛県",
    "city": "松山市",
    "category": "community_day_service",
    "serviceType": "地域密着型通所介護",
    "capacity": 12,
    "openDays": [
      "平日",
      "土曜日"
    ],
    "openDaysNote": ""
  },
  {
    "id": "3870108333",
    "name": "デイサービス悠楽里",
    "kana": "デイサービスユラリ",
    "address": "愛媛県松山市畑寺４丁目７番３２号",
    "lat": 33.8246768,
    "lng": 132.8046908,
    "tel": "089-975-1237",
    "url": "",
    "pref": "愛媛県",
    "city": "松山市",
    "category": "community_day_service",
    "serviceType": "地域密着型通所介護",
    "capacity": 10,
    "openDays": [
      "平日",
      "土曜日",
      "祝日"
    ],
    "openDaysNote": "（サービス提供時間は８時３０分～１５時４０分）（改行）ただし、利用者の希望により時間外を実施する場合はこの限りではありません"
  },
  {
    "id": "3870107962",
    "name": "デイサービス遊季",
    "kana": "デイサービスユウキ",
    "address": "愛媛県松山市古川西２丁目１１番２４号",
    "lat": 33.8084997,
    "lng": 132.7569213,
    "tel": "089-957-0580",
    "url": "http://hp.kaipoke.biz/k17/",
    "pref": "愛媛県",
    "city": "松山市",
    "category": "community_day_service",
    "serviceType": "地域密着型通所介護",
    "capacity": 9,
    "openDays": [
      "平日"
    ],
    "openDaysNote": "年末年始は利用者様の都合にて営業するか決定しています"
  },
  {
    "id": "3870107459",
    "name": "デイホームふゅうちゃあ",
    "kana": "デイホームフュウチャア",
    "address": "大可賀２丁目８－３４",
    "lat": 33.8534508648876,
    "lng": 132.713943323943,
    "tel": "089-952-0661",
    "url": "http://day-fuuture.com",
    "pref": "愛媛県",
    "city": "松山市",
    "category": "community_day_service",
    "serviceType": "地域密着型通所介護",
    "capacity": 18,
    "openDays": [
      "平日",
      "土曜日",
      "祝日"
    ],
    "openDaysNote": "※特別行事及び複数の利用者から要望がある場合は、休業日もサービス提供を行う場合が　あります。（改行）※天災その他やむを得ず業務を遂行できない日は臨時休業いたします。"
  },
  {
    "id": "3870102419",
    "name": "ハニーデイサービスセンター",
    "kana": "ハニーデイサービスセンター",
    "address": "愛媛県松山市西石井1丁目1番25号クリエイションビル1階 クリエイションビル1階",
    "lat": 33.8164021,
    "lng": 132.7741025,
    "tel": "089-958-0094",
    "url": "",
    "pref": "愛媛県",
    "city": "松山市",
    "category": "community_day_service",
    "serviceType": "地域密着型通所介護",
    "capacity": 2,
    "openDays": [
      "平日",
      "祝日"
    ],
    "openDaysNote": "特になし"
  },
  {
    "id": "3890101649",
    "name": "リハコミュ　てらよこ",
    "kana": "リハコミュ　テラヨコ",
    "address": "愛媛県松山市石手2丁目8-30",
    "lat": 33.8478157,
    "lng": 132.7986831,
    "tel": "089-909-4410",
    "url": "",
    "pref": "愛媛県",
    "city": "松山市",
    "category": "community_day_service",
    "serviceType": "地域密着型通所介護",
    "capacity": 14,
    "openDays": [
      "平日",
      "土曜日"
    ],
    "openDaysNote": ""
  },
  {
    "id": "3870108804",
    "name": "リハビリデイサービスここから",
    "kana": "リハビリデイサービスココカラ",
    "address": "愛媛県松山市松末１－５－１０",
    "lat": 33.8274567,
    "lng": 132.7884343,
    "tel": "０８９－９４３－３９３９",
    "url": "https://www.kokokaraday.jp/",
    "pref": "愛媛県",
    "city": "松山市",
    "category": "community_day_service",
    "serviceType": "地域密着型通所介護",
    "capacity": 0,
    "openDays": [
      "平日"
    ],
    "openDaysNote": "その他の休み（改行）年末年始"
  },
  {
    "id": "3890102043",
    "name": "リハビリデイサービスふふ",
    "kana": "リハビリデイサービスフフ",
    "address": "愛媛県松山市樽味２丁目94-1",
    "lat": 33.8403146,
    "lng": 132.7915536,
    "tel": "089-989-3305",
    "url": "http://www.rihasta-mikan.com/",
    "pref": "愛媛県",
    "city": "松山市",
    "category": "community_day_service",
    "serviceType": "地域密着型通所介護",
    "capacity": 0,
    "openDays": [
      "平日",
      "土曜日",
      "祝日"
    ],
    "openDaysNote": "年末年始（12/31～1/3）"
  },
  {
    "id": "3890101623",
    "name": "リハプライド　かどた",
    "kana": "リハプライド　カドタ",
    "address": "愛媛県松山市水泥町100-2",
    "lat": 33.7989743,
    "lng": 132.8290945,
    "tel": "089-909-3805",
    "url": "https://www.rehapride.co.jp/kadota/",
    "pref": "愛媛県",
    "city": "松山市",
    "category": "community_day_service",
    "serviceType": "地域密着型通所介護",
    "capacity": 15,
    "openDays": [
      "平日",
      "土曜日",
      "祝日"
    ],
    "openDaysNote": ""
  },
  {
    "id": "3870108895",
    "name": "リハプライド　かどた脳神経外科",
    "kana": "リハプライド　カドタノウシンケイゲカ",
    "address": "愛媛県松山市末広町5番14三和マンション末広101号 三和マンション末広101号",
    "lat": 33.832136,
    "lng": 132.7632839,
    "tel": "089-998-6075",
    "url": "http://www.lets-club.com/kadotanougeka/",
    "pref": "愛媛県",
    "city": "松山市",
    "category": "community_day_service",
    "serviceType": "地域密着型通所介護",
    "capacity": 0,
    "openDays": [
      "平日",
      "土曜日",
      "祝日"
    ],
    "openDaysNote": "祝祭日は営業しております。"
  },
  {
    "id": "3870111089",
    "name": "リハプライド・南海三津",
    "kana": "リハプライド　ナンカイミツ",
    "address": "愛媛県松山市古三津6丁目12-19佐川ビル　１F 佐川ビル　１F",
    "lat": 33.8571205,
    "lng": 132.7198128,
    "tel": "089-953-5861",
    "url": "http://www.rehapride.co.jp/furumitsuroku/",
    "pref": "愛媛県",
    "city": "松山市",
    "category": "community_day_service",
    "serviceType": "地域密着型通所介護",
    "capacity": 0,
    "openDays": [
      "平日",
      "土曜日",
      "祝日"
    ],
    "openDaysNote": ""
  },
  {
    "id": "3870110230",
    "name": "リハプライド築山",
    "kana": "リハプライドツキヤマ",
    "address": "松山市築山町7-5",
    "lat": 33.8385357,
    "lng": 132.7788351,
    "tel": "089-993-8650",
    "url": "http://www.rehapride.co.jp/tsukiyama",
    "pref": "愛媛県",
    "city": "松山市",
    "category": "community_day_service",
    "serviceType": "地域密着型通所介護",
    "capacity": 10,
    "openDays": [
      "平日",
      "祝日"
    ],
    "openDaysNote": "祝日は営業"
  },
  {
    "id": "3870109778",
    "name": "リハプライド南海",
    "kana": "リハプライドナンカイ",
    "address": "愛媛県松山市祝谷５丁目２－１５",
    "lat": 33.8574001,
    "lng": 132.779835,
    "tel": "089-917-8650",
    "url": "",
    "pref": "愛媛県",
    "city": "松山市",
    "category": "community_day_service",
    "serviceType": "地域密着型通所介護",
    "capacity": 18,
    "openDays": [
      "平日",
      "土曜日",
      "祝日"
    ],
    "openDaysNote": "特になし"
  },
  {
    "id": "3890102100",
    "name": "リハプライド南海",
    "kana": "リハプライドナンカイ",
    "address": "愛媛県松山市祝谷５丁目２ー１５ベニール２１・１０１ ベニール２１・１０１",
    "lat": 33.8574221,
    "lng": 132.7798111,
    "tel": "089－917－8650",
    "url": "https://www.rehapride.co.jp/nankai/",
    "pref": "愛媛県",
    "city": "松山市",
    "category": "community_day_service",
    "serviceType": "地域密着型通所介護",
    "capacity": 0,
    "openDays": [
      "平日"
    ],
    "openDaysNote": ""
  },
  {
    "id": "3890102019",
    "name": "機能訓練デイサービスかわぐち元氣堂",
    "kana": "キノウクンレンデイサービスカワグチゲンキドウ",
    "address": "愛媛県松山市富久町102番地１",
    "lat": 33.8228494,
    "lng": 132.7320603,
    "tel": "089-973-1414",
    "url": "",
    "pref": "愛媛県",
    "city": "松山市",
    "category": "community_day_service",
    "serviceType": "地域密着型通所介護",
    "capacity": 10,
    "openDays": [
      "平日"
    ],
    "openDaysNote": ""
  },
  {
    "id": "3870110529",
    "name": "指定通所介護事業所あさひ",
    "kana": "シテイツウショカイゴジギョウショアサヒ",
    "address": "愛媛県松山市下伊台町777-1",
    "lat": 33.8725621198884,
    "lng": 132.801625387732,
    "tel": "089-977-6628",
    "url": "https://asahi-idai.com/",
    "pref": "愛媛県",
    "city": "松山市",
    "category": "community_day_service",
    "serviceType": "地域密着型通所介護",
    "capacity": 18,
    "openDays": [
      "平日",
      "土曜日",
      "祝日"
    ],
    "openDaysNote": "・祝祭日・お盆は通常通り営業（改行）・警報その他天候により、やむを得ずサービス中止の場合有"
  },
  {
    "id": "3890101813",
    "name": "地域密着型　デイサービス智温苑",
    "kana": "チイキミッチャクガタ　デイサービスチハルエン",
    "address": "愛媛県松山市西垣生町1184-5ファミリーケア智温苑 ファミリーケア智温苑",
    "lat": 33.8150081,
    "lng": 132.7036751,
    "tel": "089-971-0010",
    "url": "http://familycare.co.jp/",
    "pref": "愛媛県",
    "city": "松山市",
    "category": "community_day_service",
    "serviceType": "地域密着型通所介護",
    "capacity": 0,
    "openDays": [
      "平日",
      "土曜日",
      "日曜日",
      "祝日"
    ],
    "openDaysNote": ""
  },
  {
    "id": "3870108044",
    "name": "茶話本舗デイサービスさや",
    "kana": "サワホンポデイサービスサヤ",
    "address": "愛媛県松山市南斎院町923番地2",
    "lat": 33.8331284601597,
    "lng": 132.730910705079,
    "tel": "089-989-8830",
    "url": "",
    "pref": "愛媛県",
    "city": "松山市",
    "category": "community_day_service",
    "serviceType": "地域密着型通所介護",
    "capacity": 0,
    "openDays": [
      "平日",
      "土曜日",
      "日曜日",
      "祝日"
    ],
    "openDaysNote": "7時～20時の間で延長サービスあり"
  },
  {
    "id": "3870107350",
    "name": "茶話本舗デイサービス久万ノ台",
    "kana": "サワホンポデイサービスクマノダイ",
    "address": "愛媛県松山市久万ノ台1038-6",
    "lat": 33.8588104011316,
    "lng": 132.740018907658,
    "tel": "089-911-2010",
    "url": "http://www.sawahonpo.com/",
    "pref": "愛媛県",
    "city": "松山市",
    "category": "community_day_service",
    "serviceType": "地域密着型通所介護",
    "capacity": 3,
    "openDays": [
      "平日",
      "土曜日",
      "日曜日",
      "祝日"
    ],
    "openDaysNote": ""
  },
  {
    "id": "3870108564",
    "name": "茶話本舗デイサービス畑寺",
    "kana": "サワホンポデイサービスハタデラ",
    "address": "愛媛県松山市畑寺町乙852-1",
    "lat": 33.839142,
    "lng": 132.8061461,
    "tel": "089-990-6830",
    "url": "",
    "pref": "愛媛県",
    "city": "松山市",
    "category": "community_day_service",
    "serviceType": "地域密着型通所介護",
    "capacity": 10,
    "openDays": [
      "平日",
      "土曜日",
      "日曜日",
      "祝日"
    ],
    "openDaysNote": ""
  },
  {
    "id": "3870106071",
    "name": "通所介護事業所　かざはや",
    "kana": "ツウショカイゴジギョウショ　カザハヤ",
    "address": "愛媛県松山市中西内４６９番地",
    "lat": 33.9706174,
    "lng": 132.7879934,
    "tel": "089-960-2570",
    "url": "g-kazahaya@lime.plala.",
    "pref": "愛媛県",
    "city": "松山市",
    "category": "community_day_service",
    "serviceType": "地域密着型通所介護",
    "capacity": 15,
    "openDays": [
      "平日",
      "土曜日",
      "祝日"
    ],
    "openDaysNote": "特になし"
  },
  {
    "id": "3870109646",
    "name": "通所介護事業所　虹",
    "kana": "ツウショカイゴジギョウショ　ニジ",
    "address": "保免西一丁目8番33号",
    "lat": 33.8181232,
    "lng": 132.7452635,
    "tel": "089-992-9468",
    "url": "",
    "pref": "愛媛県",
    "city": "松山市",
    "category": "community_day_service",
    "serviceType": "地域密着型通所介護",
    "capacity": 11,
    "openDays": [
      "平日",
      "土曜日",
      "祝日"
    ],
    "openDaysNote": "12/31～1/2は定休日です。"
  },
  {
    "id": "3870108796",
    "name": "通所介護事業所ひだまり",
    "kana": "ツウショカイゴジギョウショヒダマリ",
    "address": "愛媛県松山市立花3丁目3番ハーモニーガーデン ハーモニーガーデン",
    "lat": 33.8255426,
    "lng": 132.7740052,
    "tel": "089-945-7704",
    "url": "",
    "pref": "愛媛県",
    "city": "松山市",
    "category": "community_day_service",
    "serviceType": "地域密着型通所介護",
    "capacity": 0,
    "openDays": [
      "平日",
      "土曜日",
      "日曜日",
      "祝日"
    ],
    "openDaysNote": ""
  },
  {
    "id": "3870110859",
    "name": "通所介護事業所ローズ",
    "kana": "ツウショカイゴジギョウショローズ",
    "address": "愛媛県松山市藤原町664番1",
    "lat": 33.8334802280654,
    "lng": 132.758369810451,
    "tel": "089-913-2220",
    "url": "http://greenhealth/rose/",
    "pref": "愛媛県",
    "city": "松山市",
    "category": "community_day_service",
    "serviceType": "地域密着型通所介護",
    "capacity": 0,
    "openDays": [
      "平日",
      "土曜日",
      "日曜日",
      "祝日"
    ],
    "openDaysNote": "特になし"
  },
  {
    "id": "3873500981",
    "name": "デイサービスセンターかおり",
    "kana": "デイサービスセンターカオリ",
    "address": "愛媛県伊予郡松前町筒井1579番地1",
    "lat": 33.7920862,
    "lng": 132.7015262,
    "tel": "089-961-6900",
    "url": "https://kirari01.com/",
    "pref": "愛媛県",
    "city": "松前町",
    "category": "community_day_service",
    "serviceType": "地域密着型通所介護",
    "capacity": 0,
    "openDays": [
      "平日",
      "土曜日",
      "祝日"
    ],
    "openDaysNote": "サービス提供時間は午前9時30分から午後16時30分までとする。"
  },
  {
    "id": "3893500136",
    "name": "デイサービスセンター福家えびす店",
    "kana": "デイサービスセンターフクヤエビステン",
    "address": "愛媛県伊予郡松前町大字浜420番地2",
    "lat": 33.7890305134144,
    "lng": 132.702700048685,
    "tel": "089-910-2787",
    "url": "",
    "pref": "愛媛県",
    "city": "松前町",
    "category": "community_day_service",
    "serviceType": "地域密着型通所介護",
    "capacity": 0,
    "openDays": [
      "平日",
      "祝日"
    ],
    "openDaysNote": ""
  },
  {
    "id": "3893500128",
    "name": "リハプライド・アルバ有明",
    "kana": "リハプライド・アルバアリアケ",
    "address": "愛媛県伊予郡松前町上高柳259番地1",
    "lat": 33.7982665071226,
    "lng": 132.735002935582,
    "tel": "089-989-6761",
    "url": "http://www.matuno-cl.com",
    "pref": "愛媛県",
    "city": "松前町",
    "category": "community_day_service",
    "serviceType": "地域密着型通所介護",
    "capacity": 18,
    "openDays": [
      "平日",
      "祝日"
    ],
    "openDaysNote": ""
  },
  {
    "id": "3873500809",
    "name": "有限会社デイサービスさくら",
    "kana": "ユウゲンガイシャデイサービスサクラ",
    "address": "愛媛県伊予郡松前町大字恵久美546番地6",
    "lat": 33.7948893,
    "lng": 132.7268568,
    "tel": "089-985-4611",
    "url": "",
    "pref": "愛媛県",
    "city": "松前町",
    "category": "community_day_service",
    "serviceType": "地域密着型通所介護",
    "capacity": 10,
    "openDays": [
      "平日",
      "土曜日",
      "祝日"
    ],
    "openDaysNote": "特になし。"
  },
  {
    "id": "3873900231",
    "name": "デイサービス施設古城園",
    "kana": "デイサービスシセツコジョウエン",
    "address": "愛媛県北宇和郡松野町大字豊岡4598番地第1",
    "lat": 33.2226341,
    "lng": 132.7045493,
    "tel": "0895-42-1901",
    "url": "",
    "pref": "愛媛県",
    "city": "松野町",
    "category": "community_day_service",
    "serviceType": "地域密着型通所介護",
    "capacity": 0,
    "openDays": [
      "平日"
    ],
    "openDaysNote": "なし"
  },
  {
    "id": "3893200042",
    "name": "デイサービス　すまいる",
    "kana": "デイサービス　スマイル",
    "address": "愛媛県越智郡上島町生名508番地",
    "lat": 34.2674793250372,
    "lng": 133.184274432655,
    "tel": "0897-74-0963",
    "url": "",
    "pref": "愛媛県",
    "city": "上島町",
    "category": "community_day_service",
    "serviceType": "地域密着型通所介護",
    "capacity": 10,
    "openDays": [
      "平日"
    ],
    "openDaysNote": "但し、現在は土曜日は休業で週5日の営業となっている。"
  },
  {
    "id": "3873201002",
    "name": "デイサービスはっぴい横丁",
    "kana": "デイサービスハッピイヨコチョウ",
    "address": "愛媛県越智郡上島町弓削下弓削４６０番地株式会社幸福丸 株式会社幸福丸",
    "lat": 34.2573759283901,
    "lng": 133.207258390213,
    "tel": "０８９７－７２－９１８１",
    "url": "",
    "pref": "愛媛県",
    "city": "上島町",
    "category": "community_day_service",
    "serviceType": "地域密着型通所介護",
    "capacity": 13,
    "openDays": [
      "平日",
      "土曜日"
    ],
    "openDaysNote": ""
  },
  {
    "id": "3873200863",
    "name": "上島町魚島デイサービスセンター",
    "kana": "カミジマチョウウオシマデイサービスセンター",
    "address": "愛媛県越智郡上島町魚島一番耕地1367番地2",
    "lat": 34.1774982,
    "lng": 133.3204961,
    "tel": "0897-74-1120",
    "url": "",
    "pref": "愛媛県",
    "city": "上島町",
    "category": "community_day_service",
    "serviceType": "地域密着型通所介護",
    "capacity": 0,
    "openDays": [
      "平日"
    ],
    "openDaysNote": "特にありません。"
  },
  {
    "id": "3873200921",
    "name": "上島町社協岩城通所介護事業所",
    "kana": "カミジマチョウシャキョウイワギツウショカイゴジギョウショ",
    "address": "愛媛県越智郡上島町岩城2239番地",
    "lat": 34.2482635,
    "lng": 133.1418657,
    "tel": "0897-75-3177",
    "url": "https://www.kamijima-shakyo.or.jp/",
    "pref": "愛媛県",
    "city": "上島町",
    "category": "community_day_service",
    "serviceType": "地域密着型通所介護",
    "capacity": null,
    "openDays": [
      "平日",
      "土曜日",
      "祝日"
    ],
    "openDaysNote": "特にありません。"
  },
  {
    "id": "3873200996",
    "name": "上島町社協弓削通所介護事業所",
    "kana": "カミジマチョウシャキョウユゲツウショカイゴジギョウショ",
    "address": "愛媛県越智郡上島町弓削上弓削１９０７番地１",
    "lat": 34.2796163,
    "lng": 133.2108672,
    "tel": "0897-77-2555",
    "url": "httpｓ://www.kamijima-shakyo.or.jp/",
    "pref": "愛媛県",
    "city": "上島町",
    "category": "community_day_service",
    "serviceType": "地域密着型通所介護",
    "capacity": null,
    "openDays": [
      "平日",
      "土曜日",
      "祝日"
    ],
    "openDaysNote": "特になし"
  },
  {
    "id": "3873200913",
    "name": "上島町社協生名通所介護事業所",
    "kana": "カミジマチョウシャキョウイキナツウショカイゴジギョウショ",
    "address": "愛媛県越智郡上島町生名2133番地3上島町生名デイサービスセンター 上島町生名デイサービスセンター",
    "lat": 34.2799004,
    "lng": 133.1764526,
    "tel": "0897-74-0920",
    "url": "https://www.kamijima-shakyo.or.jp/",
    "pref": "愛媛県",
    "city": "上島町",
    "category": "community_day_service",
    "serviceType": "地域密着型通所介護",
    "capacity": null,
    "openDays": [
      "平日",
      "祝日"
    ],
    "openDaysNote": "特になし"
  },
  {
    "id": "3890500527",
    "name": "あすなろ北内　チヨの里",
    "kana": "アスナロキタウチ　チヨノサト",
    "address": "愛媛県新居浜市北内町1丁目2番26号",
    "lat": 33.9339204,
    "lng": 133.307234,
    "tel": "0897-47-7417",
    "url": "http://www.yuyusya.co.jp/",
    "pref": "愛媛県",
    "city": "新居浜市",
    "category": "community_day_service",
    "serviceType": "地域密着型通所介護",
    "capacity": null,
    "openDays": [
      "平日",
      "土曜日",
      "祝日"
    ],
    "openDaysNote": ""
  },
  {
    "id": "3870500752",
    "name": "カミングケアステーション",
    "kana": "カミングケアステーション",
    "address": "新居浜市政枝町2丁目3番32号",
    "lat": 33.9327894,
    "lng": 133.268343,
    "tel": "080-2988-9883",
    "url": "https://www.haginodai.co.jp/",
    "pref": "愛媛県",
    "city": "新居浜市",
    "category": "community_day_service",
    "serviceType": "地域密着型通所介護",
    "capacity": 18,
    "openDays": [
      "平日",
      "祝日"
    ],
    "openDaysNote": "緊急時は電話対応可"
  },
  {
    "id": "3890500618",
    "name": "さわやか新居浜館デイサービスセンター",
    "kana": "サワヤカニイハマカンデイサービスセンター",
    "address": "愛媛県新居浜市東田３丁目乙11-77さわやか新居浜館 さわやか新居浜館",
    "lat": 33.9448901,
    "lng": 133.3219398,
    "tel": "0897-66-2266",
    "url": "http://niihamakan.sawayakaclub.jp",
    "pref": "愛媛県",
    "city": "新居浜市",
    "category": "community_day_service",
    "serviceType": "地域密着型通所介護",
    "capacity": 18,
    "openDays": [
      "平日",
      "祝日"
    ],
    "openDaysNote": "年末年始・お盆期間・地方祭・祝日等に関しましては、土曜日・日曜日以外は営業致します。"
  },
  {
    "id": "3870501867",
    "name": "デイサービス　いずみかわ",
    "kana": "デイサービス　イズミカワ",
    "address": "愛媛県新居浜市瀬戸町1-2",
    "lat": 33.9454439,
    "lng": 133.2964356,
    "tel": "0897-41-6117",
    "url": "http://www.ehime-med.or.jp/",
    "pref": "愛媛県",
    "city": "新居浜市",
    "category": "community_day_service",
    "serviceType": "地域密着型通所介護",
    "capacity": 14,
    "openDays": [
      "平日",
      "土曜日"
    ],
    "openDaysNote": ""
  },
  {
    "id": "3890500592",
    "name": "デイサービスじゃがいも",
    "kana": "デイサービスジャガイモ",
    "address": "愛媛県新居浜市田の上1丁目13番42号",
    "lat": 33.9700902,
    "lng": 133.3156011,
    "tel": "0897-47-7716",
    "url": "https://jagaimoday.com/",
    "pref": "愛媛県",
    "city": "新居浜市",
    "category": "community_day_service",
    "serviceType": "地域密着型通所介護",
    "capacity": 0,
    "openDays": [
      "平日",
      "土曜日"
    ],
    "openDaysNote": "その他会社が指定する日"
  },
  {
    "id": "3870501685",
    "name": "デイサービスセンターお茶屋",
    "kana": "デイサービスセンターオチャヤ",
    "address": "愛媛県新居浜市西の土居町2-8-23",
    "lat": 33.9499737,
    "lng": 133.2739292,
    "tel": "0897-36-5339",
    "url": "http://ochayanosato.jp/",
    "pref": "愛媛県",
    "city": "新居浜市",
    "category": "community_day_service",
    "serviceType": "地域密着型通所介護",
    "capacity": 0,
    "openDays": [
      "平日",
      "土曜日",
      "祝日"
    ],
    "openDaysNote": "1月1日（年始）、10月18日（地方祭）は休み。"
  },
  {
    "id": "3870501131",
    "name": "デイサービスのんびりさん",
    "kana": "デイサービスノンビリサン",
    "address": "愛媛県新居浜市桜木町8番37号",
    "lat": 33.9672002,
    "lng": 133.299422,
    "tel": "0897-31-5011",
    "url": "http://niihama-mcoop.or.jp",
    "pref": "愛媛県",
    "city": "新居浜市",
    "category": "community_day_service",
    "serviceType": "地域密着型通所介護",
    "capacity": 18,
    "openDays": [
      "平日",
      "土曜日",
      "祝日"
    ],
    "openDaysNote": "但し、盆・地方祭・年末年始の休日は、年度によって変更の場合あり。（改行）電話等により、24時間常時連絡が可能。"
  },
  {
    "id": "3870502220",
    "name": "デイサービス花園",
    "kana": "デイサービスハナゾノ",
    "address": "愛媛県新居浜市高木町３番３４号",
    "lat": 33.9518317561441,
    "lng": 133.285985452594,
    "tel": "0897-47-6331",
    "url": "https://care-net.biz/38/ownsdream/",
    "pref": "愛媛県",
    "city": "新居浜市",
    "category": "community_day_service",
    "serviceType": "地域密着型通所介護",
    "capacity": 0,
    "openDays": [
      "平日",
      "土曜日",
      "祝日"
    ],
    "openDaysNote": ""
  },
  {
    "id": "3870501610",
    "name": "デイサービス竹トンボ",
    "kana": "デイサービスタケトンボ",
    "address": "愛媛県新居浜市落神町3番11号",
    "lat": 33.9675168,
    "lng": 133.3240218,
    "tel": "0897-46-1134",
    "url": "https://care-net.biz/38/taketonbo/",
    "pref": "愛媛県",
    "city": "新居浜市",
    "category": "community_day_service",
    "serviceType": "地域密着型通所介護",
    "capacity": 18,
    "openDays": [
      "平日",
      "土曜日",
      "祝日"
    ],
    "openDaysNote": "年末年始１２月３１日～１月３日、５月３日～５日、８月１５・１６日、（改行）１０月１７・１８日は除きます。"
  },
  {
    "id": "3870501818",
    "name": "デイサービス中の茶屋",
    "kana": "デイサービスナカノチャヤ",
    "address": "愛媛県新居浜市西の土居町二丁目８番２１号",
    "lat": 33.9497990907954,
    "lng": 133.274918101852,
    "tel": "0897-31-3955",
    "url": "http://ochayanosato.jp/",
    "pref": "愛媛県",
    "city": "新居浜市",
    "category": "community_day_service",
    "serviceType": "地域密着型通所介護",
    "capacity": 0,
    "openDays": [
      "平日",
      "土曜日",
      "祝日"
    ],
    "openDaysNote": ""
  },
  {
    "id": "3870501701",
    "name": "ひろ",
    "kana": "ヒロ",
    "address": "愛媛県新居浜市土橋一丁目4番40号",
    "lat": 33.9359174507863,
    "lng": 133.288304892065,
    "tel": "0897-66-2712",
    "url": "",
    "pref": "愛媛県",
    "city": "新居浜市",
    "category": "community_day_service",
    "serviceType": "地域密着型通所介護",
    "capacity": 12,
    "openDays": [
      "平日",
      "祝日"
    ],
    "openDaysNote": "緊急時は、電話対応可"
  },
  {
    "id": "3870501883",
    "name": "ファイトえひめ",
    "kana": "ファイトエヒメ",
    "address": "新居浜市西の土居町１－３－２８東京ネバーランドビル 東京ネバーランドビル",
    "lat": 33.9509348,
    "lng": 133.2809316,
    "tel": "０８９７－３１－５０７８",
    "url": "http://tn-ehime.co.jp",
    "pref": "愛媛県",
    "city": "新居浜市",
    "category": "community_day_service",
    "serviceType": "地域密着型通所介護",
    "capacity": 0,
    "openDays": [
      "平日"
    ],
    "openDaysNote": ""
  },
  {
    "id": "3870502444",
    "name": "リハステージ郷",
    "kana": "リハステージゴウ",
    "address": "愛媛県新居浜市清住町１－３６",
    "lat": 33.9607426,
    "lng": 133.3109343,
    "tel": "0897-46-5256",
    "url": "http://www.asokaen.jp/",
    "pref": "愛媛県",
    "city": "新居浜市",
    "category": "community_day_service",
    "serviceType": "地域密着型通所介護",
    "capacity": 0,
    "openDays": [
      "平日",
      "祝日"
    ],
    "openDaysNote": ""
  },
  {
    "id": "3890500543",
    "name": "介護予防運動デイサービス　リハサロン船木",
    "kana": "カイゴヨボウウンドウデイサービス　リハサロンフナキ",
    "address": "愛媛県新居浜市船木4047番地4",
    "lat": 33.9286982,
    "lng": 133.325887,
    "tel": "897276050",
    "url": "",
    "pref": "愛媛県",
    "city": "新居浜市",
    "category": "community_day_service",
    "serviceType": "地域密着型通所介護",
    "capacity": 0,
    "openDays": [
      "平日",
      "土曜日",
      "祝日"
    ],
    "openDaysNote": "当施設は午前・午後の2部制による介護サービスの提供を行っています。（改行）午前は9時～12時05分、午後は13時15分～16時20分となります。"
  },
  {
    "id": "3890500584",
    "name": "歩行特化型通所介護事業所GoPark",
    "kana": "ホコウトッカガタツウショカイゴジギョウショゴーパーク",
    "address": "愛媛県新居浜市郷三丁目１６番３５号",
    "lat": 33.9618191,
    "lng": 133.3099974,
    "tel": "0897-47-7536",
    "url": "https://gopark2.wixsite.com/gopark",
    "pref": "愛媛県",
    "city": "新居浜市",
    "category": "community_day_service",
    "serviceType": "地域密着型通所介護",
    "capacity": 0,
    "openDays": [
      "平日",
      "祝日"
    ],
    "openDaysNote": ""
  },
  {
    "id": "3870601337",
    "name": "JAえひめ未来デイサービスセンターみずほの里",
    "kana": "ジェイエイエヒメミライデイサービスセンターミズホノサト",
    "address": "愛媛県西条市禎瑞1033番地",
    "lat": 33.9162127,
    "lng": 133.147733,
    "tel": "0897-56-3100",
    "url": "http://ja-ehimemirai.or.jp",
    "pref": "愛媛県",
    "city": "西条市",
    "category": "community_day_service",
    "serviceType": "地域密着型通所介護",
    "capacity": 13,
    "openDays": [
      "平日",
      "日曜日",
      "祝日"
    ],
    "openDaysNote": "台風や災害等で営業をお休みする事あります。"
  },
  {
    "id": "3870601006",
    "name": "シグナルケアステーション",
    "kana": "シグナルケアステーション",
    "address": "西条市北条４６９－６",
    "lat": 33.9242857,
    "lng": 133.0971022,
    "tel": "0898-64-5917",
    "url": "",
    "pref": "愛媛県",
    "city": "西条市",
    "category": "community_day_service",
    "serviceType": "地域密着型通所介護",
    "capacity": 18,
    "openDays": [
      "平日",
      "祝日"
    ],
    "openDaysNote": ""
  },
  {
    "id": "3870600727",
    "name": "デイサービス　多賀の里",
    "kana": "デイサービス　タガノサト",
    "address": "愛媛県西条市北条231番地1",
    "lat": 33.9253076,
    "lng": 133.0915529,
    "tel": "0898-65-6662",
    "url": "http://www.jcomm-care.co.jp",
    "pref": "愛媛県",
    "city": "西条市",
    "category": "community_day_service",
    "serviceType": "地域密着型通所介護",
    "capacity": 18,
    "openDays": [
      "平日",
      "土曜日",
      "祝日"
    ],
    "openDaysNote": "サービス延長時間　17：00～18：30　事前相談により受付"
  },
  {
    "id": "3870600974",
    "name": "デイサービスセンター　こうゆう庵",
    "kana": "デイサービスセンター　コウユウアン",
    "address": "愛媛県西条市丹原町寺尾甲31番地1",
    "lat": 33.8611659,
    "lng": 133.0424413,
    "tel": "0898-76-6020",
    "url": "",
    "pref": "愛媛県",
    "city": "西条市",
    "category": "community_day_service",
    "serviceType": "地域密着型通所介護",
    "capacity": 0,
    "openDays": [
      "平日",
      "祝日"
    ],
    "openDaysNote": "天災その他やむを得ず業務を遂行できない日は営業日であっても臨時休業となる場合がある。また、特別行事等または複数の利用者よりサービスの希望がある場合は、営業日以外もサービス提供を行う場合がある。"
  },
  {
    "id": "3890600335",
    "name": "デイサービスセンター　空",
    "kana": "デイサービスセンター　クウ",
    "address": "愛媛県西条市三芳1047番地1",
    "lat": 33.9534983,
    "lng": 133.0618288,
    "tel": "0898-55-8381",
    "url": "",
    "pref": "愛媛県",
    "city": "西条市",
    "category": "community_day_service",
    "serviceType": "地域密着型通所介護",
    "capacity": 18,
    "openDays": [
      "平日",
      "土曜日",
      "祝日"
    ],
    "openDaysNote": "8/15～16（改行）12/30～1/3を除く。（改行）※一部都合により変更あり"
  },
  {
    "id": "3870601329",
    "name": "デイサービスセンター　虹",
    "kana": "デイサービスセンター　ニジ",
    "address": "愛媛県西条市石田564-5",
    "lat": 33.9132912075015,
    "lng": 133.091462555687,
    "tel": "（0898）55-8312",
    "url": "http://www.rainbowflower-saijo.com/",
    "pref": "愛媛県",
    "city": "西条市",
    "category": "community_day_service",
    "serviceType": "地域密着型通所介護",
    "capacity": 18,
    "openDays": [
      "平日",
      "土曜日",
      "祝日"
    ],
    "openDaysNote": ""
  },
  {
    "id": "3870601360",
    "name": "デイサービスセンターわが家",
    "kana": "デイサービスセンターワガヤ",
    "address": "愛媛県西条市黒瀬乙820-7",
    "lat": 33.8851222,
    "lng": 133.1717067,
    "tel": "0897-47-8880",
    "url": "http://wa-ga-ya.jp/",
    "pref": "愛媛県",
    "city": "西条市",
    "category": "community_day_service",
    "serviceType": "地域密着型通所介護",
    "capacity": 0,
    "openDays": [
      "平日",
      "土曜日"
    ],
    "openDaysNote": ""
  },
  {
    "id": "3890600418",
    "name": "デイサービスセンター愛出合",
    "kana": "デイサービスセンターアイデア",
    "address": "愛媛県西条市丹原町池田243番地3",
    "lat": 33.9161605,
    "lng": 133.0715186,
    "tel": "0898-55-8412",
    "url": "https://dayservice-shin.com/daycareService",
    "pref": "愛媛県",
    "city": "西条市",
    "category": "community_day_service",
    "serviceType": "地域密着型通所介護",
    "capacity": 0,
    "openDays": [
      "平日",
      "土曜日",
      "祝日"
    ],
    "openDaysNote": ""
  },
  {
    "id": "3870600743",
    "name": "デイサービスセンター丹原の郷",
    "kana": "デイサービスセンタータンバラノサト",
    "address": "愛媛県西条市丹原町池田1267-1",
    "lat": 33.9070643,
    "lng": 133.0560841,
    "tel": "0898-76-2880",
    "url": "http://jcomm-care.co.jp",
    "pref": "愛媛県",
    "city": "西条市",
    "category": "community_day_service",
    "serviceType": "地域密着型通所介護",
    "capacity": 0,
    "openDays": [
      "平日",
      "祝日"
    ],
    "openDaysNote": "特になし。"
  },
  {
    "id": "3870600875",
    "name": "デイサービスセンター池さん",
    "kana": "デイサービスセンターイケサン",
    "address": "愛媛県西条市小松町南川甲236番地5",
    "lat": 33.8954251,
    "lng": 133.0978579,
    "tel": "0898-72-5236",
    "url": "https://ike3.amebaownd.com/",
    "pref": "愛媛県",
    "city": "西条市",
    "category": "community_day_service",
    "serviceType": "地域密着型通所介護",
    "capacity": 0,
    "openDays": [
      "平日",
      "土曜日"
    ],
    "openDaysNote": "台風接近時、災害時は利用者の安全を優先して休む場合もある。"
  },
  {
    "id": "3870600990",
    "name": "デイサービスセンタター千代の家",
    "kana": "デイサービスセンターチヨノイエ",
    "address": "愛媛県西条市丹原町今井116-1",
    "lat": 33.8992541,
    "lng": 133.0576755,
    "tel": "0898-68-7744",
    "url": "",
    "pref": "愛媛県",
    "city": "西条市",
    "category": "community_day_service",
    "serviceType": "地域密着型通所介護",
    "capacity": 15,
    "openDays": [
      "平日",
      "土曜日",
      "祝日"
    ],
    "openDaysNote": ""
  },
  {
    "id": "3870601444",
    "name": "デイサービスたいよう",
    "kana": "デイサービスタイヨウ",
    "address": "愛媛県西条市喜多川452-1",
    "lat": 33.917966,
    "lng": 133.1731452,
    "tel": "0897-47-0107",
    "url": "",
    "pref": "愛媛県",
    "city": "西条市",
    "category": "community_day_service",
    "serviceType": "地域密着型通所介護",
    "capacity": 10,
    "openDays": [
      "平日",
      "土曜日"
    ],
    "openDaysNote": ""
  },
  {
    "id": "3870600800",
    "name": "デイホームきて民家",
    "kana": "デイホームキテミンカ",
    "address": "愛媛県西条市新市575-1",
    "lat": 33.9345181312475,
    "lng": 133.060142773508,
    "tel": "0898-35-2588",
    "url": "http://www.kiteminka.com/　　※www.facebook.com/kiteminka《日頃の状況）",
    "pref": "愛媛県",
    "city": "西条市",
    "category": "community_day_service",
    "serviceType": "地域密着型通所介護",
    "capacity": 18,
    "openDays": [
      "平日",
      "土曜日",
      "祝日"
    ],
    "openDaysNote": ""
  },
  {
    "id": "3870601451",
    "name": "フィットネス型デイサービスセンター　煌き",
    "kana": "フィットネスガタデイサービスセンター　キラメキ",
    "address": "愛媛県西条市三津屋南7番地7Ｋ＆Ｔ-Ⅲ　1階 Ｋ＆Ｔ-Ⅲ　1階",
    "lat": 33.9333094,
    "lng": 133.0899114,
    "tel": "0898-35-3370",
    "url": "http://www.rainbowflower-saijo.com/",
    "pref": "愛媛県",
    "city": "西条市",
    "category": "community_day_service",
    "serviceType": "地域密着型通所介護",
    "capacity": 0,
    "openDays": [
      "平日",
      "土曜日",
      "祝日"
    ],
    "openDaysNote": ""
  },
  {
    "id": "3890600400",
    "name": "フィットネス型デイサービスセンター太陽と月",
    "kana": "フィットネスガタデイサービスセンタータイヨウトツキ",
    "address": "愛媛県西条市壬生川650-1",
    "lat": 33.9397891,
    "lng": 133.0829376,
    "tel": "0898-35-3007",
    "url": "http://www.rainbowflower-saijo.com",
    "pref": "愛媛県",
    "city": "西条市",
    "category": "community_day_service",
    "serviceType": "地域密着型通所介護",
    "capacity": 0,
    "openDays": [
      "平日",
      "土曜日",
      "祝日"
    ],
    "openDaysNote": ""
  },
  {
    "id": "3890600475",
    "name": "ユーモア",
    "kana": "ユーモア",
    "address": "愛媛県西条市丹原町久妙寺甲548番地",
    "lat": 33.9067841,
    "lng": 133.0486335,
    "tel": "0898-52-7207",
    "url": "",
    "pref": "愛媛県",
    "city": "西条市",
    "category": "community_day_service",
    "serviceType": "地域密着型通所介護",
    "capacity": null,
    "openDays": [
      "平日",
      "祝日"
    ],
    "openDaysNote": ""
  },
  {
    "id": "3890600467",
    "name": "らいふてらす　SUNWALK",
    "kana": "ライフテラス　サンウォーク",
    "address": "愛媛県西条市河原津甲496番地",
    "lat": 33.9647977377212,
    "lng": 133.061175366951,
    "tel": "0898-35-5721",
    "url": "",
    "pref": "愛媛県",
    "city": "西条市",
    "category": "community_day_service",
    "serviceType": "地域密着型通所介護",
    "capacity": null,
    "openDays": [
      "平日",
      "祝日"
    ],
    "openDaysNote": ""
  },
  {
    "id": "3870600370",
    "name": "通所介護フルーツの家",
    "kana": "ツウショカイゴ　フルーツノイエ",
    "address": "愛媛県西条市喜多川792番地1",
    "lat": 33.9248881457618,
    "lng": 133.170246697006,
    "tel": "0897-52-0793",
    "url": "https://angel-call.co.jp/",
    "pref": "愛媛県",
    "city": "西条市",
    "category": "community_day_service",
    "serviceType": "地域密着型通所介護",
    "capacity": null,
    "openDays": [
      "平日",
      "祝日"
    ],
    "openDaysNote": "特になし"
  },
  {
    "id": "3870601311",
    "name": "通所介護事業所　大頭の池さん",
    "kana": "ツウショカイゴジギョウショ　オオトノイケサン",
    "address": "愛媛県西条市小松町大頭甲４８８番地１１",
    "lat": 33.8811507,
    "lng": 133.0750243,
    "tel": "０８９８－７２－５０１０",
    "url": "https://ike3.amebaownd.com/",
    "pref": "愛媛県",
    "city": "西条市",
    "category": "community_day_service",
    "serviceType": "地域密着型通所介護",
    "capacity": 0,
    "openDays": [
      "平日"
    ],
    "openDaysNote": "台風接近時、災害時等は利用者の安全を優先して休む場合もある。"
  },
  {
    "id": "3870600784",
    "name": "通所介護水車の家",
    "kana": "ツウショカイゴスイシャノイエ",
    "address": "愛媛県西条市周布494番地1",
    "lat": 33.9278319,
    "lng": 133.0767824,
    "tel": "0898-76-8330",
    "url": "",
    "pref": "愛媛県",
    "city": "西条市",
    "category": "community_day_service",
    "serviceType": "地域密着型通所介護",
    "capacity": null,
    "openDays": [
      "平日",
      "祝日"
    ],
    "openDaysNote": "特になし"
  },
  {
    "id": "3870601063",
    "name": "通所介護杜の家",
    "kana": "ツウショカイゴモリノイエ",
    "address": "愛媛県西条市朔日市892番地",
    "lat": 33.9297915284041,
    "lng": 133.177833095076,
    "tel": "0897-52-1003",
    "url": "",
    "pref": "愛媛県",
    "city": "西条市",
    "category": "community_day_service",
    "serviceType": "地域密着型通所介護",
    "capacity": null,
    "openDays": [
      "平日",
      "祝日"
    ],
    "openDaysNote": "特になし"
  },
  {
    "id": "3871400572",
    "name": "ＪＡ東宇和デイサービス稔の郷清沢",
    "kana": "ジェイエイヒガシウワデイサービスミノリノサトキヨサワ",
    "address": "愛媛県西予市宇和町清沢1042",
    "lat": 33.3887328,
    "lng": 132.4909935,
    "tel": "0894-62-3080",
    "url": "",
    "pref": "愛媛県",
    "city": "西予市",
    "category": "community_day_service",
    "serviceType": "地域密着型通所介護",
    "capacity": 10,
    "openDays": [
      "平日",
      "土曜日",
      "日曜日",
      "祝日"
    ],
    "openDaysNote": "利用者不在の日曜日は職員不在の場合もあります。"
  },
  {
    "id": "3871400218",
    "name": "あんしんの家",
    "kana": "アンシンノイエ",
    "address": "愛媛県西予市宇和町さくら1番地82",
    "lat": 33.3745466,
    "lng": 132.5254047,
    "tel": "0894-69-1003",
    "url": "http://www.seiyofukushi.com/jigyou01/index.html#a14",
    "pref": "愛媛県",
    "city": "西予市",
    "category": "community_day_service",
    "serviceType": "地域密着型通所介護",
    "capacity": 14,
    "openDays": [
      "平日",
      "土曜日",
      "日曜日",
      "祝日"
    ],
    "openDaysNote": "１月１日及び２日は休み"
  },
  {
    "id": "3871400663",
    "name": "ディサービス　あしからげんき",
    "kana": "ディサービス　アシカラゲンキ",
    "address": "愛媛県西予市野村町野村2号109番地1",
    "lat": 33.3803274114554,
    "lng": 132.650255609848,
    "tel": "0894-89-6511",
    "url": "",
    "pref": "愛媛県",
    "city": "西予市",
    "category": "community_day_service",
    "serviceType": "地域密着型通所介護",
    "capacity": 10,
    "openDays": [
      "平日",
      "土曜日",
      "祝日"
    ],
    "openDaysNote": ""
  },
  {
    "id": "3891400149",
    "name": "デイサービス　のんびり家",
    "kana": "デイサービス　ノンビリヤ",
    "address": "愛媛県西予市宇和町野田45番地",
    "lat": 33.3590045,
    "lng": 132.4883285,
    "tel": "0894-89-2722",
    "url": "https://daynonbiriya.wixsite.com/website",
    "pref": "愛媛県",
    "city": "西予市",
    "category": "community_day_service",
    "serviceType": "地域密着型通所介護",
    "capacity": null,
    "openDays": [
      "平日",
      "祝日"
    ],
    "openDaysNote": "午前8時～午後6時の間で時間延長可"
  },
  {
    "id": "3891400123",
    "name": "デイサービスセンターこはるの里",
    "kana": "デイサービスセンターコハルノサト",
    "address": "愛媛県西予市明浜町俵津4-45",
    "lat": 33.3292936,
    "lng": 132.487938,
    "tel": "0894-89-3146",
    "url": "http://www.care-net.biz/38/hyakushouikki/",
    "pref": "愛媛県",
    "city": "西予市",
    "category": "community_day_service",
    "serviceType": "地域密着型通所介護",
    "capacity": 0,
    "openDays": [
      "平日",
      "祝日"
    ],
    "openDaysNote": ""
  },
  {
    "id": "3891400131",
    "name": "デイサービスセンターだんだん三瓶",
    "kana": "デイサービスセンターダンダンミカメ",
    "address": "愛媛県西予市三瓶町垣生丙11番地1",
    "lat": 33.384723,
    "lng": 132.4107748,
    "tel": "0894-33-2121",
    "url": "",
    "pref": "愛媛県",
    "city": "西予市",
    "category": "community_day_service",
    "serviceType": "地域密着型通所介護",
    "capacity": null,
    "openDays": [
      "平日",
      "土曜日",
      "祝日"
    ],
    "openDaysNote": ""
  },
  {
    "id": "3891400172",
    "name": "デイサービスセンターまほろば",
    "kana": "デイサービスセンターマホロバ",
    "address": "愛媛県西予市三瓶町朝立2-1-7",
    "lat": 33.3847046,
    "lng": 132.4255801,
    "tel": "894332877",
    "url": "",
    "pref": "愛媛県",
    "city": "西予市",
    "category": "community_day_service",
    "serviceType": "地域密着型通所介護",
    "capacity": null,
    "openDays": [
      "平日",
      "土曜日"
    ],
    "openDaysNote": ""
  },
  {
    "id": "3871400374",
    "name": "デイサービスセンター皆楽園",
    "kana": "デイサービスセンターカイラクエン",
    "address": "愛媛県西予市三瓶町皆江2598-1",
    "lat": 33.3483991,
    "lng": 132.4114675,
    "tel": "0894-20-5711",
    "url": "http://www.seiyofukushi.com/",
    "pref": "愛媛県",
    "city": "西予市",
    "category": "community_day_service",
    "serviceType": "地域密着型通所介護",
    "capacity": 0,
    "openDays": [
      "平日",
      "土曜日",
      "祝日"
    ],
    "openDaysNote": "なし"
  },
  {
    "id": "3871400556",
    "name": "ななほし中川",
    "kana": "ナナホシナカガワ",
    "address": "愛媛県西予市宇和町田苗真土１９９４番地１",
    "lat": 33.3997631,
    "lng": 132.5075264,
    "tel": "0894-62-7714",
    "url": "http://www.seiyoｆukushi.com/",
    "pref": "愛媛県",
    "city": "西予市",
    "category": "community_day_service",
    "serviceType": "地域密着型通所介護",
    "capacity": 14,
    "openDays": [
      "平日",
      "土曜日",
      "日曜日",
      "祝日"
    ],
    "openDaysNote": "08：30～09：30、16：00～18：00延長デイの利用可。（※但し、送迎についてはご家族対応となります。）"
  },
  {
    "id": "3873800225",
    "name": "通所介護事業所惣川高齢者生活福祉センター",
    "kana": "ツウショカイゴジギョウショソウガワコウレイシャフクシセンター",
    "address": "愛媛県西予市野村町舟戸2097番地",
    "lat": 33.457595,
    "lng": 132.7709486,
    "tel": "0894-76-0275",
    "url": "",
    "pref": "愛媛県",
    "city": "西予市",
    "category": "community_day_service",
    "serviceType": "地域密着型通所介護",
    "capacity": 15,
    "openDays": [
      "平日",
      "祝日"
    ],
    "openDaysNote": "通所介護関係は月、火、水、木、金曜日が営業日"
  },
  {
    "id": "3871400440",
    "name": "明浜デイサービスセンター",
    "kana": "アケハマデイサービスセンター",
    "address": "愛媛県西予市明浜町狩浜2-1177番地",
    "lat": 33.3211301008401,
    "lng": 132.465639976057,
    "tel": "0894-65-0036",
    "url": "http://www.seiyofukushi.com",
    "pref": "愛媛県",
    "city": "西予市",
    "category": "community_day_service",
    "serviceType": "地域密着型通所介護",
    "capacity": 0,
    "openDays": [
      "平日",
      "土曜日",
      "祝日"
    ],
    "openDaysNote": ""
  },
  {
    "id": "3870700774",
    "name": "デイサービス　花",
    "kana": "デイサービス　ハナ",
    "address": "愛媛県大洲市菅田町菅田甲934番地",
    "lat": 33.51506,
    "lng": 132.58825,
    "tel": "0893-57-6969",
    "url": "",
    "pref": "愛媛県",
    "city": "大洲市",
    "category": "community_day_service",
    "serviceType": "地域密着型通所介護",
    "capacity": 0,
    "openDays": [
      "平日",
      "祝日"
    ],
    "openDaysNote": ""
  },
  {
    "id": "3870700725",
    "name": "デイサービス　香寿",
    "kana": "デイサービス　カズ",
    "address": "中村853-1",
    "lat": 33.5127781662157,
    "lng": 132.544890405995,
    "tel": "0893-50-8850",
    "url": "https://www.facebook.com/deisabisukazu",
    "pref": "愛媛県",
    "city": "大洲市",
    "category": "community_day_service",
    "serviceType": "地域密着型通所介護",
    "capacity": 10,
    "openDays": [
      "平日",
      "土曜日",
      "祝日"
    ],
    "openDaysNote": "冬季休暇"
  },
  {
    "id": "3870700865",
    "name": "デイサービスいずみ",
    "kana": "デイサービスイズミ",
    "address": "愛媛県大洲市長浜町出海乙4番地",
    "lat": 33.5570224722837,
    "lng": 132.43403401786,
    "tel": "0893-50-1135",
    "url": "",
    "pref": "愛媛県",
    "city": "大洲市",
    "category": "community_day_service",
    "serviceType": "地域密着型通所介護",
    "capacity": 0,
    "openDays": [
      "平日",
      "土曜日",
      "祝日"
    ],
    "openDaysNote": ""
  },
  {
    "id": "3890700119",
    "name": "デイサービスセンターふだかけ",
    "kana": "デイサービスセンターフダカケ",
    "address": "愛媛県大洲市野佐来479番地特別養護老人ホーム札掛の里 特別養護老人ホーム札掛の里",
    "lat": 33.4682369,
    "lng": 132.5451233,
    "tel": "0893-23-4351",
    "url": "https://fudakakenosato.wixsite.com/fudakake",
    "pref": "愛媛県",
    "city": "大洲市",
    "category": "community_day_service",
    "serviceType": "地域密着型通所介護",
    "capacity": 0,
    "openDays": [
      "平日",
      "祝日"
    ],
    "openDaysNote": "なし"
  },
  {
    "id": "3870700816",
    "name": "デイサービスセンター夢の里",
    "kana": "デイサービスセンターユメノサト",
    "address": "愛媛県大洲市阿蔵字フカ井甲758番地10",
    "lat": 33.5100020159228,
    "lng": 132.52836175562,
    "tel": "0893－23－9500",
    "url": "",
    "pref": "愛媛県",
    "city": "大洲市",
    "category": "community_day_service",
    "serviceType": "地域密着型通所介護",
    "capacity": 0,
    "openDays": [
      "平日",
      "祝日"
    ],
    "openDaysNote": "災害発生時又は災害発生が予測される場合は関係機関及び利用者に連絡の上休業することがあります。"
  },
  {
    "id": "3870700642",
    "name": "デイサービスひかり",
    "kana": "デイサービスヒカリ",
    "address": "愛媛県大洲市東大洲１３３９番地７デイサービスひかり デイサービスひかり",
    "lat": 33.5308275,
    "lng": 132.5699785,
    "tel": "０８９３－５９－４３３４",
    "url": "",
    "pref": "愛媛県",
    "city": "大洲市",
    "category": "community_day_service",
    "serviceType": "地域密着型通所介護",
    "capacity": 18,
    "openDays": [
      "平日",
      "土曜日",
      "祝日"
    ],
    "openDaysNote": "・年末年始の営業について…12月31日　1月1日2日3日はお休み。"
  },
  {
    "id": "3890700176",
    "name": "デイサービス三線の家",
    "kana": "デイサービスサンシンノイエ",
    "address": "愛媛県大洲市菅田町菅田甲2445番地",
    "lat": 33.5070523306741,
    "lng": 132.580224412361,
    "tel": "0893-23-9379",
    "url": "",
    "pref": "愛媛県",
    "city": "大洲市",
    "category": "community_day_service",
    "serviceType": "地域密着型通所介護",
    "capacity": 0,
    "openDays": [
      "平日",
      "祝日"
    ],
    "openDaysNote": ""
  },
  {
    "id": "3890700143",
    "name": "デイサービス四つ葉",
    "kana": "デイサービスヨツバ",
    "address": "愛媛県大洲市北只489番地7",
    "lat": 33.4895591,
    "lng": 132.5426667,
    "tel": "0893-57-6217",
    "url": "",
    "pref": "愛媛県",
    "city": "大洲市",
    "category": "community_day_service",
    "serviceType": "地域密着型通所介護",
    "capacity": null,
    "openDays": [
      "平日",
      "土曜日",
      "祝日"
    ],
    "openDaysNote": ""
  },
  {
    "id": "3873600187",
    "name": "デイサービス施設　かわかみ荘",
    "kana": "デイサービスシセツカワカミソウ",
    "address": "愛媛県大洲市肱川町山鳥坂2800番地",
    "lat": 33.4785675,
    "lng": 132.7117545,
    "tel": "0893-34-2655",
    "url": "https://kawakamisou.com",
    "pref": "愛媛県",
    "city": "大洲市",
    "category": "community_day_service",
    "serviceType": "地域密着型通所介護",
    "capacity": 0,
    "openDays": [
      "平日"
    ],
    "openDaysNote": "特にありません。"
  },
  {
    "id": "3870700717",
    "name": "デイサービス新谷の家",
    "kana": "デイサービスニイヤノイエ",
    "address": "愛媛県大洲市新谷甲３１８番地",
    "lat": 33.5369792906597,
    "lng": 132.595656891272,
    "tel": "0893-23-9511",
    "url": "http://www.medica-site.com/shisetsu_detail.php?recid=765",
    "pref": "愛媛県",
    "city": "大洲市",
    "category": "community_day_service",
    "serviceType": "地域密着型通所介護",
    "capacity": 15,
    "openDays": [
      "平日",
      "土曜日",
      "祝日"
    ],
    "openDaysNote": "なし"
  },
  {
    "id": "3890700192",
    "name": "デイサービス大樹の母里",
    "kana": "デイサービスタイジュノモリ",
    "address": "大洲市阿蔵甲1961番地4",
    "lat": 33.522850039348,
    "lng": 132.53952242209,
    "tel": "0893-37-4516",
    "url": "",
    "pref": "愛媛県",
    "city": "大洲市",
    "category": "community_day_service",
    "serviceType": "地域密着型通所介護",
    "capacity": 0,
    "openDays": [
      "平日",
      "土曜日",
      "祝日"
    ],
    "openDaysNote": "12/30～1/3休み"
  },
  {
    "id": "3890700200",
    "name": "デイサービス夢と希望",
    "kana": "デイサービスユメトキボウ",
    "address": "愛媛県大洲市新谷甲３１９番地１",
    "lat": 33.5282131,
    "lng": 132.6048622,
    "tel": "０８９３－２５－１３００",
    "url": "",
    "pref": "愛媛県",
    "city": "大洲市",
    "category": "community_day_service",
    "serviceType": "地域密着型通所介護",
    "capacity": 0,
    "openDays": [
      "平日",
      "土曜日",
      "日曜日",
      "祝日"
    ],
    "openDaysNote": ""
  },
  {
    "id": "3870700857",
    "name": "清祥会ひまわり",
    "kana": "セイショウカイヒマワリ",
    "address": "愛媛県大洲市柴甲595番地1",
    "lat": 33.5775686,
    "lng": 132.5205427,
    "tel": "0893-54-0500",
    "url": "http//:seishoukai-himawari.com/index.htmi",
    "pref": "愛媛県",
    "city": "大洲市",
    "category": "community_day_service",
    "serviceType": "地域密着型通所介護",
    "capacity": 0,
    "openDays": [
      "平日"
    ],
    "openDaysNote": "サービス提供時間：９時３０分～１５時３０分"
  },
  {
    "id": "3890700226",
    "name": "大洲市社会福祉協議会　デイサービスセンター長浜",
    "kana": "オオズシシャカイフクシキョウギカイ　デイサービスセンターナガハマ",
    "address": "愛媛県大洲市柴甲1402-3",
    "lat": 33.5753949371301,
    "lng": 132.51866183501,
    "tel": "0893-59-7016",
    "url": "",
    "pref": "愛媛県",
    "city": "大洲市",
    "category": "community_day_service",
    "serviceType": "地域密着型通所介護",
    "capacity": 18,
    "openDays": [
      "平日",
      "祝日"
    ],
    "openDaysNote": ""
  },
  {
    "id": "3870700410",
    "name": "大洲市社会福祉協議会デイサービスセンター若宮",
    "kana": "オオズシシャカイフクシキョウギカイデイサービスセンターワカミヤ",
    "address": "愛媛県大洲市若宮625番地の4",
    "lat": 33.5195477,
    "lng": 132.548872,
    "tel": "0893-24-1756",
    "url": "",
    "pref": "愛媛県",
    "city": "大洲市",
    "category": "community_day_service",
    "serviceType": "地域密着型通所介護",
    "capacity": 15,
    "openDays": [
      "平日",
      "祝日"
    ],
    "openDaysNote": "特にありません。"
  },
  {
    "id": "3871500207",
    "name": "デイサービス　アルモ",
    "kana": "デイサービス　アルモ",
    "address": "愛媛県東温市見奈良811番地1シニアライフセンター シニアライフセンター",
    "lat": 33.7954839409215,
    "lng": 132.876973641625,
    "tel": "089-955-1722",
    "url": "http://muguet-slc.com/",
    "pref": "愛媛県",
    "city": "東温市",
    "category": "community_day_service",
    "serviceType": "地域密着型通所介護",
    "capacity": 0,
    "openDays": [
      "平日",
      "土曜日",
      "祝日"
    ],
    "openDaysNote": "特になし"
  },
  {
    "id": "3871500165",
    "name": "デイサービスコンフォール",
    "kana": "デイサービスコンフォール",
    "address": "愛媛県東温市志津川南5丁目1番地9コンフォール志津川 コンフォール志津川",
    "lat": 33.801271483154,
    "lng": 132.876912833878,
    "tel": "089-990-7788",
    "url": "",
    "pref": "愛媛県",
    "city": "東温市",
    "category": "community_day_service",
    "serviceType": "地域密着型通所介護",
    "capacity": 18,
    "openDays": [
      "平日",
      "祝日"
    ],
    "openDaysNote": "特になし"
  },
  {
    "id": "3871500231",
    "name": "リハプライド　とうおん",
    "kana": "リハプライド　トウオン",
    "address": "志津川121番地2",
    "lat": 33.8055722,
    "lng": 132.8781373,
    "tel": "089-909-7442",
    "url": "http://www.rehapride.co.jp/toon/",
    "pref": "愛媛県",
    "city": "東温市",
    "category": "community_day_service",
    "serviceType": "地域密着型通所介護",
    "capacity": 0,
    "openDays": [
      "平日",
      "祝日"
    ],
    "openDaysNote": "特になし。"
  },
  {
    "id": "3871500108",
    "name": "通所介護はあと",
    "kana": "ツウショカイゴハアト",
    "address": "愛媛県東温市田窪２０５７番地４",
    "lat": 33.7931522035068,
    "lng": 132.865802829222,
    "tel": "089--964-7227",
    "url": "",
    "pref": "愛媛県",
    "city": "東温市",
    "category": "community_day_service",
    "serviceType": "地域密着型通所介護",
    "capacity": 0,
    "openDays": [
      "平日",
      "土曜日",
      "祝日"
    ],
    "openDaysNote": ""
  },
  {
    "id": "3873600153",
    "name": "デイサービス施設　神南荘",
    "kana": "デイサービスシセツカンナンソウ",
    "address": "愛媛県喜多郡内子町五十崎甲839番地",
    "lat": 33.5312501984516,
    "lng": 132.654294344705,
    "tel": "0893-43-1902",
    "url": "https://kannansou.server-shared.com/",
    "pref": "愛媛県",
    "city": "内子町",
    "category": "community_day_service",
    "serviceType": "地域密着型通所介護",
    "capacity": 15,
    "openDays": [
      "平日"
    ],
    "openDaysNote": "特になし"
  },
  {
    "id": "3893600076",
    "name": "デイサービス施設みどり苑",
    "kana": "デイサービスシセツミドリエン",
    "address": "愛媛県喜多郡内子町立山4740番地1",
    "lat": 33.5914344,
    "lng": 132.6721453,
    "tel": "0893-45-0141",
    "url": "http://userweb.u-broad.jp/ozukita-midori",
    "pref": "愛媛県",
    "city": "内子町",
    "category": "community_day_service",
    "serviceType": "地域密着型通所介護",
    "capacity": null,
    "openDays": [
      "平日",
      "祝日"
    ],
    "openDaysNote": ""
  },
  {
    "id": "3873400174",
    "name": "指定通所介護事業所済生会小田デイサービスセンター緑風荘",
    "kana": "シテイツウショカイゴジギョウショサイセイカイオダデイサービスセンターリョクフウソウ",
    "address": "愛媛県喜多郡内子町小田１４９番地1",
    "lat": 33.567929,
    "lng": 132.8042021,
    "tel": "0892-52-3101",
    "url": "http://ryokuhusou.com",
    "pref": "愛媛県",
    "city": "内子町",
    "category": "community_day_service",
    "serviceType": "地域密着型通所介護",
    "capacity": 0,
    "openDays": [
      "平日",
      "土曜日",
      "祝日"
    ],
    "openDaysNote": "土曜日または祝日に月１回程度の営業（改行）お盆・年末年始の休みは、業務の都合により変更することがあります。"
  },
  {
    "id": "3873600443",
    "name": "内子町老人デイサービスセンターたんぽぽ",
    "kana": "ウチコチョウロウジンデイサービスセンタータンポポ",
    "address": "愛媛県喜多郡内子町五十崎甲945番地3",
    "lat": 33.53506,
    "lng": 132.6547986,
    "tel": "0893-44-5665",
    "url": "",
    "pref": "愛媛県",
    "city": "内子町",
    "category": "community_day_service",
    "serviceType": "地域密着型通所介護",
    "capacity": 15,
    "openDays": [
      "平日",
      "祝日"
    ],
    "openDaysNote": "平成20年度より祝日も営業。"
  },
  {
    "id": "3870400755",
    "name": "デイサービス　オレンジハート",
    "kana": "デイサービス　オレンジハート",
    "address": "愛媛県八幡浜市保内町宮内１番耕地１００番１",
    "lat": 33.4824230320529,
    "lng": 132.401516218446,
    "tel": "０８９４－３７－２６８６",
    "url": "https://orenji-ha-to.wixsite.com/website",
    "pref": "愛媛県",
    "city": "八幡浜市",
    "category": "community_day_service",
    "serviceType": "地域密着型通所介護",
    "capacity": 15,
    "openDays": [
      "平日",
      "土曜日",
      "祝日"
    ],
    "openDaysNote": "水曜日は、介護認定が無い方や限度額を超えている方などで通所の要望のある方などを対象に自費のよりあい所を営業しています。配食、食事、喫茶の提供、外出サービスなども行っています。"
  },
  {
    "id": "3870400920",
    "name": "デイサービス　ようなるデイ",
    "kana": "デイサービス　ヨウナルデイ",
    "address": "愛媛県八幡浜市大平1番耕地779番地5",
    "lat": 33.4668303740031,
    "lng": 132.425851008459,
    "tel": "0894-20-9333",
    "url": "https://care-net.biz/38/younaru/",
    "pref": "愛媛県",
    "city": "八幡浜市",
    "category": "community_day_service",
    "serviceType": "地域密着型通所介護",
    "capacity": 10,
    "openDays": [
      "平日",
      "土曜日"
    ],
    "openDaysNote": ""
  },
  {
    "id": "3873700276",
    "name": "デイサービスＡＲＲＩＢＡ",
    "kana": "デイサービスアリーバ",
    "address": "愛媛県八幡浜市保内町宮内1-324",
    "lat": 33.483934,
    "lng": 132.4001398,
    "tel": "0894-36-1160",
    "url": "",
    "pref": "愛媛県",
    "city": "八幡浜市",
    "category": "community_day_service",
    "serviceType": "地域密着型通所介護",
    "capacity": 0,
    "openDays": [
      "平日",
      "祝日"
    ],
    "openDaysNote": "特にありません。"
  },
  {
    "id": "3870400722",
    "name": "デイサービスあったかいご",
    "kana": "デイサービスアッタカイゴ",
    "address": "愛媛県八幡浜市産業通353-1",
    "lat": 33.4531575,
    "lng": 132.4321385,
    "tel": "0894-24-7447",
    "url": "",
    "pref": "愛媛県",
    "city": "八幡浜市",
    "category": "community_day_service",
    "serviceType": "地域密着型通所介護",
    "capacity": 0,
    "openDays": [
      "平日",
      "土曜日",
      "祝日"
    ],
    "openDaysNote": ""
  },
  {
    "id": "3870400763",
    "name": "デイサービスあったかいご二番館",
    "kana": "デイサービスアッタカイゴニバンカン",
    "address": "愛媛県八幡浜市産業通353-1",
    "lat": 33.4531575,
    "lng": 132.4321385,
    "tel": "0894-24-7447",
    "url": "",
    "pref": "愛媛県",
    "city": "八幡浜市",
    "category": "community_day_service",
    "serviceType": "地域密着型通所介護",
    "capacity": 0,
    "openDays": [
      "平日",
      "土曜日",
      "祝日"
    ],
    "openDaysNote": ""
  },
  {
    "id": "3870400938",
    "name": "デイサービスセンター　WellStudio　笑",
    "kana": "デイサービスセンター　ウェル　スタジオ　ワラ",
    "address": "愛媛県八幡浜市保内町宮内２番耕地７８番地１",
    "lat": 33.4861173538718,
    "lng": 132.398519745755,
    "tel": "0894-21-1708",
    "url": "",
    "pref": "愛媛県",
    "city": "八幡浜市",
    "category": "community_day_service",
    "serviceType": "地域密着型通所介護",
    "capacity": 50,
    "openDays": [
      "平日"
    ],
    "openDaysNote": ""
  },
  {
    "id": "3870400664",
    "name": "デイサービスセンター日土のめぐみ",
    "kana": "デイサービスセンターヒヅチノメグミ",
    "address": "愛媛県八幡浜市日土町2番耕地2番41",
    "lat": 33.4904750935124,
    "lng": 132.413992272247,
    "tel": "0894-29-6005",
    "url": "",
    "pref": "愛媛県",
    "city": "八幡浜市",
    "category": "community_day_service",
    "serviceType": "地域密着型通所介護",
    "capacity": 15,
    "openDays": [
      "平日",
      "土曜日",
      "日曜日",
      "祝日"
    ],
    "openDaysNote": "延長サービス対応可能"
  },
  {
    "id": "3870400961",
    "name": "有限会社　タカハシ　デイサービスセンター　ももたろう",
    "kana": "ユウゲンガイシャ　タカハシ　ディサービスセンター　モモタロウ",
    "address": "愛媛県八幡浜市天神通2丁目1510-53",
    "lat": 33.4592466128048,
    "lng": 132.419907735027,
    "tel": "0894-35-6030",
    "url": "",
    "pref": "愛媛県",
    "city": "八幡浜市",
    "category": "community_day_service",
    "serviceType": "地域密着型通所介護",
    "capacity": 0,
    "openDays": [
      "平日",
      "祝日"
    ],
    "openDaysNote": ""
  }
]