[
  {
    "id": "1572100863",
    "name": "だんらんの家　和らぎ事業所",
    "kana": "ダンランノイエヤワラギジギョウショ",
    "address": "新潟県阿賀野市北本町21番14号",
    "lat": 37.8441191,
    "lng": 139.228593128836,
    "tel": "0250-62-1135",
    "url": "",
    "pref": "新潟県",
    "city": "阿賀野市",
    "category": "community_day_service",
    "serviceType": "地域密着型通所介護",
    "capacity": 0,
    "openDays": [
      "平日",
      "土曜日",
      "日曜日",
      "祝日"
    ],
    "openDaysNote": "２０２５年は、１月３日までお休みです"
  },
  {
    "id": "1572100855",
    "name": "デイサービスＤＡＹＳ　悠悠",
    "kana": "デイサービスデイズ　ユウユウ",
    "address": "新潟県阿賀野市山崎80番地",
    "lat": 37.8375946073195,
    "lng": 139.26872362023,
    "tel": "0250－63－1313",
    "url": "http://seibu-life.com",
    "pref": "新潟県",
    "city": "阿賀野市",
    "category": "community_day_service",
    "serviceType": "地域密着型通所介護",
    "capacity": 17,
    "openDays": [
      "平日",
      "土曜日",
      "日曜日",
      "祝日"
    ],
    "openDaysNote": "令和4年5月より、日曜日をお休みとしましたが、職員が充足されれば、再開したいと思っています。通年営業に戻ることで、少しでも地域貢献ができればと思っています。"
  },
  {
    "id": "1572100590",
    "name": "デイサービスいらかの丘",
    "kana": "デイサービスイラカノオカ",
    "address": "阿賀野市福永１１６７－５",
    "lat": 37.7804499,
    "lng": 139.2479632,
    "tel": "0250-68-3814",
    "url": "http://jihoukai-aga.com/",
    "pref": "新潟県",
    "city": "阿賀野市",
    "category": "community_day_service",
    "serviceType": "地域密着型通所介護",
    "capacity": 0,
    "openDays": [
      "平日",
      "祝日"
    ],
    "openDaysNote": "その他の休日　１２/３１～１/３"
  },
  {
    "id": "1572100848",
    "name": "リハステーションみどりおか",
    "kana": "リハステーションミドリオカ",
    "address": "新潟県阿賀野市緑岡３番地１５みどりおか接骨院内 みどりおか接骨院内",
    "lat": 37.8407396451473,
    "lng": 139.188298435582,
    "tel": "0250-67-3163",
    "url": "https://www.rihamidorioka.com/",
    "pref": "新潟県",
    "city": "阿賀野市",
    "category": "community_day_service",
    "serviceType": "地域密着型通所介護",
    "capacity": 10,
    "openDays": [
      "平日"
    ],
    "openDaysNote": "午前・午後の２単位制となっており、午前９時００分～１２時１５分、午後１３時１５分～１６時３０分のご利用時間となります。（改行）ただし、午前・午後通してのご利用はできません。（改行）（改行）※休日の電話・ＦＡＸ等、受けることができませんので、営業時間内にお願いいたします。"
  },
  {
    "id": "1592100117",
    "name": "宮の森デイサービスセンター水原",
    "kana": "ミヤノモリデイサービスセンタースイバラ",
    "address": "新潟県阿賀野市宮下457-1宮の森デイサービスセンター水原 宮の森デイサービスセンター水原",
    "lat": 37.821388979366,
    "lng": 139.257915333804,
    "tel": "0250-47-8872",
    "url": "http://granshare.com/",
    "pref": "新潟県",
    "city": "阿賀野市",
    "category": "community_day_service",
    "serviceType": "地域密着型通所介護",
    "capacity": 0,
    "openDays": [
      "平日",
      "土曜日"
    ],
    "openDaysNote": "振り替えての利用可能"
  },
  {
    "id": "1596400059",
    "name": "粟島浦村通所介護センター",
    "kana": "アワシマウラムラツウショカイゴセンター",
    "address": "新潟県岩船郡粟島浦村字日ノ見山1513番地11",
    "lat": 38.4681242,
    "lng": 139.2542855,
    "tel": "0254-55-2111（",
    "url": "",
    "pref": "新潟県",
    "city": "粟島浦村",
    "category": "community_day_service",
    "serviceType": "地域密着型通所介護",
    "capacity": 8,
    "openDays": [
      "平日"
    ],
    "openDaysNote": ""
  },
  {
    "id": "1591300221",
    "name": "デイサービスセンターときわ燕",
    "kana": "デイサービスセンタートキワエン",
    "address": "新潟県燕市上児木３９０番地",
    "lat": 37.6857609,
    "lng": 138.9644586,
    "tel": "0256-61-7010",
    "url": "http://www.kouun-tokiwaen.jp/",
    "pref": "新潟県",
    "city": "燕市",
    "category": "community_day_service",
    "serviceType": "地域密着型通所介護",
    "capacity": 18,
    "openDays": [
      "平日",
      "祝日"
    ],
    "openDaysNote": ""
  },
  {
    "id": "1591300288",
    "name": "デイサービス沢庵",
    "kana": "デイサービスタクアン",
    "address": "新潟県燕市分水大武1-3-16",
    "lat": 37.6256931,
    "lng": 138.8435562,
    "tel": "0256-87-3305",
    "url": "",
    "pref": "新潟県",
    "city": "燕市",
    "category": "community_day_service",
    "serviceType": "地域密着型通所介護",
    "capacity": 0,
    "openDays": [
      "平日",
      "祝日"
    ],
    "openDaysNote": ""
  },
  {
    "id": "1571300969",
    "name": "リハビリ・ホーム　ひだまり",
    "kana": "リハビリ・ホーム　ヒダマリ",
    "address": "新潟県燕市杣木字居掛478番地",
    "lat": 37.6737440723446,
    "lng": 138.933503137203,
    "tel": "0256-46-8664",
    "url": "",
    "pref": "新潟県",
    "city": "燕市",
    "category": "community_day_service",
    "serviceType": "地域密着型通所介護",
    "capacity": 0,
    "openDays": [
      "平日",
      "祝日"
    ],
    "openDaysNote": ""
  },
  {
    "id": "1571300910",
    "name": "リハビリ・ホームひなたぼっこ",
    "kana": "リハビリ・ホームヒナタボッコ",
    "address": "新潟県燕市杉名68番地1",
    "lat": 37.6385031728305,
    "lng": 138.908653909552,
    "tel": "0256-47-1251",
    "url": "",
    "pref": "新潟県",
    "city": "燕市",
    "category": "community_day_service",
    "serviceType": "地域密着型通所介護",
    "capacity": 0,
    "openDays": [
      "平日",
      "祝日"
    ],
    "openDaysNote": "祝祭日は営業する（改行）年末年始（12月30日から１月３日）は休み"
  },
  {
    "id": "1591700214",
    "name": "宮の森デイサービスセンター加茂",
    "kana": "ミヤノモリデイサービスセンターカモ",
    "address": "新潟県加茂市大郷町1-8-25",
    "lat": 37.6574888,
    "lng": 139.0427463,
    "tel": "0256-47-4140",
    "url": "http://granshare.com/",
    "pref": "新潟県",
    "city": "加茂市",
    "category": "community_day_service",
    "serviceType": "地域密着型通所介護",
    "capacity": 0,
    "openDays": [
      "平日",
      "土曜日"
    ],
    "openDaysNote": "振り替えての利用可能"
  },
  {
    "id": "1592300204",
    "name": "デイサービスセンター　ひめさゆり",
    "kana": "デイサービスセンター　ヒメサユリ",
    "address": "新潟県魚沼市穴沢25番地",
    "lat": 37.3626922834927,
    "lng": 139.066184635057,
    "tel": "025-798-4006",
    "url": "https://aikyoukai.jimdosite.com/",
    "pref": "新潟県",
    "city": "魚沼市",
    "category": "community_day_service",
    "serviceType": "地域密着型通所介護",
    "capacity": 5,
    "openDays": [
      "平日"
    ],
    "openDaysNote": ""
  },
  {
    "id": "1572300067",
    "name": "デイサービスセンターすまいる",
    "kana": "デイサービスセンタースマイル",
    "address": "新潟県魚沼市中原354番地",
    "lat": 37.2202768,
    "lng": 138.9722162,
    "tel": "025-793-2080",
    "url": "",
    "pref": "新潟県",
    "city": "魚沼市",
    "category": "community_day_service",
    "serviceType": "地域密着型通所介護",
    "capacity": 0,
    "openDays": [
      "平日",
      "土曜日",
      "日曜日",
      "祝日"
    ],
    "openDaysNote": ""
  },
  {
    "id": "1572300109",
    "name": "デイサービスセンター入広瀬",
    "kana": "デイサービスセンターイリヒロセ",
    "address": "魚沼市大栃山628番地1",
    "lat": 37.3561569,
    "lng": 139.0689721,
    "tel": "025-796-3711",
    "url": "http://www.uofuku.net/suwa.html",
    "pref": "新潟県",
    "city": "魚沼市",
    "category": "community_day_service",
    "serviceType": "地域密着型通所介護",
    "capacity": null,
    "openDays": [
      "平日",
      "土曜日",
      "祝日"
    ],
    "openDaysNote": ""
  },
  {
    "id": "1592300220",
    "name": "伊米ヶ崎デイサービスセンター",
    "kana": "イメガサキデイサービスセンター",
    "address": "新潟県魚沼市虫野59番地2伊米ヶ崎公民館併設 伊米ヶ崎公民館併設",
    "lat": 37.199496,
    "lng": 138.9505971,
    "tel": "025-792-3210",
    "url": "https://www.uonuma-shakyo.or.jp",
    "pref": "新潟県",
    "city": "魚沼市",
    "category": "community_day_service",
    "serviceType": "地域密着型通所介護",
    "capacity": 18,
    "openDays": [
      "平日",
      "祝日"
    ],
    "openDaysNote": ""
  },
  {
    "id": "1571100567",
    "name": "けんこうクラブ",
    "kana": "ケンコウクラブ",
    "address": "新潟県見附市新町1丁目17番25号",
    "lat": 37.5268438,
    "lng": 138.9223073,
    "tel": "0258-86-8109",
    "url": "http://www.hurumai.com",
    "pref": "新潟県",
    "city": "見附市",
    "category": "community_day_service",
    "serviceType": "地域密着型通所介護",
    "capacity": 10,
    "openDays": [
      "平日",
      "祝日"
    ],
    "openDaysNote": "サービス提供は午前と午後に分けて行う（改行）午前　8：45　～　12：15（改行）午後　13：30　～　17：00（改行）２時間～３時間はお客様に事情があったり、体調を崩され早く帰られた際に算定。"
  },
  {
    "id": "1591100100",
    "name": "そいがぁ亭",
    "kana": "ソイガァテイ",
    "address": "新潟県見附市南本町3丁目5番22号",
    "lat": 37.5218359,
    "lng": 138.9175303,
    "tel": "0258-89-7041",
    "url": "http://www.kaigo－wellness.com/",
    "pref": "新潟県",
    "city": "見附市",
    "category": "community_day_service",
    "serviceType": "地域密着型通所介護",
    "capacity": null,
    "openDays": [
      "平日",
      "祝日"
    ],
    "openDaysNote": "利用者の要望等により変更の場合あり。"
  },
  {
    "id": "1591100142",
    "name": "デイサービスふるまい村",
    "kana": "デイサービスフルマイムラ",
    "address": "見附市新幸町7-11高齢者複合施設ふるまい村 高齢者複合施設ふるまい村",
    "lat": 37.5397996460071,
    "lng": 138.893267703705,
    "tel": "0258-66-8825",
    "url": "http://www.hurumai.com/",
    "pref": "新潟県",
    "city": "見附市",
    "category": "community_day_service",
    "serviceType": "地域密着型通所介護",
    "capacity": 0,
    "openDays": [
      "平日",
      "日曜日",
      "祝日"
    ],
    "openDaysNote": ""
  },
  {
    "id": "1591700206",
    "name": "ＨＡＬＵリハビリデイ",
    "kana": "ハルリハビリデイ",
    "address": "新潟県五泉市五十嵐新田846－1",
    "lat": 37.7346111,
    "lng": 139.195656,
    "tel": "0250－47－8829",
    "url": "http://granshare.com/",
    "pref": "新潟県",
    "city": "五泉市",
    "category": "community_day_service",
    "serviceType": "地域密着型通所介護",
    "capacity": 0,
    "openDays": [
      "平日",
      "土曜日"
    ],
    "openDaysNote": ""
  },
  {
    "id": "1571700770",
    "name": "デイサービスセンターこころつくしの家",
    "kana": "デイサービスセンターココロツクシノイエ",
    "address": "新潟県五泉市村松甲5600番地1",
    "lat": 37.6871448,
    "lng": 139.1802924,
    "tel": "0250-58-8312",
    "url": "http://www.midori-kokoro.jp/",
    "pref": "新潟県",
    "city": "五泉市",
    "category": "community_day_service",
    "serviceType": "地域密着型通所介護",
    "capacity": 0,
    "openDays": [
      "平日",
      "土曜日",
      "祝日"
    ],
    "openDaysNote": ""
  },
  {
    "id": "1591700248",
    "name": "デイサービスセンター結の里",
    "kana": "デイサービスセンターユイノサト",
    "address": "新潟県五泉市五十嵐新田855-1",
    "lat": 37.7349817,
    "lng": 139.1965001,
    "tel": "0250-42-6000",
    "url": "http://www.yuinosato-gosen.jp",
    "pref": "新潟県",
    "city": "五泉市",
    "category": "community_day_service",
    "serviceType": "地域密着型通所介護",
    "capacity": null,
    "openDays": [
      "平日",
      "土曜日",
      "日曜日",
      "祝日"
    ],
    "openDaysNote": ""
  },
  {
    "id": "1571700697",
    "name": "まごころデイサービスおぎそね",
    "kana": "マゴコロデイサービスオギソネ",
    "address": "新潟県五泉市荻曽根227番地",
    "lat": 37.7424165,
    "lng": 139.1655248,
    "tel": "0250-25-7253",
    "url": "",
    "pref": "新潟県",
    "city": "五泉市",
    "category": "community_day_service",
    "serviceType": "地域密着型通所介護",
    "capacity": 0,
    "openDays": [
      "平日",
      "土曜日",
      "日曜日",
      "祝日"
    ],
    "openDaysNote": "事業所の営業は年中無休とする。営業時間帯はサービスの提供時間帯と連動し、利用者への個別の対応で必要とされる場合、前後に延長することとする。"
  },
  {
    "id": "1571700762",
    "name": "宮の森デイサービスセンター",
    "kana": "ミヤノモリデイサービスセンター",
    "address": "新潟県五泉市本町4丁目3番12号宮の森デイサービスセンター 宮の森デイサービスセンター",
    "lat": 37.7431775,
    "lng": 139.1757154,
    "tel": "0250-47-8772",
    "url": "http://granshare.com/",
    "pref": "新潟県",
    "city": "五泉市",
    "category": "community_day_service",
    "serviceType": "地域密着型通所介護",
    "capacity": 0,
    "openDays": [
      "平日",
      "土曜日"
    ],
    "openDaysNote": ""
  },
  {
    "id": "1572201356",
    "name": "デイサービスセンター　あすかの郷",
    "kana": "デイサービスセンターアスカノサト",
    "address": "新潟県佐渡市真野新町63番地デイサービスセンターあすかの郷 デイサービスセンターあすかの郷",
    "lat": 37.9660198,
    "lng": 138.345395,
    "tel": "0259-58-7223",
    "url": "",
    "pref": "新潟県",
    "city": "佐渡市",
    "category": "community_day_service",
    "serviceType": "地域密着型通所介護",
    "capacity": 0,
    "openDays": [
      "平日",
      "土曜日",
      "祝日"
    ],
    "openDaysNote": "1月1日休業日"
  },
  {
    "id": "1572201067",
    "name": "デイサービスなんだい",
    "kana": "デイサービスナンダイ",
    "address": "新潟県佐渡市畑野甲４５２－６",
    "lat": 37.9922843,
    "lng": 138.3977138,
    "tel": "0259-66-4183",
    "url": "http://care-net.biz/15/kuro-ba-sado/",
    "pref": "新潟県",
    "city": "佐渡市",
    "category": "community_day_service",
    "serviceType": "地域密着型通所介護",
    "capacity": 18,
    "openDays": [
      "平日",
      "土曜日",
      "日曜日",
      "祝日"
    ],
    "openDaysNote": ""
  },
  {
    "id": "1592200172",
    "name": "リハビリ特化型デイサービスみーお",
    "kana": "リハビリトッカガタデイサービスミーオ",
    "address": "新潟県佐渡市千種９６７番地３",
    "lat": 38.0218030613465,
    "lng": 138.362938619213,
    "tel": "0259-67-7385",
    "url": "",
    "pref": "新潟県",
    "city": "佐渡市",
    "category": "community_day_service",
    "serviceType": "地域密着型通所介護",
    "capacity": 15,
    "openDays": [
      "平日",
      "土曜日",
      "祝日"
    ],
    "openDaysNote": "午前　　９時３０分～１２時３０分（改行）午後　１３時３０分～１６時３０分　の２部制です。"
  },
  {
    "id": "1592200248",
    "name": "小木デイサービスセンターつくし",
    "kana": "オギデイサービスセンターツクシ",
    "address": "新潟県佐渡市小木町1949番地4",
    "lat": 37.8161784,
    "lng": 138.2752621,
    "tel": "0259-86-3870",
    "url": "http://care-net.biz/15/sado-shakyo/b15.php",
    "pref": "新潟県",
    "city": "佐渡市",
    "category": "community_day_service",
    "serviceType": "地域密着型通所介護",
    "capacity": 0,
    "openDays": [
      "平日",
      "土曜日",
      "日曜日",
      "祝日"
    ],
    "openDaysNote": ""
  },
  {
    "id": "1592200255",
    "name": "西三川デイサービスセンター",
    "kana": "ニシミカワデイサービスセンター",
    "address": "新潟県佐渡市西三川1070番地1",
    "lat": 37.9099315,
    "lng": 138.296136,
    "tel": "0259-51-3377",
    "url": "http://www.e-sadonet.tv/fureai99/",
    "pref": "新潟県",
    "city": "佐渡市",
    "category": "community_day_service",
    "serviceType": "地域密着型通所介護",
    "capacity": null,
    "openDays": [
      "平日",
      "土曜日",
      "祝日"
    ],
    "openDaysNote": "サービス提供時間：９：３０～１６：３０"
  },
  {
    "id": "1592200230",
    "name": "畑野デイサービスセンターやわらぎの里",
    "kana": "ハタノデイサービスセンターヤワラギノサト",
    "address": "新潟県佐渡市栗野江1837番地",
    "lat": 37.9976597,
    "lng": 138.4016622,
    "tel": "0259－66－4150",
    "url": "http://care-net.biz/15/sado-shakyo/b15.php",
    "pref": "新潟県",
    "city": "佐渡市",
    "category": "community_day_service",
    "serviceType": "地域密着型通所介護",
    "capacity": null,
    "openDays": [
      "平日",
      "土曜日",
      "日曜日",
      "祝日"
    ],
    "openDaysNote": ""
  },
  {
    "id": "1592200198",
    "name": "両津デイサービスセンターいわゆり",
    "kana": "リョウツデイサービスセンターイワユリ",
    "address": "新潟県佐渡市豊岡1672番地16",
    "lat": 37.9756677,
    "lng": 138.5208772,
    "tel": "0259-28-2170",
    "url": "http://care-net.biz/15/sado-shakyo/b15.php",
    "pref": "新潟県",
    "city": "佐渡市",
    "category": "community_day_service",
    "serviceType": "地域密着型通所介護",
    "capacity": 0,
    "openDays": [
      "平日",
      "土曜日",
      "祝日"
    ],
    "openDaysNote": ""
  },
  {
    "id": "1572200929",
    "name": "両津デイサービスセンターかんぞう",
    "kana": "リョウツデイサービスセンターカンゾウ",
    "address": "新潟県佐渡市鷲崎１７８１番地３",
    "lat": 38.3163361,
    "lng": 138.5142595,
    "tel": "0259-26-2200",
    "url": "http://care-net.biz/15/sado-shakyo/b15.php",
    "pref": "新潟県",
    "city": "佐渡市",
    "category": "community_day_service",
    "serviceType": "地域密着型通所介護",
    "capacity": 18,
    "openDays": [
      "平日",
      "祝日"
    ],
    "openDaysNote": ""
  },
  {
    "id": "1570401685",
    "name": "GENKINEXT新潟三条",
    "kana": "ゲンキネクストニイガタサンジョウ",
    "address": "新潟県三条市東裏館2-21-36佐藤産業ビル１F 佐藤産業ビル１F",
    "lat": 37.6371694,
    "lng": 138.9611438,
    "tel": "0256-46-8994",
    "url": "",
    "pref": "新潟県",
    "city": "三条市",
    "category": "community_day_service",
    "serviceType": "地域密着型通所介護",
    "capacity": 204,
    "openDays": [
      "平日",
      "土曜日",
      "祝日"
    ],
    "openDaysNote": "8月13日から8月16日及び12月30日から1月3日までを除く。"
  },
  {
    "id": "1590400212",
    "name": "けんこうクラブ三条",
    "kana": "ケンコウクラブサンジョウ",
    "address": "新潟県三条市旭町1丁目15－10二州楼ビル１階 二州楼ビル１階",
    "lat": 37.6328193,
    "lng": 138.9608653,
    "tel": "0256-64-7747",
    "url": "",
    "pref": "新潟県",
    "city": "三条市",
    "category": "community_day_service",
    "serviceType": "地域密着型通所介護",
    "capacity": 0,
    "openDays": [
      "平日",
      "祝日"
    ],
    "openDaysNote": "サービス提供は午前と午後の2部制（改行）（改行）午前の部　9：00～12:15（改行）（改行）午後の部　13:45～17:00"
  },
  {
    "id": "1570401420",
    "name": "さかえの里デイサービスセンター",
    "kana": "サカエノサトデイサービスセンター",
    "address": "新潟県三条市福島新田丁1015番地1",
    "lat": 37.5874476,
    "lng": 138.9197449,
    "tel": "0256-45-6311",
    "url": "http://care-net.biz/15/sakaenosato/",
    "pref": "新潟県",
    "city": "三条市",
    "category": "community_day_service",
    "serviceType": "地域密着型通所介護",
    "capacity": 0,
    "openDays": [
      "平日",
      "土曜日",
      "祝日"
    ],
    "openDaysNote": ""
  },
  {
    "id": "1570401610",
    "name": "だんらんの家桜木町",
    "kana": "ダンランノイエサクラギチョウ",
    "address": "新潟県三条市桜木町5番28号",
    "lat": 37.6205278,
    "lng": 138.9487853,
    "tel": "0256-46-0271",
    "url": "",
    "pref": "新潟県",
    "city": "三条市",
    "category": "community_day_service",
    "serviceType": "地域密着型通所介護",
    "capacity": 10,
    "openDays": [
      "平日",
      "土曜日",
      "日曜日",
      "祝日"
    ],
    "openDaysNote": ""
  },
  {
    "id": "1570401438",
    "name": "デイサービスセンター第二さかえの里",
    "kana": "デイサービスセンターダイニサカエノサト",
    "address": "新潟県三条市福島新田丙480番地",
    "lat": 37.6103833,
    "lng": 138.9051048,
    "tel": "0256-45-1133",
    "url": "http://care-net.biz/15/sakaenosato/",
    "pref": "新潟県",
    "city": "三条市",
    "category": "community_day_service",
    "serviceType": "地域密着型通所介護",
    "capacity": 29,
    "openDays": [
      "平日",
      "土曜日",
      "祝日"
    ],
    "openDaysNote": ""
  },
  {
    "id": "1570401370",
    "name": "デイサービス条南",
    "kana": "デイサービス　ジョウナン",
    "address": "新潟県三条市条南町10-28",
    "lat": 37.6245383,
    "lng": 138.9445579,
    "tel": "0256-33-1166",
    "url": "",
    "pref": "新潟県",
    "city": "三条市",
    "category": "community_day_service",
    "serviceType": "地域密着型通所介護",
    "capacity": 0,
    "openDays": [
      "平日",
      "土曜日",
      "日曜日",
      "祝日"
    ],
    "openDaysNote": "19時迄延長受け入れ有り"
  },
  {
    "id": "1570401552",
    "name": "リハビリスタジオ　animo　三条",
    "kana": "リハビリスタジオ　アニモサンジョウ",
    "address": "新潟県三条市東三条1-9-20",
    "lat": 37.6292165,
    "lng": 138.9726633,
    "tel": "0256-64-7171",
    "url": "http://asahicommons.co.jp/",
    "pref": "新潟県",
    "city": "三条市",
    "category": "community_day_service",
    "serviceType": "地域密着型通所介護",
    "capacity": 0,
    "openDays": [
      "平日",
      "祝日"
    ],
    "openDaysNote": ""
  },
  {
    "id": "1570401651",
    "name": "愛幸堂たかリハステーション三条店",
    "kana": "アイコウドウタカリハステーションサンジョウテン",
    "address": "新潟県三条市興野1丁目3番1号",
    "lat": 37.631741,
    "lng": 138.9690469,
    "tel": "0256-46-0807",
    "url": "http://aikoudou-taka.com/",
    "pref": "新潟県",
    "city": "三条市",
    "category": "community_day_service",
    "serviceType": "地域密着型通所介護",
    "capacity": 0,
    "openDays": [
      "平日",
      "土曜日"
    ],
    "openDaysNote": ""
  },
  {
    "id": "1590400170",
    "name": "宏友会リハビリデイサービス雪んこ",
    "kana": "コウユウカイリハビリデイサービスユキンコ",
    "address": "新潟県三条市三竹2-10-18",
    "lat": 37.6263151,
    "lng": 138.9831324,
    "tel": "0256-47-6790",
    "url": "",
    "pref": "新潟県",
    "city": "三条市",
    "category": "community_day_service",
    "serviceType": "地域密着型通所介護",
    "capacity": 0,
    "openDays": [
      "平日",
      "祝日"
    ],
    "openDaysNote": ""
  },
  {
    "id": "1570400810",
    "name": "三条市西四日町デイサービスセンター",
    "kana": "サンジョウシニシヨッカマチデイサービスセンター",
    "address": "新潟県三条市西四日町3‐15‐22",
    "lat": 37.6243468,
    "lng": 138.9504794,
    "tel": "0256-32-9990",
    "url": "http://www.tyouwaen.com",
    "pref": "新潟県",
    "city": "三条市",
    "category": "community_day_service",
    "serviceType": "地域密着型通所介護",
    "capacity": 17,
    "openDays": [
      "平日",
      "土曜日",
      "祝日"
    ],
    "openDaysNote": ""
  },
  {
    "id": "1570400760",
    "name": "地域密着通所介護事業所　かじまちの家",
    "kana": "チイキミッチャクガタツウショカイゴジギョウショ　カジマチノイエ",
    "address": "三条市本町6丁目3番76号",
    "lat": 37.6318682,
    "lng": 138.9505487,
    "tel": "0256-34-2448",
    "url": "http://www.tasukeai-network.com",
    "pref": "新潟県",
    "city": "三条市",
    "category": "community_day_service",
    "serviceType": "地域密着型通所介護",
    "capacity": 15,
    "openDays": [
      "平日",
      "土曜日",
      "祝日"
    ],
    "openDaysNote": "所要時間2時間以上3時間未満のサービスは、心身の状況その他利用者のやむを得ない事情により、長時間のサービス利用が困難である場合のみ利用することができます。"
  },
  {
    "id": "1571500659",
    "name": "デイサービスセンターえがお",
    "kana": "デイサービスセンターエガオ",
    "address": "新潟県糸魚川市寺島３－２－４０ヴィラオレッタ糸魚川２F ヴィラオレッタ糸魚川２F",
    "lat": 37.0349675,
    "lng": 137.8436763,
    "tel": "025-555-7747",
    "url": "http://www.mid-japan.co.jp/business/egao.html",
    "pref": "新潟県",
    "city": "糸魚川市",
    "category": "community_day_service",
    "serviceType": "地域密着型通所介護",
    "capacity": 17,
    "openDays": [
      "平日",
      "土曜日",
      "祝日"
    ],
    "openDaysNote": ""
  },
  {
    "id": "1571500790",
    "name": "デイサービスひのき",
    "kana": "デイサービスヒノキ",
    "address": "新潟県糸魚川市押上2-4-25",
    "lat": 37.0503328729937,
    "lng": 137.87979634367,
    "tel": "025-556-6966",
    "url": "",
    "pref": "新潟県",
    "city": "糸魚川市",
    "category": "community_day_service",
    "serviceType": "地域密着型通所介護",
    "capacity": 16,
    "openDays": [
      "平日",
      "祝日"
    ],
    "openDaysNote": ""
  },
  {
    "id": "1571500808",
    "name": "らっくねす",
    "kana": "ラックネス",
    "address": "新潟県糸魚川市中央2-3-35",
    "lat": 37.040120712082,
    "lng": 137.861214005712,
    "tel": "025-553-0909",
    "url": "http://www.lifecare-orange.com/rakkunesu3",
    "pref": "新潟県",
    "city": "糸魚川市",
    "category": "community_day_service",
    "serviceType": "地域密着型通所介護",
    "capacity": 0,
    "openDays": [
      "平日"
    ],
    "openDaysNote": ""
  },
  {
    "id": "1571000627",
    "name": "デイサービスセンターつるかめ園",
    "kana": "デイサービスセンターツルカメエン",
    "address": "十日町市蒲生1973",
    "lat": 37.1344773,
    "lng": 138.5744349,
    "tel": "025-597-3028",
    "url": "http://matsudaifukushikai.webes.jp/",
    "pref": "新潟県",
    "city": "十日町市",
    "category": "community_day_service",
    "serviceType": "地域密着型通所介護",
    "capacity": null,
    "openDays": [
      "平日",
      "祝日"
    ],
    "openDaysNote": ""
  },
  {
    "id": "1591000169",
    "name": "壮快空間　たんぽぽ",
    "kana": "ソウカイクウカン　タンポポ",
    "address": "新潟県十日町市伊達甲２７２番地",
    "lat": 37.1013094373824,
    "lng": 138.735644540706,
    "tel": "025-761-7073",
    "url": "https://r.goope.jp/sokai-tanpopo",
    "pref": "新潟県",
    "city": "十日町市",
    "category": "community_day_service",
    "serviceType": "地域密着型通所介護",
    "capacity": 0,
    "openDays": [
      "平日",
      "土曜日",
      "祝日"
    ],
    "openDaysNote": ""
  },
  {
    "id": "1570800423",
    "name": "あいあいデイサービス",
    "kana": "アイアイデイサービス",
    "address": "新潟県小千谷市上ノ山３丁目４－１４",
    "lat": 37.3012114815492,
    "lng": 138.789210577246,
    "tel": "0258-81-1023",
    "url": "",
    "pref": "新潟県",
    "city": "小千谷市",
    "category": "community_day_service",
    "serviceType": "地域密着型通所介護",
    "capacity": 14,
    "openDays": [
      "平日",
      "祝日"
    ],
    "openDaysNote": ""
  },
  {
    "id": "1570800324",
    "name": "デイサービスセンター　ほのぼの",
    "kana": "デイサービスセンター　ホノボノ",
    "address": "新潟県小千谷市大字川井１６９０番地",
    "lat": 37.255504,
    "lng": 138.8286512,
    "tel": "0258-81-4010",
    "url": "http://honobono.namaste.jp/",
    "pref": "新潟県",
    "city": "小千谷市",
    "category": "community_day_service",
    "serviceType": "地域密着型通所介護",
    "capacity": 11,
    "openDays": [
      "平日",
      "土曜日",
      "日曜日",
      "祝日"
    ],
    "openDaysNote": ""
  },
  {
    "id": "1570800480",
    "name": "デイサービスセンターつつじガーデン小千谷",
    "kana": "デイサービスセンターツツジガーデンオヂヤ",
    "address": "新潟県小千谷市四ツ子509-1",
    "lat": 37.2830776990873,
    "lng": 138.785709851312,
    "tel": "0258-84-0030",
    "url": "http://www.add-vantage.jp/",
    "pref": "新潟県",
    "city": "小千谷市",
    "category": "community_day_service",
    "serviceType": "地域密着型通所介護",
    "capacity": 0,
    "openDays": [
      "平日",
      "土曜日",
      "日曜日",
      "祝日"
    ],
    "openDaysNote": ""
  },
  {
    "id": "1590800122",
    "name": "ほっとデイ夢咲桜",
    "kana": "ホットデイユメサクラ",
    "address": "小千谷市小粟田９４２番地",
    "lat": 37.3316514675999,
    "lng": 138.792083643045,
    "tel": "０２５８－８９－６３６３",
    "url": "https://www.facebook.com/d.yumesakura",
    "pref": "新潟県",
    "city": "小千谷市",
    "category": "community_day_service",
    "serviceType": "地域密着型通所介護",
    "capacity": 0,
    "openDays": [
      "平日",
      "祝日"
    ],
    "openDaysNote": "８月１３日～１５日、１２月３０日～１月３日は休業。"
  },
  {
    "id": "1570800407",
    "name": "老人デイサービス事業所ときみずの家",
    "kana": "ロウジンデイサービスジギョウショトキミズノイエ",
    "address": "新潟県小千谷市大字時水１８２番地１",
    "lat": 37.301806546634,
    "lng": 138.773233141417,
    "tel": "0258-81-6120",
    "url": "http://www.ojiyafukushi.com/",
    "pref": "新潟県",
    "city": "小千谷市",
    "category": "community_day_service",
    "serviceType": "地域密着型通所介護",
    "capacity": 0,
    "openDays": [
      "平日",
      "祝日"
    ],
    "openDaysNote": "なし"
  },
  {
    "id": "1570800464",
    "name": "老人デイサービス事業所千谷島の家",
    "kana": "ロウジンデイサービスジギョウショチヤジマノイエ",
    "address": "新潟県小千谷市千谷川３０２",
    "lat": 37.3205581478406,
    "lng": 138.802171135353,
    "tel": "0258-81-6211",
    "url": "http://www.ojiyafukushi.com/",
    "pref": "新潟県",
    "city": "小千谷市",
    "category": "community_day_service",
    "serviceType": "地域密着型通所介護",
    "capacity": 0,
    "openDays": [
      "平日",
      "祝日"
    ],
    "openDaysNote": ""
  },
  {
    "id": "1590300644",
    "name": "えびすはまデイホーム米",
    "kana": "エビスハマデイホームコメ",
    "address": "新潟県上越市夷浜119-21",
    "lat": 37.2040389,
    "lng": 138.2894159,
    "tel": "025-539-5608",
    "url": "",
    "pref": "新潟県",
    "city": "上越市",
    "category": "community_day_service",
    "serviceType": "地域密着型通所介護",
    "capacity": 0,
    "openDays": [
      "平日",
      "土曜日",
      "祝日"
    ],
    "openDaysNote": ""
  },
  {
    "id": "1590300594",
    "name": "かがやきハウス",
    "kana": "カガヤキハウス",
    "address": "新潟県上越市西城町2丁目8番30",
    "lat": 37.1109016,
    "lng": 138.2518226,
    "tel": "025-522-6602",
    "url": "http://www.nishishiro-hp.or.jp/care-planing-takada/",
    "pref": "新潟県",
    "city": "上越市",
    "category": "community_day_service",
    "serviceType": "地域密着型通所介護",
    "capacity": 18,
    "openDays": [
      "平日"
    ],
    "openDaysNote": ""
  },
  {
    "id": "1570303741",
    "name": "デイサービス　こやぎの広場",
    "kana": "デイサービス　コヤギノヒロバ",
    "address": "新潟県上越市下池部1229-6デイサービス　こやぎの広場 デイサービス　こやぎの広場",
    "lat": 37.1163833736099,
    "lng": 138.297280732541,
    "tel": "025-520-6677",
    "url": "https://www.big-advance.site/c/131/1602",
    "pref": "新潟県",
    "city": "上越市",
    "category": "community_day_service",
    "serviceType": "地域密着型通所介護",
    "capacity": 11,
    "openDays": [
      "平日",
      "祝日"
    ],
    "openDaysNote": "※豪雪に伴いインフラの混乱を回避するため、やむなく臨時休業の可能性あり。また、新型コロナウイルス感染症対策の一環で、施設が規定するコロナ対策の定款に触れるご利用者は一時利用を中止、または利用を延期する可能性あり。"
  },
  {
    "id": "1570302784",
    "name": "デイサービス　桑の里",
    "kana": "デイサービス　クワノサト",
    "address": "新潟県上越市大字京田134番地1",
    "lat": 37.0974986,
    "lng": 138.2331548,
    "tel": "025-521-0770",
    "url": "http://www.kuwanosato.jp",
    "pref": "新潟県",
    "city": "上越市",
    "category": "community_day_service",
    "serviceType": "地域密着型通所介護",
    "capacity": 0,
    "openDays": [
      "平日",
      "祝日"
    ],
    "openDaysNote": ""
  },
  {
    "id": "1570303642",
    "name": "デイサービスきらめき",
    "kana": "デイサービスキラメキ",
    "address": "新潟県上越市下門前2267番地ロングライフきらめき ロングライフきらめき",
    "lat": 37.161852641856,
    "lng": 138.251133057008,
    "tel": "025-545-2525",
    "url": "http://www.muramatsu-fukushi.com/",
    "pref": "新潟県",
    "city": "上越市",
    "category": "community_day_service",
    "serviceType": "地域密着型通所介護",
    "capacity": 0,
    "openDays": [
      "平日",
      "土曜日",
      "日曜日",
      "祝日"
    ],
    "openDaysNote": ""
  },
  {
    "id": "1590300586",
    "name": "デイサービスセンターふれあいの家",
    "kana": "デイサービスセンターフレアイノイエ",
    "address": "新潟県上越市清里区岡野町1616番地",
    "lat": 37.0784596,
    "lng": 138.3319533,
    "tel": "025-528-3000",
    "url": "https://www.jouetushisyakyo.jp/",
    "pref": "新潟県",
    "city": "上越市",
    "category": "community_day_service",
    "serviceType": "地域密着型通所介護",
    "capacity": null,
    "openDays": [
      "平日",
      "土曜日",
      "祝日"
    ],
    "openDaysNote": "なし"
  },
  {
    "id": "1570301851",
    "name": "デイサービスセンター安塚やすらぎ荘",
    "kana": "デイサービスセンターヤスヅカヤスラギソウ",
    "address": "新潟県上越市安塚区安塚2549－5",
    "lat": 37.1282189,
    "lng": 138.4435305,
    "tel": "025－594－7800",
    "url": "https://www.jouetushisyakyo.jp/",
    "pref": "新潟県",
    "city": "上越市",
    "category": "community_day_service",
    "serviceType": "地域密着型通所介護",
    "capacity": 28,
    "openDays": [
      "平日",
      "土曜日",
      "祝日"
    ],
    "openDaysNote": ""
  },
  {
    "id": "1590300552",
    "name": "デイサービスよいさ",
    "kana": "デイサービスヨイサ",
    "address": "新潟県上越市頸城区花ケ崎1886",
    "lat": 37.171719,
    "lng": 138.3607489,
    "tel": "025-512-7170",
    "url": "",
    "pref": "新潟県",
    "city": "上越市",
    "category": "community_day_service",
    "serviceType": "地域密着型通所介護",
    "capacity": 10,
    "openDays": [
      "平日",
      "土曜日",
      "日曜日",
      "祝日"
    ],
    "openDaysNote": ""
  },
  {
    "id": "1590300636",
    "name": "デイサービスよいさ仲町",
    "kana": "デイサービスヨイサナカマチ",
    "address": "新潟県上越市仲町2丁目7-8",
    "lat": 37.106948619204,
    "lng": 138.241475217791,
    "tel": "025-512-0285",
    "url": "",
    "pref": "新潟県",
    "city": "上越市",
    "category": "community_day_service",
    "serviceType": "地域密着型通所介護",
    "capacity": 0,
    "openDays": [
      "平日",
      "土曜日",
      "祝日"
    ],
    "openDaysNote": ""
  },
  {
    "id": "1570300689",
    "name": "デイホームやちほ",
    "kana": "デイホームヤチホ",
    "address": "上越市上荒浜14-1",
    "lat": 37.1953876000001,
    "lng": 138.275322333066,
    "tel": "025-544-3080",
    "url": "https://www.jouetushisyakyo.jp/",
    "pref": "新潟県",
    "city": "上越市",
    "category": "community_day_service",
    "serviceType": "地域密着型通所介護",
    "capacity": 18,
    "openDays": [
      "平日",
      "土曜日",
      "日曜日",
      "祝日"
    ],
    "openDaysNote": "ただし、この時間外であっても、留守番電話等により２４時間連絡が可能です。"
  },
  {
    "id": "1570300671",
    "name": "デイホーム有田",
    "kana": "デイホームアリタ",
    "address": "上越市安江3丁目5番3号",
    "lat": 37.1672060468753,
    "lng": 138.262535571164,
    "tel": "025-545-1481",
    "url": "https://www.jouetushisyakyo.jp/",
    "pref": "新潟県",
    "city": "上越市",
    "category": "community_day_service",
    "serviceType": "地域密着型通所介護",
    "capacity": 0,
    "openDays": [
      "平日",
      "土曜日",
      "日曜日",
      "祝日"
    ],
    "openDaysNote": "利用者の希望があった場合、延長利用にも対応いたします。"
  },
  {
    "id": "1570302883",
    "name": "ひだまり笑福庵",
    "kana": "ヒダマリショウフクアン",
    "address": "新潟県上越市大貫四丁目４３番１５号",
    "lat": 37.1078733218713,
    "lng": 138.230587864418,
    "tel": "025-546-7488",
    "url": "http://syouhukuan.com",
    "pref": "新潟県",
    "city": "上越市",
    "category": "community_day_service",
    "serviceType": "地域密着型通所介護",
    "capacity": 15,
    "openDays": [
      "平日",
      "土曜日",
      "日曜日",
      "祝日"
    ],
    "openDaysNote": "ただし、年始の利用は既利用者に限る"
  },
  {
    "id": "1570303147",
    "name": "ふれあいの杜　上越",
    "kana": "フレアイノモリ　ジョウエツ",
    "address": "新潟県上越市頸城区西福島９４５－１",
    "lat": 37.1817282,
    "lng": 138.2754586,
    "tel": "025-531-3490",
    "url": "http://www.fureainomori.co.jp",
    "pref": "新潟県",
    "city": "上越市",
    "category": "community_day_service",
    "serviceType": "地域密着型通所介護",
    "capacity": 15,
    "openDays": [
      "平日",
      "土曜日",
      "日曜日",
      "祝日"
    ],
    "openDaysNote": "特になし"
  },
  {
    "id": "1570303691",
    "name": "リハクラブＷＩＬＬ",
    "kana": "リハクラブウィル",
    "address": "新潟県上越市とよば107番地イル･クオーレとよば１階 イル･クオーレとよば１階",
    "lat": 37.1045049119209,
    "lng": 138.272485847746,
    "tel": "025-520-7677",
    "url": "http://www.takadafukushikai.com",
    "pref": "新潟県",
    "city": "上越市",
    "category": "community_day_service",
    "serviceType": "地域密着型通所介護",
    "capacity": 18,
    "openDays": [
      "平日"
    ],
    "openDaysNote": "上記以外、年末年始（１２月３１日～１月３日）及びお盆（８月１３日～１５日）は休業日となります。"
  },
  {
    "id": "1570303543",
    "name": "寄り合い処ふらっとかすが",
    "kana": "ヨリアイドコロフラットカスガ",
    "address": "新潟県上越市木田2-16-50",
    "lat": 37.1447701708674,
    "lng": 138.243498666934,
    "tel": "025-521-0361",
    "url": "http://www.fb-kaigo.co.jp/",
    "pref": "新潟県",
    "city": "上越市",
    "category": "community_day_service",
    "serviceType": "地域密着型通所介護",
    "capacity": 0,
    "openDays": [
      "平日",
      "土曜日",
      "祝日"
    ],
    "openDaysNote": "※年末年始1/1～1/3は休業"
  },
  {
    "id": "1590300560",
    "name": "吉川デイサービスセンターあじさいの家",
    "kana": "ヨシカワデイサービスセンターアジサイノイエ",
    "address": "新潟県上越市吉川区原之町1819番地1",
    "lat": 37.2237301,
    "lng": 138.4046437,
    "tel": "025-548-2388",
    "url": "https://www.jouetushisyakyo.jp/",
    "pref": "新潟県",
    "city": "上越市",
    "category": "community_day_service",
    "serviceType": "地域密着型通所介護",
    "capacity": 18,
    "openDays": [
      "平日",
      "土曜日",
      "日曜日",
      "祝日"
    ],
    "openDaysNote": ""
  },
  {
    "id": "1570303550",
    "name": "樹楽　上増田",
    "kana": "キラク　カミマスダ",
    "address": "新潟県上越市頸城区上増田１２２－１樹楽上増田 樹楽上増田",
    "lat": 37.1923544,
    "lng": 138.360598,
    "tel": "025-546-7342",
    "url": "http://bfkaigo.com/",
    "pref": "新潟県",
    "city": "上越市",
    "category": "community_day_service",
    "serviceType": "地域密着型通所介護",
    "capacity": 10,
    "openDays": [
      "平日",
      "土曜日",
      "日曜日",
      "祝日"
    ],
    "openDaysNote": "令和３年２月１日より日曜日営業再開"
  },
  {
    "id": "1590300537",
    "name": "大島デイサービスセンター",
    "kana": "オオシマデイサービスセンター",
    "address": "新潟県上越市大島区大平5142番地1",
    "lat": 37.156532,
    "lng": 138.5111115,
    "tel": "025-594-3800",
    "url": "http://www.kubiki-sjk.or.jp",
    "pref": "新潟県",
    "city": "上越市",
    "category": "community_day_service",
    "serviceType": "地域密着型通所介護",
    "capacity": 0,
    "openDays": [
      "平日",
      "祝日"
    ],
    "openDaysNote": ""
  },
  {
    "id": "1570302354",
    "name": "特定非営利活動法人　くわどり大杉の家　通所介護事業所",
    "kana": "トクテイヒエイリカツドウホウジンクワドリオオスギノイエツウショカイゴジギョウショ",
    "address": "上越市三伝７１０番地",
    "lat": 37.1429755,
    "lng": 138.1524496,
    "tel": "025-546-2739",
    "url": "",
    "pref": "新潟県",
    "city": "上越市",
    "category": "community_day_service",
    "serviceType": "地域密着型通所介護",
    "capacity": 11,
    "openDays": [
      "平日",
      "土曜日",
      "日曜日",
      "祝日"
    ],
    "openDaysNote": "利用者の利用状況により営業時間が変わる場合がある"
  },
  {
    "id": "1570301802",
    "name": "牧デイサービスセンターやまゆりの家",
    "kana": "マキデイサービスセンターヤマユリノイエ",
    "address": "新潟県上越市牧区柳島４８７番地",
    "lat": 37.07888,
    "lng": 138.3832396,
    "tel": "025-533-5700",
    "url": "https://www.jouetushisyakyo.jp/",
    "pref": "新潟県",
    "city": "上越市",
    "category": "community_day_service",
    "serviceType": "地域密着型通所介護",
    "capacity": 18,
    "openDays": [
      "平日",
      "祝日"
    ],
    "openDaysNote": ""
  },
  {
    "id": "1570301828",
    "name": "頸城デイサービスセンターはながさの里",
    "kana": "クビキデイサービスセンターハナガサノサト",
    "address": "新潟県上越市頸城区花ヶ崎１１６５番地",
    "lat": 37.172723,
    "lng": 138.3575689,
    "tel": "025－530－3930",
    "url": "https://www.jouetushisyakyo.jp/",
    "pref": "新潟県",
    "city": "上越市",
    "category": "community_day_service",
    "serviceType": "地域密着型通所介護",
    "capacity": 0,
    "openDays": [
      "平日",
      "土曜日",
      "祝日"
    ],
    "openDaysNote": "利用者がない場合、及びその他事業所の都合により臨時に休館します。"
  },
  {
    "id": "1570109411",
    "name": "デイサービスセンター　リーベ　天野",
    "kana": "デイサービスセンター　リーベアマノ",
    "address": "新潟県新潟市江南区天野２丁目１２番２２号",
    "lat": 37.8551942,
    "lng": 139.0333824,
    "tel": "025-282-9705",
    "url": "https://www.care-umbrella.com",
    "pref": "新潟県",
    "city": "新潟市江南区",
    "category": "community_day_service",
    "serviceType": "地域密着型通所介護",
    "capacity": 10,
    "openDays": [
      "平日",
      "土曜日",
      "祝日"
    ],
    "openDaysNote": ""
  },
  {
    "id": "1570103844",
    "name": "デイホームひまわり",
    "kana": "デイホームヒマワリ",
    "address": "新潟県新潟市江南区城山４丁目２番３４号",
    "lat": 37.8611065,
    "lng": 139.113548,
    "tel": "025-382-3247",
    "url": "https://www.himawari.homes/",
    "pref": "新潟県",
    "city": "新潟市江南区",
    "category": "community_day_service",
    "serviceType": "地域密着型通所介護",
    "capacity": 0,
    "openDays": [
      "平日",
      "土曜日",
      "祝日"
    ],
    "openDaysNote": ""
  },
  {
    "id": "1570102416",
    "name": "なかじょうデイサービスセンター西山",
    "kana": "ナカジョウデイサービスセンターニシヤマ",
    "address": "新潟県新潟市江南区西山５７８番地1",
    "lat": 37.885514636675,
    "lng": 139.136378716568,
    "tel": "025-278-5080",
    "url": "http://www.kaigo-nakajou.com/",
    "pref": "新潟県",
    "city": "新潟市江南区",
    "category": "community_day_service",
    "serviceType": "地域密着型通所介護",
    "capacity": 15,
    "openDays": [
      "平日",
      "土曜日",
      "祝日"
    ],
    "openDaysNote": "特にありません。"
  },
  {
    "id": "1570113272",
    "name": "やすらぎの家つくし",
    "kana": "ヤスラギノイエツクシ",
    "address": "新潟県新潟市江南区北山１４８５番地１",
    "lat": 37.8759679084659,
    "lng": 139.117078906607,
    "tel": "025-277-9550",
    "url": "https://www.instagram.com/sangurie294",
    "pref": "新潟県",
    "city": "新潟市江南区",
    "category": "community_day_service",
    "serviceType": "地域密着型通所介護",
    "capacity": 0,
    "openDays": [
      "平日",
      "祝日"
    ],
    "openDaysNote": ""
  },
  {
    "id": "1590102230",
    "name": "Re:Step小須戸",
    "kana": "リステップコスド",
    "address": "新潟県新潟市秋葉区横川浜546-5",
    "lat": 37.7519808,
    "lng": 139.0734118,
    "tel": "0250-25-7072",
    "url": "https://nextcareservice.com/restep/",
    "pref": "新潟県",
    "city": "新潟市秋葉区",
    "category": "community_day_service",
    "serviceType": "地域密着型通所介護",
    "capacity": 0,
    "openDays": [
      "平日",
      "祝日"
    ],
    "openDaysNote": ""
  },
  {
    "id": "1590101653",
    "name": "アレック北栄東金沢",
    "kana": "アレックホクエイヒガシカナザワ",
    "address": "新潟県新潟市秋葉区東金沢1690番地1",
    "lat": 37.8023969,
    "lng": 139.1437397,
    "tel": "0250-21-1800",
    "url": "http://www.alec-hokuei.co.jp",
    "pref": "新潟県",
    "city": "新潟市秋葉区",
    "category": "community_day_service",
    "serviceType": "地域密着型通所介護",
    "capacity": 10,
    "openDays": [
      "平日",
      "土曜日",
      "祝日"
    ],
    "openDaysNote": ""
  },
  {
    "id": "1570107357",
    "name": "ウェルケア新津デイサービスセンター下興野",
    "kana": "ウェルケアニイツデイサービスセンターシモゴヤ",
    "address": "新潟県新潟市秋葉区下興野町3番1号",
    "lat": 37.8056059,
    "lng": 139.1249339,
    "tel": "0250‐25‐7223",
    "url": "http://www.wellcare.jp/",
    "pref": "新潟県",
    "city": "新潟市秋葉区",
    "category": "community_day_service",
    "serviceType": "地域密着型通所介護",
    "capacity": 18,
    "openDays": [
      "平日",
      "土曜日",
      "日曜日",
      "祝日"
    ],
    "openDaysNote": ""
  },
  {
    "id": "1570109098",
    "name": "ウェルケア新津デイサービスセンター美幸町",
    "kana": "ウェルケアニイツデイサービスセンターミユキチョウ",
    "address": "新潟県新潟市秋葉区美幸町1丁目3番2号",
    "lat": 37.7997512,
    "lng": 139.1178011,
    "tel": "0250-25-7768",
    "url": "http:www.wellcare.jp",
    "pref": "新潟県",
    "city": "新潟市秋葉区",
    "category": "community_day_service",
    "serviceType": "地域密着型通所介護",
    "capacity": 18,
    "openDays": [
      "平日",
      "土曜日",
      "日曜日",
      "祝日"
    ],
    "openDaysNote": ""
  },
  {
    "id": "1570109072",
    "name": "デイサービスセンターすずらん",
    "kana": "デイサービスセンタースズラン",
    "address": "新潟県新潟市秋葉区中野５丁目２番２７号",
    "lat": 37.8328597,
    "lng": 139.1057301,
    "tel": "0250-25-7603",
    "url": "http://www.s-suzuran.com",
    "pref": "新潟県",
    "city": "新潟市秋葉区",
    "category": "community_day_service",
    "serviceType": "地域密着型通所介護",
    "capacity": 0,
    "openDays": [
      "平日",
      "土曜日",
      "日曜日",
      "祝日"
    ],
    "openDaysNote": ""
  },
  {
    "id": "1570112266",
    "name": "デイサービスセンターすずらん車場",
    "kana": "デイサービスセンタースズランクルマバ",
    "address": "新潟県新潟市秋葉区車場1丁目7番14号",
    "lat": 37.8389509,
    "lng": 139.1112461,
    "tel": "0250-25-5566",
    "url": "",
    "pref": "新潟県",
    "city": "新潟市秋葉区",
    "category": "community_day_service",
    "serviceType": "地域密着型通所介護",
    "capacity": 0,
    "openDays": [
      "平日",
      "土曜日",
      "日曜日",
      "祝日"
    ],
    "openDaysNote": ""
  },
  {
    "id": "1570110450",
    "name": "ディサービスセンターすずらん川口",
    "kana": "デイサービスセンタースズランカワグチ",
    "address": "新潟県新潟市秋葉区川口１６９番地１",
    "lat": 37.8176531,
    "lng": 139.1176077,
    "tel": "0250-25-7584",
    "url": "",
    "pref": "新潟県",
    "city": "新潟市秋葉区",
    "category": "community_day_service",
    "serviceType": "地域密着型通所介護",
    "capacity": 0,
    "openDays": [
      "平日",
      "土曜日",
      "日曜日",
      "祝日"
    ],
    "openDaysNote": ""
  },
  {
    "id": "1590102065",
    "name": "デイサービスセンターすずらん川口弐号館",
    "kana": "デイサービスセンタースズランカワグチニゴウカン",
    "address": "新潟県新潟市秋葉区川口143番地10",
    "lat": 37.8176746576455,
    "lng": 139.117345303566,
    "tel": "0250-47-6627",
    "url": "https://s-suzuran.com/",
    "pref": "新潟県",
    "city": "新潟市秋葉区",
    "category": "community_day_service",
    "serviceType": "地域密着型通所介護",
    "capacity": 0,
    "openDays": [
      "平日",
      "祝日"
    ],
    "openDaysNote": "平日の祝日は営業"
  },
  {
    "id": "1590102339",
    "name": "デイサービスてまり歌",
    "kana": "デイサービステマリウタ",
    "address": "新潟県新潟市秋葉区滝谷町４番２６号",
    "lat": 37.7881307,
    "lng": 139.143939,
    "tel": "0250-47-4961",
    "url": "",
    "pref": "新潟県",
    "city": "新潟市秋葉区",
    "category": "community_day_service",
    "serviceType": "地域密着型通所介護",
    "capacity": null,
    "openDays": [
      "平日",
      "土曜日",
      "祝日"
    ],
    "openDaysNote": ""
  },
  {
    "id": "1570110690",
    "name": "デイサービスひょうたん島",
    "kana": "デイサービスヒョウタンジマ",
    "address": "新潟県新潟市秋葉区柄目木352番地",
    "lat": 37.7903855575071,
    "lng": 139.145902484656,
    "tel": "0250-24-3898",
    "url": "http://www.yu-seikai.net/index.php",
    "pref": "新潟県",
    "city": "新潟市秋葉区",
    "category": "community_day_service",
    "serviceType": "地域密着型通所介護",
    "capacity": 0,
    "openDays": [
      "平日",
      "土曜日",
      "祝日"
    ],
    "openDaysNote": "延長時間は、午前7時30分から午前9時00分まで　及び　午後4時00分から午後6時30分までとします。"
  },
  {
    "id": "1590102354",
    "name": "デイサービス希望の陽　秋葉",
    "kana": "デイサービス　キボウノハル　アキハ",
    "address": "新潟県新潟市秋葉区新津本町４丁目６－２４",
    "lat": 37.7951076879876,
    "lng": 139.125693463754,
    "tel": "0250-47-6665",
    "url": "",
    "pref": "新潟県",
    "city": "新潟市秋葉区",
    "category": "community_day_service",
    "serviceType": "地域密着型通所介護",
    "capacity": 0,
    "openDays": [
      "平日",
      "祝日"
    ],
    "openDaysNote": "サービス提供時間（改行）午前の部　9:00～12:10（改行）午後の部　13:30～16：40"
  },
  {
    "id": "1570111623",
    "name": "リハステーションてんじん",
    "kana": "リハステーションテンジン",
    "address": "新潟県新潟市秋葉区古田1丁目6番41号",
    "lat": 37.7946275,
    "lng": 139.1112898,
    "tel": "0250-21-0062",
    "url": "",
    "pref": "新潟県",
    "city": "新潟市秋葉区",
    "category": "community_day_service",
    "serviceType": "地域密着型通所介護",
    "capacity": 5,
    "openDays": [
      "平日"
    ],
    "openDaysNote": "サービス提供時間9:00～12:15サービス提供時間13:00～16:15"
  },
  {
    "id": "1570109577",
    "name": "機能訓練デイサービス希望の丘",
    "kana": "キノウクンレンデイサービスキボウノオカ",
    "address": "新潟県新潟市秋葉区小須戸19番地５",
    "lat": 37.7543076,
    "lng": 139.0688037,
    "tel": "0250-38-5556",
    "url": "http://hn-gr.jp",
    "pref": "新潟県",
    "city": "新潟市秋葉区",
    "category": "community_day_service",
    "serviceType": "地域密着型通所介護",
    "capacity": 0,
    "openDays": [
      "平日",
      "土曜日",
      "日曜日",
      "祝日"
    ],
    "openDaysNote": ""
  },
  {
    "id": "1570112944",
    "name": "健幸デイなろて場",
    "kana": "ケンコウデイナロテバ",
    "address": "新潟県新潟市秋葉区美幸町3丁目18番26号",
    "lat": 37.8038500700657,
    "lng": 139.113091532016,
    "tel": "0250-23-7608",
    "url": "https://www.syoukou.me",
    "pref": "新潟県",
    "city": "新潟市秋葉区",
    "category": "community_day_service",
    "serviceType": "地域密着型通所介護",
    "capacity": 0,
    "openDays": [
      "平日",
      "土曜日",
      "祝日"
    ],
    "openDaysNote": ""
  },
  {
    "id": "1590101901",
    "name": "デイサービス　わのう庭",
    "kana": "デイサービス　ワノウテイ",
    "address": "新潟県新潟市西蒲区和納1－3－13",
    "lat": 37.7230752,
    "lng": 138.8771441,
    "tel": "0256－77－8890",
    "url": "",
    "pref": "新潟県",
    "city": "新潟市西蒲区",
    "category": "community_day_service",
    "serviceType": "地域密着型通所介護",
    "capacity": 10,
    "openDays": [
      "平日",
      "土曜日",
      "祝日"
    ],
    "openDaysNote": ""
  },
  {
    "id": "1570110203",
    "name": "デイサービスセンターさくらんぼ",
    "kana": "デイサービスセンターサクランボ",
    "address": "新潟県新潟市西蒲区油島285番地",
    "lat": 37.7441096,
    "lng": 138.8635732,
    "tel": "0256-82-5033",
    "url": "http://sakuranbonokaze.com/",
    "pref": "新潟県",
    "city": "新潟市西蒲区",
    "category": "community_day_service",
    "serviceType": "地域密着型通所介護",
    "capacity": 10,
    "openDays": [
      "平日",
      "祝日"
    ],
    "openDaysNote": "土・日曜日が祝日の場合は休み（改行）年末年始（12/31～1/3）"
  },
  {
    "id": "1570110328",
    "name": "デイサービスセンター巻愛宕の園",
    "kana": "デイサービスセンターマキアタゴノソノ",
    "address": "新潟県新潟市西蒲区巻甲2678番地1",
    "lat": 37.7599462362374,
    "lng": 138.889254640253,
    "tel": "0256-73-5112",
    "url": "http://www.atago.or.jp",
    "pref": "新潟県",
    "city": "新潟市西蒲区",
    "category": "community_day_service",
    "serviceType": "地域密着型通所介護",
    "capacity": 13,
    "openDays": [
      "平日",
      "土曜日",
      "祝日"
    ],
    "openDaysNote": "お盆、年末に関係なく営業しております。"
  },
  {
    "id": "1570106672",
    "name": "デイサービスセンター優友",
    "kana": "デイサービスセンターユウユウ",
    "address": "新潟県新潟市西蒲区熊谷１０５３番地１",
    "lat": 37.7694957,
    "lng": 138.9719938,
    "tel": "0256-86-2524",
    "url": "http://www.care-yuyu.or.jp",
    "pref": "新潟県",
    "city": "新潟市西蒲区",
    "category": "community_day_service",
    "serviceType": "地域密着型通所介護",
    "capacity": 0,
    "openDays": [
      "平日",
      "土曜日",
      "祝日"
    ],
    "openDaysNote": ""
  },
  {
    "id": "1570113025",
    "name": "り・ぷらすDay",
    "kana": "リプラス　デイ",
    "address": "新潟県新潟市西蒲区越前浜5151番地",
    "lat": 37.804980516917,
    "lng": 138.84858143586,
    "tel": "0256-77-2077",
    "url": "http://ho-juen.co.jp",
    "pref": "新潟県",
    "city": "新潟市西蒲区",
    "category": "community_day_service",
    "serviceType": "地域密着型通所介護",
    "capacity": 18,
    "openDays": [
      "平日",
      "祝日"
    ],
    "openDaysNote": "祝日、お盆期間、年末年始にかかわらず、月曜日から土曜日営業。（改行）日曜日休日。（改行）元旦は入浴お休み。"
  },
  {
    "id": "1570112696",
    "name": "リハ・ホームこもれび",
    "kana": "リハ・ホームコモレビ",
    "address": "新潟県新潟市西蒲区升潟773番地1",
    "lat": 37.8098071,
    "lng": 138.936921,
    "tel": "0256-77-8494",
    "url": "",
    "pref": "新潟県",
    "city": "新潟市西蒲区",
    "category": "community_day_service",
    "serviceType": "地域密着型通所介護",
    "capacity": 0,
    "openDays": [
      "平日",
      "祝日"
    ],
    "openDaysNote": "午前の部：9：00～12：15（改行）午後の部：13：30～16：45"
  },
  {
    "id": "1570110807",
    "name": "GENKINEXT新潟西",
    "kana": "ゲンキ　ネクスト　ニイガタニシ",
    "address": "新潟県新潟市西区西小針台1丁目10番6号",
    "lat": 37.8845971,
    "lng": 138.9809718,
    "tel": "025-378-3471",
    "url": "",
    "pref": "新潟県",
    "city": "新潟市西区",
    "category": "community_day_service",
    "serviceType": "地域密着型通所介護",
    "capacity": 18,
    "openDays": [
      "平日",
      "土曜日",
      "祝日"
    ],
    "openDaysNote": ""
  },
  {
    "id": "1570113405",
    "name": "アースサポート新潟西",
    "kana": "アースサポートニイガタニシ",
    "address": "新潟県新潟市西区坂井831-3",
    "lat": 37.8670778,
    "lng": 138.9567395,
    "tel": "025-269-8411",
    "url": "https://www.earthsupport.co.jp/",
    "pref": "新潟県",
    "city": "新潟市西区",
    "category": "community_day_service",
    "serviceType": "地域密着型通所介護",
    "capacity": 0,
    "openDays": [
      "平日",
      "土曜日",
      "日曜日",
      "祝日"
    ],
    "openDaysNote": "12月30日～1月3日を除く"
  },
  {
    "id": "1590101620",
    "name": "ウェルネスｄａｙ松海が丘",
    "kana": "ウェルネスデイマツミガオカ",
    "address": "新潟県新潟市西区松海が丘2-24-25",
    "lat": 37.8874180712593,
    "lng": 138.973014608598,
    "tel": "025-268-5223",
    "url": "https://www.facebook.com/ウェルネスｄａｙ松海が丘-727517504125491/",
    "pref": "新潟県",
    "city": "新潟市西区",
    "category": "community_day_service",
    "serviceType": "地域密着型通所介護",
    "capacity": 7,
    "openDays": [
      "平日",
      "土曜日",
      "祝日"
    ],
    "openDaysNote": "年末年始（12月31日～1月3日）は休業させていただきます。"
  },
  {
    "id": "1590101885",
    "name": "えんでこ",
    "kana": "エンデコ",
    "address": "新潟県新潟市西区内野上新町11810-５",
    "lat": 37.849652,
    "lng": 138.913154,
    "tel": "025-264-5730",
    "url": "http://niigata-min.or.jp/yuubae/",
    "pref": "新潟県",
    "city": "新潟市西区",
    "category": "community_day_service",
    "serviceType": "地域密着型通所介護",
    "capacity": 0,
    "openDays": [
      "平日",
      "土曜日",
      "祝日"
    ],
    "openDaysNote": "施設の営業時間は8時30分～17時30分"
  },
  {
    "id": "1590101513",
    "name": "すずらんぽかぽかはーと",
    "kana": "スズランポカポカハート",
    "address": "新潟県新潟市西区平島1丁目7番地2山口ビル１階 山口ビル１階",
    "lat": 37.8921464,
    "lng": 139.005848,
    "tel": "025-201-8661",
    "url": "",
    "pref": "新潟県",
    "city": "新潟市西区",
    "category": "community_day_service",
    "serviceType": "地域密着型通所介護",
    "capacity": 10,
    "openDays": [
      "平日",
      "土曜日",
      "祝日"
    ],
    "openDaysNote": ""
  },
  {
    "id": "1590102321",
    "name": "デイサービス　もみじの家　西小針台",
    "kana": "デイサービス　モミジノイエ　ニシコバリダイ",
    "address": "新潟県新潟市西区西小針台2丁目9番7号",
    "lat": 37.8847549,
    "lng": 138.9797206,
    "tel": "025-201-9832",
    "url": "http://momijino-ie.jimdofree.com/",
    "pref": "新潟県",
    "city": "新潟市西区",
    "category": "community_day_service",
    "serviceType": "地域密着型通所介護",
    "capacity": null,
    "openDays": [
      "平日",
      "土曜日",
      "日曜日",
      "祝日"
    ],
    "openDaysNote": "延長対応7:30～18:30"
  },
  {
    "id": "1570111706",
    "name": "デイサービス　内野リハ道場",
    "kana": "デイサービス　ウチノリハドウジョウ",
    "address": "新潟県新潟市西区五十嵐中島5丁目16番8号",
    "lat": 37.8491298,
    "lng": 138.9136068,
    "tel": "025-378-3818",
    "url": "http://www.rihadoujou.net/",
    "pref": "新潟県",
    "city": "新潟市西区",
    "category": "community_day_service",
    "serviceType": "地域密着型通所介護",
    "capacity": 18,
    "openDays": [
      "平日",
      "土曜日",
      "祝日"
    ],
    "openDaysNote": ""
  },
  {
    "id": "1570110484",
    "name": "デイサービスセンター春日和四ツ郷屋",
    "kana": "デイサービスセンターハルビヨリヨツゴウヤ",
    "address": "新潟県新潟市西区四ツ郷屋1538番地13",
    "lat": 53.41291,
    "lng": -8.24388999999996,
    "tel": "025-201-9878",
    "url": "http://www.worldstay.jp/",
    "pref": "新潟県",
    "city": "新潟市西区",
    "category": "community_day_service",
    "serviceType": "地域密着型通所介護",
    "capacity": 17,
    "openDays": [
      "平日",
      "土曜日",
      "日曜日",
      "祝日"
    ],
    "openDaysNote": ""
  },
  {
    "id": "1590102362",
    "name": "デイサービスつむぎ",
    "kana": "デイサービスツムギ",
    "address": "新潟県新潟市西区五十嵐一の町6861番地23",
    "lat": 37.8703175,
    "lng": 138.9483456,
    "tel": "025-201-7491",
    "url": "",
    "pref": "新潟県",
    "city": "新潟市西区",
    "category": "community_day_service",
    "serviceType": "地域密着型通所介護",
    "capacity": 0,
    "openDays": [
      "平日",
      "祝日"
    ],
    "openDaysNote": ""
  },
  {
    "id": "1590101786",
    "name": "はあとふるあたごデイサービスセンター浦山",
    "kana": "ハアトフルアタゴデイサービスセンターウラヤマ",
    "address": "新潟県新潟市西区浦山2丁目1番66号サンシャイン青山１階 サンシャイン青山１階",
    "lat": 37.9013624,
    "lng": 139.0059393,
    "tel": "025-201-8882",
    "url": "http//heartfull.jp/",
    "pref": "新潟県",
    "city": "新潟市西区",
    "category": "community_day_service",
    "serviceType": "地域密着型通所介護",
    "capacity": 0,
    "openDays": [
      "平日",
      "土曜日",
      "祝日"
    ],
    "openDaysNote": "なし"
  },
  {
    "id": "1570108686",
    "name": "フィットネスデイaigo新潟青山店",
    "kana": "フィットネスデイアイゴニイガタアオヤマテン",
    "address": "新潟県新潟市西区青山8丁目2番32号",
    "lat": 37.8984959,
    "lng": 138.9952279,
    "tel": "025-201-8900",
    "url": "http://aigo-care.com",
    "pref": "新潟県",
    "city": "新潟市西区",
    "category": "community_day_service",
    "serviceType": "地域密着型通所介護",
    "capacity": 0,
    "openDays": [
      "平日",
      "祝日"
    ],
    "openDaysNote": ""
  },
  {
    "id": "1570111714",
    "name": "ホームケアセンター縁",
    "kana": "ホームケアセンターエン",
    "address": "新潟県新潟市西区坂井砂山２丁目１０番４号",
    "lat": 37.872525,
    "lng": 138.9604805,
    "tel": "025-378-3366",
    "url": "http://en.niigata-kaigo.jp/",
    "pref": "新潟県",
    "city": "新潟市西区",
    "category": "community_day_service",
    "serviceType": "地域密着型通所介護",
    "capacity": 14,
    "openDays": [
      "平日",
      "土曜日",
      "祝日"
    ],
    "openDaysNote": ""
  },
  {
    "id": "1570111037",
    "name": "ゆったりでい　家宝",
    "kana": "ユッタリデイ　カホウ",
    "address": "新潟県新潟市西区新通2192番地1",
    "lat": 37.859654,
    "lng": 138.9572182,
    "tel": "025-201-8804",
    "url": "",
    "pref": "新潟県",
    "city": "新潟市西区",
    "category": "community_day_service",
    "serviceType": "地域密着型通所介護",
    "capacity": 0,
    "openDays": [
      "平日",
      "祝日"
    ],
    "openDaysNote": ""
  },
  {
    "id": "1570109486",
    "name": "リハデイaigo黒埼",
    "kana": "リハデイアイゴクロサキ",
    "address": "新潟県新潟市西区大野町2864番地1",
    "lat": 37.8476779294653,
    "lng": 139.017280743538,
    "tel": "025-211-8835",
    "url": "http://www.aigo-care.com/",
    "pref": "新潟県",
    "city": "新潟市西区",
    "category": "community_day_service",
    "serviceType": "地域密着型通所介護",
    "capacity": 0,
    "openDays": [
      "平日",
      "祝日"
    ],
    "openDaysNote": ""
  },
  {
    "id": "1570113173",
    "name": "リハデイサービス颯　浦山",
    "kana": "リハデイサービス　ソウ　ウラヤマ",
    "address": "新潟県新潟市西区浦山1-1-10リバーサイド青山　１F リバーサイド青山　１F",
    "lat": 37.9005744213765,
    "lng": 139.005915126984,
    "tel": "025-201-7700",
    "url": "http://www.cdp-niigata.co.jp",
    "pref": "新潟県",
    "city": "新潟市西区",
    "category": "community_day_service",
    "serviceType": "地域密着型通所介護",
    "capacity": 18,
    "openDays": [
      "平日"
    ],
    "openDaysNote": ""
  },
  {
    "id": "1590101695",
    "name": "青山デイサービスセンター",
    "kana": "アオヤマデイサービスセンター",
    "address": "新潟県新潟市西区青山1-7-27",
    "lat": 37.8938234,
    "lng": 139.0002717,
    "tel": "025-234-7211",
    "url": "http://n-nhn.com/",
    "pref": "新潟県",
    "city": "新潟市西区",
    "category": "community_day_service",
    "serviceType": "地域密着型通所介護",
    "capacity": 18,
    "openDays": [
      "平日",
      "土曜日",
      "日曜日",
      "祝日"
    ],
    "openDaysNote": ""
  },
  {
    "id": "1570108355",
    "name": "茶話本舗デイサービス青山百笑生",
    "kana": "サワホンポデイサービスアオヤマヒャクワライ",
    "address": "新潟県新潟市西区青山5丁目10番43号",
    "lat": 37.8987876,
    "lng": 138.997386,
    "tel": "025-265-9586",
    "url": "http://care-create.com",
    "pref": "新潟県",
    "city": "新潟市西区",
    "category": "community_day_service",
    "serviceType": "地域密着型通所介護",
    "capacity": 10,
    "openDays": [
      "平日",
      "土曜日",
      "日曜日",
      "祝日"
    ],
    "openDaysNote": ""
  },
  {
    "id": "1570112282",
    "name": "茶話本舗デイサービス大学前百笑生",
    "kana": "サワホンポデイサービスダイガクマエヒャクワライ",
    "address": "新潟県新潟市西区大学南2丁目11番11号",
    "lat": 37.8636756,
    "lng": 138.9436885,
    "tel": "025-378-3102",
    "url": "http://care-create.com",
    "pref": "新潟県",
    "city": "新潟市西区",
    "category": "community_day_service",
    "serviceType": "地域密着型通所介護",
    "capacity": 10,
    "openDays": [
      "平日",
      "土曜日",
      "日曜日",
      "祝日"
    ],
    "openDaysNote": "なし"
  },
  {
    "id": "1570111672",
    "name": "ＧＥＮＫＩ　ＮＥＸＴ　新潟堀之内",
    "kana": "ゲンキ　ネクスト　ニイガタホリノウチ",
    "address": "新潟県新潟市中央区堀之内南1丁目20番11号",
    "lat": 37.9026859,
    "lng": 139.0518067,
    "tel": "025－290-7701",
    "url": "http://www.genki-next.com/",
    "pref": "新潟県",
    "city": "新潟市中央区",
    "category": "community_day_service",
    "serviceType": "地域密着型通所介護",
    "capacity": 17,
    "openDays": [
      "平日",
      "土曜日",
      "祝日"
    ],
    "openDaysNote": "お盆休み(８/１３～８/１６)　年末年始(１２/３０～１/３)"
  },
  {
    "id": "1570112746",
    "name": "ＧＥＮＫＩ　ＮＥＸＴ新潟信濃町",
    "kana": "ゲンキネクスト　ニイガタシナノマチ",
    "address": "新潟県新潟市中央区信濃町７番25号",
    "lat": 37.9074252,
    "lng": 139.0125035,
    "tel": "０２５－２０１－８４１７",
    "url": "",
    "pref": "新潟県",
    "city": "新潟市中央区",
    "category": "community_day_service",
    "serviceType": "地域密着型通所介護",
    "capacity": 32,
    "openDays": [
      "平日",
      "土曜日",
      "祝日"
    ],
    "openDaysNote": "お盆休み(８/１３～８/１６)　年末年始(１２/３０～１/３)"
  },
  {
    "id": "1590101554",
    "name": "ウイングみなとデイサービスセンター",
    "kana": "ウイングミナトデイサービスセンター",
    "address": "新潟県新潟市中央区湊町通4ノ町3369番地2",
    "lat": 37.9293995,
    "lng": 139.0557243,
    "tel": "025-211-4816",
    "url": "http://www.maj.co.jp",
    "pref": "新潟県",
    "city": "新潟市中央区",
    "category": "community_day_service",
    "serviceType": "地域密着型通所介護",
    "capacity": 18,
    "openDays": [
      "平日",
      "土曜日",
      "祝日"
    ],
    "openDaysNote": "年末年始・お盆も営業いたします。"
  },
  {
    "id": "1590101562",
    "name": "ウイング姥ヶ山デイサービスセンター",
    "kana": "ウイングウバガヤマデイサービスセンター",
    "address": "新潟県新潟市中央区姥ヶ山１丁目３－６",
    "lat": 37.8881158,
    "lng": 139.0725587,
    "tel": "025-288-5005",
    "url": "http://www.maj.co.jp",
    "pref": "新潟県",
    "city": "新潟市中央区",
    "category": "community_day_service",
    "serviceType": "地域密着型通所介護",
    "capacity": 18,
    "openDays": [
      "平日",
      "土曜日",
      "祝日"
    ],
    "openDaysNote": "お盆・お正月も日曜日以外営業いたします。"
  },
  {
    "id": "1570111292",
    "name": "さわやかみなとかんでいさーびすせんたー",
    "kana": "サワヤカミナト館デイサービスセンター",
    "address": "新潟県新潟市中央区古町通十三番町５１５５番地３",
    "lat": 37.9308576,
    "lng": 139.0440836,
    "tel": "025-226-6566",
    "url": "http://www.sawayakaclub.jp/",
    "pref": "新潟県",
    "city": "新潟市中央区",
    "category": "community_day_service",
    "serviceType": "地域密着型通所介護",
    "capacity": 15,
    "openDays": [
      "平日",
      "祝日"
    ],
    "openDaysNote": "特になし"
  },
  {
    "id": "1570113033",
    "name": "デイサービスセンターたのしえ",
    "kana": "デイサービスセンタータノシエ",
    "address": "新潟県新潟市中央区山二ツ5丁目2番11号デイサービスセンターたのしえ デイサービスセンターたのしえ",
    "lat": 37.8942628,
    "lng": 139.0901852,
    "tel": "025-282-5235",
    "url": "http://www.tanoshie.co.jp",
    "pref": "新潟県",
    "city": "新潟市中央区",
    "category": "community_day_service",
    "serviceType": "地域密着型通所介護",
    "capacity": 0,
    "openDays": [
      "平日",
      "土曜日",
      "祝日"
    ],
    "openDaysNote": ""
  },
  {
    "id": "1570113561",
    "name": "デイサービスセンターつばさフィット",
    "kana": "デイサービスセンターツバサフィット",
    "address": "新潟県新潟市中央区関屋田町1-6-2ＭＤビル２階 ＭＤビル２階",
    "lat": 37.9151145,
    "lng": 139.0258745,
    "tel": "025-230-0377",
    "url": "http://www.maj.co.jp/",
    "pref": "新潟県",
    "city": "新潟市中央区",
    "category": "community_day_service",
    "serviceType": "地域密着型通所介護",
    "capacity": 10,
    "openDays": [
      "平日",
      "土曜日",
      "祝日"
    ],
    "openDaysNote": "日曜日以外は、年末年始・お盆も営業します。"
  },
  {
    "id": "1570112217",
    "name": "デイサービスセンターひなたや",
    "kana": "デイサービスセンターヒナタヤ",
    "address": "新潟県新潟市中央区上大川前通11番町1877番2",
    "lat": 37.9274608,
    "lng": 139.0486945,
    "tel": "025-211-8447",
    "url": "http://www.maj.co.jp/",
    "pref": "新潟県",
    "city": "新潟市中央区",
    "category": "community_day_service",
    "serviceType": "地域密着型通所介護",
    "capacity": 12,
    "openDays": [
      "平日",
      "土曜日",
      "祝日"
    ],
    "openDaysNote": "年末年始・お盆も営業いたします。"
  },
  {
    "id": "1570102499",
    "name": "デイサービスセンター赤とんぼ",
    "kana": "デイサービスセンターアカトンボ",
    "address": "新潟県新潟市中央区堀之内２番地",
    "lat": 37.9042828,
    "lng": 139.045882,
    "tel": "025-285-7007",
    "url": "http://tonbo-club.com",
    "pref": "新潟県",
    "city": "新潟市中央区",
    "category": "community_day_service",
    "serviceType": "地域密着型通所介護",
    "capacity": 0,
    "openDays": [
      "平日",
      "土曜日",
      "祝日"
    ],
    "openDaysNote": "祝日営業"
  },
  {
    "id": "1590102172",
    "name": "リハステーションけいおう",
    "kana": "リハステーションケイオウ",
    "address": "新潟県新潟市中央区京王1-13-28",
    "lat": 37.8938988666724,
    "lng": 139.075431960119,
    "tel": "025-256-8003",
    "url": "https://www.rihakeiou2021.com/",
    "pref": "新潟県",
    "city": "新潟市中央区",
    "category": "community_day_service",
    "serviceType": "地域密着型通所介護",
    "capacity": 0,
    "openDays": [
      "平日"
    ],
    "openDaysNote": "午前の部9:00~12:15、午後の部13:15~16:30"
  },
  {
    "id": "1570113165",
    "name": "リハデイ　いやしライフ",
    "kana": "リハデイ　イヤシライフ",
    "address": "新潟県新潟市中央区鐙西1丁目15番9号",
    "lat": 37.904586,
    "lng": 139.0627865,
    "tel": "０２５－２４９－７２５７",
    "url": "http://www.iyashilife.com/",
    "pref": "新潟県",
    "city": "新潟市中央区",
    "category": "community_day_service",
    "serviceType": "地域密着型通所介護",
    "capacity": 0,
    "openDays": [
      "平日",
      "土曜日"
    ],
    "openDaysNote": ""
  },
  {
    "id": "1590101810",
    "name": "レコードブック新潟駅南口",
    "kana": "レコードブック　ニイガタエキミナミグチ",
    "address": "新潟県新潟市中央区笹口１番１０号北都ビル１０１号室 北都ビル１０１号室",
    "lat": 37.910630658543,
    "lng": 139.068754035514,
    "tel": "025-250-6572",
    "url": "http://www.recordbook.jp/",
    "pref": "新潟県",
    "city": "新潟市中央区",
    "category": "community_day_service",
    "serviceType": "地域密着型通所介護",
    "capacity": 15,
    "openDays": [
      "平日",
      "祝日"
    ],
    "openDaysNote": "平日の祝日は営業"
  },
  {
    "id": "1590102149",
    "name": "樹楽団らんの家関屋",
    "kana": "キラクダンランノイエセキヤ",
    "address": "新潟県新潟市中央区関屋大川前1-10-8",
    "lat": 37.9023542,
    "lng": 139.0147835,
    "tel": "025-378-0878",
    "url": "",
    "pref": "新潟県",
    "city": "新潟市中央区",
    "category": "community_day_service",
    "serviceType": "地域密着型通所介護",
    "capacity": 0,
    "openDays": [
      "平日",
      "土曜日",
      "日曜日",
      "祝日"
    ],
    "openDaysNote": ""
  },
  {
    "id": "1570111540",
    "name": "地域密着型通所介護デイサービスあおぞら",
    "kana": "チイキミッチャクガタツウショカイゴデイサービスアオゾラ",
    "address": "新潟県新潟市中央区堀之内南1丁目３２番４号デイサービスあおぞら デイサービスあおぞら",
    "lat": 37.9037163,
    "lng": 139.0496763,
    "tel": "025-384-8312",
    "url": "http://www.d-aozora.jp",
    "pref": "新潟県",
    "city": "新潟市中央区",
    "category": "community_day_service",
    "serviceType": "地域密着型通所介護",
    "capacity": 20,
    "openDays": [
      "平日",
      "祝日"
    ],
    "openDaysNote": ""
  },
  {
    "id": "1570110906",
    "name": "脳活カレッジ",
    "kana": "ノウカツカレッジ",
    "address": "新潟県新潟市中央区小張木3丁目9番79号",
    "lat": 37.8855745704591,
    "lng": 139.042879896959,
    "tel": "025-282-5528",
    "url": "http://www.nmi-net.com/creamedicaux/",
    "pref": "新潟県",
    "city": "新潟市中央区",
    "category": "community_day_service",
    "serviceType": "地域密着型通所介護",
    "capacity": 180,
    "openDays": [
      "平日",
      "土曜日",
      "日曜日",
      "祝日"
    ],
    "openDaysNote": "午前、午後２単位制（改行）午前9：00～12：00（改行）午後13：00～16：00"
  },
  {
    "id": "1570109510",
    "name": "文京町デイサービスセンター",
    "kana": "ブンキョウチョウデイサービスセンター",
    "address": "新潟県新潟市中央区文京町27番30号",
    "lat": 37.9089339,
    "lng": 139.008475,
    "tel": "025-234-5311",
    "url": "http://n-nhn.com/",
    "pref": "新潟県",
    "city": "新潟市中央区",
    "category": "community_day_service",
    "serviceType": "地域密着型通所介護",
    "capacity": 18,
    "openDays": [
      "平日",
      "土曜日",
      "祝日"
    ],
    "openDaysNote": "祝日やお盆は営業しています。"
  },
  {
    "id": "1570108967",
    "name": "勇樹会日の出デイサービス",
    "kana": "ユウキカイヒノデデイサービス",
    "address": "新潟県新潟市中央区日の出1丁目14番８号",
    "lat": 37.9193181,
    "lng": 139.0722209,
    "tel": "025-249-0678",
    "url": "http://yuukikai.com/",
    "pref": "新潟県",
    "city": "新潟市中央区",
    "category": "community_day_service",
    "serviceType": "地域密着型通所介護",
    "capacity": 18,
    "openDays": [
      "平日",
      "土曜日",
      "祝日"
    ],
    "openDaysNote": ""
  },
  {
    "id": "1570110799",
    "name": "GENKINEXT新潟東",
    "kana": "ゲンキネクストニイガタヒガシ",
    "address": "新潟県新潟市東区河渡１丁目1-35",
    "lat": 37.9355065,
    "lng": 139.0947096,
    "tel": "025-383-6201",
    "url": "http://www.genki-next.com/",
    "pref": "新潟県",
    "city": "新潟市東区",
    "category": "community_day_service",
    "serviceType": "地域密着型通所介護",
    "capacity": 0,
    "openDays": [
      "平日",
      "土曜日",
      "日曜日",
      "祝日"
    ],
    "openDaysNote": ""
  },
  {
    "id": "1590101505",
    "name": "アースサポート新潟東",
    "kana": "アースサポートニイガタヒガシ",
    "address": "新潟県新潟市東区石山1丁目3番21号",
    "lat": 37.8970543,
    "lng": 139.0918682,
    "tel": "025-257-0200",
    "url": "http://www.earthsupport.co.jp",
    "pref": "新潟県",
    "city": "新潟市東区",
    "category": "community_day_service",
    "serviceType": "地域密着型通所介護",
    "capacity": 30,
    "openDays": [
      "平日",
      "土曜日",
      "日曜日",
      "祝日"
    ],
    "openDaysNote": ""
  },
  {
    "id": "1570110146",
    "name": "デイサービスセンター　カナン寺山",
    "kana": "デイサービスセンター　カナンテラヤマ",
    "address": "新潟県新潟市東区寺山３丁目６番１１号",
    "lat": 37.9228943,
    "lng": 139.1126451,
    "tel": "025-256-7717",
    "url": "http://canaan-nii.com/",
    "pref": "新潟県",
    "city": "新潟市東区",
    "category": "community_day_service",
    "serviceType": "地域密着型通所介護",
    "capacity": 18,
    "openDays": [
      "平日",
      "土曜日",
      "祝日"
    ],
    "openDaysNote": ""
  },
  {
    "id": "1570112662",
    "name": "デイサービスセンターほーるはーと",
    "kana": "デイサービスセンターホールハート",
    "address": "新潟県新潟市東区北葉町14番2号",
    "lat": 37.9389191,
    "lng": 139.074311,
    "tel": "025-250-7011",
    "url": "",
    "pref": "新潟県",
    "city": "新潟市東区",
    "category": "community_day_service",
    "serviceType": "地域密着型通所介護",
    "capacity": 10,
    "openDays": [
      "平日",
      "土曜日"
    ],
    "openDaysNote": "営業時間以外・定休日は管理者携帯へ転送され、連絡の取れる体制になっています。"
  },
  {
    "id": "1590101596",
    "name": "デイサービスセンター守庵良寛上木戸",
    "kana": "デイサービスセンターマモリアンリョウカンカミキド",
    "address": "新潟県新潟市東区上木戸３丁目３番２４号",
    "lat": 37.9233356,
    "lng": 139.1023932,
    "tel": "025-278-3935",
    "url": "http://niigata-fukushi.com/",
    "pref": "新潟県",
    "city": "新潟市東区",
    "category": "community_day_service",
    "serviceType": "地域密着型通所介護",
    "capacity": 0,
    "openDays": [
      "平日",
      "土曜日",
      "祝日"
    ],
    "openDaysNote": "平成３０年４月１日より二単位制になり、9:00～12:15、12:45～16:00がサービス提供時間となっております。"
  },
  {
    "id": "1570113454",
    "name": "デイサービスつなぐ",
    "kana": "デイサービスツナグ",
    "address": "新潟県新潟市東区中野山5-5-7",
    "lat": 37.9015987,
    "lng": 139.1036417,
    "tel": "025-282-7381",
    "url": "",
    "pref": "新潟県",
    "city": "新潟市東区",
    "category": "community_day_service",
    "serviceType": "地域密着型通所介護",
    "capacity": 10,
    "openDays": [
      "平日",
      "土曜日",
      "日曜日",
      "祝日"
    ],
    "openDaysNote": ""
  },
  {
    "id": "1570107340",
    "name": "デイサービスなかのやま百笑生",
    "kana": "デイサービスナカノヤマヒャクワライ",
    "address": "新潟県新潟市中野山５丁目１５番４１号",
    "lat": 37.901294545368,
    "lng": 139.104716459401,
    "tel": "025-211-3272",
    "url": "http://care-create.com",
    "pref": "新潟県",
    "city": "新潟市東区",
    "category": "community_day_service",
    "serviceType": "地域密着型通所介護",
    "capacity": 10,
    "openDays": [
      "平日",
      "土曜日",
      "日曜日",
      "祝日"
    ],
    "openDaysNote": "サービス提供時間は9:00～17:00ですが7:00～21:00までは延長利用が可能です。"
  },
  {
    "id": "1590102503",
    "name": "デイサービスひなたぼっこ新潟",
    "kana": "デイサービスヒナタボッコニイガタ",
    "address": "新潟県新潟市東区海老ケ瀬643番地",
    "lat": 37.9264432,
    "lng": 139.1227393,
    "tel": "025-270-7807",
    "url": "https://ibaraduka.or.jp/",
    "pref": "新潟県",
    "city": "新潟市東区",
    "category": "community_day_service",
    "serviceType": "地域密着型通所介護",
    "capacity": null,
    "openDays": [
      "平日"
    ],
    "openDaysNote": ""
  },
  {
    "id": "1590101661",
    "name": "ほーるはーと江南",
    "kana": "ホールハートコウナン",
    "address": "新潟県新潟市東区江南1丁目1413番地11",
    "lat": 37.9027740281856,
    "lng": 139.078518210451,
    "tel": "025-369-4877",
    "url": "",
    "pref": "新潟県",
    "city": "新潟市東区",
    "category": "community_day_service",
    "serviceType": "地域密着型通所介護",
    "capacity": 10,
    "openDays": [
      "平日",
      "土曜日"
    ],
    "openDaysNote": "営業時間以外・定休日は管理者携帯へ転送され、連絡の取れる体制になっています。"
  },
  {
    "id": "1570110476",
    "name": "まごころデイサービス木戸",
    "kana": "マゴコロデイサービスキド",
    "address": "新潟県新潟市東区上木戸４丁目７番１１号",
    "lat": 37.9185943,
    "lng": 139.101613,
    "tel": "025-384-0238",
    "url": "",
    "pref": "新潟県",
    "city": "新潟市東区",
    "category": "community_day_service",
    "serviceType": "地域密着型通所介護",
    "capacity": 0,
    "openDays": [
      "平日",
      "土曜日",
      "祝日"
    ],
    "openDaysNote": ""
  },
  {
    "id": "1570110021",
    "name": "リハプライド　きゃすと新潟東",
    "kana": "リハプライド　キャストニイガタヒガシ",
    "address": "新潟県新潟市東区有楽２丁目３番地２",
    "lat": 37.9385983,
    "lng": 139.1080864,
    "tel": "025-278-8161",
    "url": "https://www.rehapride.co.jp/cast-niigatahigashi/",
    "pref": "新潟県",
    "city": "新潟市東区",
    "category": "community_day_service",
    "serviceType": "地域密着型通所介護",
    "capacity": 0,
    "openDays": [
      "平日",
      "祝日"
    ],
    "openDaysNote": "各曜日２単位制（改行）１単位目　午前９：００～１２：１５（改行）２単位目　午後１：３０～４：４５"
  },
  {
    "id": "1570110781",
    "name": "愛幸堂たかリハステーション　物見山店",
    "kana": "アイコウドウタカリハステーション　モノミヤマテン",
    "address": "新潟県新潟市物見山3丁目2番8号",
    "lat": 33.5307514,
    "lng": -92.4726916,
    "tel": "025-271-7005",
    "url": "http://aikoudou-taka.com/",
    "pref": "新潟県",
    "city": "新潟市東区",
    "category": "community_day_service",
    "serviceType": "地域密着型通所介護",
    "capacity": 10,
    "openDays": [
      "平日"
    ],
    "openDaysNote": "各曜日2単位制（改行）1単位目　午前9:00～12:05（改行）2単位目　午後1:30～4:35"
  },
  {
    "id": "1570113058",
    "name": "新潟リハビリテーション病院　アクティブデイなかやま",
    "kana": "ニイガタリハビリテーションビョウイン　アクティブデイナカヤマ",
    "address": "新潟県新潟市東区中山8丁目4番1号",
    "lat": 37.9131805,
    "lng": 139.0877287,
    "tel": "０２５－２７２－１６６６",
    "url": "http://www.niigata-reha.jp/",
    "pref": "新潟県",
    "city": "新潟市東区",
    "category": "community_day_service",
    "serviceType": "地域密着型通所介護",
    "capacity": 18,
    "openDays": [
      "平日"
    ],
    "openDaysNote": ""
  },
  {
    "id": "1570111433",
    "name": "新潟リハビリテーション病院　アクティブデイぼたんやま",
    "kana": "ニイガタリハビリテーションビョウイン　アクティブデイボタンヤマ",
    "address": "新潟県新潟市東区牡丹山４丁目８番５号",
    "lat": 37.9219085779902,
    "lng": 139.094271295107,
    "tel": "025-256-6565",
    "url": "http://www.niigata-reha.jp/",
    "pref": "新潟県",
    "city": "新潟市東区",
    "category": "community_day_service",
    "serviceType": "地域密着型通所介護",
    "capacity": 18,
    "openDays": [
      "平日"
    ],
    "openDaysNote": ""
  },
  {
    "id": "1590101893",
    "name": "デイサービスセンターてくてく白根",
    "kana": "デイサービスセンターテクテクシロネ",
    "address": "新潟県新潟市南区白根1219番地2",
    "lat": 37.7645152,
    "lng": 139.0186642,
    "tel": "025-374-6370",
    "url": "",
    "pref": "新潟県",
    "city": "新潟市南区",
    "category": "community_day_service",
    "serviceType": "地域密着型通所介護",
    "capacity": 0,
    "openDays": [
      "平日",
      "祝日"
    ],
    "openDaysNote": ""
  },
  {
    "id": "1570111656",
    "name": "デイサービスセンター十季のあかり白根",
    "kana": "デイサービスセンタートキノアカリシロネ",
    "address": "新潟県新潟市南区下塩俵855番地1",
    "lat": 37.8402963231671,
    "lng": 139.017733270531,
    "tel": "025-378-4165",
    "url": "http://careswitch.jp",
    "pref": "新潟県",
    "city": "新潟市南区",
    "category": "community_day_service",
    "serviceType": "地域密着型通所介護",
    "capacity": 18,
    "openDays": [
      "平日",
      "祝日"
    ],
    "openDaysNote": ""
  },
  {
    "id": "1590101646",
    "name": "アースサポート新潟北",
    "kana": "アースサポートニイガタキタ",
    "address": "新潟県新潟市北区東栄町2丁目1-39",
    "lat": 37.9147269,
    "lng": 139.2230324,
    "tel": "025-388-4411",
    "url": "http://www.earthsupport.co.jp",
    "pref": "新潟県",
    "city": "新潟市北区",
    "category": "community_day_service",
    "serviceType": "地域密着型通所介護",
    "capacity": 0,
    "openDays": [
      "平日",
      "土曜日",
      "祝日"
    ],
    "openDaysNote": ""
  },
  {
    "id": "1570112258",
    "name": "デイサービス　もみじの家　松浜",
    "kana": "デイサービスモミジノイエ　マツハマ",
    "address": "新潟県新潟市北区松浜2丁目10番1",
    "lat": 37.9516654,
    "lng": 139.1419389,
    "tel": "025-282-7947",
    "url": "http://momijino-ie.jimdofree.com/",
    "pref": "新潟県",
    "city": "新潟市北区",
    "category": "community_day_service",
    "serviceType": "地域密着型通所介護",
    "capacity": 18,
    "openDays": [
      "平日",
      "土曜日",
      "日曜日",
      "祝日"
    ],
    "openDaysNote": ""
  },
  {
    "id": "1570110674",
    "name": "デイサービスあやめ",
    "kana": "デイサービスアヤメ",
    "address": "新潟県新潟市北区松浜７丁目３６４２番地３５",
    "lat": 37.9532024302734,
    "lng": 139.138540300076,
    "tel": "025-385-6170",
    "url": "http://dsayame.ko-me.com/",
    "pref": "新潟県",
    "city": "新潟市北区",
    "category": "community_day_service",
    "serviceType": "地域密着型通所介護",
    "capacity": 15,
    "openDays": [
      "平日",
      "祝日"
    ],
    "openDaysNote": ""
  },
  {
    "id": "1590101570",
    "name": "デイサービス桜の郷",
    "kana": "デイサービスサクラノサト",
    "address": "新潟県新潟市北区松浜東町2-1-43",
    "lat": 37.9525557,
    "lng": 139.1552705,
    "tel": "025-255-7771",
    "url": "http://sakurano-sato.com",
    "pref": "新潟県",
    "city": "新潟市北区",
    "category": "community_day_service",
    "serviceType": "地域密着型通所介護",
    "capacity": 18,
    "openDays": [
      "平日",
      "土曜日",
      "祝日"
    ],
    "openDaysNote": "木曜・日曜は祝日でもお休み。"
  },
  {
    "id": "1570107811",
    "name": "まごころデイサービス松浜",
    "kana": "マゴコロデイサービスマツハマ",
    "address": "新潟県新潟市北区神谷内５４番地２",
    "lat": 37.951878,
    "lng": 139.157862,
    "tel": "025-259-3339",
    "url": "",
    "pref": "新潟県",
    "city": "新潟市北区",
    "category": "community_day_service",
    "serviceType": "地域密着型通所介護",
    "capacity": 0,
    "openDays": [
      "平日",
      "土曜日",
      "祝日"
    ],
    "openDaysNote": ""
  },
  {
    "id": "1570111821",
    "name": "リハデイなかじょう豊栄",
    "kana": "リハデイナカジョウトヨサカ",
    "address": "新潟県新潟市北区石動１丁目１５番地６",
    "lat": 37.9211872,
    "lng": 139.2139303,
    "tel": "025-384-5015",
    "url": "http://www.kaigo-nakajou.com/",
    "pref": "新潟県",
    "city": "新潟市北区",
    "category": "community_day_service",
    "serviceType": "地域密着型通所介護",
    "capacity": 29,
    "openDays": [
      "平日",
      "祝日"
    ],
    "openDaysNote": "社内研修や天候不良（非常災害）等により、臨時休業させて頂く場合がございます。"
  },
  {
    "id": "1570601540",
    "name": "アクティブデイしばた緑町",
    "kana": "アクティブデイシバタミドリチョウ",
    "address": "新潟県新発田市緑町1丁目13番10号",
    "lat": 37.9616344,
    "lng": 139.3303222,
    "tel": "0254-22-2020",
    "url": "http://www.aiko.or.jp/",
    "pref": "新潟県",
    "city": "新発田市",
    "category": "community_day_service",
    "serviceType": "地域密着型通所介護",
    "capacity": 18,
    "openDays": [
      "平日"
    ],
    "openDaysNote": "年末年始（12月31日～1月3日）"
  },
  {
    "id": "1570600237",
    "name": "ベルセゾン新発田デイサービスセンター",
    "kana": "ベルセゾンシバタデイサービスセンター",
    "address": "新発田市下石川７１３ベルセゾン新発田 ベルセゾン新発田",
    "lat": 37.966101,
    "lng": 139.4104141,
    "tel": "0254-31-2333",
    "url": "http://miyukikai.net/",
    "pref": "新潟県",
    "city": "新発田市",
    "category": "community_day_service",
    "serviceType": "地域密着型通所介護",
    "capacity": 0,
    "openDays": [
      "平日",
      "土曜日",
      "祝日"
    ],
    "openDaysNote": "特になし"
  },
  {
    "id": "1570601532",
    "name": "リハデイなかじょう新発田",
    "kana": "リハデイナカジョウシバタ",
    "address": "新発田市豊町4-1-15",
    "lat": 37.9387950705043,
    "lng": 139.341416977039,
    "tel": "0254-24-1818",
    "url": "http://www.kaigo-nakajou.com",
    "pref": "新潟県",
    "city": "新発田市",
    "category": "community_day_service",
    "serviceType": "地域密着型通所介護",
    "capacity": 15,
    "openDays": [
      "平日",
      "祝日"
    ],
    "openDaysNote": "土曜・日曜が祝日の場合も休業となります。"
  },
  {
    "id": "1570600716",
    "name": "特定非営利活動法人きらきら家族デイサービスセンターきらきら",
    "kana": "トクテイヒエイリカツドウホウジンデイサービスセンターキラキラ",
    "address": "新発田市城北町１－１－１２",
    "lat": 37.9576499280337,
    "lng": 139.326959547363,
    "tel": "0254-26-6320",
    "url": "",
    "pref": "新潟県",
    "city": "新発田市",
    "category": "community_day_service",
    "serviceType": "地域密着型通所介護",
    "capacity": 0,
    "openDays": [
      "平日",
      "土曜日",
      "祝日"
    ],
    "openDaysNote": ""
  },
  {
    "id": "1595000033",
    "name": "健康タウン　スマイル",
    "kana": "ケンコウタウン　スマイル",
    "address": "新潟県北蒲原郡聖籠町次第浜1639-11",
    "lat": 38.0059565,
    "lng": 139.2687272,
    "tel": "0254-20-7627",
    "url": "https://hp.kaipoke.biz/ab3/",
    "pref": "新潟県",
    "city": "聖籠町",
    "category": "community_day_service",
    "serviceType": "地域密着型通所介護",
    "capacity": 100,
    "openDays": [
      "平日"
    ],
    "openDaysNote": "年末年始休業あり"
  },
  {
    "id": "1571200946",
    "name": "かごやまの里デイサービスセンター",
    "kana": "カゴヤマノサトデイサービスセンター",
    "address": "新潟県村上市北新保５７１番地１０",
    "lat": 38.158294,
    "lng": 139.429962,
    "tel": "0254-60-1610",
    "url": "",
    "pref": "新潟県",
    "city": "村上市",
    "category": "community_day_service",
    "serviceType": "地域密着型通所介護",
    "capacity": 12,
    "openDays": [
      "平日",
      "土曜日",
      "祝日"
    ],
    "openDaysNote": ""
  },
  {
    "id": "1571200383",
    "name": "かんきち堂デイサービスセンター",
    "kana": "カンキチドウデイサービスセンター",
    "address": "新潟県村上市泉町9番25号",
    "lat": 38.2281588,
    "lng": 139.4755349,
    "tel": "0254-50-1611",
    "url": "http://www.kankichido.com/",
    "pref": "新潟県",
    "city": "村上市",
    "category": "community_day_service",
    "serviceType": "地域密着型通所介護",
    "capacity": 0,
    "openDays": [
      "平日",
      "土曜日",
      "祝日"
    ],
    "openDaysNote": ""
  },
  {
    "id": "1571201043",
    "name": "上海府デイサービスセンター　ゆきわり荘",
    "kana": "カミカイフデイサービスセンター　ユキワリソウ",
    "address": "新潟県村上市野潟2662番地１",
    "lat": 38.2653452,
    "lng": 139.446286,
    "tel": "0254-58-2210",
    "url": "http://www.sasaeai-coop.com",
    "pref": "新潟県",
    "city": "村上市",
    "category": "community_day_service",
    "serviceType": "地域密着型通所介護",
    "capacity": 18,
    "openDays": [
      "平日",
      "土曜日",
      "祝日"
    ],
    "openDaysNote": "ご家族の希望があれば19：00まで延長可能。"
  },
  {
    "id": "1592500167",
    "name": "デイサービスセンター　ウエルネス中条",
    "kana": "デイサービスセンター　ウエルネスナカジョウ",
    "address": "新潟県胎内市表町６番17-12号",
    "lat": 38.0487452,
    "lng": 139.3989565,
    "tel": "0254-43-6062",
    "url": "https://wellnes-nakajo.com/",
    "pref": "新潟県",
    "city": "胎内市",
    "category": "community_day_service",
    "serviceType": "地域密着型通所介護",
    "capacity": 0,
    "openDays": [
      "平日",
      "土曜日",
      "祝日"
    ],
    "openDaysNote": ""
  },
  {
    "id": "1570203149",
    "name": "デイサービス　おもしろ荘",
    "kana": "デイサービス　オモシロソウ",
    "address": "長岡市北荷頃34番地2",
    "lat": 37.4605044,
    "lng": 138.9843989,
    "tel": "0258-51-5185",
    "url": "http://www.okuetsu-buhin.co.jp/care/",
    "pref": "新潟県",
    "city": "長岡市",
    "category": "community_day_service",
    "serviceType": "地域密着型通所介護",
    "capacity": 10,
    "openDays": [
      "平日",
      "土曜日",
      "日曜日",
      "祝日"
    ],
    "openDaysNote": ""
  },
  {
    "id": "1570203214",
    "name": "デイサービスセンターみのり",
    "kana": "デイサービスセンターミノリ",
    "address": "長岡市飯塚2836",
    "lat": 37.3848480883151,
    "lng": 138.749213586686,
    "tel": "0258-92-5800",
    "url": "https://info03920.wixsite.com/koshiji",
    "pref": "新潟県",
    "city": "長岡市",
    "category": "community_day_service",
    "serviceType": "地域密着型通所介護",
    "capacity": 18,
    "openDays": [
      "平日",
      "土曜日",
      "祝日"
    ],
    "openDaysNote": ""
  },
  {
    "id": "1570203396",
    "name": "デイサービスセンターゆｌａｘ",
    "kana": "デイサービスセンターユラックス",
    "address": "新潟県長岡市曙2丁目3番地１５",
    "lat": 37.4275081200573,
    "lng": 138.849851279762,
    "tel": "0258-77-7667",
    "url": "",
    "pref": "新潟県",
    "city": "長岡市",
    "category": "community_day_service",
    "serviceType": "地域密着型通所介護",
    "capacity": 30,
    "openDays": [
      "平日",
      "土曜日",
      "祝日"
    ],
    "openDaysNote": "1日3単位（改行）1単位目09：00～12：05（改行）2単位目13：30～16：35（改行）3単位目18：00～21：05"
  },
  {
    "id": "1570202570",
    "name": "デイサービスセンター幸町",
    "kana": "デイサービスセンターサイワイチョウ",
    "address": "新潟県長岡市幸町1丁目13番15号",
    "lat": 37.4395546,
    "lng": 138.8412647,
    "tel": "0258-35-1101",
    "url": "http://www.nagaokasanko.com",
    "pref": "新潟県",
    "city": "長岡市",
    "category": "community_day_service",
    "serviceType": "地域密着型通所介護",
    "capacity": 18,
    "openDays": [
      "平日",
      "祝日"
    ],
    "openDaysNote": "延長を希望される方の提供時間は午前７時30分から午後９時までの12時間未満とする。"
  },
  {
    "id": "1570203198",
    "name": "デイサービスセンター川崎東",
    "kana": "デイサービスセンターカワサキヒガシ",
    "address": "長岡市川崎町563番地1",
    "lat": 37.4586916,
    "lng": 138.8669139,
    "tel": "0258-31-8553",
    "url": "http://nagaokasanko.com",
    "pref": "新潟県",
    "city": "長岡市",
    "category": "community_day_service",
    "serviceType": "地域密着型通所介護",
    "capacity": 18,
    "openDays": [
      "平日",
      "土曜日",
      "祝日"
    ],
    "openDaysNote": "休日及び窓口開設時間以外についても、センター職員が対応を行います。"
  },
  {
    "id": "1570202471",
    "name": "長岡市デイサービスセンターなごみ苑",
    "kana": "ナガオカシデイサービスセンターナゴミエン",
    "address": "長岡市山古志虫亀２１９番地２長岡市デイサービスセンターなごみ苑 長岡市デイサービスセンターなごみ苑",
    "lat": 37.3359731,
    "lng": 138.8920573,
    "tel": "0258-41-1180",
    "url": "http://www.nagaoka-shakyo.or.jp/",
    "pref": "新潟県",
    "city": "長岡市",
    "category": "community_day_service",
    "serviceType": "地域密着型通所介護",
    "capacity": 18,
    "openDays": [
      "平日",
      "祝日"
    ],
    "openDaysNote": "ただし、上記以外に管理者が必要であると認める時は、サービスを提供いたします。"
  },
  {
    "id": "1570202638",
    "name": "桃李園デイハウス与板",
    "kana": "トウリエンデイハウスヨイタ",
    "address": "長岡市与板町与板甲34番地",
    "lat": 37.5398778,
    "lng": 138.8100274,
    "tel": "0258-41-5300",
    "url": "http://www.tourien.jp/",
    "pref": "新潟県",
    "city": "長岡市",
    "category": "community_day_service",
    "serviceType": "地域密着型通所介護",
    "capacity": 0,
    "openDays": [
      "平日",
      "土曜日",
      "祝日"
    ],
    "openDaysNote": ""
  },
  {
    "id": "1570201531",
    "name": "老人デイサービスセンターこしじ",
    "kana": "ロウジンデイサービスセンターコシジ",
    "address": "新潟県長岡市浦３０６０番地",
    "lat": 37.3886346,
    "lng": 138.8041319,
    "tel": "0258-41-3155",
    "url": "https://warabien.jp",
    "pref": "新潟県",
    "city": "長岡市",
    "category": "community_day_service",
    "serviceType": "地域密着型通所介護",
    "capacity": 0,
    "openDays": [
      "平日",
      "土曜日",
      "祝日"
    ],
    "openDaysNote": ""
  },
  {
    "id": "1570201523",
    "name": "老人デイサービスセンターらいこうじ",
    "kana": "ロウジンデイサービスセンターライコウジ",
    "address": "新潟県長岡市来迎寺甲２６０７－２",
    "lat": 37.395375,
    "lng": 138.7818729,
    "tel": "0258-92-5421",
    "url": "https://warabien.jp",
    "pref": "新潟県",
    "city": "長岡市",
    "category": "community_day_service",
    "serviceType": "地域密着型通所介護",
    "capacity": 0,
    "openDays": [
      "平日",
      "土曜日",
      "日曜日",
      "祝日"
    ],
    "openDaysNote": ""
  },
  {
    "id": "1572400974",
    "name": "まちトレ南魚沼",
    "kana": "マチトレミナミウオヌマ",
    "address": "新潟県南魚沼市六日町801-9",
    "lat": 37.0589648,
    "lng": 138.8727502,
    "tel": "025-775-7473",
    "url": "http://www.alpsbc.co.jp/",
    "pref": "新潟県",
    "city": "南魚沼市",
    "category": "community_day_service",
    "serviceType": "地域密着型通所介護",
    "capacity": 0,
    "openDays": [
      "平日",
      "祝日"
    ],
    "openDaysNote": ""
  },
  {
    "id": "1572400958",
    "name": "機能訓練特化型デイサービス　リハクラ　うららか",
    "kana": "キノウクンレントッカガタデイサービス　リハクラ　ウララカ",
    "address": "新潟県南魚沼市八幡１２３－１",
    "lat": 37.0693714,
    "lng": 138.8799863,
    "tel": "025-788-0757",
    "url": "http://www.sakoujyu-uraraka.com/",
    "pref": "新潟県",
    "city": "南魚沼市",
    "category": "community_day_service",
    "serviceType": "地域密着型通所介護",
    "capacity": 15,
    "openDays": [
      "平日",
      "土曜日",
      "祝日"
    ],
    "openDaysNote": ""
  },
  {
    "id": "1572400834",
    "name": "心と体の機能回復センター　　まこトレ",
    "kana": "ココロトカラダノキノウカイフクセンター　マコトレ",
    "address": "新潟県南魚沼市中793番地1",
    "lat": 37.0330092,
    "lng": 138.8536764,
    "tel": "025-775-7180",
    "url": "",
    "pref": "新潟県",
    "city": "南魚沼市",
    "category": "community_day_service",
    "serviceType": "地域密着型通所介護",
    "capacity": 10,
    "openDays": [
      "平日",
      "土曜日"
    ],
    "openDaysNote": "夏季休業（８／１３～８／１５）年末年始（１２／３０～１／３）　変動あり　　　　　　　　　　　　　　　　１単位目：８：３０～１２：１５　２単位目：１２：３０～１６：２５"
  },
  {
    "id": "1590500268",
    "name": "アースサポート柏崎",
    "kana": "アースサポートカシワザキ",
    "address": "新潟県柏崎市大字横山1959－1",
    "lat": 37.3454839,
    "lng": 138.5680803,
    "tel": "0257－23－6600",
    "url": "http://www.earthsupport.co.jp/",
    "pref": "新潟県",
    "city": "柏崎市",
    "category": "community_day_service",
    "serviceType": "地域密着型通所介護",
    "capacity": 0,
    "openDays": [
      "平日",
      "土曜日",
      "祝日"
    ],
    "openDaysNote": "なし"
  },
  {
    "id": "1570501328",
    "name": "ｱｲ･ｹｱｰｽﾞｼﾆｱﾌｨｯﾄﾈｽひよし",
    "kana": "アイ・ケアーズシニアフィットネスヒヨシ",
    "address": "新潟県柏崎市日吉町4番8号",
    "lat": 37.3694145,
    "lng": 138.5726987,
    "tel": "0257-41-6600",
    "url": "http://www.i-cares.jp",
    "pref": "新潟県",
    "city": "柏崎市",
    "category": "community_day_service",
    "serviceType": "地域密着型通所介護",
    "capacity": 0,
    "openDays": [
      "平日",
      "祝日"
    ],
    "openDaysNote": "年末年始の休日　12月31日～1月3日まで"
  },
  {
    "id": "1590500318",
    "name": "アイ・ケアーズ　アイ・ホームたつか",
    "kana": "アイ・ケアーズ　アイ・ホームタツカ",
    "address": "新潟県柏崎市田塚3丁目5-32",
    "lat": 37.3698199,
    "lng": 138.5871953,
    "tel": "0257-41-5895",
    "url": "https://www.i-cares.jp",
    "pref": "新潟県",
    "city": "柏崎市",
    "category": "community_day_service",
    "serviceType": "地域密着型通所介護",
    "capacity": null,
    "openDays": [
      "平日",
      "土曜日",
      "日曜日",
      "祝日"
    ],
    "openDaysNote": ""
  },
  {
    "id": "1590500367",
    "name": "デイサービスセンターえみふる",
    "kana": "デイサービスセンターエミフル",
    "address": "新潟県　柏崎市　東本町　2丁目5番16号",
    "lat": 37.3696623479346,
    "lng": 138.558209643108,
    "tel": "0257 - 41 - 5",
    "url": "http://www.ken-bridge.com",
    "pref": "新潟県",
    "city": "柏崎市",
    "category": "community_day_service",
    "serviceType": "地域密着型通所介護",
    "capacity": null,
    "openDays": [
      "平日",
      "土曜日",
      "祝日"
    ],
    "openDaysNote": ""
  },
  {
    "id": "1570500833",
    "name": "デイサービスセンター駅前桜寿",
    "kana": "デイサービスセンターエキマエオウジュ",
    "address": "新潟県柏崎市日石町1-12サンテ駅前桜寿 サンテ駅前桜寿",
    "lat": 37.3642947,
    "lng": 138.5575969,
    "tel": "0257-35-5013",
    "url": "http://www.oujyu.jp/",
    "pref": "新潟県",
    "city": "柏崎市",
    "category": "community_day_service",
    "serviceType": "地域密着型通所介護",
    "capacity": null,
    "openDays": [
      "平日",
      "土曜日",
      "祝日"
    ],
    "openDaysNote": ""
  },
  {
    "id": "1590500235",
    "name": "リハプライド新潟柏崎",
    "kana": "リハプライドニイガタカシワザキ",
    "address": "新潟県柏崎市東長浜町7-10ウエルメイド柏崎101 ウエルメイド柏崎101",
    "lat": 37.3699,
    "lng": 138.578111,
    "tel": "0257-41-5771",
    "url": "https://www.rehapride.co.jp/niigatakashiwazaki/",
    "pref": "新潟県",
    "city": "柏崎市",
    "category": "community_day_service",
    "serviceType": "地域密着型通所介護",
    "capacity": 10,
    "openDays": [
      "平日",
      "祝日"
    ],
    "openDaysNote": "祝日は営業（改行）ただし、12月31日から1月4日までを除く"
  },
  {
    "id": "1570501245",
    "name": "寄り合い処　ふらっと柏崎",
    "kana": "ヨリアイトコロ　フラットカシワザキ",
    "address": "新潟県柏崎市北半田２丁目２番地２７号",
    "lat": 37.3649846,
    "lng": 138.5766706,
    "tel": "0257-28-1820",
    "url": "http://www.fb-kaigo.co.jp/",
    "pref": "新潟県",
    "city": "柏崎市",
    "category": "community_day_service",
    "serviceType": "地域密着型通所介護",
    "capacity": 15,
    "openDays": [
      "平日",
      "土曜日",
      "祝日"
    ],
    "openDaysNote": ""
  },
  {
    "id": "1570501112",
    "name": "笑いの花",
    "kana": "ワライノハナ",
    "address": "新潟県柏崎市田中８番６号",
    "lat": 37.3588357526227,
    "lng": 138.564043962566,
    "tel": "０２５７－３７－２２２７",
    "url": "",
    "pref": "新潟県",
    "city": "柏崎市",
    "category": "community_day_service",
    "serviceType": "地域密着型通所介護",
    "capacity": 11,
    "openDays": [
      "平日",
      "土曜日",
      "祝日"
    ],
    "openDaysNote": "休業日は、お盆（8月13日）、年末年始（12月31日から１月3日）です。"
  },
  {
    "id": "1591600190",
    "name": "デイサービスサンクスたんぽぽ",
    "kana": "デイサービスサンクスタンポポ",
    "address": "新潟県妙高市白山町4丁目6番7号",
    "lat": 37.0216526,
    "lng": 138.2460298,
    "tel": "0255-72-2866",
    "url": "",
    "pref": "新潟県",
    "city": "妙高市",
    "category": "community_day_service",
    "serviceType": "地域密着型通所介護",
    "capacity": 18,
    "openDays": [
      "平日",
      "土曜日",
      "祝日"
    ],
    "openDaysNote": ""
  },
  {
    "id": "1591600182",
    "name": "デイサービスセンターくりはら",
    "kana": "デイサービスセンタークリハラ",
    "address": "新潟県妙高市栗原2丁目8番21号",
    "lat": 37.045378,
    "lng": 138.2603843,
    "tel": "0255-70-0808",
    "url": "http://riborn.co.jp",
    "pref": "新潟県",
    "city": "妙高市",
    "category": "community_day_service",
    "serviceType": "地域密着型通所介護",
    "capacity": 0,
    "openDays": [
      "平日",
      "土曜日",
      "祝日"
    ],
    "openDaysNote": ""
  }
]