[
  {
    "id": "971400098",
    "name": "よか・げんき",
    "kana": "ヨカ・ゲンキ",
    "address": "栃木県さくら市氏家3842",
    "lat": 36.7056498,
    "lng": 139.9698793,
    "tel": "028-666-8823",
    "url": "http://hp.kaipoke.biz/az7/",
    "pref": "栃木県",
    "city": "さくら市",
    "category": "community_day_service",
    "serviceType": "地域密着型通所介護",
    "capacity": null,
    "openDays": [
      "平日",
      "土曜日",
      "日曜日",
      "祝日"
    ],
    "openDaysNote": ""
  },
  {
    "id": "991400060",
    "name": "よか・さくら",
    "kana": "ヨカ・サクラ",
    "address": "栃木県さくら市氏家３４９７",
    "lat": 36.7041933,
    "lng": 139.9693569,
    "tel": "０２８－６８２－６５６０",
    "url": "http://hp.kaipoke.biz/az7/",
    "pref": "栃木県",
    "city": "さくら市",
    "category": "community_day_service",
    "serviceType": "地域密着型通所介護",
    "capacity": 0,
    "openDays": [
      "平日",
      "土曜日",
      "日曜日",
      "祝日"
    ],
    "openDaysNote": ""
  },
  {
    "id": "971400221",
    "name": "リハビリ・ラボもみの手",
    "kana": "リハビリ・ラボモミノテ",
    "address": "栃木県さくら市馬場254番地5",
    "lat": 36.6878919,
    "lng": 139.9551351,
    "tel": "028-682-1160",
    "url": "",
    "pref": "栃木県",
    "city": "さくら市",
    "category": "community_day_service",
    "serviceType": "地域密着型通所介護",
    "capacity": 0,
    "openDays": [
      "平日",
      "祝日"
    ],
    "openDaysNote": ""
  },
  {
    "id": "991400086",
    "name": "機能訓練特化型デイサービス　さんぽ",
    "kana": "キノウクンレントッカガタデイサービス　サンポ",
    "address": "氏家１８８５－１１",
    "lat": 36.678121,
    "lng": 139.966233,
    "tel": "286811527",
    "url": "",
    "pref": "栃木県",
    "city": "さくら市",
    "category": "community_day_service",
    "serviceType": "地域密着型通所介護",
    "capacity": 10,
    "openDays": [
      "平日"
    ],
    "openDaysNote": ""
  },
  {
    "id": "971400072",
    "name": "赤い屋根",
    "kana": "アカイヤネ",
    "address": "栃木県さくら市狹間田1973-1",
    "lat": 36.6958187,
    "lng": 139.9994587,
    "tel": "028-681-6151",
    "url": "http://epron.sakura.ne.jp/",
    "pref": "栃木県",
    "city": "さくら市",
    "category": "community_day_service",
    "serviceType": "地域密着型通所介護",
    "capacity": 18,
    "openDays": [
      "平日",
      "土曜日",
      "日曜日",
      "祝日"
    ],
    "openDaysNote": "状況により臨時休業日あり"
  },
  {
    "id": "970105755",
    "name": "あいあいデイサービス宇都宮事業所",
    "kana": "アイアイデイサービスウツノミヤジギョウショ",
    "address": "栃木県宇都宮市岩曽町1257-2",
    "lat": 36.5846548,
    "lng": 139.9114614,
    "tel": "028-683-1720",
    "url": "www.aiaitown.com",
    "pref": "栃木県",
    "city": "宇都宮市",
    "category": "community_day_service",
    "serviceType": "地域密着型通所介護",
    "capacity": null,
    "openDays": [
      "平日",
      "土曜日",
      "祝日"
    ],
    "openDaysNote": ""
  },
  {
    "id": "970104485",
    "name": "ケアねっとデイサービスセンター",
    "kana": "ケアネットデイサービスセンター",
    "address": "宇都宮市兵庫塚2-8-18",
    "lat": 36.5016553155144,
    "lng": 139.856160628172,
    "tel": "286231156",
    "url": "http://www.carenet-service.com",
    "pref": "栃木県",
    "city": "宇都宮市",
    "category": "community_day_service",
    "serviceType": "地域密着型通所介護",
    "capacity": null,
    "openDays": [
      "平日",
      "祝日"
    ],
    "openDaysNote": ""
  },
  {
    "id": "970103883",
    "name": "コープデイサービスセンター緑３丁目",
    "kana": "コープデイサービスセンターミドリサンチョウメ",
    "address": "栃木県宇都宮市緑3-10-8",
    "lat": 36.5191051,
    "lng": 139.8585267,
    "tel": "028-658-6631",
    "url": "",
    "pref": "栃木県",
    "city": "宇都宮市",
    "category": "community_day_service",
    "serviceType": "地域密着型通所介護",
    "capacity": 0,
    "openDays": [
      "平日",
      "土曜日",
      "祝日"
    ],
    "openDaysNote": ""
  },
  {
    "id": "990100794",
    "name": "ご長寿くらぶ　宇都宮・御幸ケ原ﾃﾞｲｻｰﾋﾞｽｾﾝﾀｰ",
    "kana": "ゴチョウジュクラブ　ウツノミヤ・ミユキガハラデイサービスセンター",
    "address": "栃木県宇都宮市御幸ヶ原町36-51ご長寿くらぶ　宇都宮・御幸ケ原 ご長寿くらぶ　宇都宮・御幸ケ原",
    "lat": 36.5889868,
    "lng": 139.9278216,
    "tel": "028-666-6776",
    "url": "http://gotyoujyuclub.com/hometype/2344",
    "pref": "栃木県",
    "city": "宇都宮市",
    "category": "community_day_service",
    "serviceType": "地域密着型通所介護",
    "capacity": 0,
    "openDays": [
      "平日",
      "土曜日",
      "日曜日",
      "祝日"
    ],
    "openDaysNote": ""
  },
  {
    "id": "990101016",
    "name": "ご長寿くらぶ　宇都宮・西川田デイサービスセンター",
    "kana": "ゴチョウジュクラブ　ウツノミヤ・ニシカワダデイサービスセンター",
    "address": "栃木県宇都宮市西川田町1048-6ご長寿くらぶ　宇都宮・西川田 ご長寿くらぶ　宇都宮・西川田",
    "lat": 36.5348696,
    "lng": 139.8525342,
    "tel": "028-623-1606",
    "url": "https://gotyoujyuclub.com/plan/7774",
    "pref": "栃木県",
    "city": "宇都宮市",
    "category": "community_day_service",
    "serviceType": "地域密着型通所介護",
    "capacity": 0,
    "openDays": [
      "平日",
      "土曜日",
      "祝日"
    ],
    "openDaysNote": "12月31日～1月1日は年末年始の休業日"
  },
  {
    "id": "990100646",
    "name": "ご長寿くらぶ宇都宮ビオス　デイサービスセンター",
    "kana": "ゴチョウジュクラブウツノミヤビオスデイサービスセンター",
    "address": "栃木県宇都宮市下岡本町2108-60",
    "lat": 36.6011513,
    "lng": 139.9461822,
    "tel": "028-673-4107",
    "url": "http://gotyoujyuclub.com",
    "pref": "栃木県",
    "city": "宇都宮市",
    "category": "community_day_service",
    "serviceType": "地域密着型通所介護",
    "capacity": 0,
    "openDays": [
      "平日"
    ],
    "openDaysNote": ""
  },
  {
    "id": "970106167",
    "name": "さつき健康教室",
    "kana": "サツキケンコウキョウシツ",
    "address": "栃木県宇都宮市さつき1丁目10-7",
    "lat": 36.4880418,
    "lng": 139.8593504,
    "tel": "028-688-1919",
    "url": "http://www.hukushi-asahikai.or.jp",
    "pref": "栃木県",
    "city": "宇都宮市",
    "category": "community_day_service",
    "serviceType": "地域密着型通所介護",
    "capacity": 0,
    "openDays": [
      "平日",
      "土曜日",
      "祝日"
    ],
    "openDaysNote": "12月30日から1月3日まで"
  },
  {
    "id": "990100737",
    "name": "ステップぱーとなー宇都宮駅東",
    "kana": "ステップパートナーウツノミヤエキヒガシ",
    "address": "元今泉５丁目４－８ダイコクビル１階 ダイコクビル１階",
    "lat": 36.5625158,
    "lng": 139.911473,
    "tel": "028-688-8018",
    "url": "",
    "pref": "栃木県",
    "city": "宇都宮市",
    "category": "community_day_service",
    "serviceType": "地域密着型通所介護",
    "capacity": 0,
    "openDays": [
      "平日",
      "土曜日",
      "祝日"
    ],
    "openDaysNote": ""
  },
  {
    "id": "990100612",
    "name": "だんらんの家　西一の沢",
    "kana": "ダンランノイエニシイチノサワ",
    "address": "栃木県宇都宮市西一の沢町11-12",
    "lat": 36.5647951,
    "lng": 139.860146,
    "tel": "028-612-6081",
    "url": "https://danrannoie.com/archives/2398",
    "pref": "栃木県",
    "city": "宇都宮市",
    "category": "community_day_service",
    "serviceType": "地域密着型通所介護",
    "capacity": 10,
    "openDays": [
      "平日",
      "土曜日",
      "日曜日",
      "祝日"
    ],
    "openDaysNote": "07：00～09：00、17：00～21：00は延長サービスとしての対応となります。"
  },
  {
    "id": "970103560",
    "name": "つばめの郷デイサービスセンター",
    "kana": "ツバメノサトデイサービスセンター",
    "address": "下桑島町400番地2",
    "lat": 36.5052685,
    "lng": 139.9430562,
    "tel": "028-656-7400",
    "url": "facebooktubamenosato.com",
    "pref": "栃木県",
    "city": "宇都宮市",
    "category": "community_day_service",
    "serviceType": "地域密着型通所介護",
    "capacity": 18,
    "openDays": [
      "平日",
      "祝日"
    ],
    "openDaysNote": "ただし、8月13日から15日、12月30日から1月3日を除く"
  },
  {
    "id": "990101024",
    "name": "ﾃﾞｲｻｰﾋﾞｽｾﾝﾀｰARUBE",
    "kana": "デイサービスセンターアルベ",
    "address": "駒生町3319-44",
    "lat": 36.6011151,
    "lng": 139.8459487,
    "tel": "028-666-4530",
    "url": "",
    "pref": "栃木県",
    "city": "宇都宮市",
    "category": "community_day_service",
    "serviceType": "地域密着型通所介護",
    "capacity": 0,
    "openDays": [
      "平日",
      "土曜日",
      "祝日"
    ],
    "openDaysNote": ""
  },
  {
    "id": "970106936",
    "name": "デイサービス　まごころの家　宇都宮砥上",
    "kana": "デイサービス　マゴコロノイエ　ウツノミヤトカミ",
    "address": "栃木県宇都宮市砥上町１６３２",
    "lat": 36.5427518,
    "lng": 139.848802,
    "tel": "028-615-7587",
    "url": "",
    "pref": "栃木県",
    "city": "宇都宮市",
    "category": "community_day_service",
    "serviceType": "地域密着型通所介護",
    "capacity": 0,
    "openDays": [
      "平日",
      "土曜日",
      "日曜日",
      "祝日"
    ],
    "openDaysNote": ""
  },
  {
    "id": "990101115",
    "name": "デイサービスきたえるーむ宇都宮下栗",
    "kana": "デイサービスキタエルームウツノミヤシモグリ",
    "address": "栃木県宇都宮下栗1丁目22番3号船田ハイツ１０１号室 船田ハイツ１０１号室",
    "lat": 36.5361006000001,
    "lng": 139.901597235582,
    "tel": "286118021",
    "url": "",
    "pref": "栃木県",
    "city": "宇都宮市",
    "category": "community_day_service",
    "serviceType": "地域密着型通所介護",
    "capacity": null,
    "openDays": [
      "平日"
    ],
    "openDaysNote": ""
  },
  {
    "id": "970106662",
    "name": "デイサービスセンタ―　オータス",
    "kana": "デイサービスセンター　オータス",
    "address": "鶴田町1511-15",
    "lat": 36.5476485007103,
    "lng": 139.849227510082,
    "tel": "028-688-8155",
    "url": "http://hp.kaipoke.biz/d9e/",
    "pref": "栃木県",
    "city": "宇都宮市",
    "category": "community_day_service",
    "serviceType": "地域密着型通所介護",
    "capacity": 0,
    "openDays": [
      "平日",
      "土曜日"
    ],
    "openDaysNote": ""
  },
  {
    "id": "970101259",
    "name": "デイサービスセンター「梅の里」",
    "kana": "デイサービスセンターウメノサト",
    "address": "栃木県宇都宮市南一の沢町2番23号",
    "lat": 36.5634802,
    "lng": 139.8636054,
    "tel": "028-610-3522",
    "url": "http://www.umenosato.jp/",
    "pref": "栃木県",
    "city": "宇都宮市",
    "category": "community_day_service",
    "serviceType": "地域密着型通所介護",
    "capacity": 18,
    "openDays": [
      "平日",
      "土曜日",
      "祝日"
    ],
    "openDaysNote": ""
  },
  {
    "id": "970106407",
    "name": "デイサービスセンターアクロス",
    "kana": "デイサービスセンターアクロス",
    "address": "栃木県宇都宮市鐺山町６７番地１",
    "lat": 36.5365142,
    "lng": 139.973499,
    "tel": "028-688-0714",
    "url": "https://utsunomiya-axs.com/",
    "pref": "栃木県",
    "city": "宇都宮市",
    "category": "community_day_service",
    "serviceType": "地域密着型通所介護",
    "capacity": 0,
    "openDays": [
      "平日",
      "土曜日",
      "祝日"
    ],
    "openDaysNote": ""
  },
  {
    "id": "970101390",
    "name": "デイサービスセンターあざみ",
    "kana": "デイサービスセンターアザミ",
    "address": "栃木県宇都宮市川俣町61-3",
    "lat": 36.604702,
    "lng": 139.9177623,
    "tel": "286637500",
    "url": "https://azamikai.com/",
    "pref": "栃木県",
    "city": "宇都宮市",
    "category": "community_day_service",
    "serviceType": "地域密着型通所介護",
    "capacity": null,
    "openDays": [
      "平日",
      "土曜日",
      "祝日"
    ],
    "openDaysNote": "定休日は日曜日になります。（改行）年末年始休業にて　12月29日～1月3日まで休みになります。（改行）祝日も休まず営業致します。（年末年始を除く）"
  },
  {
    "id": "970105094",
    "name": "デイサービスセンターかすがい",
    "kana": "デイサービスセンターカスガイ",
    "address": "栃木県宇都宮市野沢町335-4",
    "lat": 36.6113900300662,
    "lng": 139.8555865,
    "tel": "028-666-1107",
    "url": "",
    "pref": "栃木県",
    "city": "宇都宮市",
    "category": "community_day_service",
    "serviceType": "地域密着型通所介護",
    "capacity": null,
    "openDays": [
      "平日",
      "土曜日",
      "祝日"
    ],
    "openDaysNote": ""
  },
  {
    "id": "970104857",
    "name": "デイサービスセンターさくらがおか",
    "kana": "デイサービスセンターサクラガオカ",
    "address": "西原町3534-2",
    "lat": 36.544868,
    "lng": 139.8844364,
    "tel": "028-666-4311",
    "url": "https://www.sakuragaoka-clinic.jp/link",
    "pref": "栃木県",
    "city": "宇都宮市",
    "category": "community_day_service",
    "serviceType": "地域密着型通所介護",
    "capacity": 0,
    "openDays": [
      "平日",
      "土曜日",
      "祝日"
    ],
    "openDaysNote": ""
  },
  {
    "id": "970100434",
    "name": "デイサービスセンターすずめ",
    "kana": "デイサービスセンタースズメ",
    "address": "栃木県宇都宮市高砂町9-8",
    "lat": 36.4875591,
    "lng": 139.8704662,
    "tel": "028-655-1549",
    "url": "",
    "pref": "栃木県",
    "city": "宇都宮市",
    "category": "community_day_service",
    "serviceType": "地域密着型通所介護",
    "capacity": 10,
    "openDays": [
      "平日",
      "土曜日",
      "祝日"
    ],
    "openDaysNote": ""
  },
  {
    "id": "970104170",
    "name": "デイサービスセンターハート",
    "kana": "デイサービスセンターハート",
    "address": "石井町3261-4",
    "lat": 34.0742086,
    "lng": 134.4407484,
    "tel": "028-656-9966",
    "url": "http://st-heart.jp/",
    "pref": "栃木県",
    "city": "宇都宮市",
    "category": "community_day_service",
    "serviceType": "地域密着型通所介護",
    "capacity": null,
    "openDays": [
      "平日",
      "祝日"
    ],
    "openDaysNote": ""
  },
  {
    "id": "990100497",
    "name": "デイサービスセンターみずほ",
    "kana": "デイサービスセンターミズホ",
    "address": "栃木県宇都宮市上桑島町1476番地2",
    "lat": 36.5191307262144,
    "lng": 139.927847218359,
    "tel": "028-656-8621",
    "url": "http://tohseikai.com/",
    "pref": "栃木県",
    "city": "宇都宮市",
    "category": "community_day_service",
    "serviceType": "地域密着型通所介護",
    "capacity": 18,
    "openDays": [
      "平日",
      "土曜日",
      "日曜日",
      "祝日"
    ],
    "openDaysNote": "特になし"
  },
  {
    "id": "970105912",
    "name": "デイサービスセンター宮の原",
    "kana": "デイサービスセンターミヤノハラ",
    "address": "大和3-2-1",
    "lat": 35.4372063,
    "lng": 139.4722791,
    "tel": "028-612-5831",
    "url": "https://tochigi-fukushi.com/",
    "pref": "栃木県",
    "city": "宇都宮市",
    "category": "community_day_service",
    "serviceType": "地域密着型通所介護",
    "capacity": null,
    "openDays": [
      "平日",
      "土曜日",
      "日曜日",
      "祝日"
    ],
    "openDaysNote": ""
  },
  {
    "id": "970100426",
    "name": "デイサービスセンター南の里",
    "kana": "デイサービスセンターミナミノサト",
    "address": "栃木県宇都宮市花房3-3-16",
    "lat": 36.5486741,
    "lng": 139.8781605,
    "tel": "028-632-1900",
    "url": "https://www.minaminosato.com/",
    "pref": "栃木県",
    "city": "宇都宮市",
    "category": "community_day_service",
    "serviceType": "地域密着型通所介護",
    "capacity": 0,
    "openDays": [
      "平日",
      "土曜日",
      "祝日"
    ],
    "openDaysNote": ""
  },
  {
    "id": "990100638",
    "name": "デイサービスひまわりの会　台新田の家",
    "kana": "デイサービスヒマワリノカイ　ダイシンデンノイエ",
    "address": "栃木県宇都宮市台新田1－13－24",
    "lat": 53.41291,
    "lng": -8.24388999999997,
    "tel": "028－666-5503",
    "url": "http://www.himawarikai-kaigo.com",
    "pref": "栃木県",
    "city": "宇都宮市",
    "category": "community_day_service",
    "serviceType": "地域密着型通所介護",
    "capacity": 0,
    "openDays": [
      "平日",
      "土曜日",
      "祝日"
    ],
    "openDaysNote": "時短利用も可能です。"
  },
  {
    "id": "990100760",
    "name": "デイサービスまごころの家　宇都宮砥上北原",
    "kana": "デイサービスマゴコロノイエウツノミヤトカミキタハラ",
    "address": "栃木県宇都宮市砥上町３３７番地２",
    "lat": 36.5566362,
    "lng": 139.8429571,
    "tel": "028-666-5000",
    "url": "",
    "pref": "栃木県",
    "city": "宇都宮市",
    "category": "community_day_service",
    "serviceType": "地域密着型通所介護",
    "capacity": 0,
    "openDays": [
      "平日",
      "土曜日"
    ],
    "openDaysNote": ""
  },
  {
    "id": "970104634",
    "name": "デイサービスゆいの杜",
    "kana": "デイサービス　ユイノモリ",
    "address": "栃木県宇都宮市ゆいの杜6-29-18",
    "lat": 36.5708276,
    "lng": 139.998707,
    "tel": "028-670-6411",
    "url": "http://www.fb-kaigo.co.jp",
    "pref": "栃木県",
    "city": "宇都宮市",
    "category": "community_day_service",
    "serviceType": "地域密着型通所介護",
    "capacity": 0,
    "openDays": [
      "平日",
      "土曜日",
      "祝日"
    ],
    "openDaysNote": ""
  },
  {
    "id": "970105979",
    "name": "デイサービス太陽ケ丘",
    "kana": "デイサービスタイヨウガオカ",
    "address": "栃木県宇都宮市上田原町950-20",
    "lat": 36.646175,
    "lng": 139.89285,
    "tel": "028-612-6525",
    "url": "http://www.hanamonogatari-la-pal.com",
    "pref": "栃木県",
    "city": "宇都宮市",
    "category": "community_day_service",
    "serviceType": "地域密着型通所介護",
    "capacity": null,
    "openDays": [
      "平日",
      "土曜日",
      "祝日"
    ],
    "openDaysNote": ""
  },
  {
    "id": "970107181",
    "name": "デイトレセンター石井",
    "kana": "デイトレセンターイシイ",
    "address": "栃木県宇都宮市石井町2580-1",
    "lat": 36.5440916046335,
    "lng": 139.939744984131,
    "tel": "028-683-3310",
    "url": "htt://www.houkounosatoishii.com/",
    "pref": "栃木県",
    "city": "宇都宮市",
    "category": "community_day_service",
    "serviceType": "地域密着型通所介護",
    "capacity": 0,
    "openDays": [
      "平日",
      "祝日"
    ],
    "openDaysNote": "12/29〜1/3は休業"
  },
  {
    "id": "990101008",
    "name": "デイリハにしはら",
    "kana": "デイリハニシハラ",
    "address": "栃木県宇都宮市新町１丁目２番２１号",
    "lat": 36.5504416,
    "lng": 139.8736267,
    "tel": "028-638-0640",
    "url": "",
    "pref": "栃木県",
    "city": "宇都宮市",
    "category": "community_day_service",
    "serviceType": "地域密着型通所介護",
    "capacity": 0,
    "openDays": [
      "平日",
      "祝日"
    ],
    "openDaysNote": ""
  },
  {
    "id": "970103800",
    "name": "ハートポイント宇都宮デイサービス",
    "kana": "ハートポイントウツノミヤデイサービス",
    "address": "今泉町134-3",
    "lat": 36.5675395,
    "lng": 139.8986062,
    "tel": "028-616-1251",
    "url": "",
    "pref": "栃木県",
    "city": "宇都宮市",
    "category": "community_day_service",
    "serviceType": "地域密着型通所介護",
    "capacity": 0,
    "openDays": [
      "平日",
      "土曜日",
      "祝日"
    ],
    "openDaysNote": ""
  },
  {
    "id": "970106084",
    "name": "はりがや健康教室",
    "kana": "ハリガヤケンコウキョウシツ",
    "address": "針ヶ谷町６４６番地",
    "lat": 36.4905589,
    "lng": 139.8501675,
    "tel": "028-688-6130",
    "url": "http：//www.hukusi-asahikai.or.jp",
    "pref": "栃木県",
    "city": "宇都宮市",
    "category": "community_day_service",
    "serviceType": "地域密着型通所介護",
    "capacity": null,
    "openDays": [
      "平日",
      "土曜日",
      "祝日"
    ],
    "openDaysNote": ""
  },
  {
    "id": "990100935",
    "name": "ミネルヴァリハビリセンター",
    "kana": "ミネルウ゛ァリハビリセンター",
    "address": "栃木県宇都宮市峰町258－55",
    "lat": 36.5497175,
    "lng": 139.918194,
    "tel": "028－632-6166",
    "url": "",
    "pref": "栃木県",
    "city": "宇都宮市",
    "category": "community_day_service",
    "serviceType": "地域密着型通所介護",
    "capacity": null,
    "openDays": [
      "平日",
      "祝日"
    ],
    "openDaysNote": ""
  },
  {
    "id": "990100968",
    "name": "めぐみゆいの杜",
    "kana": "メグミユイノモリ",
    "address": "栃木県宇都宮市ゆいの杜2-12-16",
    "lat": 36.5751513929152,
    "lng": 139.991438384656,
    "tel": "028-678-2067",
    "url": "https://hp.kaipoke.biz/dm1/123674/base_0004.html",
    "pref": "栃木県",
    "city": "宇都宮市",
    "category": "community_day_service",
    "serviceType": "地域密着型通所介護",
    "capacity": 0,
    "openDays": [
      "平日",
      "土曜日"
    ],
    "openDaysNote": "第1･3土曜日は営業日"
  },
  {
    "id": "990101073",
    "name": "リハビリセンターデイサービス　L-Studio",
    "kana": "リハビリセンター　デイサービス　エルスタジオ",
    "address": "栃木県宇都宮市簗瀬町1910-1バーデマンション208 バーデマンション208",
    "lat": 36.5450181,
    "lng": 139.886858,
    "tel": "028-612-1654",
    "url": "http://lstudio.jp",
    "pref": "栃木県",
    "city": "宇都宮市",
    "category": "community_day_service",
    "serviceType": "地域密着型通所介護",
    "capacity": 18,
    "openDays": [
      "平日",
      "祝日"
    ],
    "openDaysNote": ""
  },
  {
    "id": "990100695",
    "name": "リハビリデイサービス　一生健明",
    "kana": "リハビリデイサービス　イッショウケンメイ",
    "address": "上戸祭町258-1KAMITOTERRACEKT-A KAMITOTERRACEKT-A",
    "lat": 36.5911154003651,
    "lng": 139.868481393205,
    "tel": "028-611-1831",
    "url": "https://oreal.co.jp/issho-kenmei/",
    "pref": "栃木県",
    "city": "宇都宮市",
    "category": "community_day_service",
    "serviceType": "地域密着型通所介護",
    "capacity": null,
    "openDays": [
      "平日"
    ],
    "openDaysNote": "夏期休暇・年末年始休暇あり"
  },
  {
    "id": "990100703",
    "name": "リハビリデイサービスえがお桜店",
    "kana": "リハビリデイサービスエガオサクラテン",
    "address": "栃木県宇都宮市六道町13-3",
    "lat": 36.5537461586987,
    "lng": 139.86865173562,
    "tel": "028-688-0385",
    "url": "http://egao-miyasmile.com",
    "pref": "栃木県",
    "city": "宇都宮市",
    "category": "community_day_service",
    "serviceType": "地域密着型通所介護",
    "capacity": 0,
    "openDays": [
      "平日"
    ],
    "openDaysNote": "平日が、祝日の場合でも営業しています。1月1日～3日は、休業となります。"
  },
  {
    "id": "990101065",
    "name": "リハビリデイサービス宇都宮御幸",
    "kana": "リハビリデイサービウツノミヤミユキ",
    "address": "栃木県宇都宮市御幸町255-1",
    "lat": 36.5800144,
    "lng": 139.921417,
    "tel": "028-660-0280",
    "url": "https://www.rday.jp/",
    "pref": "栃木県",
    "city": "宇都宮市",
    "category": "community_day_service",
    "serviceType": "地域密着型通所介護",
    "capacity": null,
    "openDays": [
      "平日"
    ],
    "openDaysNote": ""
  },
  {
    "id": "990100752",
    "name": "リハプライド岡本",
    "kana": "リハプライドオカモト",
    "address": "栃木県宇都宮市下岡本町2115-50",
    "lat": 36.6037004085531,
    "lng": 139.940406825304,
    "tel": "028-612-2806",
    "url": "",
    "pref": "栃木県",
    "city": "宇都宮市",
    "category": "community_day_service",
    "serviceType": "地域密着型通所介護",
    "capacity": 0,
    "openDays": [
      "平日",
      "土曜日"
    ],
    "openDaysNote": ""
  },
  {
    "id": "970105243",
    "name": "一番町ディサービスセンター",
    "kana": "イチバンチョウディサービスセンター",
    "address": "栃木県宇都宮市一番町1-27",
    "lat": 36.5592858,
    "lng": 139.888391,
    "tel": "028-634-1710",
    "url": "https://ichibancho-day.jimdofree.com/",
    "pref": "栃木県",
    "city": "宇都宮市",
    "category": "community_day_service",
    "serviceType": "地域密着型通所介護",
    "capacity": 0,
    "openDays": [
      "平日",
      "土曜日",
      "日曜日",
      "祝日"
    ],
    "openDaysNote": ""
  },
  {
    "id": "990100745",
    "name": "宇都宮・岡本デイサービスセンター",
    "kana": "ウツノミヤオカモトデイサービスセンター",
    "address": "栃木県宇都宮市下岡本町2115-25ご長寿くらぶ宇都宮・岡本 ご長寿くらぶ宇都宮・岡本",
    "lat": 36.6029534,
    "lng": 139.9409514,
    "tel": "028-678-5506",
    "url": "",
    "pref": "栃木県",
    "city": "宇都宮市",
    "category": "community_day_service",
    "serviceType": "地域密着型通所介護",
    "capacity": 0,
    "openDays": [
      "平日"
    ],
    "openDaysNote": ""
  },
  {
    "id": "970103941",
    "name": "宇都宮市社会福祉協議会河内事業所",
    "kana": "シャカイフクシキョウギカイカワチジギョウショ",
    "address": "白沢町385河内総合福祉センター 河内総合福祉センター",
    "lat": 36.6276163,
    "lng": 139.941576,
    "tel": "286738453",
    "url": "http://www.utsunomiya-syakyo.or.jp",
    "pref": "栃木県",
    "city": "宇都宮市",
    "category": "community_day_service",
    "serviceType": "地域密着型通所介護",
    "capacity": 16,
    "openDays": [
      "平日",
      "土曜日"
    ],
    "openDaysNote": ""
  },
  {
    "id": "990101032",
    "name": "運動型デイサービス　モーション東塙田",
    "kana": "ウンドウガタデイサービス　モーションヒガシハナワダ",
    "address": "栃木県宇都宮市東塙田２丁目５番14号",
    "lat": 36.566953,
    "lng": 139.891092,
    "tel": "028-611-3598",
    "url": "https://motion.main.jp",
    "pref": "栃木県",
    "city": "宇都宮市",
    "category": "community_day_service",
    "serviceType": "地域密着型通所介護",
    "capacity": 15,
    "openDays": [
      "平日",
      "祝日"
    ],
    "openDaysNote": ""
  },
  {
    "id": "990100729",
    "name": "株式会社ゆうあんどあい",
    "kana": "株式会社ユウアンドアイ",
    "address": "宝木町１丁目４０－３",
    "lat": 36.5785432,
    "lng": 139.8522271,
    "tel": "028-611-3417",
    "url": "",
    "pref": "栃木県",
    "city": "宇都宮市",
    "category": "community_day_service",
    "serviceType": "地域密着型通所介護",
    "capacity": 0,
    "openDays": [
      "平日",
      "祝日"
    ],
    "openDaysNote": "土曜日・日曜日定休日（改行）12月30日～1月３日定休日"
  },
  {
    "id": "990100851",
    "name": "機能訓練レクレーション特化型デイサービス　ココロからだケア　とうや店",
    "kana": "キノウクンレンレクレーショントッカガタデイサービス　ココロカラダケア　トウヤテン",
    "address": "栃木県宇都宮市東谷町510-10",
    "lat": 36.4824847,
    "lng": 139.897075,
    "tel": "028-611-3582",
    "url": "",
    "pref": "栃木県",
    "city": "宇都宮市",
    "category": "community_day_service",
    "serviceType": "地域密着型通所介護",
    "capacity": null,
    "openDays": [
      "平日",
      "土曜日"
    ],
    "openDaysNote": ""
  },
  {
    "id": "990100943",
    "name": "機能訓練型デイサービス　はっぴ-らいふ雀",
    "kana": "キノウクンレンガタデイサービス　ハッピ-ライフスズメ",
    "address": "栃木県宇都宮市雀の宮2丁目8-10",
    "lat": 36.4961239,
    "lng": 139.8727465,
    "tel": "028-666-0818",
    "url": "",
    "pref": "栃木県",
    "city": "宇都宮市",
    "category": "community_day_service",
    "serviceType": "地域密着型通所介護",
    "capacity": null,
    "openDays": [
      "平日"
    ],
    "openDaysNote": "夏季休暇（8月13日～8月15日）、年末年始休暇（12月30日～1月3日）、その他はっぴーらいふが指定する日"
  },
  {
    "id": "970106381",
    "name": "機能訓練型デイサービスセンター南の里ハピネス",
    "kana": "キノウクンレンガタデイサービスセンターミナミノサトハピネス",
    "address": "鶴田町3668-12",
    "lat": 36.5688694119608,
    "lng": 139.847180222772,
    "tel": "028-678-5580",
    "url": "https://www.minaminosato.com/",
    "pref": "栃木県",
    "city": "宇都宮市",
    "category": "community_day_service",
    "serviceType": "地域密着型通所介護",
    "capacity": 10,
    "openDays": [
      "平日",
      "土曜日"
    ],
    "openDaysNote": ""
  },
  {
    "id": "990100802",
    "name": "機能訓練型デイサービスはっぴーらいふ",
    "kana": "キノウクンレンガタデイサービスハッピーライフ",
    "address": "栃木県宇都宮市駒生2-10-20古澤ビル1F 古澤ビル1F",
    "lat": 36.5729449,
    "lng": 139.8498077,
    "tel": "028-678-5649",
    "url": "https://www.reha-happylife.jp/happylife/",
    "pref": "栃木県",
    "city": "宇都宮市",
    "category": "community_day_service",
    "serviceType": "地域密着型通所介護",
    "capacity": null,
    "openDays": [
      "平日",
      "土曜日"
    ],
    "openDaysNote": "夏季休暇（8月13日～8月15日）、年末年始休暇（12月30日～1月3日）、その他はっぴーらいふが指定する日"
  },
  {
    "id": "970107009",
    "name": "機能訓練特化型デイサ－ビス　なごみ",
    "kana": "キノウクンレントッカガタデイサービス　ナゴミ",
    "address": "栃木県宇都宮市砥上町５９－９河津整骨院　砥上院　併設 河津整骨院　砥上院　併設",
    "lat": 36.5433417166915,
    "lng": 139.846069503688,
    "tel": "028-612-7533",
    "url": "https://ameblo.jp/nagomi-kawa2/",
    "pref": "栃木県",
    "city": "宇都宮市",
    "category": "community_day_service",
    "serviceType": "地域密着型通所介護",
    "capacity": 0,
    "openDays": [
      "平日"
    ],
    "openDaysNote": "1単位目　：　午前　9時00分　～　午後　0時05分（改行）2単位目　：　午後　1時30分　～　午後　4時35分"
  },
  {
    "id": "970102018",
    "name": "駒生ふれあいデイサービスセンターえがお",
    "kana": "コマニュウフレアイデイサービスセンターエガオ",
    "address": "栃木県宇都宮市大谷町697-1",
    "lat": 36.5970069,
    "lng": 139.8317522,
    "tel": "028-652-8880",
    "url": "http://egao-miyasmile.com",
    "pref": "栃木県",
    "city": "宇都宮市",
    "category": "community_day_service",
    "serviceType": "地域密着型通所介護",
    "capacity": null,
    "openDays": [
      "平日",
      "土曜日",
      "祝日"
    ],
    "openDaysNote": "1月1日～3日は休業"
  },
  {
    "id": "970103222",
    "name": "憩いの家　よってきな",
    "kana": "イコイノイエ　ヨッテキナ",
    "address": "栃木県宇都宮市さつき1丁目10番18号",
    "lat": 36.4885167,
    "lng": 139.859106,
    "tel": "028-655-7750",
    "url": "http://www.fukushi-asahikai.or.jp",
    "pref": "栃木県",
    "city": "宇都宮市",
    "category": "community_day_service",
    "serviceType": "地域密着型通所介護",
    "capacity": null,
    "openDays": [
      "平日",
      "土曜日",
      "祝日"
    ],
    "openDaysNote": "朝食サービス・洗濯サ-ビス・持ち帰り弁当（有料）行なっています。"
  },
  {
    "id": "990100810",
    "name": "戸祭リハビリセンター",
    "kana": "トマツリリハビリセンター",
    "address": "栃木県宇都宮市上戸祭町534-4",
    "lat": 36.5845253,
    "lng": 139.867006,
    "tel": "028-678-8189",
    "url": "",
    "pref": "栃木県",
    "city": "宇都宮市",
    "category": "community_day_service",
    "serviceType": "地域密着型通所介護",
    "capacity": 10,
    "openDays": [
      "平日",
      "土曜日"
    ],
    "openDaysNote": ""
  },
  {
    "id": "970102190",
    "name": "高齢者支援サービスかがやき通所介護センター",
    "kana": "コウレイシャシエンサービスカガヤキツウショカイゴセンター",
    "address": "栃木県宇都宮市西川田町1020番地15",
    "lat": 36.5347273,
    "lng": 139.8556808,
    "tel": "028-659-8633",
    "url": "",
    "pref": "栃木県",
    "city": "宇都宮市",
    "category": "community_day_service",
    "serviceType": "地域密着型通所介護",
    "capacity": 0,
    "openDays": [
      "平日"
    ],
    "openDaysNote": ""
  },
  {
    "id": "990100885",
    "name": "上籠谷デイサービス　レザンテラス",
    "kana": "カミコモリヤデイサービス　レザンテラス",
    "address": "栃木県宇都宮市上籠谷町3566-2",
    "lat": 36.5311474435143,
    "lng": 139.964005594443,
    "tel": "028-666-7307",
    "url": "http：//kamikomoriya.or.jp",
    "pref": "栃木県",
    "city": "宇都宮市",
    "category": "community_day_service",
    "serviceType": "地域密着型通所介護",
    "capacity": 18,
    "openDays": [
      "平日",
      "土曜日",
      "祝日"
    ],
    "openDaysNote": ""
  },
  {
    "id": "970106787",
    "name": "泉が丘ケアセンター・デイサービスつちかわ",
    "kana": "イズミガオカケアセンター・デイサービスツチカワ",
    "address": "栃木県宇都宮市泉が丘6-11-8",
    "lat": 36.570606,
    "lng": 139.9196117,
    "tel": "028-689-9223",
    "url": "https://tsuchikawa-ds.com/",
    "pref": "栃木県",
    "city": "宇都宮市",
    "category": "community_day_service",
    "serviceType": "地域密着型通所介護",
    "capacity": 15,
    "openDays": [
      "平日",
      "土曜日",
      "祝日"
    ],
    "openDaysNote": ""
  },
  {
    "id": "970105656",
    "name": "茶話本舗デイサービス若草亭",
    "kana": "サワホンポデイサービスワカクサテイ",
    "address": "若草3-11-12",
    "lat": null,
    "lng": null,
    "tel": "028-680-7251",
    "url": "",
    "pref": "栃木県",
    "city": "宇都宮市",
    "category": "community_day_service",
    "serviceType": "地域密着型通所介護",
    "capacity": null,
    "openDays": [
      "平日",
      "土曜日",
      "日曜日",
      "祝日"
    ],
    "openDaysNote": ""
  },
  {
    "id": "970100871",
    "name": "老人デイサービスセンター　まつばら",
    "kana": "ロウジンデイサービスセンター　マツバラ",
    "address": "栃木県宇都宮市松原１丁目４番１０号",
    "lat": 36.5697781,
    "lng": 139.8730266,
    "tel": "028‐622‐3763",
    "url": "http://awanosou.jp",
    "pref": "栃木県",
    "city": "宇都宮市",
    "category": "community_day_service",
    "serviceType": "地域密着型通所介護",
    "capacity": 0,
    "openDays": [
      "平日",
      "祝日"
    ],
    "openDaysNote": ""
  },
  {
    "id": "990101107",
    "name": "六道デイサービスセンターみやスマイル",
    "kana": "ロクドウデイサービスセンターミヤスマイル",
    "address": "栃木県宇都宮市六道町13-3",
    "lat": 36.5537841,
    "lng": 139.8687106,
    "tel": "028-612-2588",
    "url": "http://egao-miyasmile.com/dayservice/rokudou.php",
    "pref": "栃木県",
    "city": "宇都宮市",
    "category": "community_day_service",
    "serviceType": "地域密着型通所介護",
    "capacity": null,
    "openDays": [
      "平日",
      "土曜日",
      "祝日"
    ],
    "openDaysNote": ""
  },
  {
    "id": "972600118",
    "name": "老人デイサービスセンター　こすもす",
    "kana": "ロウジンデイサービスセンター　コスモス",
    "address": "栃木県塩谷郡塩谷町玉生３９５",
    "lat": 36.7771178,
    "lng": 139.8528453,
    "tel": "0287-45-1222",
    "url": "",
    "pref": "栃木県",
    "city": "塩谷町",
    "category": "community_day_service",
    "serviceType": "地域密着型通所介護",
    "capacity": 10,
    "openDays": [
      "平日",
      "土曜日",
      "祝日"
    ],
    "openDaysNote": ""
  },
  {
    "id": "971600747",
    "name": "デイサービスサンクス石橋",
    "kana": "デイサービスサンクスイシバシ",
    "address": "栃木県下野市石橋２７番地リビングサンクス石橋 リビングサンクス石橋",
    "lat": 36.4295836,
    "lng": 139.8639809,
    "tel": "285-51-0302",
    "url": "http://living-thanks.co.jp/",
    "pref": "栃木県",
    "city": "下野市",
    "category": "community_day_service",
    "serviceType": "地域密着型通所介護",
    "capacity": 10,
    "openDays": [
      "平日",
      "祝日"
    ],
    "openDaysNote": ""
  },
  {
    "id": "971600598",
    "name": "デイサービスセンターゆうがおの丘",
    "kana": "デイサービスセンターユウガオノオカ",
    "address": "栃木県下野市下石橋501-1",
    "lat": 36.4211166,
    "lng": 139.860126,
    "tel": "0285-39-6641",
    "url": "http://tokuchikai.com/",
    "pref": "栃木県",
    "city": "下野市",
    "category": "community_day_service",
    "serviceType": "地域密着型通所介護",
    "capacity": null,
    "openDays": [
      "平日",
      "土曜日",
      "祝日"
    ],
    "openDaysNote": ""
  },
  {
    "id": "991600099",
    "name": "デイサービスリハ＆ケアえびはら",
    "kana": "デイサービスリハアンドケアエビハラ",
    "address": "栃木県下野市仁良川1651-3",
    "lat": 36.3718443393955,
    "lng": 139.873984521951,
    "tel": "0285-47-0011",
    "url": "https://www.ebihara-clinic.jp/care",
    "pref": "栃木県",
    "city": "下野市",
    "category": "community_day_service",
    "serviceType": "地域密着型通所介護",
    "capacity": 10,
    "openDays": [
      "平日",
      "土曜日",
      "祝日"
    ],
    "openDaysNote": ""
  },
  {
    "id": "971600267",
    "name": "ふれんどしもつけディサービスセンター",
    "kana": "フレンドシモツケディサービスセンター",
    "address": "栃木県下野市薬師寺3178-8",
    "lat": 36.394899,
    "lng": 139.8639659,
    "tel": "0285-37-6031",
    "url": "https//ｗｗｗ.ｆ-ｐｗ.ｊｐ",
    "pref": "栃木県",
    "city": "下野市",
    "category": "community_day_service",
    "serviceType": "地域密着型通所介護",
    "capacity": 10,
    "openDays": [
      "平日",
      "土曜日",
      "祝日"
    ],
    "openDaysNote": ""
  },
  {
    "id": "972300776",
    "name": "憩のホーム學",
    "kana": "イコイノホームマナブ",
    "address": "栃木県下野市大光寺1-8-5",
    "lat": 53.41291,
    "lng": -8.24388999999996,
    "tel": "0285-51-1677",
    "url": "",
    "pref": "栃木県",
    "city": "下野市",
    "category": "community_day_service",
    "serviceType": "地域密着型通所介護",
    "capacity": 10,
    "openDays": [
      "平日",
      "土曜日"
    ],
    "openDaysNote": ""
  },
  {
    "id": "971600556",
    "name": "老人デイサービスセンター　つくし",
    "kana": "ロウジンデイサービスセンター　ツクシ",
    "address": "栃木県下野市仁良川1651-1",
    "lat": 36.3720924,
    "lng": 139.874871,
    "tel": "０２８５－４７－１１７１",
    "url": "https://www.ebihara-clinic.jp/dayservice-tukushi",
    "pref": "栃木県",
    "city": "下野市",
    "category": "community_day_service",
    "serviceType": "地域密着型通所介護",
    "capacity": 0,
    "openDays": [
      "平日",
      "土曜日",
      "祝日"
    ],
    "openDaysNote": ""
  },
  {
    "id": "972600779",
    "name": "エプロンデイ",
    "kana": "エプロンデイ",
    "address": "栃木県塩谷郡高根沢町花岡1503-3",
    "lat": 36.6554646,
    "lng": 140.0252023,
    "tel": "028-676-1143",
    "url": "",
    "pref": "栃木県",
    "city": "高根沢町",
    "category": "community_day_service",
    "serviceType": "地域密着型通所介護",
    "capacity": 0,
    "openDays": [
      "平日",
      "土曜日",
      "日曜日",
      "祝日"
    ],
    "openDaysNote": ""
  },
  {
    "id": "972600647",
    "name": "デイホーム　照和",
    "kana": "デイホーム　ショウワ",
    "address": "栃木県塩谷郡高根沢町宝積寺1214番地3",
    "lat": 36.6287526,
    "lng": 139.9824227,
    "tel": "028-611-1662",
    "url": "http://teamshowa.com",
    "pref": "栃木県",
    "city": "高根沢町",
    "category": "community_day_service",
    "serviceType": "地域密着型通所介護",
    "capacity": 18,
    "openDays": [
      "平日",
      "土曜日",
      "祝日"
    ],
    "openDaysNote": ""
  },
  {
    "id": "972600480",
    "name": "デイホームはな",
    "kana": "デイホームハナ",
    "address": "栃木県塩谷郡高根沢町大字花岡１３７４番地３",
    "lat": 36.6534532,
    "lng": 140.0214323,
    "tel": "028-676-3566",
    "url": "https://sites.google.com/tetotetote.org/230718/%E3%83%9B%E3%83%BC%E3%83%A0",
    "pref": "栃木県",
    "city": "高根沢町",
    "category": "community_day_service",
    "serviceType": "地域密着型通所介護",
    "capacity": 0,
    "openDays": [
      "平日",
      "土曜日",
      "祝日"
    ],
    "openDaysNote": "2023年12月は、木曜日もサービス提供休み"
  },
  {
    "id": "992600106",
    "name": "木の香",
    "kana": "キノカオリ",
    "address": "栃木県塩谷郡高根沢町花岡1503-9",
    "lat": 36.6555812,
    "lng": 140.0249616,
    "tel": "028-688-7951",
    "url": "",
    "pref": "栃木県",
    "city": "高根沢町",
    "category": "community_day_service",
    "serviceType": "地域密着型通所介護",
    "capacity": 0,
    "openDays": [
      "平日",
      "祝日"
    ],
    "openDaysNote": ""
  },
  {
    "id": "970401683",
    "name": "GENKINEXT佐野堀米町",
    "kana": "ゲンキネクストサノホリゴメチョウ",
    "address": "栃木県佐野市堀米町3366",
    "lat": 36.3298257,
    "lng": 139.5682932,
    "tel": "283857641",
    "url": "",
    "pref": "栃木県",
    "city": "佐野市",
    "category": "community_day_service",
    "serviceType": "地域密着型通所介護",
    "capacity": 0,
    "openDays": [
      "平日",
      "祝日"
    ],
    "openDaysNote": "年末年始休業あり"
  },
  {
    "id": "972400121",
    "name": "あくとプラザデイサービスセンター",
    "kana": "アクトプラザデイサービスセンター",
    "address": "栃木県佐野市あくと町3084",
    "lat": 36.407875,
    "lng": 139.6050834,
    "tel": "0283-86-4380",
    "url": "https://kuzuuhome.jimdofree.com/",
    "pref": "栃木県",
    "city": "佐野市",
    "category": "community_day_service",
    "serviceType": "地域密着型通所介護",
    "capacity": null,
    "openDays": [
      "平日",
      "祝日"
    ],
    "openDaysNote": ""
  },
  {
    "id": "990400384",
    "name": "ご長寿くらぶ佐野・植上デイサービスセンター",
    "kana": "ゴチョウジュクラブサノウエカミデイサービスセンター",
    "address": "栃木県佐野市植上町1785サービス付き高齢者向け住宅　ご長寿くらぶ佐野・植上 サービス付き高齢者向け住宅　ご長寿くらぶ佐野・植上",
    "lat": 36.3016242,
    "lng": 139.5797617,
    "tel": "0283-86-7222",
    "url": "http://gotyoujyclub.com/",
    "pref": "栃木県",
    "city": "佐野市",
    "category": "community_day_service",
    "serviceType": "地域密着型通所介護",
    "capacity": 18,
    "openDays": [
      "平日",
      "土曜日",
      "祝日"
    ],
    "openDaysNote": "12/29〜1/3まで定休日"
  },
  {
    "id": "990400343",
    "name": "ﾃﾞｲｻｰﾋﾞｽｾﾝﾀｰすまいるよろず",
    "kana": "デイサービスセンタースマイルヨロズ",
    "address": "栃木県佐野市万町95",
    "lat": 36.3136158,
    "lng": 139.5764356,
    "tel": "0283-85-7701",
    "url": "",
    "pref": "栃木県",
    "city": "佐野市",
    "category": "community_day_service",
    "serviceType": "地域密着型通所介護",
    "capacity": null,
    "openDays": [
      "平日",
      "土曜日",
      "日曜日",
      "祝日"
    ],
    "openDaysNote": ""
  },
  {
    "id": "970401436",
    "name": "ﾃﾞｲｻｰﾋﾞｽｾﾝﾀｰめだかのさと",
    "kana": "デイサービスセンターメダカノサト",
    "address": "栃木県佐野市朝日町９３５-３",
    "lat": 36.3174546,
    "lng": 139.5714282,
    "tel": "283241529",
    "url": "https://daymedaka.net/sp/",
    "pref": "栃木県",
    "city": "佐野市",
    "category": "community_day_service",
    "serviceType": "地域密着型通所介護",
    "capacity": 15,
    "openDays": [
      "平日",
      "土曜日",
      "祝日"
    ],
    "openDaysNote": ""
  },
  {
    "id": "990400434",
    "name": "デイサービスいそべ亭",
    "kana": "デイサービスイソベテイ",
    "address": "栃木県佐野市植上町1357番地2",
    "lat": 36.3003998,
    "lng": 139.582375,
    "tel": "0283-86-8616",
    "url": "https://hp.kaipoke.biz/y7f/",
    "pref": "栃木県",
    "city": "佐野市",
    "category": "community_day_service",
    "serviceType": "地域密着型通所介護",
    "capacity": null,
    "openDays": [
      "平日",
      "土曜日",
      "祝日"
    ],
    "openDaysNote": "年末年始休み"
  },
  {
    "id": "970400693",
    "name": "デイサービスセンターなごみ",
    "kana": "デイサービスセンターナゴミ",
    "address": "栃木県佐野市田沼町565-2",
    "lat": 36.366263,
    "lng": 139.5781609,
    "tel": "0283-61-0099",
    "url": "",
    "pref": "栃木県",
    "city": "佐野市",
    "category": "community_day_service",
    "serviceType": "地域密着型通所介護",
    "capacity": 17,
    "openDays": [
      "平日",
      "祝日"
    ],
    "openDaysNote": ""
  },
  {
    "id": "970400859",
    "name": "デイサービスセンター丹頂",
    "kana": "デイサービスセンタータンチョウ",
    "address": "栃木県佐野市栃本町3255",
    "lat": 36.3466186,
    "lng": 139.5842207,
    "tel": "０２８３－６１－００８７",
    "url": "https://kuzuuhome.jimdofree.com",
    "pref": "栃木県",
    "city": "佐野市",
    "category": "community_day_service",
    "serviceType": "地域密着型通所介護",
    "capacity": null,
    "openDays": [
      "平日",
      "祝日"
    ],
    "openDaysNote": ""
  },
  {
    "id": "970401030",
    "name": "デイサービスセンター万葉塾",
    "kana": "デイサービスセンターマンヨウジュク",
    "address": "栃木県佐野市堀米町1336番地１",
    "lat": 36.3305449,
    "lng": 139.5795736,
    "tel": "0283-20-1331",
    "url": "http://www.manyou.or.jp",
    "pref": "栃木県",
    "city": "佐野市",
    "category": "community_day_service",
    "serviceType": "地域密着型通所介護",
    "capacity": 0,
    "openDays": [
      "平日",
      "土曜日",
      "祝日"
    ],
    "openDaysNote": ""
  },
  {
    "id": "970401899",
    "name": "デイサービスつかさ",
    "kana": "デイサービスツカサ",
    "address": "栃木県佐野市山形町563番地の11",
    "lat": 36.377627,
    "lng": 139.5416633,
    "tel": "0283-85-8701",
    "url": "",
    "pref": "栃木県",
    "city": "佐野市",
    "category": "community_day_service",
    "serviceType": "地域密着型通所介護",
    "capacity": 0,
    "openDays": [
      "平日",
      "土曜日",
      "日曜日",
      "祝日"
    ],
    "openDaysNote": ""
  },
  {
    "id": "970401634",
    "name": "ハーモネートデイサービス佐野",
    "kana": "ハーモネートデイサービスサノ",
    "address": "栃木県佐野市堀米町1270-17",
    "lat": 36.3289918,
    "lng": 139.5806276,
    "tel": "0283-27-0388",
    "url": "http//www.halp.co.jp",
    "pref": "栃木県",
    "city": "佐野市",
    "category": "community_day_service",
    "serviceType": "地域密着型通所介護",
    "capacity": 0,
    "openDays": [
      "平日"
    ],
    "openDaysNote": ""
  },
  {
    "id": "990400400",
    "name": "フィットネスケアファースト＜ディサービス＞",
    "kana": "フィットネスケア　ファースト＜ディサービス＞",
    "address": "栃木県佐野市堀米町3946-9",
    "lat": 36.3273017,
    "lng": 139.5762446,
    "tel": "0283-85-8686",
    "url": "",
    "pref": "栃木県",
    "city": "佐野市",
    "category": "community_day_service",
    "serviceType": "地域密着型通所介護",
    "capacity": 0,
    "openDays": [
      "平日",
      "土曜日",
      "祝日"
    ],
    "openDaysNote": ""
  },
  {
    "id": "990400368",
    "name": "ミントグリーン",
    "kana": "ミントグリーン",
    "address": "佐野市浅沼町２６９－２",
    "lat": 36.3105693,
    "lng": 139.5898124,
    "tel": "0283-55-8631",
    "url": "",
    "pref": "栃木県",
    "city": "佐野市",
    "category": "community_day_service",
    "serviceType": "地域密着型通所介護",
    "capacity": 14,
    "openDays": [
      "平日"
    ],
    "openDaysNote": ""
  },
  {
    "id": "970401790",
    "name": "リハビリ型デイサービス咲くら",
    "kana": "リハビリガタデイサービスサクラ",
    "address": "栃木県佐野市小中町716",
    "lat": 36.3326833,
    "lng": 139.5516344,
    "tel": "0283-85-9439",
    "url": "http://www.sakura-partner-of-living.com/",
    "pref": "栃木県",
    "city": "佐野市",
    "category": "community_day_service",
    "serviceType": "地域密着型通所介護",
    "capacity": 0,
    "openDays": [
      "平日",
      "土曜日"
    ],
    "openDaysNote": ""
  },
  {
    "id": "970400503",
    "name": "介護サービスすずらん",
    "kana": "カイゴサービススズラン",
    "address": "栃木県佐野市小中町1249-2",
    "lat": 36.3431066,
    "lng": 139.5593692,
    "tel": "0283-20-8611",
    "url": "",
    "pref": "栃木県",
    "city": "佐野市",
    "category": "community_day_service",
    "serviceType": "地域密着型通所介護",
    "capacity": 0,
    "openDays": [
      "平日",
      "土曜日",
      "日曜日",
      "祝日"
    ],
    "openDaysNote": ""
  },
  {
    "id": "990400376",
    "name": "心を動かすリハビリ　アスアルク号",
    "kana": "アスアルクゴウ",
    "address": "栃木県佐野市大橋町3234-33",
    "lat": 36.3082032,
    "lng": 139.5645826,
    "tel": "0283-25-8668",
    "url": "",
    "pref": "栃木県",
    "city": "佐野市",
    "category": "community_day_service",
    "serviceType": "地域密着型通所介護",
    "capacity": 0,
    "openDays": [
      "平日",
      "祝日"
    ],
    "openDaysNote": ""
  },
  {
    "id": "970401766",
    "name": "美と健康　あかみ倶楽部",
    "kana": "ビトケンコウ　アカミクラブ",
    "address": "栃木県佐野市小見町411-1",
    "lat": 36.3444282832291,
    "lng": 139.569624862992,
    "tel": "0283-55-4450",
    "url": "bi-to-kenkou.net",
    "pref": "栃木県",
    "city": "佐野市",
    "category": "community_day_service",
    "serviceType": "地域密着型通所介護",
    "capacity": null,
    "openDays": [
      "平日",
      "土曜日",
      "祝日"
    ],
    "openDaysNote": ""
  },
  {
    "id": "970501037",
    "name": "AtHomeこころ",
    "kana": "アットホームココロ",
    "address": "栃木県鹿沼市下田町２丁目1050-2",
    "lat": 36.5624335,
    "lng": 139.7507735,
    "tel": "0289-74-5667",
    "url": "",
    "pref": "栃木県",
    "city": "鹿沼市",
    "category": "community_day_service",
    "serviceType": "地域密着型通所介護",
    "capacity": null,
    "openDays": [
      "平日"
    ],
    "openDaysNote": "ただし12月31日から1月3日まで、8月13日から8月16日までを除く。その他年間予定表による休業日を除く。"
  },
  {
    "id": "970500955",
    "name": "あゆみの家",
    "kana": "アユミノイエ",
    "address": "栃木県鹿沼市樅山町300-5",
    "lat": 36.5388978,
    "lng": 139.7487088,
    "tel": "0289-74-7277",
    "url": "http://あゆみ.biz/",
    "pref": "栃木県",
    "city": "鹿沼市",
    "category": "community_day_service",
    "serviceType": "地域密着型通所介護",
    "capacity": 0,
    "openDays": [
      "平日",
      "土曜日",
      "祝日"
    ],
    "openDaysNote": ""
  },
  {
    "id": "970500658",
    "name": "かすお",
    "kana": "カスオ",
    "address": "栃木県鹿沼市中粕尾255-2",
    "lat": 36.5193717557288,
    "lng": 139.608832520238,
    "tel": "0289-83-7500",
    "url": "http://yu-shinkai.com",
    "pref": "栃木県",
    "city": "鹿沼市",
    "category": "community_day_service",
    "serviceType": "地域密着型通所介護",
    "capacity": 15,
    "openDays": [
      "平日",
      "祝日"
    ],
    "openDaysNote": "8/13～8/16　12/29～1/3　休み"
  },
  {
    "id": "970500781",
    "name": "デイサービス　なごみ",
    "kana": "デイサービス　ナゴミ",
    "address": "栃木県鹿沼市引田1400",
    "lat": 36.6046676,
    "lng": 139.6745681,
    "tel": "0289-65-8830",
    "url": "",
    "pref": "栃木県",
    "city": "鹿沼市",
    "category": "community_day_service",
    "serviceType": "地域密着型通所介護",
    "capacity": 0,
    "openDays": [
      "平日",
      "土曜日"
    ],
    "openDaysNote": ""
  },
  {
    "id": "970500666",
    "name": "デイサービスかぞく",
    "kana": "デイサービスカゾク",
    "address": "栃木県鹿沼市上石川568-10",
    "lat": 36.5221059,
    "lng": 139.8038509,
    "tel": "0289-72-0023",
    "url": "",
    "pref": "栃木県",
    "city": "鹿沼市",
    "category": "community_day_service",
    "serviceType": "地域密着型通所介護",
    "capacity": null,
    "openDays": [
      "平日",
      "土曜日",
      "祝日"
    ],
    "openDaysNote": "-"
  },
  {
    "id": "970500773",
    "name": "デイホームあゆみ",
    "kana": "デイホームアユミ",
    "address": "栃木県鹿沼市上殿町721-1",
    "lat": 36.5486552,
    "lng": 139.7530095,
    "tel": "0289-60-2717",
    "url": "http://あゆみ.biz/",
    "pref": "栃木県",
    "city": "鹿沼市",
    "category": "community_day_service",
    "serviceType": "地域密着型通所介護",
    "capacity": null,
    "openDays": [
      "平日",
      "土曜日",
      "祝日"
    ],
    "openDaysNote": ""
  },
  {
    "id": "990500308",
    "name": "にこにこデイサービス",
    "kana": "ニコニコデイサービス",
    "address": "栃木県鹿沼市茂呂2528-9",
    "lat": 36.5499001,
    "lng": 139.7938087,
    "tel": "0289-78-4488",
    "url": "",
    "pref": "栃木県",
    "city": "鹿沼市",
    "category": "community_day_service",
    "serviceType": "地域密着型通所介護",
    "capacity": 0,
    "openDays": [
      "平日"
    ],
    "openDaysNote": "〇サービス提供時間は、9時から15時までとなっております。（改行）〇気象警報による大雨、強風、防風雪などによって災害が起きる恐れのある場合や地震等の自然災害時、また行政機関から屋外への外出に厳重な警戒を要する発表があった場合は、利用者様の安全を優先して休む場合がありあます。"
  },
  {
    "id": "970501003",
    "name": "リハビリデイサービスHarmony鹿沼店",
    "kana": "リハビリデイサービスハーモニーカヌマテン",
    "address": "栃木県鹿沼市西茂呂3‐18‐40",
    "lat": 36.5495161,
    "lng": 139.7666669,
    "tel": "0289-74-5523",
    "url": "http://kyuujyu.com/",
    "pref": "栃木県",
    "city": "鹿沼市",
    "category": "community_day_service",
    "serviceType": "地域密着型通所介護",
    "capacity": 0,
    "openDays": [
      "平日",
      "祝日"
    ],
    "openDaysNote": "GW、お盆期間、年末年始の休業はその年によって変動する。"
  },
  {
    "id": "990500233",
    "name": "リハビリ処カーヤ",
    "kana": "リハビリドコロカーヤ",
    "address": "栃木県鹿沼市樅山町６０６－２",
    "lat": 36.5343310278253,
    "lng": 139.742279661377,
    "tel": "0289-78-5565",
    "url": "https://lookeyes.jimdo.com/",
    "pref": "栃木県",
    "city": "鹿沼市",
    "category": "community_day_service",
    "serviceType": "地域密着型通所介護",
    "capacity": 10,
    "openDays": [
      "平日",
      "祝日"
    ],
    "openDaysNote": "１単位目　午前の部　８：３０～１１：４０（改行）２単位目　午後の部　１：００～４：１０"
  },
  {
    "id": "990500209",
    "name": "レッツ倶楽部新鹿沼",
    "kana": "レッツクラブシンカヌマ",
    "address": "栃木県鹿沼市蓬莱町1370番地2",
    "lat": 36.5592551,
    "lng": 139.7457036,
    "tel": "0289-60-6678",
    "url": "https://www.lets-club.jp/shop/shinkanuma/",
    "pref": "栃木県",
    "city": "鹿沼市",
    "category": "community_day_service",
    "serviceType": "地域密着型通所介護",
    "capacity": null,
    "openDays": [
      "平日",
      "祝日"
    ],
    "openDaysNote": "8月13日から8月16日まで、また12月30日から1月4日までは休み。"
  },
  {
    "id": "970500112",
    "name": "鹿沼市社会福祉協議会",
    "kana": "カヌマシシャカイフクシキョウギカイ",
    "address": "栃木県鹿沼市万町931-1総合福祉センター 総合福祉センター",
    "lat": 36.5579867,
    "lng": 139.7480654,
    "tel": "0289-62-4127",
    "url": "http://www.kanuma-shakyo.or.jp",
    "pref": "栃木県",
    "city": "鹿沼市",
    "category": "community_day_service",
    "serviceType": "地域密着型通所介護",
    "capacity": 5,
    "openDays": [
      "平日"
    ],
    "openDaysNote": ""
  },
  {
    "id": "990500407",
    "name": "西鹿沼けあけあ",
    "kana": "ニシカヌマケアケア",
    "address": "栃木県鹿沼市西鹿沼町２１－１",
    "lat": 36.5621293,
    "lng": 139.7421109,
    "tel": "0289-78-0344",
    "url": "http://www.bc9.jp/~carecare/",
    "pref": "栃木県",
    "city": "鹿沼市",
    "category": "community_day_service",
    "serviceType": "地域密着型通所介護",
    "capacity": 18,
    "openDays": [
      "平日",
      "祝日"
    ],
    "openDaysNote": "年末年始の営業日はその年によって変わります。お問合せ下さい、。"
  },
  {
    "id": "990500399",
    "name": "第２宅老所はいこんちょ",
    "kana": "ダイニタクロウショハイコンチョ",
    "address": "栃木県鹿沼市泉町２４０６番地７",
    "lat": 36.5761392,
    "lng": 139.7472605,
    "tel": "0289-78-0054",
    "url": "鹿沼デイサービス.com",
    "pref": "栃木県",
    "city": "鹿沼市",
    "category": "community_day_service",
    "serviceType": "地域密着型通所介護",
    "capacity": 13,
    "openDays": [
      "平日"
    ],
    "openDaysNote": ""
  },
  {
    "id": "970501128",
    "name": "宅老所はいこんちょ",
    "kana": "タクロウショハイコンチョ",
    "address": "御成橋町1丁目2406番地8",
    "lat": 36.5765587,
    "lng": 139.7474202,
    "tel": "0289-78-4347",
    "url": "鹿沼デイサービス.com",
    "pref": "栃木県",
    "city": "鹿沼市",
    "category": "community_day_service",
    "serviceType": "地域密着型通所介護",
    "capacity": 15,
    "openDays": [
      "平日",
      "土曜日",
      "日曜日",
      "祝日"
    ],
    "openDaysNote": ""
  },
  {
    "id": "990500415",
    "name": "地域密着型通所介護なないろデイサービス",
    "kana": "チイキミッチャクガタツウショカイゴ　ナナイロデイサービス",
    "address": "栃木県鹿沼市茂呂2526番地8",
    "lat": 36.5498187,
    "lng": 139.7942269,
    "tel": "0289-77-7165",
    "url": "www.smilekanuma.life",
    "pref": "栃木県",
    "city": "鹿沼市",
    "category": "community_day_service",
    "serviceType": "地域密着型通所介護",
    "capacity": 15,
    "openDays": [
      "平日",
      "土曜日",
      "日曜日",
      "祝日"
    ],
    "openDaysNote": "〇サービス提供時間は、9時15分から16時15分まで。（改行）〇通所欠席の場合は前日17時30分までに事業所までご連絡ください。（改行）〇気象警報による大雨や強風などによって災害が起きる恐れのある場合や自然災害時、または事業所内感染症発生時は利用者様の安全を優先してお休みさせて頂く場合があります。"
  },
  {
    "id": "970500989",
    "name": "万葉かぬま",
    "kana": "マンヨウカヌマ",
    "address": "栃木県鹿沼市茂呂216－1万葉かぬま 万葉かぬま",
    "lat": 36.5367096838427,
    "lng": 139.796105257568,
    "tel": "0289-74-5697",
    "url": "http://manyohkanuma.com",
    "pref": "栃木県",
    "city": "鹿沼市",
    "category": "community_day_service",
    "serviceType": "地域密着型通所介護",
    "capacity": 0,
    "openDays": [
      "平日",
      "土曜日",
      "祝日"
    ],
    "openDaysNote": ""
  },
  {
    "id": "970500062",
    "name": "無量荘",
    "kana": "ムリョウソウ",
    "address": "板荷2971-3",
    "lat": 36.6433498,
    "lng": 139.698646,
    "tel": "0289-64-8371",
    "url": "https://muryoso.okoshi-yasu.com/",
    "pref": "栃木県",
    "city": "鹿沼市",
    "category": "community_day_service",
    "serviceType": "地域密着型通所介護",
    "capacity": 0,
    "openDays": [
      "平日",
      "祝日"
    ],
    "openDaysNote": ""
  },
  {
    "id": "970500971",
    "name": "和久井亭",
    "kana": "ワクイテイ",
    "address": "栃木県鹿沼市千渡１９４９－６４",
    "lat": 36.5703137,
    "lng": 139.7698882,
    "tel": "0289-65-0474",
    "url": "",
    "pref": "栃木県",
    "city": "鹿沼市",
    "category": "community_day_service",
    "serviceType": "地域密着型通所介護",
    "capacity": 0,
    "openDays": [
      "平日"
    ],
    "openDaysNote": ""
  },
  {
    "id": "970802419",
    "name": "GENKINEXT小山城東",
    "kana": "ゲンキネクストオヤマジョウトウ",
    "address": "栃木県小山市城東1-8-29",
    "lat": 36.3110141,
    "lng": 139.8134874,
    "tel": "0285-25-2573",
    "url": "",
    "pref": "栃木県",
    "city": "小山市",
    "category": "community_day_service",
    "serviceType": "地域密着型通所介護",
    "capacity": null,
    "openDays": [
      "平日",
      "土曜日",
      "祝日"
    ],
    "openDaysNote": ""
  },
  {
    "id": "970801122",
    "name": "いろはの家",
    "kana": "イロハノイエ",
    "address": "栃木県小山市大字出井1879番地31",
    "lat": 36.3370431,
    "lng": 139.8299957,
    "tel": "0285-24-2737",
    "url": "https://aozora-iroha.com",
    "pref": "栃木県",
    "city": "小山市",
    "category": "community_day_service",
    "serviceType": "地域密着型通所介護",
    "capacity": 0,
    "openDays": [
      "平日",
      "土曜日",
      "祝日"
    ],
    "openDaysNote": ""
  },
  {
    "id": "970801700",
    "name": "いろはの詩",
    "kana": "イロハノウタ",
    "address": "栃木県小山市島田１０２",
    "lat": 36.3365791,
    "lng": 139.7959878,
    "tel": "0285－37－2353",
    "url": "",
    "pref": "栃木県",
    "city": "小山市",
    "category": "community_day_service",
    "serviceType": "地域密着型通所介護",
    "capacity": 3,
    "openDays": [
      "平日",
      "土曜日"
    ],
    "openDaysNote": ""
  },
  {
    "id": "970801528",
    "name": "かんなデイサービス",
    "kana": "カンナデイサービス",
    "address": "栃木県小山市駅南町4-1-3",
    "lat": 36.3030612,
    "lng": 139.8095793,
    "tel": "285377745",
    "url": "",
    "pref": "栃木県",
    "city": "小山市",
    "category": "community_day_service",
    "serviceType": "地域密着型通所介護",
    "capacity": 0,
    "openDays": [
      "平日",
      "土曜日",
      "祝日"
    ],
    "openDaysNote": "年末年始（12/30～1/3）"
  },
  {
    "id": "970802336",
    "name": "かんなデイサービス乙女",
    "kana": "カンナデイサービスオトメ",
    "address": "栃木県小山市乙女452-5",
    "lat": 36.2536602,
    "lng": 139.7619934,
    "tel": "0285-41-1120",
    "url": "ka-n-na.com",
    "pref": "栃木県",
    "city": "小山市",
    "category": "community_day_service",
    "serviceType": "地域密着型通所介護",
    "capacity": 8,
    "openDays": [
      "平日",
      "土曜日",
      "日曜日",
      "祝日"
    ],
    "openDaysNote": "午前、午後や変則的な時間での対応も行っています。（改行）利用時間外の実費での延長の対応も行っています。"
  },
  {
    "id": "990800385",
    "name": "かんなデイサービス土塔",
    "kana": "カンナデイサービスドトウ",
    "address": "栃木県小山市土塔232-6",
    "lat": 36.3020904,
    "lng": 139.82308,
    "tel": "0285-27-7068",
    "url": "",
    "pref": "栃木県",
    "city": "小山市",
    "category": "community_day_service",
    "serviceType": "地域密着型通所介護",
    "capacity": 0,
    "openDays": [
      "平日",
      "祝日"
    ],
    "openDaysNote": "年末年始（12/30～1/3）"
  },
  {
    "id": "990800310",
    "name": "デイサービス　彩",
    "kana": "デイサービス　イロドリ",
    "address": "間々田588-1",
    "lat": 36.2688438495064,
    "lng": 139.780058798107,
    "tel": "0285-37-7303",
    "url": "",
    "pref": "栃木県",
    "city": "小山市",
    "category": "community_day_service",
    "serviceType": "地域密着型通所介護",
    "capacity": 10,
    "openDays": [
      "平日",
      "祝日"
    ],
    "openDaysNote": "年末年始を除く月曜日から金曜日の祝日は営業を行っています。"
  },
  {
    "id": "970801106",
    "name": "デイサービスセンターアカシヤ",
    "kana": "デイサービスセンターアカシヤ",
    "address": "栃木県小山市外城546",
    "lat": 36.2953736,
    "lng": 139.7803894,
    "tel": "0285-30-3700",
    "url": "http://www.sensinkai.or.jp",
    "pref": "栃木県",
    "city": "小山市",
    "category": "community_day_service",
    "serviceType": "地域密着型通所介護",
    "capacity": 15,
    "openDays": [
      "平日",
      "土曜日",
      "日曜日",
      "祝日"
    ],
    "openDaysNote": "なし"
  },
  {
    "id": "970802351",
    "name": "デイサービスセンターにこにこ元気",
    "kana": "デイサービスセンターニコニコゲンキ",
    "address": "駅南町五丁目１２－２０",
    "lat": 36.3029859,
    "lng": 139.8150461,
    "tel": "0285-39-7610",
    "url": "dsnikonikogennki@yahoo.co.jp",
    "pref": "栃木県",
    "city": "小山市",
    "category": "community_day_service",
    "serviceType": "地域密着型通所介護",
    "capacity": 17,
    "openDays": [
      "平日",
      "土曜日",
      "祝日"
    ],
    "openDaysNote": ""
  },
  {
    "id": "990800344",
    "name": "デイサービスともに",
    "kana": "デイサービストモニ",
    "address": "犬塚5－2－３５ピーノスミレＡ棟 ピーノスミレＡ棟",
    "lat": 36.3077211,
    "lng": 139.8352302,
    "tel": "0285-37-6890",
    "url": "",
    "pref": "栃木県",
    "city": "小山市",
    "category": "community_day_service",
    "serviceType": "地域密着型通所介護",
    "capacity": null,
    "openDays": [
      "平日",
      "祝日"
    ],
    "openDaysNote": ""
  },
  {
    "id": "990800369",
    "name": "デイサービスハートランド・アイリ小山Ⅱ",
    "kana": "デイサービスハートランド・アイリオヤマニ",
    "address": "栃木県小山市城北6-2-8",
    "lat": 36.3179971,
    "lng": 139.8144137,
    "tel": "0285-37-8370",
    "url": "https://ygood.jp/",
    "pref": "栃木県",
    "city": "小山市",
    "category": "community_day_service",
    "serviceType": "地域密着型通所介護",
    "capacity": 0,
    "openDays": [
      "平日",
      "土曜日"
    ],
    "openDaysNote": ""
  },
  {
    "id": "990800377",
    "name": "デイサービスハートランド・アイリ小山Ⅲ",
    "kana": "デイサービスハートランド・アイリオヤマサン",
    "address": "栃木県小山市東城南1-6-1ハートランド・アイリ小山Ⅲ ハートランド・アイリ小山Ⅲ",
    "lat": 36.2975342887538,
    "lng": 139.811987647885,
    "tel": "0285-39-6033",
    "url": "https://ygood.jp/",
    "pref": "栃木県",
    "city": "小山市",
    "category": "community_day_service",
    "serviceType": "地域密着型通所介護",
    "capacity": 0,
    "openDays": [
      "平日",
      "土曜日",
      "祝日"
    ],
    "openDaysNote": ""
  },
  {
    "id": "970801494",
    "name": "デイサービスほほえみ",
    "kana": "デイサービスホホエミ",
    "address": "栃木県小山市乙女3-27-12",
    "lat": 36.2559219,
    "lng": 139.75824,
    "tel": "0285-41-5500",
    "url": "http://www.mk-hc.jp/",
    "pref": "栃木県",
    "city": "小山市",
    "category": "community_day_service",
    "serviceType": "地域密着型通所介護",
    "capacity": null,
    "openDays": [
      "平日",
      "土曜日"
    ],
    "openDaysNote": ""
  },
  {
    "id": "990800401",
    "name": "デイホームあじさい弐番館",
    "kana": "デイホームアジサイニバンカン",
    "address": "小山市土塔２４７－３０",
    "lat": 36.3015608627537,
    "lng": 139.825844901852,
    "tel": "0285-27-0070",
    "url": "https://npoajisai.org/",
    "pref": "栃木県",
    "city": "小山市",
    "category": "community_day_service",
    "serviceType": "地域密着型通所介護",
    "capacity": null,
    "openDays": [
      "平日",
      "土曜日"
    ],
    "openDaysNote": ""
  },
  {
    "id": "990800336",
    "name": "株式会社　プラス・A",
    "kana": "カブシキガイシャ　プラスエー",
    "address": "栃木県小山市大行寺1028-15",
    "lat": 36.3170094,
    "lng": 139.7918702,
    "tel": "0285-39-7366",
    "url": "https://hp.kaipoke.biz/asu/index.html",
    "pref": "栃木県",
    "city": "小山市",
    "category": "community_day_service",
    "serviceType": "地域密着型通所介護",
    "capacity": 0,
    "openDays": [
      "平日",
      "祝日"
    ],
    "openDaysNote": ""
  },
  {
    "id": "990800419",
    "name": "自立支援デイサービス　りらいふ",
    "kana": "ジリツシエンデイサービス　リライフ",
    "address": "横倉新田265-2",
    "lat": 36.2776709,
    "lng": 139.8231936,
    "tel": "0285-32-7262",
    "url": "",
    "pref": "栃木県",
    "city": "小山市",
    "category": "community_day_service",
    "serviceType": "地域密着型通所介護",
    "capacity": 10,
    "openDays": [
      "平日",
      "祝日"
    ],
    "openDaysNote": ""
  },
  {
    "id": "970802427",
    "name": "自立支援デイサービス　わんステップ",
    "kana": "ジリツシエンデイサービス　ワンステップ",
    "address": "栃木県小山市犬塚3-8-10ルネサンスINUZUKA1 ルネサンスINUZUKA1",
    "lat": 36.3109124,
    "lng": 139.8337418,
    "tel": "0285-20-1212",
    "url": "",
    "pref": "栃木県",
    "city": "小山市",
    "category": "community_day_service",
    "serviceType": "地域密着型通所介護",
    "capacity": 0,
    "openDays": [
      "平日"
    ],
    "openDaysNote": ""
  },
  {
    "id": "972100218",
    "name": "デイサービスセンターゆうあい",
    "kana": "デイサービスセンターユウアイ",
    "address": "栃木県河内郡上三川町大字上三川六ッ渕1635-1",
    "lat": 36.433788,
    "lng": 139.9137869,
    "tel": "0285-56-9233",
    "url": "",
    "pref": "栃木県",
    "city": "上三川町",
    "category": "community_day_service",
    "serviceType": "地域密着型通所介護",
    "capacity": 0,
    "openDays": [
      "平日",
      "日曜日"
    ],
    "openDaysNote": ""
  },
  {
    "id": "992100065",
    "name": "ふれあいホームたかだ",
    "kana": "フレアイホームタカダ",
    "address": "栃木県河内郡上三川町上三川2269－6",
    "lat": 36.4349024,
    "lng": 139.9194515,
    "tel": "0285－37－8196",
    "url": "",
    "pref": "栃木県",
    "city": "上三川町",
    "category": "community_day_service",
    "serviceType": "地域密着型通所介護",
    "capacity": 10,
    "openDays": [
      "平日",
      "祝日"
    ],
    "openDaysNote": ""
  },
  {
    "id": "972700777",
    "name": "デイサービスぽかぽからんど",
    "kana": "デイサービスポカポカランド",
    "address": "さくら2丁目4-4",
    "lat": 36.3826497,
    "lng": 139.9692807,
    "tel": "0285-73-1780",
    "url": "pokapokaland@chic.ocn.ne.jp",
    "pref": "栃木県",
    "city": "真岡市",
    "category": "community_day_service",
    "serviceType": "地域密着型通所介護",
    "capacity": 0,
    "openDays": [
      "平日",
      "祝日"
    ],
    "openDaysNote": "土曜日が祝日の際は休み。"
  },
  {
    "id": "990900144",
    "name": "リハビリデイサービスうに",
    "kana": "リハビリデイサービスウニ",
    "address": "栃木県真岡市上高間木3丁目24-4",
    "lat": 36.439529929006,
    "lng": 139.98421293887,
    "tel": "0285-81-5086",
    "url": "",
    "pref": "栃木県",
    "city": "真岡市",
    "category": "community_day_service",
    "serviceType": "地域密着型通所介護",
    "capacity": null,
    "openDays": [
      "平日",
      "祝日"
    ],
    "openDaysNote": ""
  },
  {
    "id": "990900151",
    "name": "リハビリライフ　すまいるラボ",
    "kana": "リハビリライフ　スマイルラボ",
    "address": "荒町2丁目11-1",
    "lat": 37.6399438,
    "lng": 138.9483916,
    "tel": "0285-77-4608",
    "url": "",
    "pref": "栃木県",
    "city": "真岡市",
    "category": "community_day_service",
    "serviceType": "地域密着型通所介護",
    "capacity": null,
    "openDays": [
      "平日"
    ],
    "openDaysNote": "上記以外の祝日は営業しております"
  },
  {
    "id": "970900650",
    "name": "大瀧ホームメディカル　デイサービス未来",
    "kana": "オオタキホームメディカル　デイサービスミライ",
    "address": "栃木県真岡市寺久保1丁目6番地2",
    "lat": 36.204824,
    "lng": 138.252924,
    "tel": "0285-83-0055",
    "url": "",
    "pref": "栃木県",
    "city": "真岡市",
    "category": "community_day_service",
    "serviceType": "地域密着型通所介護",
    "capacity": 50,
    "openDays": [
      "平日",
      "祝日"
    ],
    "openDaysNote": "12月30日～1月3日お休み"
  },
  {
    "id": "970900668",
    "name": "長田リハビリセンター",
    "kana": "ナガタリハビリセンター",
    "address": "長田5-14-33",
    "lat": 34.6732983,
    "lng": 135.1463807,
    "tel": "0285-83-7171",
    "url": "",
    "pref": "栃木県",
    "city": "真岡市",
    "category": "community_day_service",
    "serviceType": "地域密着型通所介護",
    "capacity": 10,
    "openDays": [
      "平日",
      "土曜日"
    ],
    "openDaysNote": "当事業所は、午前午後の2部制。（改行）午前9：00-12：10（改行）午後13：30-16：40"
  },
  {
    "id": "972300537",
    "name": "NPO法人のぞみ会",
    "kana": "エヌピオウホウジンノゾミカイ",
    "address": "栃木県下都賀郡壬生町壬生丁１４５－１０",
    "lat": 36.4482202,
    "lng": 139.8244174,
    "tel": "0282－82－7204",
    "url": "http//www.nozomi-h.org",
    "pref": "栃木県",
    "city": "壬生町",
    "category": "community_day_service",
    "serviceType": "地域密着型通所介護",
    "capacity": 0,
    "openDays": [
      "平日",
      "土曜日",
      "祝日"
    ],
    "openDaysNote": ""
  },
  {
    "id": "972301345",
    "name": "あいケアステーションあいの杜ひだまり",
    "kana": "アイケアステーションアイノモリヒダマリ",
    "address": "栃木県下都賀郡壬生町藤井1645-3",
    "lat": 36.4197567,
    "lng": 139.8117489,
    "tel": "0282-25-6390",
    "url": "https://www.i-care.co.jp",
    "pref": "栃木県",
    "city": "壬生町",
    "category": "community_day_service",
    "serviceType": "地域密着型通所介護",
    "capacity": null,
    "openDays": [
      "平日",
      "土曜日",
      "祝日"
    ],
    "openDaysNote": ""
  },
  {
    "id": "992300145",
    "name": "短時間型デイサービスきまま",
    "kana": "タンジカンガタデイサービスキママ",
    "address": "栃木県下都賀郡壬生町壬生乙2416-2",
    "lat": 36.427654681252,
    "lng": 139.794846039881,
    "tel": "0282-82-0755",
    "url": "https://www.i-care.co.jp",
    "pref": "栃木県",
    "city": "壬生町",
    "category": "community_day_service",
    "serviceType": "地域密着型通所介護",
    "capacity": null,
    "openDays": [
      "平日",
      "祝日"
    ],
    "openDaysNote": ""
  },
  {
    "id": "970202982",
    "name": "GENKI　NEXT足利",
    "kana": "ゲンキネクストアシカガ",
    "address": "栃木県足利市朝倉町2-21-16ヨークタウン足利敷地内 ヨークタウン足利敷地内",
    "lat": 36.3162166,
    "lng": 139.4452797,
    "tel": "0284-70-8120",
    "url": "https://kaigo-next.com/sp/search/detail/715/",
    "pref": "栃木県",
    "city": "足利市",
    "category": "community_day_service",
    "serviceType": "地域密着型通所介護",
    "capacity": 0,
    "openDays": [
      "平日",
      "土曜日",
      "祝日"
    ],
    "openDaysNote": ""
  },
  {
    "id": "990200107",
    "name": "しゃかいふくしほうじん　りょうがいふくしかい　こうれいしゃふくごうしせつみのりのさと・たじま",
    "kana": "社会福祉法人　両崖福祉会　高齢者複合施設ミノリノ里・田島",
    "address": "栃木県足利市田島町1959-1",
    "lat": 36.3648563,
    "lng": 139.465216,
    "tel": "0284-40-1123",
    "url": "https://seimeien.or.jp/minorinosato_tajima",
    "pref": "栃木県",
    "city": "足利市",
    "category": "community_day_service",
    "serviceType": "地域密着型通所介護",
    "capacity": 17,
    "openDays": [
      "平日",
      "土曜日",
      "祝日"
    ],
    "openDaysNote": ""
  },
  {
    "id": "970202487",
    "name": "つどいのいえのんびりや",
    "kana": "集イノ家ノンビリヤ",
    "address": "栃木県足利市江川町3-5-1",
    "lat": 36.3545704,
    "lng": 139.4654463,
    "tel": "0284-43-8618",
    "url": "",
    "pref": "栃木県",
    "city": "足利市",
    "category": "community_day_service",
    "serviceType": "地域密着型通所介護",
    "capacity": 0,
    "openDays": [
      "平日"
    ],
    "openDaysNote": ""
  },
  {
    "id": "990200396",
    "name": "デイサービス　うらら",
    "kana": "デイサービス　ウララ",
    "address": "栃木県足利市小俣町807番地2",
    "lat": 36.3795032,
    "lng": 139.3696689,
    "tel": "0284-22-6078",
    "url": "",
    "pref": "栃木県",
    "city": "足利市",
    "category": "community_day_service",
    "serviceType": "地域密着型通所介護",
    "capacity": 0,
    "openDays": [
      "平日",
      "祝日"
    ],
    "openDaysNote": ""
  },
  {
    "id": "970201992",
    "name": "デイサービス　ひまわり２",
    "kana": "デイサービス　ヒマワリツウ",
    "address": "栃木県足利市大久保町753-1",
    "lat": 36.3149501,
    "lng": 139.5001501,
    "tel": "0284-91-4431",
    "url": "http://www.hsc-group.jp",
    "pref": "栃木県",
    "city": "足利市",
    "category": "community_day_service",
    "serviceType": "地域密着型通所介護",
    "capacity": 0,
    "openDays": [
      "平日",
      "祝日"
    ],
    "openDaysNote": ""
  },
  {
    "id": "990200586",
    "name": "デイサービス　宮ノ里",
    "kana": "デイサービス　ミヤノサト",
    "address": "群馬県足利市西砂原後町1210-1",
    "lat": 36.3466559,
    "lng": 139.4573352,
    "tel": "0284-64-7934",
    "url": "",
    "pref": "栃木県",
    "city": "足利市",
    "category": "community_day_service",
    "serviceType": "地域密着型通所介護",
    "capacity": 0,
    "openDays": [
      "平日",
      "祝日"
    ],
    "openDaysNote": ""
  },
  {
    "id": "970202719",
    "name": "デイサービスe-らいふ　毛野",
    "kana": "デイサービスイーライフケノ",
    "address": "栃木県足利市常見町3丁目8-2",
    "lat": 36.3173795861354,
    "lng": 139.48772354988,
    "tel": "0284-44-5355",
    "url": "http://lifecareclub.co.jp/charge.html",
    "pref": "栃木県",
    "city": "足利市",
    "category": "community_day_service",
    "serviceType": "地域密着型通所介護",
    "capacity": 0,
    "openDays": [
      "平日",
      "土曜日",
      "祝日"
    ],
    "openDaysNote": ""
  },
  {
    "id": "970202578",
    "name": "デイサービスe-らいふ福",
    "kana": "デイサービス　イーライフ　フク",
    "address": "福居町1287番地1",
    "lat": 34.0134025,
    "lng": 134.5793348,
    "tel": "0284-22-7320",
    "url": "https://lifecareclub.co.jp",
    "pref": "栃木県",
    "city": "足利市",
    "category": "community_day_service",
    "serviceType": "地域密着型通所介護",
    "capacity": 15,
    "openDays": [
      "平日",
      "土曜日",
      "祝日"
    ],
    "openDaysNote": ""
  },
  {
    "id": "990200446",
    "name": "デイサービスあかり",
    "kana": "デイサービスアカリ",
    "address": "鹿島町282-5",
    "lat": 36.3432330820998,
    "lng": 139.412621791842,
    "tel": "0284-55-5881",
    "url": "",
    "pref": "栃木県",
    "city": "足利市",
    "category": "community_day_service",
    "serviceType": "地域密着型通所介護",
    "capacity": 0,
    "openDays": [
      "平日",
      "祝日"
    ],
    "openDaysNote": "8/14～8/16、12/30～1/3は夏季・年末年始休業とさせていただきます（曜日まわりにより変更あり）。"
  },
  {
    "id": "970202784",
    "name": "デイサービスかかぼ",
    "kana": "デイサービスカカボ",
    "address": "栃木県足利市利保町3－14－27",
    "lat": 36.3580726,
    "lng": 139.4736745,
    "tel": "0284－22－7718",
    "url": "http://hp.kaipoke.biz/y7f/",
    "pref": "栃木県",
    "city": "足利市",
    "category": "community_day_service",
    "serviceType": "地域密着型通所介護",
    "capacity": null,
    "openDays": [
      "平日",
      "土曜日",
      "祝日"
    ],
    "openDaysNote": "年末年始休み"
  },
  {
    "id": "990200578",
    "name": "デイサービスセンター　すずの音",
    "kana": "デイサービセンター　ススズノオト",
    "address": "足利市葉鹿町1丁目8番地37",
    "lat": 36.3641069,
    "lng": 139.3919742,
    "tel": "0284-64-7821",
    "url": "http://hp.kaipoke.biz/dy9/",
    "pref": "栃木県",
    "city": "足利市",
    "category": "community_day_service",
    "serviceType": "地域密着型通所介護",
    "capacity": 25,
    "openDays": [
      "平日",
      "土曜日",
      "祝日"
    ],
    "openDaysNote": ""
  },
  {
    "id": "990200321",
    "name": "デイサービスセンター八雲",
    "kana": "デイサービスセンターヤグモ",
    "address": "栃木県足利市緑町1-6-1",
    "lat": 36.3366978,
    "lng": 139.436235,
    "tel": "0284-22-1187",
    "url": "",
    "pref": "栃木県",
    "city": "足利市",
    "category": "community_day_service",
    "serviceType": "地域密着型通所介護",
    "capacity": 18,
    "openDays": [
      "平日"
    ],
    "openDaysNote": "年末年始・研修等"
  },
  {
    "id": "990200354",
    "name": "デイサービスたなか",
    "kana": "デイサービスタナカ",
    "address": "栃木県足利市田中町776番地2",
    "lat": 36.3254471,
    "lng": 139.4499042,
    "tel": "284438856",
    "url": "http://hp.kaipoke.biz/y7f/",
    "pref": "栃木県",
    "city": "足利市",
    "category": "community_day_service",
    "serviceType": "地域密着型通所介護",
    "capacity": 0,
    "openDays": [
      "平日",
      "土曜日",
      "祝日"
    ],
    "openDaysNote": ""
  },
  {
    "id": "970203204",
    "name": "デイサービスつくし",
    "kana": "デイサービスツクシ",
    "address": "栃木県足利市上渋垂町237番地1",
    "lat": 36.303233,
    "lng": 139.4631814,
    "tel": "0284-74-2294",
    "url": "",
    "pref": "栃木県",
    "city": "足利市",
    "category": "community_day_service",
    "serviceType": "地域密着型通所介護",
    "capacity": null,
    "openDays": [
      "平日",
      "土曜日",
      "祝日"
    ],
    "openDaysNote": ""
  },
  {
    "id": "970202735",
    "name": "デイサービスにっこりケア",
    "kana": "デイサービスニッコリケア",
    "address": "朝倉町3丁目3-14",
    "lat": 36.3219133,
    "lng": 139.4439593,
    "tel": "0284-22-3070",
    "url": "",
    "pref": "栃木県",
    "city": "足利市",
    "category": "community_day_service",
    "serviceType": "地域密着型通所介護",
    "capacity": 0,
    "openDays": [
      "平日",
      "祝日"
    ],
    "openDaysNote": "夏季・年末休日有り"
  },
  {
    "id": "970202479",
    "name": "デイサービスわかくさ",
    "kana": "デイサービスワカクサ",
    "address": "栃木県足利市若草町8－50",
    "lat": 36.3204572,
    "lng": 139.4724825,
    "tel": "0284－64－8858",
    "url": "http://hp.kaipoke.biz/y7f/",
    "pref": "栃木県",
    "city": "足利市",
    "category": "community_day_service",
    "serviceType": "地域密着型通所介護",
    "capacity": null,
    "openDays": [
      "平日",
      "土曜日",
      "祝日"
    ],
    "openDaysNote": "年末年始休み"
  },
  {
    "id": "970202297",
    "name": "デイサービス吾亦紅",
    "kana": "デイサービスワレモコウ",
    "address": "栃木県足利市借宿町610-1ケアルネサンスうるしばら ケアルネサンスうるしばら",
    "lat": 36.325086,
    "lng": 139.4262287,
    "tel": "0284-72-5061",
    "url": "https://urushibara-kaigo.net/",
    "pref": "栃木県",
    "city": "足利市",
    "category": "community_day_service",
    "serviceType": "地域密着型通所介護",
    "capacity": 0,
    "openDays": [
      "平日",
      "土曜日",
      "祝日"
    ],
    "openDaysNote": ""
  },
  {
    "id": "970201216",
    "name": "デイホーム華",
    "kana": "デイホームハナ",
    "address": "栃木県足利市借宿町１丁目21番地15",
    "lat": 36.3299013,
    "lng": 139.4297625,
    "tel": "0284-70-0873",
    "url": "",
    "pref": "栃木県",
    "city": "足利市",
    "category": "community_day_service",
    "serviceType": "地域密着型通所介護",
    "capacity": 0,
    "openDays": [
      "平日"
    ],
    "openDaysNote": ""
  },
  {
    "id": "970201927",
    "name": "まどか苑",
    "kana": "マドカエン",
    "address": "栃木県足利市鹿島町７０９番地４",
    "lat": 36.343489,
    "lng": 139.4122612,
    "tel": "0284-63-2881",
    "url": "https://aiyamamae.jp",
    "pref": "栃木県",
    "city": "足利市",
    "category": "community_day_service",
    "serviceType": "地域密着型通所介護",
    "capacity": null,
    "openDays": [
      "平日",
      "土曜日",
      "日曜日",
      "祝日"
    ],
    "openDaysNote": ""
  },
  {
    "id": "990200404",
    "name": "らくらくデイサービス　あゆの郷",
    "kana": "ラクラクデイサービス　アユノサト",
    "address": "栃木県足利市利保町2丁目15番地２らくらくほーむあゆの郷 らくらくほーむあゆの郷",
    "lat": 36.3573174,
    "lng": 139.4723265,
    "tel": "0284-40-2662",
    "url": "https://raku-raku-home.com/",
    "pref": "栃木県",
    "city": "足利市",
    "category": "community_day_service",
    "serviceType": "地域密着型通所介護",
    "capacity": 0,
    "openDays": [
      "平日",
      "土曜日",
      "祝日"
    ],
    "openDaysNote": ""
  },
  {
    "id": "990200420",
    "name": "らくらくデイサービス　きりの郷",
    "kana": "ラクラクデイサービス　キリノサト",
    "address": "栃木県足利市福富町９７６-６",
    "lat": 35.4453597,
    "lng": 139.630864,
    "tel": "0284-74-2311",
    "url": "",
    "pref": "栃木県",
    "city": "足利市",
    "category": "community_day_service",
    "serviceType": "地域密着型通所介護",
    "capacity": null,
    "openDays": [
      "平日",
      "土曜日",
      "祝日"
    ],
    "openDaysNote": ""
  },
  {
    "id": "990200438",
    "name": "らくらくデイサービスくらの郷",
    "kana": "ラクラクデイサービスクラノサト",
    "address": "栃木県足利市福居町１１６８－７らくらくほーむ倉の郷 らくらくほーむ倉の郷",
    "lat": 36.30631,
    "lng": 139.4584773,
    "tel": "0284-70-1101",
    "url": "https://raku-raku-home.com/",
    "pref": "栃木県",
    "city": "足利市",
    "category": "community_day_service",
    "serviceType": "地域密着型通所介護",
    "capacity": null,
    "openDays": [
      "平日",
      "土曜日",
      "祝日"
    ],
    "openDaysNote": ""
  },
  {
    "id": "990200412",
    "name": "らくらくデイサービスしょうようの郷",
    "kana": "ラクラクデイサービスショウヨウノサト",
    "address": "栃木県　足利市　葉鹿町５４０",
    "lat": 36.3612032283382,
    "lng": 139.39124469218,
    "tel": "0284-43-8725",
    "url": "https://raku-raku-home.com/",
    "pref": "栃木県",
    "city": "足利市",
    "category": "community_day_service",
    "serviceType": "地域密着型通所介護",
    "capacity": 0,
    "openDays": [
      "平日",
      "土曜日",
      "祝日"
    ],
    "openDaysNote": ""
  },
  {
    "id": "990200602",
    "name": "リーフリハビリステーション",
    "kana": "リーフリハビリステーション",
    "address": "柳原町859‐14",
    "lat": 39.293712,
    "lng": 141.1104016,
    "tel": "0284‐22‐3640",
    "url": "",
    "pref": "栃木県",
    "city": "足利市",
    "category": "community_day_service",
    "serviceType": "地域密着型通所介護",
    "capacity": null,
    "openDays": [
      "平日"
    ],
    "openDaysNote": ""
  },
  {
    "id": "970202958",
    "name": "リハビリデイサービス上気元",
    "kana": "リハビリデイサービスジョウキゲン",
    "address": "栃木県足利市江川町３丁目５９－１５",
    "lat": 36.35771,
    "lng": 139.466592,
    "tel": "0284-22-7013",
    "url": "https://jyokigen.jimdofree.com",
    "pref": "栃木県",
    "city": "足利市",
    "category": "community_day_service",
    "serviceType": "地域密着型通所介護",
    "capacity": 10,
    "openDays": [
      "平日"
    ],
    "openDaysNote": ""
  },
  {
    "id": "990200511",
    "name": "わたらせリハデイサービス",
    "kana": "ワタラセリハデイサービス",
    "address": "栃木県足利市小俣町1113－1",
    "lat": 36.3861139,
    "lng": 139.3647594,
    "tel": "0284-64-7325",
    "url": "https://www.wataraseriha.com",
    "pref": "栃木県",
    "city": "足利市",
    "category": "community_day_service",
    "serviceType": "地域密着型通所介護",
    "capacity": null,
    "openDays": [
      "平日"
    ],
    "openDaysNote": ""
  },
  {
    "id": "970202586",
    "name": "住宅型有料老人ホーム　e-らいふほーむ丘",
    "kana": "ジュウタクガタユウリョウロウジンホーム　イーライフホームオカ",
    "address": "栃木県足利市上渋垂町503番地",
    "lat": 36.3037477,
    "lng": 139.4696017,
    "tel": "0284-72-4700",
    "url": "lifecareclub.co.jp",
    "pref": "栃木県",
    "city": "足利市",
    "category": "community_day_service",
    "serviceType": "地域密着型通所介護",
    "capacity": 15,
    "openDays": [
      "平日",
      "土曜日",
      "祝日"
    ],
    "openDaysNote": ""
  },
  {
    "id": "990200503",
    "name": "足利東部デイサービスセンター",
    "kana": "アシカガトウブデイサービスセンター",
    "address": "栃木県足利市山川町824-6",
    "lat": 36.3259487,
    "lng": 139.4802215,
    "tel": "0284-64-9144",
    "url": "",
    "pref": "栃木県",
    "city": "足利市",
    "category": "community_day_service",
    "serviceType": "地域密着型通所介護",
    "capacity": 10,
    "openDays": [
      "平日",
      "祝日"
    ],
    "openDaysNote": ""
  },
  {
    "id": "970201919",
    "name": "栃木県足利市大前町838-1",
    "kana": "トチギケンアシカガシオオマエチョウ",
    "address": "栃木県足利市大前町838-1",
    "lat": 36.3589493,
    "lng": 139.3961805,
    "tel": "0284-62-8819",
    "url": "http://purehome-ashikaga.com",
    "pref": "栃木県",
    "city": "足利市",
    "category": "community_day_service",
    "serviceType": "地域密着型通所介護",
    "capacity": null,
    "openDays": [
      "平日"
    ],
    "openDaysNote": ""
  },
  {
    "id": "990200479",
    "name": "板通デイサービス湯ざくら",
    "kana": "イタツウデイサービスユザクラ",
    "address": "栃木県足利市常盤町64番地",
    "lat": 36.3280852,
    "lng": 139.4683194,
    "tel": "0284-43-8817",
    "url": "",
    "pref": "栃木県",
    "city": "足利市",
    "category": "community_day_service",
    "serviceType": "地域密着型通所介護",
    "capacity": 18,
    "openDays": [
      "平日",
      "祝日"
    ],
    "openDaysNote": "12/30～1/3はお休み"
  },
  {
    "id": "970200978",
    "name": "有限会社　デイホームまこちゃんち",
    "kana": "ユウゲンガイシャ　デイホームマコチャンチ",
    "address": "栃木県足利市里矢場町1775",
    "lat": 36.3088317,
    "lng": 139.4284224,
    "tel": "0284-73-1632",
    "url": "",
    "pref": "栃木県",
    "city": "足利市",
    "category": "community_day_service",
    "serviceType": "地域密着型通所介護",
    "capacity": 0,
    "openDays": [
      "平日"
    ],
    "openDaysNote": ""
  },
  {
    "id": "991000332",
    "name": "デイサービスカラフルらいふ",
    "kana": "デイサービスカラフルライフ",
    "address": "栃木県大田原市城山2-13-6",
    "lat": 36.8670957739581,
    "lng": 140.033568931021,
    "tel": "0287-53-7172",
    "url": "https://www.karafuru-life.com",
    "pref": "栃木県",
    "city": "大田原市",
    "category": "community_day_service",
    "serviceType": "地域密着型通所介護",
    "capacity": 10,
    "openDays": [
      "平日"
    ],
    "openDaysNote": ""
  },
  {
    "id": "971000989",
    "name": "デイサービスセンターいろは",
    "kana": "デイサービスセンターイロハ",
    "address": "栃木県大田原市北金丸1901-1",
    "lat": 36.8741526,
    "lng": 140.0699989,
    "tel": "0287-47-6127",
    "url": "",
    "pref": "栃木県",
    "city": "大田原市",
    "category": "community_day_service",
    "serviceType": "地域密着型通所介護",
    "capacity": 0,
    "openDays": [
      "平日",
      "土曜日",
      "日曜日",
      "祝日"
    ],
    "openDaysNote": ""
  },
  {
    "id": "971000773",
    "name": "デイサービスセンターほのぼの",
    "kana": "デイサービスセンターホノボノ",
    "address": "栃木県大田原市蛭田1795",
    "lat": 36.823505,
    "lng": 140.079608,
    "tel": "0287-98-8355",
    "url": "https://www.keifukukai.com/",
    "pref": "栃木県",
    "city": "大田原市",
    "category": "community_day_service",
    "serviceType": "地域密着型通所介護",
    "capacity": 4,
    "openDays": [
      "平日",
      "土曜日",
      "日曜日",
      "祝日"
    ],
    "openDaysNote": ""
  },
  {
    "id": "991000340",
    "name": "にちにちそうみはら",
    "kana": "ニチニチソウミハラ",
    "address": "栃木県大田原市美原3-3348-24",
    "lat": 36.8591161,
    "lng": 139.9978551,
    "tel": "0287-24-3462",
    "url": "kenshinkai.or.jp",
    "pref": "栃木県",
    "city": "大田原市",
    "category": "community_day_service",
    "serviceType": "地域密着型通所介護",
    "capacity": 18,
    "openDays": [
      "平日",
      "土曜日",
      "日曜日",
      "祝日"
    ],
    "openDaysNote": ""
  },
  {
    "id": "971000633",
    "name": "介護の郷わたぼうしデイサービス",
    "kana": "カイゴノサトワタボウシデイサービース",
    "address": "栃木県大田原市紫塚2-2580-1",
    "lat": 36.8729806,
    "lng": 140.0191458,
    "tel": "0287-53-7878",
    "url": "https://watabousi.com/",
    "pref": "栃木県",
    "city": "大田原市",
    "category": "community_day_service",
    "serviceType": "地域密着型通所介護",
    "capacity": 0,
    "openDays": [
      "平日",
      "土曜日",
      "祝日"
    ],
    "openDaysNote": ""
  },
  {
    "id": "971000781",
    "name": "高館の森デイサービスセンター",
    "kana": "タカダテノモリデイサービスセンター",
    "address": "栃木県大田原市川田５７０－１",
    "lat": 36.9136743,
    "lng": 140.1310647,
    "tel": "0287-59-1355",
    "url": "",
    "pref": "栃木県",
    "city": "大田原市",
    "category": "community_day_service",
    "serviceType": "地域密着型通所介護",
    "capacity": 15,
    "openDays": [
      "平日",
      "土曜日",
      "祝日"
    ],
    "openDaysNote": ""
  },
  {
    "id": "991000357",
    "name": "虹の里デイサービスセンター",
    "kana": "ニジノサトデイサービスセンター",
    "address": "栃木県大田原市川田５７０－１",
    "lat": 36.9134226205819,
    "lng": 140.13167096945,
    "tel": "0827-59-7101",
    "url": "",
    "pref": "栃木県",
    "city": "大田原市",
    "category": "community_day_service",
    "serviceType": "地域密着型通所介護",
    "capacity": null,
    "openDays": [
      "平日",
      "土曜日",
      "祝日"
    ],
    "openDaysNote": ""
  },
  {
    "id": "970300513",
    "name": "オアシス通所介護事業所",
    "kana": "オアシスツウショカイゴジギョウショ",
    "address": "栃木県栃木市薗部町４丁目２番３２号",
    "lat": 36.3760724,
    "lng": 139.7108832,
    "tel": "0282-25-1477",
    "url": "http://hp.kaipoke.biz/ur7/index.html",
    "pref": "栃木県",
    "city": "栃木市",
    "category": "community_day_service",
    "serviceType": "地域密着型通所介護",
    "capacity": 18,
    "openDays": [
      "平日",
      "土曜日",
      "祝日"
    ],
    "openDaysNote": "5月の連休期間、8月のお盆の時期、および年末年始において、臨時の休日を設けさせていただくことがあります。"
  },
  {
    "id": "970300828",
    "name": "お茶の間げんきデイサービスセンター",
    "kana": "オチャノマゲンキデイサービスセンター",
    "address": "栃木県栃木市箱森町36-1",
    "lat": 36.3922648,
    "lng": 139.7286201,
    "tel": "0282-51-3335",
    "url": "",
    "pref": "栃木県",
    "city": "栃木市",
    "category": "community_day_service",
    "serviceType": "地域密着型通所介護",
    "capacity": 0,
    "openDays": [
      "平日",
      "土曜日",
      "祝日"
    ],
    "openDaysNote": "お盆と年末年始はお休みとなります。（改行）8/13～8/16・12/30～1/3"
  },
  {
    "id": "970300695",
    "name": "かなで",
    "kana": "カナデ",
    "address": "栃木県栃木市城内町2-51-51",
    "lat": 36.367370672308,
    "lng": 139.744710620346,
    "tel": "0282-23-8114",
    "url": "http://yu-shinkai.com",
    "pref": "栃木県",
    "city": "栃木市",
    "category": "community_day_service",
    "serviceType": "地域密着型通所介護",
    "capacity": null,
    "openDays": [
      "平日",
      "土曜日",
      "祝日"
    ],
    "openDaysNote": ""
  },
  {
    "id": "990300386",
    "name": "スタジオリズム箱森",
    "kana": "スタジオリズムハコノモリ",
    "address": "栃木県栃木市箱森町14-33",
    "lat": 36.3881227922361,
    "lng": 139.719323224537,
    "tel": "0282ｰ20-1855",
    "url": "",
    "pref": "栃木県",
    "city": "栃木市",
    "category": "community_day_service",
    "serviceType": "地域密着型通所介護",
    "capacity": 0,
    "openDays": [
      "平日",
      "祝日"
    ],
    "openDaysNote": "夏季休暇・年末年始休暇あり"
  },
  {
    "id": "970300224",
    "name": "たのし荘",
    "kana": "タノシソウ",
    "address": "栃木県栃木市泉川町４７９",
    "lat": 36.3934758,
    "lng": 139.7049987,
    "tel": "0282-23-7655",
    "url": "",
    "pref": "栃木県",
    "city": "栃木市",
    "category": "community_day_service",
    "serviceType": "地域密着型通所介護",
    "capacity": 10,
    "openDays": [
      "平日",
      "祝日"
    ],
    "openDaysNote": "年末年始　12／31～1／3まで休み"
  },
  {
    "id": "970301370",
    "name": "デイサービスセンターみつみねの郷",
    "kana": "デイサービスセンターミツミネノサト",
    "address": "栃木市梅沢町970番地",
    "lat": 36.4420571,
    "lng": 139.6508287,
    "tel": "0282-31-3235",
    "url": "https://suginamikikai-tochigi.com/",
    "pref": "栃木県",
    "city": "栃木市",
    "category": "community_day_service",
    "serviceType": "地域密着型通所介護",
    "capacity": null,
    "openDays": [
      "平日",
      "土曜日"
    ],
    "openDaysNote": "日曜、祝祭日および年末年始も状況により開所することがあります。"
  },
  {
    "id": "970301305",
    "name": "デイサービスセンターみどり　わかば館",
    "kana": "デイサービスセンター　ミドリ　ワカバカン",
    "address": "栃木県栃木市平柳町3-42-5",
    "lat": 36.3944571,
    "lng": 139.7449849,
    "tel": "0282-27-6300",
    "url": "http://www.medical-green.com",
    "pref": "栃木県",
    "city": "栃木市",
    "category": "community_day_service",
    "serviceType": "地域密着型通所介護",
    "capacity": 15,
    "openDays": [
      "平日",
      "土曜日",
      "祝日"
    ],
    "openDaysNote": "年末年始12/19～1/3休み"
  },
  {
    "id": "990300410",
    "name": "デイサービスセンターみどり　わかば館",
    "kana": "デイサービスセンターミドリ　ワカバカン",
    "address": "平柳町3-42-5",
    "lat": 36.392875,
    "lng": 139.7447655,
    "tel": "0282-29-1801",
    "url": "https://sou-kaigo.jp",
    "pref": "栃木県",
    "city": "栃木市",
    "category": "community_day_service",
    "serviceType": "地域密着型通所介護",
    "capacity": 0,
    "openDays": [
      "平日",
      "土曜日",
      "祝日"
    ],
    "openDaysNote": "設備点検や法人研修で休業する場合がある"
  },
  {
    "id": "990300345",
    "name": "デイサービスみどりの杜",
    "kana": "デイサービスミドリノモリ",
    "address": "栃木県栃木市大平町下皆川132-3",
    "lat": 36.3507645,
    "lng": 139.7020865,
    "tel": "0282-45-1920",
    "url": "https://midorinomori1920.com/",
    "pref": "栃木県",
    "city": "栃木市",
    "category": "community_day_service",
    "serviceType": "地域密着型通所介護",
    "capacity": 12,
    "openDays": [
      "平日"
    ],
    "openDaysNote": "月・水・金の週3日の営業となっています。"
  },
  {
    "id": "970301131",
    "name": "ハーモネートデイサービス大平",
    "kana": "ハーモネートデイサービスオオヒラ",
    "address": "栃木県栃木市大平町富田5番地230",
    "lat": 36.3358077,
    "lng": 139.7040213,
    "tel": "0282-45-2255",
    "url": "http://halp.co.jp",
    "pref": "栃木県",
    "city": "栃木市",
    "category": "community_day_service",
    "serviceType": "地域密着型通所介護",
    "capacity": 0,
    "openDays": [
      "平日",
      "祝日"
    ],
    "openDaysNote": ""
  },
  {
    "id": "970301768",
    "name": "みすぎの郷",
    "kana": "ミスギノサト",
    "address": "栃木県栃木市岩舟町小野寺1500みすぎの郷 みすぎの郷",
    "lat": 36.3608376336988,
    "lng": 139.625597123418,
    "tel": "0282-25-7760",
    "url": "http://www.suginokokai.or.jp/",
    "pref": "栃木県",
    "city": "栃木市",
    "category": "community_day_service",
    "serviceType": "地域密着型通所介護",
    "capacity": 10,
    "openDays": [
      "平日",
      "祝日"
    ],
    "openDaysNote": ""
  },
  {
    "id": "970301198",
    "name": "やまとでいせんたー",
    "kana": "ヤマトデイセンター",
    "address": "栃木県栃木市万町27番9号",
    "lat": 36.3830465305956,
    "lng": 139.7374973,
    "tel": "0282-28-6375",
    "url": "https://www.suginokokai.or.jp/",
    "pref": "栃木県",
    "city": "栃木市",
    "category": "community_day_service",
    "serviceType": "地域密着型通所介護",
    "capacity": 15,
    "openDays": [
      "平日",
      "祝日"
    ],
    "openDaysNote": "祝日は開設。年末年始休業あり。"
  },
  {
    "id": "990300311",
    "name": "リハビリ特化型デイサービス　ハートフィット",
    "kana": "リハビリトッカガタデイサービス　ハートフィット",
    "address": "栃木県栃木市今泉町２丁目８番３１号",
    "lat": 36.3894855,
    "lng": 139.7462156,
    "tel": "０２８２－２７－５５６１",
    "url": "",
    "pref": "栃木県",
    "city": "栃木市",
    "category": "community_day_service",
    "serviceType": "地域密着型通所介護",
    "capacity": 0,
    "openDays": [
      "平日"
    ],
    "openDaysNote": ""
  },
  {
    "id": "990300253",
    "name": "リハプライド栃木平柳",
    "kana": "リハプライドトチギヒラヤナギ",
    "address": "栃木市平柳町3-10-6",
    "lat": 36.3944469943085,
    "lng": 139.743145343517,
    "tel": "0282-25-7300",
    "url": "https://www.rehapride.co.jp/tochigihirayanagi/",
    "pref": "栃木県",
    "city": "栃木市",
    "category": "community_day_service",
    "serviceType": "地域密着型通所介護",
    "capacity": null,
    "openDays": [
      "平日",
      "祝日"
    ],
    "openDaysNote": "夏季休暇・年末年始休暇あり"
  },
  {
    "id": "970301719",
    "name": "蔵の街リハビリデイサービス",
    "kana": "クラノマチリハビリデイサービス",
    "address": "栃木県栃木市泉町23-17",
    "lat": 36.3847337254626,
    "lng": 139.737497813492,
    "tel": "0282-51-7775",
    "url": "",
    "pref": "栃木県",
    "city": "栃木市",
    "category": "community_day_service",
    "serviceType": "地域密着型通所介護",
    "capacity": 0,
    "openDays": [
      "平日"
    ],
    "openDaysNote": "夏季休暇・年末年始休暇あり"
  },
  {
    "id": "970301065",
    "name": "土与デイサービスセンターなかまの家笑福",
    "kana": "ドヨデイサービスセンターナカマノイエワラフク",
    "address": "栃木県栃木市大平町土与123-4",
    "lat": 36.3525527,
    "lng": 139.7247889,
    "tel": "0282-25-0780",
    "url": "www.warafuku-tochigi.com",
    "pref": "栃木県",
    "city": "栃木市",
    "category": "community_day_service",
    "serviceType": "地域密着型通所介護",
    "capacity": 0,
    "openDays": [
      "平日",
      "土曜日",
      "日曜日",
      "祝日"
    ],
    "openDaysNote": "電話応対は７時３０分から１７時３０分まで行っています。"
  },
  {
    "id": "990300402",
    "name": "歩行特化型デイサービス・歩行リハビリセンターTSUNAGI",
    "kana": "ホコウトッカガタデイサービ・スホコウリハビリセンターツナギ",
    "address": "栃木県栃木市昭和町8-5",
    "lat": 36.3885307067658,
    "lng": 139.736025427427,
    "tel": "0282-25-5292",
    "url": "http://hp.kaipoke.biz/dyy/",
    "pref": "栃木県",
    "city": "栃木市",
    "category": "community_day_service",
    "serviceType": "地域密着型通所介護",
    "capacity": null,
    "openDays": [
      "平日"
    ],
    "openDaysNote": ""
  },
  {
    "id": "971500103",
    "name": "デイホームおとなりさん",
    "kana": "デイホームオトナリサン",
    "address": "栃木県那須烏山市野上３５８番地",
    "lat": 36.6327475,
    "lng": 140.1495242,
    "tel": "0287-80-0605",
    "url": "",
    "pref": "栃木県",
    "city": "那須烏山市",
    "category": "community_day_service",
    "serviceType": "地域密着型通所介護",
    "capacity": 14,
    "openDays": [
      "平日",
      "土曜日"
    ],
    "openDaysNote": "年末年始休暇（６日程度）の他、春期および夏期休暇（各４日程度）が有ります。"
  },
  {
    "id": "972500888",
    "name": "デイホーム介護ファミリー",
    "kana": "デイホームカイゴファミリー",
    "address": "栃木県那須烏山市神長２８２番地１",
    "lat": 36.6666178,
    "lng": 140.1352772,
    "tel": "0287-82-3005",
    "url": "",
    "pref": "栃木県",
    "city": "那須烏山市",
    "category": "community_day_service",
    "serviceType": "地域密着型通所介護",
    "capacity": null,
    "openDays": [
      "平日",
      "土曜日",
      "祝日"
    ],
    "openDaysNote": "お盆、年末年始休業あり"
  },
  {
    "id": "971500095",
    "name": "寄り所堀ノ内",
    "kana": "ヨリドコロホリノウチ",
    "address": "栃木県那須烏山市三箇2825番地3",
    "lat": 36.6789575,
    "lng": 140.0628906,
    "tel": "0287‐83‐8030",
    "url": "",
    "pref": "栃木県",
    "city": "那須烏山市",
    "category": "community_day_service",
    "serviceType": "地域密着型通所介護",
    "capacity": 0,
    "openDays": [
      "平日",
      "土曜日",
      "日曜日",
      "祝日"
    ],
    "openDaysNote": "相談にて時間外の受け入れも可"
  },
  {
    "id": "971300660",
    "name": "アットホームめぐみ",
    "kana": "アットホームメグミ",
    "address": "栃木県那須塩原市東栄2丁目12-15",
    "lat": 36.9698611086436,
    "lng": 140.064817778574,
    "tel": "0287-74-6531",
    "url": "",
    "pref": "栃木県",
    "city": "那須塩原市",
    "category": "community_day_service",
    "serviceType": "地域密着型通所介護",
    "capacity": 0,
    "openDays": [
      "平日",
      "祝日"
    ],
    "openDaysNote": ""
  },
  {
    "id": "971301080",
    "name": "ケアセンターきらきらり",
    "kana": "ケアセンターキラキラリ",
    "address": "栃木県那須塩原市沓掛1丁目7番地",
    "lat": 36.934156311358,
    "lng": 140.021964644363,
    "tel": "0287-73-5024",
    "url": "",
    "pref": "栃木県",
    "city": "那須塩原市",
    "category": "community_day_service",
    "serviceType": "地域密着型通所介護",
    "capacity": null,
    "openDays": [
      "平日",
      "祝日"
    ],
    "openDaysNote": ""
  },
  {
    "id": "991300419",
    "name": "デイサービスゆり",
    "kana": "デイサービスユリ",
    "address": "栃木県那須塩原市東原163-29サービス付き高齢者向け住宅あじさい サービス付き高齢者向け住宅あじさい",
    "lat": 36.9989861,
    "lng": 140.018631,
    "tel": "0287-62-2321",
    "url": "https://sakojyu-ajisai.net",
    "pref": "栃木県",
    "city": "那須塩原市",
    "category": "community_day_service",
    "serviceType": "地域密着型通所介護",
    "capacity": 0,
    "openDays": [
      "平日"
    ],
    "openDaysNote": ""
  },
  {
    "id": "991300450",
    "name": "デイサービス協和苑",
    "kana": "デイサービスキョウワエン",
    "address": "栃木県那須塩原市埼玉２０１－２グレートシティ那須 グレートシティ那須",
    "lat": 36.9691223,
    "lng": 140.0114269,
    "tel": "0287-62-7565",
    "url": "",
    "pref": "栃木県",
    "city": "那須塩原市",
    "category": "community_day_service",
    "serviceType": "地域密着型通所介護",
    "capacity": null,
    "openDays": [
      "平日",
      "土曜日",
      "祝日"
    ],
    "openDaysNote": ""
  },
  {
    "id": "971200415",
    "name": "デイサービス元気な家",
    "kana": "デイサービスゲンキナイエ",
    "address": "大原間247-2",
    "lat": 36.9276203,
    "lng": 140.020951,
    "tel": "0287-65-1551",
    "url": "genkinaie1@gmail.com",
    "pref": "栃木県",
    "city": "那須塩原市",
    "category": "community_day_service",
    "serviceType": "地域密着型通所介護",
    "capacity": null,
    "openDays": [
      "平日",
      "土曜日"
    ],
    "openDaysNote": "・送迎時間につきましては、あらかじめ利用者の方と相談し連絡いたします。行事等を実施する時は通常の送迎時間と異なる場合がありますのでご注意下さい。（改行）・食事のみのキャンセルはあらかじめご相談ください。（改行）・ケアプラン等に基づいた時間でのご利用になりますが、変更を希望される方は、ご相談ください。"
  },
  {
    "id": "991300393",
    "name": "リハビリデイサービスハート＆ベスト那須",
    "kana": "リハビリデイサービスハート＆ベストナス",
    "address": "栃木県那須塩原市上厚崎４７４番地1",
    "lat": 36.9583087,
    "lng": 140.0315997,
    "tel": "0287-73-8612",
    "url": "https://harvestnasu.sakura.ne.jp/wp/",
    "pref": "栃木県",
    "city": "那須塩原市",
    "category": "community_day_service",
    "serviceType": "地域密着型通所介護",
    "capacity": 0,
    "openDays": [
      "平日",
      "祝日"
    ],
    "openDaysNote": ""
  },
  {
    "id": "971300991",
    "name": "生活機能訓練センター　デイサービス　ゆうり",
    "kana": "セイカツキノウクンレンセンター　デイサービス　ユウリ",
    "address": "大原間西2-10-8",
    "lat": 36.9264758,
    "lng": 140.0148554,
    "tel": "0287-73-5271",
    "url": "",
    "pref": "栃木県",
    "city": "那須塩原市",
    "category": "community_day_service",
    "serviceType": "地域密着型通所介護",
    "capacity": 10,
    "openDays": [
      "平日"
    ],
    "openDaysNote": "8/13～8/16休業　12/28～1/3休業"
  },
  {
    "id": "971300652",
    "name": "青木の森静山荘憩いの家",
    "kana": "アオキノモリセイザンソウイコイノイエ",
    "address": "栃木県那須塩原市青木２７－３７４",
    "lat": 37.0075581,
    "lng": 139.977373,
    "tel": "0287-74-2030",
    "url": "",
    "pref": "栃木県",
    "city": "那須塩原市",
    "category": "community_day_service",
    "serviceType": "地域密着型通所介護",
    "capacity": 0,
    "openDays": [
      "平日"
    ],
    "openDaysNote": ""
  },
  {
    "id": "971300777",
    "name": "有限会社　ケアプラザ・つくし",
    "kana": "ユウゲンガイシャ　ケアプラザ・ツクシ",
    "address": "栃木県那須塩原市井口221番地2",
    "lat": 36.9127519,
    "lng": 139.9919297,
    "tel": "0287－47－6322",
    "url": "info＠ｄａｙｓｅｒｖｉｃｅ－ｋｉｚｕｎａ.ｃｏｍ",
    "pref": "栃木県",
    "city": "那須塩原市",
    "category": "community_day_service",
    "serviceType": "地域密着型通所介護",
    "capacity": 0,
    "openDays": [
      "平日",
      "土曜日",
      "祝日"
    ],
    "openDaysNote": "但し感染症拡大などがあった場合休業となる場合があります。"
  },
  {
    "id": "972501357",
    "name": "あい・デイサービス那須",
    "kana": "アイ・デイサービスナス",
    "address": "栃木県那須郡那須町大字豊原丙１３４０",
    "lat": 37.0583412543698,
    "lng": 140.111418013561,
    "tel": "0287-74-2373",
    "url": "http://www.oneland.co.jp",
    "pref": "栃木県",
    "city": "那須町",
    "category": "community_day_service",
    "serviceType": "地域密着型通所介護",
    "capacity": null,
    "openDays": [
      "平日",
      "祝日"
    ],
    "openDaysNote": ""
  },
  {
    "id": "972501308",
    "name": "おひさまデイサービス",
    "kana": "オヒサマデイサービス",
    "address": "栃木県那須郡那須町高久甲6-1453",
    "lat": 37.0024003,
    "lng": 140.06403,
    "tel": "0287-64-3968",
    "url": "",
    "pref": "栃木県",
    "city": "那須町",
    "category": "community_day_service",
    "serviceType": "地域密着型通所介護",
    "capacity": 0,
    "openDays": [
      "平日",
      "祝日"
    ],
    "openDaysNote": ""
  },
  {
    "id": "970700035",
    "name": "ＮＰＯ法人毎日クリスマス",
    "kana": "エヌピーオーホウジンマイニチクリスマス",
    "address": "栃木県日光市佐下部３０５",
    "lat": 36.7751961,
    "lng": 139.6909454,
    "tel": "0288-21-7030",
    "url": "www.xmas.or.jp",
    "pref": "栃木県",
    "city": "日光市",
    "category": "community_day_service",
    "serviceType": "地域密着型通所介護",
    "capacity": 18,
    "openDays": [
      "平日"
    ],
    "openDaysNote": "水曜日は入浴なし"
  },
  {
    "id": "970700308",
    "name": "ウエーブデイサービスセンター",
    "kana": "ウエーブデイサービスセンター",
    "address": "栃木県日光市瀬川95番地1",
    "lat": 36.7277527,
    "lng": 139.6895811,
    "tel": "0288-22-6575",
    "url": "http://npowave.jimdofree.com/",
    "pref": "栃木県",
    "city": "日光市",
    "category": "community_day_service",
    "serviceType": "地域密着型通所介護",
    "capacity": null,
    "openDays": [
      "平日",
      "土曜日",
      "祝日"
    ],
    "openDaysNote": ""
  },
  {
    "id": "990600165",
    "name": "デイサービスセンターあかね",
    "kana": "デイサービスセンターアカネ",
    "address": "栃木県日光市森友1578番地",
    "lat": 36.7245809,
    "lng": 139.7260598,
    "tel": "0288-21-0990",
    "url": "",
    "pref": "栃木県",
    "city": "日光市",
    "category": "community_day_service",
    "serviceType": "地域密着型通所介護",
    "capacity": 15,
    "openDays": [
      "平日",
      "土曜日",
      "祝日"
    ],
    "openDaysNote": ""
  },
  {
    "id": "970600045",
    "name": "デイサービスセンターきびたき荘",
    "kana": "デイサービスセンターキビタキソウ",
    "address": "栃木県日光市細尾町82番地1",
    "lat": 36.7300923,
    "lng": 139.5517292,
    "tel": "0288-53-6434",
    "url": "http://kibitakisou.com/",
    "pref": "栃木県",
    "city": "日光市",
    "category": "community_day_service",
    "serviceType": "地域密着型通所介護",
    "capacity": 18,
    "openDays": [
      "平日",
      "祝日"
    ],
    "openDaysNote": ""
  },
  {
    "id": "970600086",
    "name": "デイサービスセンターなかよし荘",
    "kana": "デイサービスセンターナカヨシソウ",
    "address": "栃木県日光市野口739",
    "lat": 36.732808,
    "lng": 139.6533826,
    "tel": "0288-50-1303",
    "url": "",
    "pref": "栃木県",
    "city": "日光市",
    "category": "community_day_service",
    "serviceType": "地域密着型通所介護",
    "capacity": 0,
    "openDays": [
      "平日"
    ],
    "openDaysNote": ""
  },
  {
    "id": "970600508",
    "name": "デイサービスセンターのぞみ",
    "kana": "デイサービスセンターノゾミ",
    "address": "今市本町２５－１",
    "lat": 36.7169612198692,
    "lng": 139.697716727647,
    "tel": "288587768",
    "url": "",
    "pref": "栃木県",
    "city": "日光市",
    "category": "community_day_service",
    "serviceType": "地域密着型通所介護",
    "capacity": 0,
    "openDays": [
      "平日"
    ],
    "openDaysNote": "平日の祝、祭日は営業"
  },
  {
    "id": "970600300",
    "name": "デイサービスセンターやしお",
    "kana": "デイサービスセンターヤシオ",
    "address": "栃木県日光市細尾町442",
    "lat": 36.7295427,
    "lng": 139.5465176,
    "tel": "0288‐54‐0840",
    "url": "",
    "pref": "栃木県",
    "city": "日光市",
    "category": "community_day_service",
    "serviceType": "地域密着型通所介護",
    "capacity": null,
    "openDays": [
      "平日",
      "祝日"
    ],
    "openDaysNote": "年末年始　12月29日から1月3日まで"
  },
  {
    "id": "990600231",
    "name": "デイサービスセンター愛泉",
    "kana": "デイサービスセンターアイセン",
    "address": "栃木県日光市高徳６１９番地３",
    "lat": 36.7823774,
    "lng": 139.7068537,
    "tel": "0288-25-7767",
    "url": "http://kinugawaen.com/index.html",
    "pref": "栃木県",
    "city": "日光市",
    "category": "community_day_service",
    "serviceType": "地域密着型通所介護",
    "capacity": null,
    "openDays": [
      "平日",
      "土曜日",
      "祝日"
    ],
    "openDaysNote": ""
  },
  {
    "id": "970600250",
    "name": "デイサービスセンター我が家",
    "kana": "デイサービスセンターワガヤ",
    "address": "栃木県日光市瀬尾2866",
    "lat": 36.7596637,
    "lng": 139.6611236,
    "tel": "0288-21-8924",
    "url": "",
    "pref": "栃木県",
    "city": "日光市",
    "category": "community_day_service",
    "serviceType": "地域密着型通所介護",
    "capacity": null,
    "openDays": [
      "平日",
      "祝日"
    ],
    "openDaysNote": "8月14日、15日は通常通り営業しております。"
  },
  {
    "id": "970600177",
    "name": "ディサービスなごみの森",
    "kana": "ディサービスナゴミノモリ",
    "address": "栃木県日光市清滝一丁目1番10号",
    "lat": 36.7477476,
    "lng": 139.5738762,
    "tel": "0288-50-1753",
    "url": "",
    "pref": "栃木県",
    "city": "日光市",
    "category": "community_day_service",
    "serviceType": "地域密着型通所介護",
    "capacity": null,
    "openDays": [
      "平日",
      "土曜日",
      "日曜日"
    ],
    "openDaysNote": ""
  },
  {
    "id": "970600631",
    "name": "デイサービス春の間",
    "kana": "デイサービスハルノマ",
    "address": "栃木県日光市大室１１３８－７",
    "lat": 36.725814,
    "lng": 139.7378475,
    "tel": "０２８８－２６－２２５１",
    "url": "https://www.harunoma.com/",
    "pref": "栃木県",
    "city": "日光市",
    "category": "community_day_service",
    "serviceType": "地域密着型通所介護",
    "capacity": 0,
    "openDays": [
      "平日",
      "土曜日",
      "祝日"
    ],
    "openDaysNote": ""
  },
  {
    "id": "970600722",
    "name": "デイサービス双愛いきいき俱楽部",
    "kana": "デイサービスソウアイイキイキクラブ",
    "address": "栃木県日光市足尾町砂畑4147－2",
    "lat": 36.6290214,
    "lng": 139.4338749,
    "tel": "0288-25-5410",
    "url": "",
    "pref": "栃木県",
    "city": "日光市",
    "category": "community_day_service",
    "serviceType": "地域密着型通所介護",
    "capacity": null,
    "openDays": [
      "平日",
      "土曜日"
    ],
    "openDaysNote": ""
  },
  {
    "id": "970600219",
    "name": "デイサービス風舞",
    "kana": "デイサービスフワリ",
    "address": "栃木県日光市森友1173",
    "lat": 36.7154548,
    "lng": 139.7249551,
    "tel": "288230115",
    "url": "http://fuwari25.com/",
    "pref": "栃木県",
    "city": "日光市",
    "category": "community_day_service",
    "serviceType": "地域密着型通所介護",
    "capacity": null,
    "openDays": [
      "平日",
      "土曜日",
      "祝日"
    ],
    "openDaysNote": ""
  },
  {
    "id": "990600173",
    "name": "デイホームすぎな",
    "kana": "デイホームスギナ",
    "address": "栃木県日光市土沢201‐1",
    "lat": 36.699386,
    "lng": 139.7235119,
    "tel": "0288‐26‐5080",
    "url": "",
    "pref": "栃木県",
    "city": "日光市",
    "category": "community_day_service",
    "serviceType": "地域密着型通所介護",
    "capacity": null,
    "openDays": [
      "平日",
      "土曜日"
    ],
    "openDaysNote": "年末年始（12/31～1/3）はお休みとなります。"
  },
  {
    "id": "970600466",
    "name": "デイホームつくし",
    "kana": "デイホームツクシ",
    "address": "栃木県日光市土沢201‐1",
    "lat": 36.699374,
    "lng": 139.7235024,
    "tel": "0288‐25‐7833",
    "url": "http://careselect.co.jp/",
    "pref": "栃木県",
    "city": "日光市",
    "category": "community_day_service",
    "serviceType": "地域密着型通所介護",
    "capacity": null,
    "openDays": [
      "平日",
      "土曜日",
      "祝日"
    ],
    "openDaysNote": ""
  },
  {
    "id": "990600249",
    "name": "マルチデイみんなリハ",
    "kana": "マルチデイミンナリハ",
    "address": "栃木県日光市猪倉914番20",
    "lat": 36.6711643,
    "lng": 139.7828152,
    "tel": "090-6541-1697",
    "url": "http:/waplus.my.canvba.site/minnareha",
    "pref": "栃木県",
    "city": "日光市",
    "category": "community_day_service",
    "serviceType": "地域密着型通所介護",
    "capacity": null,
    "openDays": [
      "平日",
      "土曜日",
      "祝日"
    ],
    "openDaysNote": "12月31日～1月3日では休み"
  },
  {
    "id": "970600532",
    "name": "ゆたかリハビリステーション",
    "kana": "ユタカリハビリステーション",
    "address": "栃木県日光市瀬尾250‐1",
    "lat": 36.7371854,
    "lng": 139.6858162,
    "tel": "0288-25-6017",
    "url": "https://hp.kaipoke.biz/rru/",
    "pref": "栃木県",
    "city": "日光市",
    "category": "community_day_service",
    "serviceType": "地域密着型通所介護",
    "capacity": null,
    "openDays": [
      "平日",
      "土曜日",
      "日曜日",
      "祝日"
    ],
    "openDaysNote": ""
  },
  {
    "id": "970600516",
    "name": "りはふれんず",
    "kana": "リハフレンズ",
    "address": "豊田330-7",
    "lat": null,
    "lng": null,
    "tel": "0288-25-3627",
    "url": "",
    "pref": "栃木県",
    "city": "日光市",
    "category": "community_day_service",
    "serviceType": "地域密着型通所介護",
    "capacity": 174,
    "openDays": [
      "平日",
      "土曜日",
      "祝日"
    ],
    "openDaysNote": ""
  },
  {
    "id": "970600144",
    "name": "介護保険事業所くりやま",
    "kana": "カイゴホケンジギョウショクリヤマ",
    "address": "栃木県日光市黒部54-1",
    "lat": 36.8665034723887,
    "lng": 139.603814011666,
    "tel": "0288-97-1135",
    "url": "",
    "pref": "栃木県",
    "city": "日光市",
    "category": "community_day_service",
    "serviceType": "地域密着型通所介護",
    "capacity": 0,
    "openDays": [
      "平日"
    ],
    "openDaysNote": "営業日について月・水・金の３日間営業"
  },
  {
    "id": "970600243",
    "name": "介護保険事業所小来川デイサービスセンター",
    "kana": "カイゴホケンジギョウショオコロガワデイサービスセンター",
    "address": "栃木県日光市中小来川2668-1",
    "lat": 36.664248,
    "lng": 139.6234384,
    "tel": "0288-63-2661",
    "url": "http://www.shakyo-nikko.or.jp",
    "pref": "栃木県",
    "city": "日光市",
    "category": "community_day_service",
    "serviceType": "地域密着型通所介護",
    "capacity": 10,
    "openDays": [
      "平日"
    ],
    "openDaysNote": ""
  },
  {
    "id": "970600326",
    "name": "介護保険事業所西川デイサービスセンター",
    "kana": "カイゴホケンジギョウショニシカワデイサービスセンター",
    "address": "栃木県日光市西川206番地7西川デイサービスセンター 西川デイサービスセンター",
    "lat": 36.9323123,
    "lng": 139.6779662,
    "tel": "0288-78-7510",
    "url": "",
    "pref": "栃木県",
    "city": "日光市",
    "category": "community_day_service",
    "serviceType": "地域密着型通所介護",
    "capacity": 15,
    "openDays": [
      "平日"
    ],
    "openDaysNote": ""
  },
  {
    "id": "970600615",
    "name": "機能訓練特化型デイサービス　多島リハビリテーション",
    "kana": "キノウクンレントッカガタデイサービス　タジマリハビリテーション",
    "address": "栃木県日光市今市本町3-8",
    "lat": 36.7193463,
    "lng": 139.699005,
    "tel": "0288-21-5400",
    "url": "https://www.big-advance.site/s/143/2075",
    "pref": "栃木県",
    "city": "日光市",
    "category": "community_day_service",
    "serviceType": "地域密着型通所介護",
    "capacity": null,
    "openDays": [
      "平日"
    ],
    "openDaysNote": ""
  },
  {
    "id": "970700282",
    "name": "社団医療法人英静会　デイサービスセンター森の郷",
    "kana": "シャダンイリョウホウジンエイセイカイ　デイサービスセンターモリノサト",
    "address": "栃木県日光市塩野室町106-2",
    "lat": 36.730675,
    "lng": 139.8081674,
    "tel": "0288-32-7211",
    "url": "https://www.villaforesta.jp/",
    "pref": "栃木県",
    "city": "日光市",
    "category": "community_day_service",
    "serviceType": "地域密着型通所介護",
    "capacity": 0,
    "openDays": [
      "平日",
      "土曜日",
      "祝日"
    ],
    "openDaysNote": "延長サービスでの営業時間変更あり"
  },
  {
    "id": "970700365",
    "name": "宅老所こころ",
    "kana": "タクロウショココロ",
    "address": "栃木県日光市土沢４５-５０",
    "lat": 36.6903657,
    "lng": 139.7329443,
    "tel": "0288-26-6882",
    "url": "",
    "pref": "栃木県",
    "city": "日光市",
    "category": "community_day_service",
    "serviceType": "地域密着型通所介護",
    "capacity": 8,
    "openDays": [
      "平日",
      "土曜日"
    ],
    "openDaysNote": ""
  },
  {
    "id": "970600383",
    "name": "藤原デイサービスセンターななほし",
    "kana": "フジワラデイサービスセンターナナホシ",
    "address": "栃木県日光市藤原２９１番地",
    "lat": 36.8529427,
    "lng": 139.7320681,
    "tel": "0288-77-0007",
    "url": "",
    "pref": "栃木県",
    "city": "日光市",
    "category": "community_day_service",
    "serviceType": "地域密着型通所介護",
    "capacity": 0,
    "openDays": [
      "平日",
      "土曜日"
    ],
    "openDaysNote": ""
  },
  {
    "id": "970600458",
    "name": "特別養護老人ホーム　ひらがさ喜の里",
    "kana": "トクベツヨウゴロウジンホーム　ヒラガサキノサト",
    "address": "栃木県日光市平ヶ崎６０８-５",
    "lat": 36.7157384,
    "lng": 139.6806876,
    "tel": "０２８８-３０-５５１１",
    "url": "http://nikko-fukueikai.or.jp/",
    "pref": "栃木県",
    "city": "日光市",
    "category": "community_day_service",
    "serviceType": "地域密着型通所介護",
    "capacity": 0,
    "openDays": [
      "平日",
      "祝日"
    ],
    "openDaysNote": ""
  },
  {
    "id": "970600664",
    "name": "日光リハビリガーデン",
    "kana": "ニッコウ　リハビリガーデン",
    "address": "森友1127-62",
    "lat": 36.7222833846036,
    "lng": 139.728306323943,
    "tel": "0288-25-5002",
    "url": "",
    "pref": "栃木県",
    "city": "日光市",
    "category": "community_day_service",
    "serviceType": "地域密着型通所介護",
    "capacity": 18,
    "openDays": [
      "平日",
      "祝日"
    ],
    "openDaysNote": ""
  },
  {
    "id": "970600573",
    "name": "日光市中宮祠介護サービスセンター",
    "kana": "ニッコウシチュウグウシカイゴサービスセンター",
    "address": "栃木県日光市中宮祠2478-31",
    "lat": 36.7403335,
    "lng": 139.4981073,
    "tel": "0288-51-0155",
    "url": "http://www.shakyo-nikko.or.jp",
    "pref": "栃木県",
    "city": "日光市",
    "category": "community_day_service",
    "serviceType": "地域密着型通所介護",
    "capacity": 10,
    "openDays": [
      "平日"
    ],
    "openDaysNote": "営業日(月・水・金)"
  },
  {
    "id": "990600199",
    "name": "福田リハビリセンター",
    "kana": "フクダリハビリセンター",
    "address": "栃木県日光市鬼怒川温泉滝79-2",
    "lat": 36.8256331,
    "lng": 139.7120203,
    "tel": "0288-76-8880",
    "url": "",
    "pref": "栃木県",
    "city": "日光市",
    "category": "community_day_service",
    "serviceType": "地域密着型通所介護",
    "capacity": 0,
    "openDays": [
      "平日",
      "土曜日"
    ],
    "openDaysNote": ""
  },
  {
    "id": "972700736",
    "name": "共生型デイサービスセンターはが",
    "kana": "キョウセイガタデイサービスセンターハガ",
    "address": "栃木県芳賀郡芳賀町大字東水沼1163-3ショートステイはが ショートステイはが",
    "lat": 36.551247943774,
    "lng": 140.027516373016,
    "tel": "028-687-1126",
    "url": "",
    "pref": "栃木県",
    "city": "芳賀町",
    "category": "community_day_service",
    "serviceType": "地域密着型通所介護",
    "capacity": 0,
    "openDays": [
      "平日",
      "土曜日",
      "祝日"
    ],
    "openDaysNote": ""
  },
  {
    "id": "972700488",
    "name": "デイサービス　あきやま",
    "kana": "デイサービス　アキヤマ",
    "address": "栃木県芳賀郡茂木町茂木1371-1",
    "lat": 36.527352864388,
    "lng": 140.179966805132,
    "tel": "0285-63-3223",
    "url": "",
    "pref": "栃木県",
    "city": "茂木町",
    "category": "community_day_service",
    "serviceType": "地域密着型通所介護",
    "capacity": 0,
    "openDays": [
      "平日",
      "土曜日",
      "祝日"
    ],
    "openDaysNote": "年末年始、5月連休、お盆休みがあります。"
  },
  {
    "id": "972700926",
    "name": "デイホーム　陽だまりの家",
    "kana": "デイホーム　ヒダマリノイエ",
    "address": "栃木県芳賀郡茂木町馬門1387番地1",
    "lat": 36.5534014347847,
    "lng": 140.218236921887,
    "tel": "0285-64-3600",
    "url": "",
    "pref": "栃木県",
    "city": "茂木町",
    "category": "community_day_service",
    "serviceType": "地域密着型通所介護",
    "capacity": 10,
    "openDays": [
      "平日"
    ],
    "openDaysNote": ""
  },
  {
    "id": "972301535",
    "name": "野木ケアセンターそよ風",
    "kana": "ノギケアセンターソヨカゼ",
    "address": "栃木県下都賀郡野木町野木1895-1",
    "lat": 36.2262849,
    "lng": 139.7129473,
    "tel": "0280-54-0150",
    "url": "",
    "pref": "栃木県",
    "city": "野木町",
    "category": "community_day_service",
    "serviceType": "地域密着型通所介護",
    "capacity": 0,
    "openDays": [
      "平日",
      "土曜日",
      "祝日"
    ],
    "openDaysNote": ""
  },
  {
    "id": "971100524",
    "name": "デイサービスセンターひだまり",
    "kana": "デイサービスセンターヒダマリ",
    "address": "栃木県矢板市木幡1551-3",
    "lat": 36.7941183,
    "lng": 139.9258796,
    "tel": "0287-40-0345",
    "url": "http://www.tomoikikai.info/",
    "pref": "栃木県",
    "city": "矢板市",
    "category": "community_day_service",
    "serviceType": "地域密着型通所介護",
    "capacity": 18,
    "openDays": [
      "平日",
      "祝日"
    ],
    "openDaysNote": "年末年始休暇（12/30～1/3）及びお盆休暇（8/14、15）は休業（改行）別途休業と定めた日"
  },
  {
    "id": "971100383",
    "name": "デイサービス助や",
    "kana": "デイサービススケヤ",
    "address": "栃木県矢板市末広町17-5",
    "lat": 36.8067666,
    "lng": 139.9343271,
    "tel": "0287-43-6811",
    "url": "",
    "pref": "栃木県",
    "city": "矢板市",
    "category": "community_day_service",
    "serviceType": "地域密着型通所介護",
    "capacity": 13,
    "openDays": [
      "平日",
      "土曜日",
      "祝日"
    ],
    "openDaysNote": ""
  },
  {
    "id": "971100193",
    "name": "マイホームコリーナ",
    "kana": "マイホームコリーナ",
    "address": "栃木県矢板市大槻2318-68コリーナ矢板Ｃ812 コリーナ矢板Ｃ812",
    "lat": 36.747593,
    "lng": 139.9150605,
    "tel": "0287-48-8260",
    "url": "",
    "pref": "栃木県",
    "city": "矢板市",
    "category": "community_day_service",
    "serviceType": "地域密着型通所介護",
    "capacity": 10,
    "openDays": [
      "平日",
      "土曜日",
      "祝日"
    ],
    "openDaysNote": "急用の場合、若干の延長には対応します。"
  }
]