[
  {
    "id": "4790300299",
    "name": "シニアサポートbasewithone",
    "kana": "シニアサポートベースウィズワン",
    "address": "石川東山1－21－4",
    "lat": 26.4354062874987,
    "lng": 127.836443962566,
    "tel": "098－979－8313",
    "url": "https://www.kin-yakkyoku-okinawa.jp/senior-support",
    "pref": "沖縄県",
    "city": "うるま市",
    "category": "community_day_service",
    "serviceType": "地域密着型通所介護",
    "capacity": 0,
    "openDays": [
      "平日",
      "土曜日",
      "祝日"
    ],
    "openDaysNote": "平日の祝日は開所。日曜の祝日はお休み"
  },
  {
    "id": "4770300806",
    "name": "しりんかわデイサービス",
    "kana": "シリンカワデイサービス",
    "address": "沖縄県うるま市高江洲1080-1",
    "lat": 26.3578447,
    "lng": 127.8405794,
    "tel": "098-989-4477",
    "url": "http://hp.kaipoke.biz/u2f/",
    "pref": "沖縄県",
    "city": "うるま市",
    "category": "community_day_service",
    "serviceType": "地域密着型通所介護",
    "capacity": 0,
    "openDays": [
      "平日"
    ],
    "openDaysNote": ""
  },
  {
    "id": "4770300251",
    "name": "デイサービス　ちむじゅらさん",
    "kana": "デイサービス　チムジュラサン",
    "address": "沖縄県うるま市字前原446番地の1",
    "lat": 26.3444989,
    "lng": 127.8419741,
    "tel": "098-974-3287",
    "url": "",
    "pref": "沖縄県",
    "city": "うるま市",
    "category": "community_day_service",
    "serviceType": "地域密着型通所介護",
    "capacity": 0,
    "openDays": [
      "平日",
      "土曜日",
      "祝日"
    ],
    "openDaysNote": ""
  },
  {
    "id": "4790300174",
    "name": "デイサービスあゆむ",
    "kana": "デイサービスアユム",
    "address": "沖縄県うるま市石川東山1丁目19番地山田貸施設1F山田貸施設１F 山田貸施設１F",
    "lat": 26.435241878452,
    "lng": 127.837916157672,
    "tel": "098-989-5314",
    "url": "",
    "pref": "沖縄県",
    "city": "うるま市",
    "category": "community_day_service",
    "serviceType": "地域密着型通所介護",
    "capacity": 0,
    "openDays": [
      "平日",
      "土曜日",
      "祝日"
    ],
    "openDaysNote": ""
  },
  {
    "id": "4770301036",
    "name": "デイサービスうるまじま",
    "kana": "デイサービスウルマジマ",
    "address": "沖縄県うるま市石川東山本町二丁目12番19号",
    "lat": 26.4384283822547,
    "lng": 127.832137745369,
    "tel": "(098)982-5008",
    "url": "https://careservice-uruma.com/",
    "pref": "沖縄県",
    "city": "うるま市",
    "category": "community_day_service",
    "serviceType": "地域密着型通所介護",
    "capacity": 10,
    "openDays": [
      "平日",
      "土曜日",
      "祝日"
    ],
    "openDaysNote": ""
  },
  {
    "id": "4770300756",
    "name": "デイサービスおやがめこがめ",
    "kana": "デイサービスオヤガメコガメ",
    "address": "沖縄県うるま市字赤道９７２－１２３　ｄ-20赤道団地D-20 赤道団地D-20",
    "lat": 26.3630746,
    "lng": 127.8295385,
    "tel": "098-974-4530",
    "url": "",
    "pref": "沖縄県",
    "city": "うるま市",
    "category": "community_day_service",
    "serviceType": "地域密着型通所介護",
    "capacity": 10,
    "openDays": [
      "平日",
      "祝日"
    ],
    "openDaysNote": "1月1日～3日まではお休みをいただいております。"
  },
  {
    "id": "4770300335",
    "name": "デイサービスセンター　みつば",
    "kana": "デイサービスセンター　ミツバ",
    "address": "沖縄県うるま市勝連平敷屋3648番地",
    "lat": 26.30641,
    "lng": 127.9146571,
    "tel": "098-978-6353",
    "url": "http://mitsuba6353.wix.com/mitsuba",
    "pref": "沖縄県",
    "city": "うるま市",
    "category": "community_day_service",
    "serviceType": "地域密着型通所介護",
    "capacity": 9,
    "openDays": [
      "平日",
      "土曜日",
      "祝日"
    ],
    "openDaysNote": ""
  },
  {
    "id": "4770300798",
    "name": "デイサービスセンターさくら",
    "kana": "デイサービスセンター　サクラ",
    "address": "沖縄県うるま市昆布1835-54",
    "lat": 26.3982217642795,
    "lng": 127.84259707578,
    "tel": "098-972-5533",
    "url": "",
    "pref": "沖縄県",
    "city": "うるま市",
    "category": "community_day_service",
    "serviceType": "地域密着型通所介護",
    "capacity": 0,
    "openDays": [
      "平日",
      "土曜日",
      "祝日"
    ],
    "openDaysNote": ""
  },
  {
    "id": "4770300541",
    "name": "デイサービスセンターたけちゃんち",
    "kana": "デイサービスセンタータケチャンチ",
    "address": "沖縄県うるま市川崎８３番地５",
    "lat": 26.3834825,
    "lng": 127.8442456,
    "tel": "098-972-6059",
    "url": "http://take.mydns/jp/",
    "pref": "沖縄県",
    "city": "うるま市",
    "category": "community_day_service",
    "serviceType": "地域密着型通所介護",
    "capacity": 15,
    "openDays": [
      "平日",
      "土曜日",
      "祝日"
    ],
    "openDaysNote": "サービス提供時間　9時30分～16時00分　台風などの場合は臨時休業するときもあります"
  },
  {
    "id": "4790300133",
    "name": "デイサービスつる",
    "kana": "デイサービス　ツル",
    "address": "みどり町3丁目１９－７",
    "lat": 26.3741590060479,
    "lng": 127.858211171164,
    "tel": "０９８－９２３－３２１０",
    "url": "http://www.day-turu.com/about.php",
    "pref": "沖縄県",
    "city": "うるま市",
    "category": "community_day_service",
    "serviceType": "地域密着型通所介護",
    "capacity": 15,
    "openDays": [
      "平日",
      "土曜日",
      "日曜日",
      "祝日"
    ],
    "openDaysNote": ""
  },
  {
    "id": "4770300780",
    "name": "デイサービスふわり",
    "kana": "デイサービスフワリ",
    "address": "沖縄県うるま市高江洲726番地",
    "lat": 26.3525258,
    "lng": 127.8437209,
    "tel": "098-927-0311",
    "url": "http://fuwariday3.com/",
    "pref": "沖縄県",
    "city": "うるま市",
    "category": "community_day_service",
    "serviceType": "地域密着型通所介護",
    "capacity": 10,
    "openDays": [
      "平日",
      "土曜日"
    ],
    "openDaysNote": ""
  },
  {
    "id": "4770301044",
    "name": "デイサービスみはら具志川",
    "kana": "デイサービスミハラグシカワ",
    "address": "沖縄県うるま市字具志川1931番地2",
    "lat": 26.3538235,
    "lng": 127.8701518,
    "tel": "098－923-3065",
    "url": "",
    "pref": "沖縄県",
    "city": "うるま市",
    "category": "community_day_service",
    "serviceType": "地域密着型通所介護",
    "capacity": 10,
    "openDays": [
      "平日",
      "土曜日",
      "祝日"
    ],
    "openDaysNote": "台風時は暴風域もしくはバスの運行停止に合わせて休日とする。"
  },
  {
    "id": "4770300939",
    "name": "デイサービス憩",
    "kana": "デイサービスイコイ",
    "address": "沖縄県うるま市石川東恩納1806-3",
    "lat": 26.4091482423341,
    "lng": 127.821629036848,
    "tel": "098-927-4892",
    "url": "",
    "pref": "沖縄県",
    "city": "うるま市",
    "category": "community_day_service",
    "serviceType": "地域密着型通所介護",
    "capacity": 10,
    "openDays": [
      "平日",
      "土曜日",
      "祝日"
    ],
    "openDaysNote": ""
  },
  {
    "id": "4770300871",
    "name": "デイサービス美ら花",
    "kana": "デイサービス　チュラバナ",
    "address": "喜屋武672番地美和ケアセンター内 美和ケアセンター内",
    "lat": 26.357592,
    "lng": 127.8477982,
    "tel": "098-973-0733",
    "url": "https://www.miwacarecenter.com/",
    "pref": "沖縄県",
    "city": "うるま市",
    "category": "community_day_service",
    "serviceType": "地域密着型通所介護",
    "capacity": 10,
    "openDays": [
      "平日",
      "土曜日",
      "祝日"
    ],
    "openDaysNote": ""
  },
  {
    "id": "4770300962",
    "name": "デイサービス琉美",
    "kana": "デイサービスリュウビ",
    "address": "沖縄県うるま市字上江洲339-1一階 一階",
    "lat": 26.3543259,
    "lng": 127.8599416,
    "tel": "098-923-3254",
    "url": "",
    "pref": "沖縄県",
    "city": "うるま市",
    "category": "community_day_service",
    "serviceType": "地域密着型通所介護",
    "capacity": 0,
    "openDays": [
      "平日",
      "土曜日",
      "祝日"
    ],
    "openDaysNote": ""
  },
  {
    "id": "4790300273",
    "name": "ひまわりケアサービス",
    "kana": "ヒマワリケアサービス",
    "address": "沖縄県うるま市字具志川1345番地1",
    "lat": 26.3451258454025,
    "lng": 127.873691242388,
    "tel": "（098）979-0316",
    "url": "https://www.happiness-himawari.com",
    "pref": "沖縄県",
    "city": "うるま市",
    "category": "community_day_service",
    "serviceType": "地域密着型通所介護",
    "capacity": null,
    "openDays": [
      "平日",
      "土曜日",
      "祝日"
    ],
    "openDaysNote": "台風接近及び災害時等の際は、状況に応じて臨時休業する場合もあります。"
  },
  {
    "id": "4770300442",
    "name": "ゆがふ通所介護事業所",
    "kana": "ユガフツウショカイゴジギョウショ",
    "address": "沖縄県うるま市天願1508番地1",
    "lat": 26.392383,
    "lng": 127.8528417,
    "tel": "098-972-7780",
    "url": "",
    "pref": "沖縄県",
    "city": "うるま市",
    "category": "community_day_service",
    "serviceType": "地域密着型通所介護",
    "capacity": 9,
    "openDays": [
      "平日",
      "土曜日",
      "祝日"
    ],
    "openDaysNote": ""
  },
  {
    "id": "4790300208",
    "name": "リハサポ",
    "kana": "リハサポ",
    "address": "沖縄県うるま市みどり町四丁目14番4ＴＯＰビル２ ＴＯＰビル２",
    "lat": 26.3761141,
    "lng": 127.8556456,
    "tel": "０９８－９８８－７３３３",
    "url": "",
    "pref": "沖縄県",
    "city": "うるま市",
    "category": "community_day_service",
    "serviceType": "地域密着型通所介護",
    "capacity": 3,
    "openDays": [
      "平日",
      "祝日"
    ],
    "openDaysNote": ""
  },
  {
    "id": "4770300715",
    "name": "リハビリ型デイサービスセンター島の風",
    "kana": "リハビリガタデイサービスセンターシマノカゼ",
    "address": "赤野1310-2アイリス赤野１F アイリス赤野１F",
    "lat": 26.3732627,
    "lng": 127.8624272,
    "tel": "098-923-1816",
    "url": "shimanokaze2012.wix.com",
    "pref": "沖縄県",
    "city": "うるま市",
    "category": "community_day_service",
    "serviceType": "地域密着型通所介護",
    "capacity": 936,
    "openDays": [
      "平日",
      "土曜日",
      "祝日"
    ],
    "openDaysNote": "暴風警報発令時はお休みとさせていただきます。"
  },
  {
    "id": "4790300315",
    "name": "リハビリ特化型デイサービス　リハトレ",
    "kana": "リハビリトッカガタデイサービス　リハトレ",
    "address": "沖縄県うるま市豊原４２５番地１シュシュＴＯＹＯＨＡＲＡ１０１ シュシュＴＯＹＯＨＡＲＡ１０１",
    "lat": 26.3456792,
    "lng": 127.8554566,
    "tel": "０９８-９２３－４６８７",
    "url": "https://kinjototalhealthcare.net/",
    "pref": "沖縄県",
    "city": "うるま市",
    "category": "community_day_service",
    "serviceType": "地域密着型通所介護",
    "capacity": 0,
    "openDays": [
      "平日"
    ],
    "openDaysNote": ""
  },
  {
    "id": "4790300257",
    "name": "栄野比の里通所介護事業所（地域密着型通所介護）",
    "kana": "エノビノサトツウショカイゴジギョウショ　（チイキミッチャクガタツウショカイゴ）",
    "address": "沖縄県うるま市字栄野比939",
    "lat": 26.3851149,
    "lng": 127.833134,
    "tel": "098-972-4345",
    "url": "",
    "pref": "沖縄県",
    "city": "うるま市",
    "category": "community_day_service",
    "serviceType": "地域密着型通所介護",
    "capacity": null,
    "openDays": [
      "平日"
    ],
    "openDaysNote": ""
  },
  {
    "id": "4770301010",
    "name": "株式会社KHM",
    "kana": "カブシキカイシャケイエイチエム",
    "address": "沖縄県うるま市みどり町六丁目7番1号",
    "lat": 26.3799369,
    "lng": 127.8559637,
    "tel": "098-979-6300",
    "url": "http://www.happinesskhm.com/",
    "pref": "沖縄県",
    "city": "うるま市",
    "category": "community_day_service",
    "serviceType": "地域密着型通所介護",
    "capacity": 18,
    "openDays": [
      "平日",
      "土曜日",
      "祝日"
    ],
    "openDaysNote": "月、水、金曜日はお泊りサービスあり、延長対応いたします。送迎は要相談。"
  },
  {
    "id": "4770300616",
    "name": "株式会社浜比嘉デイサービス",
    "kana": "カブシキガイシャハマヒガデイサービス",
    "address": "沖縄県うるま市勝連浜４３６－１",
    "lat": 26.3245371,
    "lng": 127.9522471,
    "tel": "０９８－９７７－８０５５",
    "url": "",
    "pref": "沖縄県",
    "city": "うるま市",
    "category": "community_day_service",
    "serviceType": "地域密着型通所介護",
    "capacity": 12,
    "openDays": [
      "平日",
      "祝日"
    ],
    "openDaysNote": ""
  },
  {
    "id": "4770300319",
    "name": "具志川厚生園　地域密着型通所介護事業所",
    "kana": "グシカワコウセイエン　チイキミッチャクガタツウショカイゴジギョウショ",
    "address": "沖縄県うるま市字天願１９８３番地具志川厚生園 具志川厚生園",
    "lat": 26.3832893,
    "lng": 127.8508752,
    "tel": "098-972-2888",
    "url": "http://www.okinawa-j.jp",
    "pref": "沖縄県",
    "city": "うるま市",
    "category": "community_day_service",
    "serviceType": "地域密着型通所介護",
    "capacity": 18,
    "openDays": [
      "平日"
    ],
    "openDaysNote": "＊悪天候の際は、状況をみて休止する場合があります。"
  },
  {
    "id": "4790300265",
    "name": "地域密着型通所介護ひまわり白浜",
    "kana": "チイキミッチャクガタツウショカイゴヒマワリシラハマ",
    "address": "沖縄県うるま市石川白浜二丁目2-221階 1階",
    "lat": 26.4270081,
    "lng": 127.8271413,
    "tel": "098-964-3755",
    "url": "www.happiness-himawari.com",
    "pref": "沖縄県",
    "city": "うるま市",
    "category": "community_day_service",
    "serviceType": "地域密着型通所介護",
    "capacity": 10,
    "openDays": [
      "平日",
      "土曜日",
      "祝日"
    ],
    "openDaysNote": ""
  },
  {
    "id": "4770300848",
    "name": "茶話本舗デイサービス宮里",
    "kana": "サワホンポデイサービスミヤザト",
    "address": "沖縄県うるま市宮里262-10",
    "lat": 26.3554337,
    "lng": 127.8357877,
    "tel": "098-974-3755",
    "url": "",
    "pref": "沖縄県",
    "city": "うるま市",
    "category": "community_day_service",
    "serviceType": "地域密着型通所介護",
    "capacity": 0,
    "openDays": [
      "平日",
      "土曜日",
      "日曜日",
      "祝日"
    ],
    "openDaysNote": ""
  },
  {
    "id": "4770300624",
    "name": "茶話本舗デイサービス石川",
    "kana": "サワホンポデイサービスイシカワ",
    "address": "沖縄県うるま市石川曙2丁目10-10",
    "lat": 26.4181493,
    "lng": 127.8280677,
    "tel": "098-965-3750",
    "url": "",
    "pref": "沖縄県",
    "city": "うるま市",
    "category": "community_day_service",
    "serviceType": "地域密着型通所介護",
    "capacity": 10,
    "openDays": [
      "平日",
      "土曜日",
      "日曜日",
      "祝日"
    ],
    "openDaysNote": ""
  },
  {
    "id": "4790300141",
    "name": "中央リハうるま",
    "kana": "チュウオウリハウルマ",
    "address": "沖縄県うるま市字栄野比８０５番地１ロイヤルヒルズ具志川１階",
    "lat": 26.3863861,
    "lng": 127.8377873,
    "tel": "098-972-5553",
    "url": "",
    "pref": "沖縄県",
    "city": "うるま市",
    "category": "community_day_service",
    "serviceType": "地域密着型通所介護",
    "capacity": 0,
    "openDays": [
      "平日",
      "土曜日",
      "祝日"
    ],
    "openDaysNote": ""
  },
  {
    "id": "4790300158",
    "name": "歩行と脳のフィットネスデイサービスＰＬＩＦＥ",
    "kana": "ホコウトノウノフィットネスデイサービスプライフ",
    "address": "沖縄県うるま市兼箇段1327番地１",
    "lat": 26.3628497,
    "lng": 127.8419763,
    "tel": "098-989-0159",
    "url": "https://www.plife.okinawa/",
    "pref": "沖縄県",
    "city": "うるま市",
    "category": "community_day_service",
    "serviceType": "地域密着型通所介護",
    "capacity": 18,
    "openDays": [
      "平日"
    ],
    "openDaysNote": "祝日は通常営業"
  },
  {
    "id": "4770300061",
    "name": "有限会社介護サービスセンター前原",
    "kana": "ユウゲンガイシャカイゴサービスセンターマエハラ",
    "address": "沖縄県うるま市安慶名361番地の1",
    "lat": 26.369974,
    "lng": 127.8497532,
    "tel": "098-973-8433",
    "url": "http://www.",
    "pref": "沖縄県",
    "city": "うるま市",
    "category": "community_day_service",
    "serviceType": "地域密着型通所介護",
    "capacity": 18,
    "openDays": [
      "平日",
      "土曜日",
      "祝日"
    ],
    "openDaysNote": ""
  },
  {
    "id": "4774100012",
    "name": "あぐに指定通所介護事業所",
    "kana": "アグニシテイツウショカイゴジギョウショ",
    "address": "沖縄県島尻郡粟国村字東1796番地",
    "lat": 26.5842166,
    "lng": 127.231145,
    "tel": "098-988-2082",
    "url": "https://www.agunihukushikai.com/",
    "pref": "沖縄県",
    "city": "粟国村",
    "category": "community_day_service",
    "serviceType": "地域密着型通所介護",
    "capacity": 0,
    "openDays": [
      "平日",
      "祝日"
    ],
    "openDaysNote": "台風時の対応について、暴風警報が発令された場合は定休日になります。(口頭で対応しています)"
  },
  {
    "id": "4771900042",
    "name": "デイサービス　ふさと苑",
    "kana": "デイサービス　フサトエン",
    "address": "沖縄県国頭郡伊江村字川平582-1",
    "lat": 26.7126765,
    "lng": 127.7981567,
    "tel": "0980-49-5868",
    "url": "http://www.",
    "pref": "沖縄県",
    "city": "伊江村",
    "category": "community_day_service",
    "serviceType": "地域密着型通所介護",
    "capacity": 0,
    "openDays": [
      "平日",
      "土曜日",
      "祝日"
    ],
    "openDaysNote": ""
  },
  {
    "id": "4791900022",
    "name": "リハビリ特化型デイサービスプロテク",
    "kana": "リハビリトッカガタデイサービスプロテク",
    "address": "沖縄県国頭郡伊江村字東江前460-1",
    "lat": 26.7119662112582,
    "lng": 127.806643442766,
    "tel": "098-049-3787",
    "url": "https://reha-protec.jp/",
    "pref": "沖縄県",
    "city": "伊江村",
    "category": "community_day_service",
    "serviceType": "地域密着型通所介護",
    "capacity": 0,
    "openDays": [
      "平日",
      "祝日"
    ],
    "openDaysNote": ""
  },
  {
    "id": "4774600011",
    "name": "デイサービスセンターチヂン園",
    "kana": "デイサービスセンターチヂンエン",
    "address": "沖縄県島尻郡伊是名村字仲田1687-51",
    "lat": 26.9223664,
    "lng": 127.943634,
    "tel": "0980-50-7070",
    "url": "http://www.chijinen.com/",
    "pref": "沖縄県",
    "city": "伊是名村",
    "category": "community_day_service",
    "serviceType": "地域密着型通所介護",
    "capacity": 0,
    "openDays": [
      "平日",
      "祝日"
    ],
    "openDaysNote": ""
  },
  {
    "id": "4770800839",
    "name": "デイサービス　ダイダイ",
    "kana": "デイサービス　ダイダイ",
    "address": "沖縄県浦添市牧港1丁目55番地18号",
    "lat": 26.2654424,
    "lng": 127.7211143,
    "tel": "098-943-1648",
    "url": "",
    "pref": "沖縄県",
    "city": "浦添市",
    "category": "community_day_service",
    "serviceType": "地域密着型通所介護",
    "capacity": 0,
    "openDays": [
      "平日",
      "土曜日",
      "祝日"
    ],
    "openDaysNote": "サービス提供時間は午前９時３０分～１７時までとする。"
  },
  {
    "id": "4770801340",
    "name": "デイサービス　なーぐすく",
    "kana": "デイサービス　ナーグスク",
    "address": "沖縄県浦添市内間５丁目８番７号　パルス２１　１階翁長アパート1階 翁長アパート1階",
    "lat": 26.2499217,
    "lng": 127.7021065,
    "tel": "098-988-4374",
    "url": "https://www.mirai-okinawa.net/about.php",
    "pref": "沖縄県",
    "city": "浦添市",
    "category": "community_day_service",
    "serviceType": "地域密着型通所介護",
    "capacity": 18,
    "openDays": [
      "平日",
      "土曜日",
      "祝日"
    ],
    "openDaysNote": ""
  },
  {
    "id": "4770801373",
    "name": "デイサービス　はな",
    "kana": "デイサービス　ハナ",
    "address": "沖縄県浦添市前田１丁目48番8号",
    "lat": 26.2380877344083,
    "lng": 127.737939099138,
    "tel": "098-963-5540",
    "url": "http://hana-okinawa.co.jp",
    "pref": "沖縄県",
    "city": "浦添市",
    "category": "community_day_service",
    "serviceType": "地域密着型通所介護",
    "capacity": 18,
    "openDays": [
      "平日",
      "土曜日",
      "祝日"
    ],
    "openDaysNote": ""
  },
  {
    "id": "4770800342",
    "name": "デイサービスセンターやふその家",
    "kana": "デイサービスセンターヤフソノイエ",
    "address": "沖縄県浦添市屋富祖２丁目２０番１４号",
    "lat": 26.2515597,
    "lng": 127.7091326,
    "tel": "098-879-2573",
    "url": "",
    "pref": "沖縄県",
    "city": "浦添市",
    "category": "community_day_service",
    "serviceType": "地域密着型通所介護",
    "capacity": 18,
    "openDays": [
      "平日",
      "土曜日",
      "祝日"
    ],
    "openDaysNote": ""
  },
  {
    "id": "4770801076",
    "name": "デイサービスたくし",
    "kana": "デイサービスタクシ",
    "address": "沖縄県浦添市沢岻一丁目46番2号　１Fサンハイツ上沢Ⅰ サンハイツ上沢Ⅰ",
    "lat": 26.2375925945826,
    "lng": 127.710659415344,
    "tel": "098-943-8839",
    "url": "",
    "pref": "沖縄県",
    "city": "浦添市",
    "category": "community_day_service",
    "serviceType": "地域密着型通所介護",
    "capacity": 0,
    "openDays": [
      "平日",
      "土曜日",
      "祝日"
    ],
    "openDaysNote": ""
  },
  {
    "id": "4790800157",
    "name": "デイサービスひいの伊祖店",
    "kana": "デイサービスヒイノイソテン",
    "address": "伊祖2-10-1",
    "lat": 26.252593,
    "lng": 127.7166499,
    "tel": "098-943-4175",
    "url": "https://www.trinity-hiino.com/iso.php",
    "pref": "沖縄県",
    "city": "浦添市",
    "category": "community_day_service",
    "serviceType": "地域密着型通所介護",
    "capacity": null,
    "openDays": [
      "平日",
      "祝日"
    ],
    "openDaysNote": "2単位目　平日13：40～16：45　　祝日13：40～16：45"
  },
  {
    "id": "4770801001",
    "name": "ハッピースパ",
    "kana": "ハッピースパ",
    "address": "沖縄県浦添市屋富祖１丁目２番６号１F",
    "lat": 26.2515238,
    "lng": 127.7130518,
    "tel": "098-988-0261",
    "url": "",
    "pref": "沖縄県",
    "city": "浦添市",
    "category": "community_day_service",
    "serviceType": "地域密着型通所介護",
    "capacity": 0,
    "openDays": [
      "平日",
      "土曜日",
      "祝日"
    ],
    "openDaysNote": "祝日は営業"
  },
  {
    "id": "4770800730",
    "name": "リハビリデイサービスぴたさぽ浦添",
    "kana": "リハビリデイサービスピタサポウラソエ",
    "address": "沖縄県浦添市宮城三丁目5番3号フィオーレパラッツォ1F フィオーレパラッツォ1F",
    "lat": 26.245627,
    "lng": 127.7050975,
    "tel": "098-870-0088",
    "url": "http://carepro.ryuseki-group.jp/",
    "pref": "沖縄県",
    "city": "浦添市",
    "category": "community_day_service",
    "serviceType": "地域密着型通所介護",
    "capacity": 18,
    "openDays": [
      "平日",
      "祝日"
    ],
    "openDaysNote": "祝日は営業"
  },
  {
    "id": "4770801134",
    "name": "リハビリ型通所介護デイサービスのぞみ",
    "kana": "リハビリガタツウショカイゴデイサービスノゾミ",
    "address": "沖縄県浦添市伊祖2-10-1",
    "lat": 26.2526683,
    "lng": 127.7166487,
    "tel": "098-943-4175",
    "url": "",
    "pref": "沖縄県",
    "city": "浦添市",
    "category": "community_day_service",
    "serviceType": "地域密着型通所介護",
    "capacity": 0,
    "openDays": [
      "平日",
      "祝日"
    ],
    "openDaysNote": "午前1単位　午後1単位の2単位制（改行）午前９：００～１２：０５（改行）午後１３：４０～１６：４５"
  },
  {
    "id": "4770801167",
    "name": "リハビリ特化型デイサービス　リハビックス浦添店",
    "kana": "リハビリトッカガタデイサービス　リハビックスウラソエテン",
    "address": "沖縄県浦添市城間4-3-3グランシャリオ1階 グランシャリオ1階",
    "lat": 26.2561458,
    "lng": 127.7158458,
    "tel": "098-875-1288",
    "url": "https://bestlife-okinawa.co.jp",
    "pref": "沖縄県",
    "city": "浦添市",
    "category": "community_day_service",
    "serviceType": "地域密着型通所介護",
    "capacity": 0,
    "openDays": [
      "平日"
    ],
    "openDaysNote": ""
  },
  {
    "id": "4770401117",
    "name": "いちゃりばちょうでぃーいけはら",
    "kana": "イチャリバチョウディー池原",
    "address": "沖縄県沖縄市２丁目２０番４号いちゃりばちょうでぃー池原 いちゃりばちょうでぃー池原",
    "lat": 26.3830397528792,
    "lng": 127.825237808165,
    "tel": "098-937-4002",
    "url": "https://hikari-okinawa.com/",
    "pref": "沖縄県",
    "city": "沖縄市",
    "category": "community_day_service",
    "serviceType": "地域密着型通所介護",
    "capacity": 18,
    "openDays": [
      "平日",
      "土曜日",
      "祝日"
    ],
    "openDaysNote": ""
  },
  {
    "id": "4790400230",
    "name": "うむいぬいちばんじゃー",
    "kana": "ウムイヌイチバンジャー",
    "address": "沖縄県沖縄市高原3-12-19",
    "lat": 26.3245301,
    "lng": 127.8199056,
    "tel": "098-987-8906",
    "url": "https://anatanoumui.com/",
    "pref": "沖縄県",
    "city": "沖縄市",
    "category": "community_day_service",
    "serviceType": "地域密着型通所介護",
    "capacity": 0,
    "openDays": [
      "平日",
      "土曜日",
      "祝日"
    ],
    "openDaysNote": "台風（午前7時の時点で路線バスが運休になった場合）（改行）12月31日は9：15～13：30"
  },
  {
    "id": "4790400123",
    "name": "うむいぬうふやー",
    "kana": "ウムイヌウフヤー",
    "address": "沖縄県沖縄市桃原2-16-37",
    "lat": 26.3353683612856,
    "lng": 127.824742592031,
    "tel": "098-988-5598",
    "url": "https://anatanoumui.com",
    "pref": "沖縄県",
    "city": "沖縄市",
    "category": "community_day_service",
    "serviceType": "地域密着型通所介護",
    "capacity": 0,
    "openDays": [
      "平日",
      "土曜日",
      "祝日"
    ],
    "openDaysNote": "台風（午前7時の時点で路線バスが運休になった場合）（改行）12月31日（大晦日）9時15分～13時30分"
  },
  {
    "id": "4770401893",
    "name": "うむいぬむーとぅやー",
    "kana": "ウムイヌムートゥヤー",
    "address": "沖縄県沖縄市越来1丁目14番6号",
    "lat": 26.3421233,
    "lng": 127.8090743,
    "tel": "908-923-2806",
    "url": "watasinoumui.com",
    "pref": "沖縄県",
    "city": "沖縄市",
    "category": "community_day_service",
    "serviceType": "地域密着型通所介護",
    "capacity": 13,
    "openDays": [
      "平日",
      "土曜日",
      "祝日"
    ],
    "openDaysNote": "台風暴風域による臨時休業"
  },
  {
    "id": "4790400321",
    "name": "がんじゅうの扉　ワンデイ",
    "kana": "ガンジュウノトビラ　ワンデイ",
    "address": "沖縄市室川２丁目３３ー５号１F １F",
    "lat": 26.3309951,
    "lng": 127.808199,
    "tel": "098-923-3791",
    "url": "https://www.ganjyunotobira.com/movie.php",
    "pref": "沖縄県",
    "city": "沖縄市",
    "category": "community_day_service",
    "serviceType": "地域密着型通所介護",
    "capacity": 0,
    "openDays": [
      "平日"
    ],
    "openDaysNote": ""
  },
  {
    "id": "4770401430",
    "name": "サンサンデイサービス",
    "kana": "サンサンデイサービス",
    "address": "沖縄県沖縄市松本９１７番地",
    "lat": 26.3528643386987,
    "lng": 127.821298664418,
    "tel": "０９８－９８９－４０３０",
    "url": "https://san0330san.ti-da.net",
    "pref": "沖縄県",
    "city": "沖縄市",
    "category": "community_day_service",
    "serviceType": "地域密着型通所介護",
    "capacity": 4,
    "openDays": [
      "平日",
      "土曜日",
      "祝日"
    ],
    "openDaysNote": "旧暦7月15日（1日）年末12月31日・1月1日（2日）"
  },
  {
    "id": "4790400362",
    "name": "ショッピングリハビリ@沖縄city",
    "kana": "ショッピングリハビリアットオキナワシティ",
    "address": "沖縄県沖縄市安慶田2-25-20",
    "lat": 26.3331936,
    "lng": 127.8133111,
    "tel": "098-987-8079",
    "url": "https://useful-okinawa.com/",
    "pref": "沖縄県",
    "city": "沖縄市",
    "category": "community_day_service",
    "serviceType": "地域密着型通所介護",
    "capacity": null,
    "openDays": [
      "平日",
      "祝日"
    ],
    "openDaysNote": ""
  },
  {
    "id": "4790400297",
    "name": "デイサービス　RyCom",
    "kana": "デイサービス　ライカム",
    "address": "沖縄県沖縄市山里1-9-7　1F",
    "lat": 26.3229498,
    "lng": 127.78979,
    "tel": "098-989-7358",
    "url": "",
    "pref": "沖縄県",
    "city": "沖縄市",
    "category": "community_day_service",
    "serviceType": "地域密着型通所介護",
    "capacity": null,
    "openDays": [
      "平日",
      "土曜日",
      "祝日"
    ],
    "openDaysNote": "台風接近・暴風時・公共交通機関運転状況などを勘案して臨時休業有。"
  },
  {
    "id": "4770401224",
    "name": "デイサービス　いちゃら",
    "kana": "デイサービス　イチャラ",
    "address": "沖縄県沖縄市比屋根４丁目１２番３号",
    "lat": 26.3163259,
    "lng": 127.8189353,
    "tel": "098-989-6009",
    "url": "http:/stm.p-kit.com/",
    "pref": "沖縄県",
    "city": "沖縄市",
    "category": "community_day_service",
    "serviceType": "地域密着型通所介護",
    "capacity": 10,
    "openDays": [
      "平日",
      "土曜日",
      "祝日"
    ],
    "openDaysNote": ""
  },
  {
    "id": "4770401356",
    "name": "デイサービス　デルソール",
    "kana": "デイサービス　デルソール",
    "address": "沖縄県沖縄市泡瀬4丁目48番8号泡瀬比嘉店舗1F 泡瀬比嘉店舗1F",
    "lat": 26.3198063,
    "lng": 127.8295815,
    "tel": "989345401",
    "url": "",
    "pref": "沖縄県",
    "city": "沖縄市",
    "category": "community_day_service",
    "serviceType": "地域密着型通所介護",
    "capacity": 5,
    "openDays": [
      "平日",
      "土曜日",
      "祝日"
    ],
    "openDaysNote": "暴風警報が発令された場合は休み"
  },
  {
    "id": "4770401547",
    "name": "デイサービス　とみさん家",
    "kana": "デイサービス　トミサンチ",
    "address": "沖縄県沖縄市園田２－１７－４喜納店舗１階 喜納店舗１階",
    "lat": 26.3280687,
    "lng": 127.8016449,
    "tel": "０９８－９３２－０３３７",
    "url": "",
    "pref": "沖縄県",
    "city": "沖縄市",
    "category": "community_day_service",
    "serviceType": "地域密着型通所介護",
    "capacity": 12,
    "openDays": [
      "平日",
      "土曜日",
      "祝日"
    ],
    "openDaysNote": ""
  },
  {
    "id": "4790400099",
    "name": "デイサービス　ひなた",
    "kana": "デイサービス　ヒナタ",
    "address": "沖縄県沖縄市山内1丁目11-5",
    "lat": 26.3288794,
    "lng": 127.787135,
    "tel": "098-932-3026",
    "url": "",
    "pref": "沖縄県",
    "city": "沖縄市",
    "category": "community_day_service",
    "serviceType": "地域密着型通所介護",
    "capacity": 10,
    "openDays": [
      "平日",
      "土曜日",
      "祝日"
    ],
    "openDaysNote": "祝日も営業しております"
  },
  {
    "id": "4790400180",
    "name": "デイサービス　ブナガヤ",
    "kana": "デイサービス　ブナガヤ",
    "address": "沖縄県沖縄市安慶田3丁目6番16号",
    "lat": 26.3325464,
    "lng": 127.8121605,
    "tel": "098-989-6668",
    "url": "",
    "pref": "沖縄県",
    "city": "沖縄市",
    "category": "community_day_service",
    "serviceType": "地域密着型通所介護",
    "capacity": 10,
    "openDays": [
      "平日",
      "土曜日",
      "祝日"
    ],
    "openDaysNote": ""
  },
  {
    "id": "4770400994",
    "name": "デイサービス　ふる里",
    "kana": "デイサービス　フルサト",
    "address": "高原四丁目28番1号１F １F",
    "lat": 26.322503,
    "lng": 127.8149633,
    "tel": "０９８－９８９－３９３２",
    "url": "",
    "pref": "沖縄県",
    "city": "沖縄市",
    "category": "community_day_service",
    "serviceType": "地域密着型通所介護",
    "capacity": 10,
    "openDays": [
      "平日",
      "土曜日",
      "祝日"
    ],
    "openDaysNote": "その他年間の休日　旧盆（ウ―クイ）、年始（1月1日、2日）"
  },
  {
    "id": "4770400713",
    "name": "デイサービスえびす家",
    "kana": "デイサービスエビスヤ",
    "address": "沖縄県沖縄市宮里一丁目１番１２号",
    "lat": 26.3389571,
    "lng": 127.8163321,
    "tel": "098-939-7511",
    "url": "https://day-ebisuya.com",
    "pref": "沖縄県",
    "city": "沖縄市",
    "category": "community_day_service",
    "serviceType": "地域密着型通所介護",
    "capacity": 0,
    "openDays": [
      "平日",
      "土曜日",
      "祝日"
    ],
    "openDaysNote": "特に無し"
  },
  {
    "id": "4770400820",
    "name": "デイサービスセンター　あすなろう",
    "kana": "デイサービスセンター　アスナロウ",
    "address": "沖縄県沖縄市上地四丁目９番３号",
    "lat": 26.3338958,
    "lng": 127.7949064,
    "tel": "098-933-2536",
    "url": "http://www.",
    "pref": "沖縄県",
    "city": "沖縄市",
    "category": "community_day_service",
    "serviceType": "地域密着型通所介護",
    "capacity": 13,
    "openDays": [
      "平日",
      "祝日"
    ],
    "openDaysNote": "台風など送迎が困難な場合は休みになります。"
  },
  {
    "id": "4770400408",
    "name": "デイサービスたんぽぽ苑",
    "kana": "デイサービスタンポポエン",
    "address": "沖縄県沖縄市桃原二丁目１７番１７号",
    "lat": 26.3365054457275,
    "lng": 127.824985518652,
    "tel": "098-934-7707",
    "url": "",
    "pref": "沖縄県",
    "city": "沖縄市",
    "category": "community_day_service",
    "serviceType": "地域密着型通所介護",
    "capacity": 0,
    "openDays": [
      "平日",
      "土曜日",
      "祝日"
    ],
    "openDaysNote": ""
  },
  {
    "id": "4770400960",
    "name": "デイサービス恵泉おりおん",
    "kana": "デイサービスケイセンオリオン",
    "address": "沖縄県沖縄市中央1-9-8",
    "lat": 26.3360735,
    "lng": 127.799842,
    "tel": "098-938-0548",
    "url": "",
    "pref": "沖縄県",
    "city": "沖縄市",
    "category": "community_day_service",
    "serviceType": "地域密着型通所介護",
    "capacity": 10,
    "openDays": [
      "平日",
      "土曜日",
      "祝日"
    ],
    "openDaysNote": ""
  },
  {
    "id": "4790400370",
    "name": "デイサービス美らさん",
    "kana": "デイサービスチュラサン",
    "address": "沖縄県高原６丁目２番２号ラフィーネ泡瀬　101号室 ラフィーネ泡瀬　101号室",
    "lat": 26.3213661618153,
    "lng": 127.828611938029,
    "tel": "098-989-7304",
    "url": "https://www.sanhou-okinawa.com/デイサービス美らさん/",
    "pref": "沖縄県",
    "city": "沖縄市",
    "category": "community_day_service",
    "serviceType": "地域密着型通所介護",
    "capacity": 18,
    "openDays": [
      "平日",
      "土曜日",
      "祝日"
    ],
    "openDaysNote": ""
  },
  {
    "id": "4770400622",
    "name": "デイサービス風雅",
    "kana": "デイサービスフウガ",
    "address": "沖縄県沖縄市東二丁目６番１１号",
    "lat": 26.3464836,
    "lng": 127.8242125,
    "tel": "098-921-0352",
    "url": "",
    "pref": "沖縄県",
    "city": "沖縄市",
    "category": "community_day_service",
    "serviceType": "地域密着型通所介護",
    "capacity": 10,
    "openDays": [
      "平日",
      "土曜日"
    ],
    "openDaysNote": ""
  },
  {
    "id": "4770401448",
    "name": "ひろデイサービス",
    "kana": "ヒロデイサービス",
    "address": "沖縄県沖縄市中央4-13-1M'sマンション101 M'sマンション101",
    "lat": 26.3412786,
    "lng": 127.7992169,
    "tel": "098-934-3250",
    "url": "",
    "pref": "沖縄県",
    "city": "沖縄市",
    "category": "community_day_service",
    "serviceType": "地域密着型通所介護",
    "capacity": 18,
    "openDays": [
      "平日",
      "土曜日",
      "祝日"
    ],
    "openDaysNote": ""
  },
  {
    "id": "4790400149",
    "name": "リハビリ特化型デイサービス　リハビックスコザ店",
    "kana": "リハビリトッカガタデイサービス　リハビックスコザテン",
    "address": "沖縄県沖縄市大里2-31-13",
    "lat": 26.3335244,
    "lng": 127.8209041,
    "tel": "989887121",
    "url": "https://bestlife-okinawa.co.jp",
    "pref": "沖縄県",
    "city": "沖縄市",
    "category": "community_day_service",
    "serviceType": "地域密着型通所介護",
    "capacity": 0,
    "openDays": [
      "平日"
    ],
    "openDaysNote": ""
  },
  {
    "id": "4790400305",
    "name": "介護サービスももやま",
    "kana": "カイゴサービスモモヤマ",
    "address": "沖縄県沖縄市山里１－４－１５",
    "lat": 26.3230317,
    "lng": 127.7921342,
    "tel": "098-930-1388",
    "url": "",
    "pref": "沖縄県",
    "city": "沖縄市",
    "category": "community_day_service",
    "serviceType": "地域密着型通所介護",
    "capacity": 18,
    "openDays": [
      "平日",
      "土曜日",
      "祝日"
    ],
    "openDaysNote": ""
  },
  {
    "id": "4790400164",
    "name": "地域密着型通所介護事業所　ゆい明",
    "kana": "チイキミッチャクガタツウショカイゴジギョウショ　ユイアケ",
    "address": "沖縄県沖縄市明道1丁目18番1号ゆいシェア ゆいシェア",
    "lat": 26.3564748,
    "lng": 127.8227049,
    "tel": "098-987-8990",
    "url": "",
    "pref": "沖縄県",
    "city": "沖縄市",
    "category": "community_day_service",
    "serviceType": "地域密着型通所介護",
    "capacity": null,
    "openDays": [
      "平日",
      "祝日"
    ],
    "openDaysNote": "12/29～1/3までお休み"
  },
  {
    "id": "4775500509",
    "name": "悠遊倶楽部",
    "kana": "ユウユウクラブ",
    "address": "沖縄県宮古島市平良字久貝650番地6",
    "lat": 24.7984625,
    "lng": 125.2683358,
    "tel": "0980-79-5179",
    "url": "",
    "pref": "沖縄県",
    "city": "沖縄市",
    "category": "community_day_service",
    "serviceType": "地域密着型通所介護",
    "capacity": 10,
    "openDays": [
      "平日",
      "土曜日",
      "祝日"
    ],
    "openDaysNote": "旧の１６日祭，お盆，１２月３０日～１月３日"
  },
  {
    "id": "4771600121",
    "name": "えるおきなわ有限会社",
    "kana": "エルオキナワユウゲンガイシャ",
    "address": "沖縄県国頭郡恩納村字恩納2447",
    "lat": 26.4978979,
    "lng": 127.8530807,
    "tel": "098-982-3295",
    "url": "",
    "pref": "沖縄県",
    "city": "恩納村",
    "category": "community_day_service",
    "serviceType": "地域密着型通所介護",
    "capacity": 18,
    "openDays": [
      "平日",
      "土曜日",
      "祝日"
    ],
    "openDaysNote": "デイサービス利用時間　9時～16時30まで"
  },
  {
    "id": "4772300077",
    "name": "デイサービス　げんき",
    "kana": "デイサービス　ゲンキ",
    "address": "沖縄県中頭郡嘉手納町字嘉手納３１４番地２",
    "lat": 26.3665918,
    "lng": 127.7549163,
    "tel": "098-921-9150",
    "url": "",
    "pref": "沖縄県",
    "city": "嘉手納町",
    "category": "community_day_service",
    "serviceType": "地域密着型通所介護",
    "capacity": 0,
    "openDays": [
      "平日",
      "土曜日",
      "祝日"
    ],
    "openDaysNote": "台風等の非常災害時には、サービスの提供が出来ない場合があります。"
  },
  {
    "id": "4772300093",
    "name": "デイサービスカデナ",
    "kana": "デイサービスカデナ",
    "address": "沖縄県中頭郡嘉手納町字水釜557番地",
    "lat": 26.3629640521113,
    "lng": 127.751972539287,
    "tel": "098-957-0777",
    "url": "",
    "pref": "沖縄県",
    "city": "嘉手納町",
    "category": "community_day_service",
    "serviceType": "地域密着型通所介護",
    "capacity": 18,
    "openDays": [
      "平日",
      "土曜日",
      "祝日"
    ],
    "openDaysNote": "台風や地震などの災害時には、お客様の安全を考慮し、（改行）　１．営業時間の変更（改行）　２．営業の中止（改行）等の対応を講じます。（改行）また、上記１・２の際は、対象のお客様へご連絡をいたします。"
  },
  {
    "id": "4771700079",
    "name": "デイサービス　えにし",
    "kana": "デイサービス　エニシ",
    "address": "沖縄県国頭郡宜野座村字松田591番3",
    "lat": 26.4888038654844,
    "lng": 127.991590242606,
    "tel": "098-968-3200",
    "url": "dayenishi1103@outlook.jp",
    "pref": "沖縄県",
    "city": "宜野座村",
    "category": "community_day_service",
    "serviceType": "地域密着型通所介護",
    "capacity": 10,
    "openDays": [
      "平日",
      "土曜日",
      "祝日"
    ],
    "openDaysNote": "災害時は、急なお休みが生じることがあります。"
  },
  {
    "id": "4770500496",
    "name": "デイサービス　あすなろ",
    "kana": "デイサービス　アスナロ",
    "address": "宜野湾市真志喜3丁目14番１号カサグランデエクセル カサグランデエクセル",
    "lat": 26.2742057,
    "lng": 127.734874,
    "tel": "098-927-0174",
    "url": "",
    "pref": "沖縄県",
    "city": "宜野湾市",
    "category": "community_day_service",
    "serviceType": "地域密着型通所介護",
    "capacity": 10,
    "openDays": [
      "平日",
      "土曜日",
      "祝日"
    ],
    "openDaysNote": "天災発生時(台風等)"
  },
  {
    "id": "4770500843",
    "name": "デイサービスかいほう",
    "kana": "デイサービスカイホウ",
    "address": "沖縄県宜野湾市真志喜2丁目22番2号",
    "lat": 26.2766722,
    "lng": 127.7375903,
    "tel": "080-6484-5403",
    "url": "http://www.kaiho.or.jp",
    "pref": "沖縄県",
    "city": "宜野湾市",
    "category": "community_day_service",
    "serviceType": "地域密着型通所介護",
    "capacity": 10,
    "openDays": [
      "平日",
      "土曜日"
    ],
    "openDaysNote": ""
  },
  {
    "id": "4770500710",
    "name": "ふれあいデイサービス愛知の家",
    "kana": "フレアイデイサービスアイチノヤー",
    "address": "沖縄県宜野湾市愛知3-17-20-2F介護複合施設ふれあい愛知の丘 介護複合施設ふれあい愛知の丘",
    "lat": 26.2638872998574,
    "lng": 127.771580212188,
    "tel": "098-892-1201",
    "url": "http://fureai-kaigo.com",
    "pref": "沖縄県",
    "city": "宜野湾市",
    "category": "community_day_service",
    "serviceType": "地域密着型通所介護",
    "capacity": 18,
    "openDays": [
      "平日",
      "土曜日",
      "日曜日",
      "祝日"
    ],
    "openDaysNote": "お盆、年末年始も営業しています"
  },
  {
    "id": "4790500153",
    "name": "リハグリット",
    "kana": "リハグリット",
    "address": "沖縄県宜野湾市大山5-1-5名城ビル１F 名城ビル１F",
    "lat": 26.2798021,
    "lng": 127.748315,
    "tel": "098-943-2077",
    "url": "https://rehagrit.com",
    "pref": "沖縄県",
    "city": "宜野湾市",
    "category": "community_day_service",
    "serviceType": "地域密着型通所介護",
    "capacity": null,
    "openDays": [
      "平日",
      "土曜日",
      "祝日"
    ],
    "openDaysNote": "大晦日、1月1~3日は店休日となっています"
  },
  {
    "id": "4770500637",
    "name": "リハビックス宜野湾店",
    "kana": "リハビックスギノワンテン",
    "address": "沖縄県宜野湾市野嵩1-2-15",
    "lat": 26.2798503,
    "lng": 127.7785844,
    "tel": "098-943-0450",
    "url": "https://bestlife-okinawa.co.jp/",
    "pref": "沖縄県",
    "city": "宜野湾市",
    "category": "community_day_service",
    "serviceType": "地域密着型通所介護",
    "capacity": 180,
    "openDays": [
      "平日"
    ],
    "openDaysNote": ""
  },
  {
    "id": "4790500187",
    "name": "リハビリ特化型デイサービスリハビリライオン",
    "kana": "リハビリトッカガタデイサービスリハビリライオン",
    "address": "沖縄県宜野湾市大謝名5丁目6番1号崎間店舗104 崎間店舗104",
    "lat": 26.2675991,
    "lng": 127.7345233,
    "tel": "098-943-8411",
    "url": "",
    "pref": "沖縄県",
    "city": "宜野湾市",
    "category": "community_day_service",
    "serviceType": "地域密着型通所介護",
    "capacity": null,
    "openDays": [
      "平日",
      "祝日"
    ],
    "openDaysNote": ""
  },
  {
    "id": "4790500138",
    "name": "共生型介護サービス　友結",
    "kana": "キョウセイガタカイゴサービス　ユウユウ",
    "address": "沖縄県宜野湾市我如古３丁目７番５号ハイツ山本１０１号室 ハイツ山本１０１号室",
    "lat": 26.2539977,
    "lng": 127.7563677,
    "tel": "098-917-1216",
    "url": "",
    "pref": "沖縄県",
    "city": "宜野湾市",
    "category": "community_day_service",
    "serviceType": "地域密着型通所介護",
    "capacity": 5,
    "openDays": [
      "平日"
    ],
    "openDaysNote": "但し、レクレーション行事などの理由により、営業日若しくは営業時間または休日を変更することがあります。"
  },
  {
    "id": "4773800018",
    "name": "デイサービスセンター　わかみず",
    "kana": "デイサービスセンター　ワカミズ",
    "address": "沖縄県島尻郡久米島町仲泊５８７番地",
    "lat": 26.3472699352482,
    "lng": 126.746857849074,
    "tel": "098-896-7188",
    "url": "https://www.kume-syakyo.com",
    "pref": "沖縄県",
    "city": "久米島町",
    "category": "community_day_service",
    "serviceType": "地域密着型通所介護",
    "capacity": 18,
    "openDays": [
      "平日",
      "祝日"
    ],
    "openDaysNote": "上記以外の祝日は通常営業しております。"
  },
  {
    "id": "4773800042",
    "name": "デイホーム　家福みー家",
    "kana": "デイホーム　イーフミーヤ",
    "address": "沖縄県島尻郡久米島町比嘉１６０－７２",
    "lat": 26.3293864,
    "lng": 126.8069246,
    "tel": "098-985-7825",
    "url": "http://www.",
    "pref": "沖縄県",
    "city": "久米島町",
    "category": "community_day_service",
    "serviceType": "地域密着型通所介護",
    "capacity": 0,
    "openDays": [
      "平日",
      "土曜日",
      "祝日"
    ],
    "openDaysNote": "(1)上記の休み以外に災害時等（台風など）の場合、事業所が危険と判断する場合は休みになることがあります。(2)定休日に行事を行う場合があります。"
  },
  {
    "id": "4795500158",
    "name": "アルけーる・クラせーる",
    "kana": "アルケール　クラセール",
    "address": "沖縄県宮古島市平良字久貝899-1宮古島ブルー1Ｆ 宮古島ブルー1Ｆ",
    "lat": 24.795612941045,
    "lng": 125.275818497484,
    "tel": "0980-79-5811",
    "url": "https://www.shimoji-cl.com",
    "pref": "沖縄県",
    "city": "宮古島市",
    "category": "community_day_service",
    "serviceType": "地域密着型通所介護",
    "capacity": 0,
    "openDays": [
      "平日",
      "土曜日"
    ],
    "openDaysNote": "台風などの警報発令中は、利用者の安全確保の為、原則として休みである。"
  },
  {
    "id": "4795500166",
    "name": "クラせーる下地",
    "kana": "クラセールシモジ",
    "address": "沖縄県宮古島市下地字上地３２４番地",
    "lat": 24.746267,
    "lng": 125.2743494,
    "tel": "0980-79-5015",
    "url": "https://www.shimoji-cl.com",
    "pref": "沖縄県",
    "city": "宮古島市",
    "category": "community_day_service",
    "serviceType": "地域密着型通所介護",
    "capacity": 0,
    "openDays": [
      "平日",
      "土曜日"
    ],
    "openDaysNote": ""
  },
  {
    "id": "4775500392",
    "name": "さらはまデイサービスセンター",
    "kana": "サラハマデイサービスセンター",
    "address": "沖縄県宮古島市伊良部字前里添７２１番地３",
    "lat": 24.838351,
    "lng": 125.2060577,
    "tel": "０９８０－７４－５６０６",
    "url": "",
    "pref": "沖縄県",
    "city": "宮古島市",
    "category": "community_day_service",
    "serviceType": "地域密着型通所介護",
    "capacity": 0,
    "openDays": [
      "平日",
      "土曜日",
      "日曜日",
      "祝日"
    ],
    "openDaysNote": "急用時の時間延長　相談応ず"
  },
  {
    "id": "4775500442",
    "name": "デイサービス　きずな",
    "kana": "デイサービス　キズナ",
    "address": "沖縄県宮古島市平良字西里１１０１番地の３",
    "lat": 24.7928749,
    "lng": 125.294103,
    "tel": "０９８０－７９－５２３３",
    "url": "",
    "pref": "沖縄県",
    "city": "宮古島市",
    "category": "community_day_service",
    "serviceType": "地域密着型通所介護",
    "capacity": 18,
    "openDays": [
      "平日",
      "土曜日",
      "祝日"
    ],
    "openDaysNote": ""
  },
  {
    "id": "4775500517",
    "name": "デイサービスことぶきの里",
    "kana": "デイサービスコトブキノサト",
    "address": "沖縄県宮古島市平良字西仲宗根563番地13",
    "lat": 24.8098387794286,
    "lng": 125.294975064943,
    "tel": "0980-72-6147",
    "url": "",
    "pref": "沖縄県",
    "city": "宮古島市",
    "category": "community_day_service",
    "serviceType": "地域密着型通所介護",
    "capacity": 15,
    "openDays": [
      "平日",
      "祝日"
    ],
    "openDaysNote": ""
  },
  {
    "id": "4775500426",
    "name": "デイサービスはねじ（パイパイ）",
    "kana": "デイサービスハネジ（パイパイ）",
    "address": "沖縄県宮古島市平良字下里818-1　1Fマンションぱいぱい１階 マンションぱいぱい１階",
    "lat": 24.7994768,
    "lng": 125.2833679,
    "tel": "0980-79-0147",
    "url": "https://www.big-advance.site/s/172/2270",
    "pref": "沖縄県",
    "city": "宮古島市",
    "category": "community_day_service",
    "serviceType": "地域密着型通所介護",
    "capacity": 10,
    "openDays": [
      "平日",
      "土曜日",
      "祝日"
    ],
    "openDaysNote": "利用者の状態（感染症や基礎疾患の悪化など）によっては、利用を控えたいただくこともあります。"
  },
  {
    "id": "4775500475",
    "name": "デイサービスひまわり",
    "kana": "デイサービスヒマワリ",
    "address": "宮古島市平良字西里1449-13",
    "lat": 24.787748,
    "lng": 125.3085876,
    "tel": "0980-72-0612",
    "url": "",
    "pref": "沖縄県",
    "city": "宮古島市",
    "category": "community_day_service",
    "serviceType": "地域密着型通所介護",
    "capacity": 0,
    "openDays": [
      "平日",
      "土曜日",
      "祝日"
    ],
    "openDaysNote": ""
  },
  {
    "id": "4775500301",
    "name": "デイサービス来間",
    "kana": "デイサービスクリマ",
    "address": "下地字来間189-3",
    "lat": 24.7228869,
    "lng": 125.2514696,
    "tel": "0980-74-7252",
    "url": "",
    "pref": "沖縄県",
    "city": "宮古島市",
    "category": "community_day_service",
    "serviceType": "地域密着型通所介護",
    "capacity": 0,
    "openDays": [
      "平日",
      "土曜日",
      "祝日"
    ],
    "openDaysNote": "台風等の警報発令時は利用者の安全確保のため、原則として休みます。（改行）その他計画的に休日を追加する場合があります。"
  },
  {
    "id": "4775500194",
    "name": "株式会社　宮古島介護琉心　デイサービスあかり",
    "kana": "カブシキカイシャミヤコジマカイゴリュウシン　デイサービスアカリ",
    "address": "沖縄県　宮古島市　平良字下里　1012番地1",
    "lat": 24.7927460063789,
    "lng": 125.280213601258,
    "tel": "0980-79-0124",
    "url": "",
    "pref": "沖縄県",
    "city": "宮古島市",
    "category": "community_day_service",
    "serviceType": "地域密着型通所介護",
    "capacity": 0,
    "openDays": [
      "平日",
      "土曜日",
      "祝日"
    ],
    "openDaysNote": ""
  },
  {
    "id": "4771800044",
    "name": "デイサービスセンターくばの里",
    "kana": "デイサービスセンタークバノサト",
    "address": "沖縄県金武町字金武４１９６番地２８",
    "lat": 26.4519733,
    "lng": 127.915504,
    "tel": "098-968-6517",
    "url": "http://www.kubanosato.jp",
    "pref": "沖縄県",
    "city": "金武町",
    "category": "community_day_service",
    "serviceType": "地域密着型通所介護",
    "capacity": 18,
    "openDays": [
      "平日",
      "土曜日",
      "祝日"
    ],
    "openDaysNote": ""
  },
  {
    "id": "4791100037",
    "name": "トレーニングリハビリ国頭",
    "kana": "トレーニングリハビリ　クニガミ",
    "address": "沖縄県国頭郡国頭村辺野喜26-1",
    "lat": 26.793905,
    "lng": 128.2585797,
    "tel": "0980-50-1165",
    "url": "",
    "pref": "沖縄県",
    "city": "国頭村",
    "category": "community_day_service",
    "serviceType": "地域密着型通所介護",
    "capacity": 0,
    "openDays": [
      "平日",
      "祝日"
    ],
    "openDaysNote": ""
  },
  {
    "id": "4771100049",
    "name": "楚洲あさひの丘デイサービスセンター",
    "kana": "ソスアサヒノオカデイサービスセンター",
    "address": "沖縄県国頭郡国頭村字楚洲517番地",
    "lat": 26.7906679,
    "lng": 128.3151554,
    "tel": "0980-41-8888",
    "url": "http://hokutoen.org",
    "pref": "沖縄県",
    "city": "国頭村",
    "category": "community_day_service",
    "serviceType": "地域密着型通所介護",
    "capacity": 0,
    "openDays": [
      "平日",
      "祝日"
    ],
    "openDaysNote": ""
  },
  {
    "id": "4791100052",
    "name": "楚洲あさひの丘デイサービスセンター",
    "kana": "ソスアサヒノオカデイサービス",
    "address": "沖縄県国頭郡国頭村字楚洲517番地",
    "lat": 26.7906149,
    "lng": 128.3153665,
    "tel": "0980-41-8888",
    "url": "",
    "pref": "沖縄県",
    "city": "国頭村",
    "category": "community_day_service",
    "serviceType": "地域密着型通所介護",
    "capacity": 0,
    "openDays": [
      "平日",
      "祝日"
    ],
    "openDaysNote": ""
  },
  {
    "id": "4771400050",
    "name": "デイサービス　ハイビスカス",
    "kana": "デイサービス　ハイビスカス",
    "address": "沖縄県国頭郡今帰仁村字今泊3933番地",
    "lat": 26.6966767,
    "lng": 127.9359183,
    "tel": "0980-56-4916",
    "url": "",
    "pref": "沖縄県",
    "city": "今帰仁村",
    "category": "community_day_service",
    "serviceType": "地域密着型通所介護",
    "capacity": 15,
    "openDays": [
      "平日",
      "土曜日",
      "祝日"
    ],
    "openDaysNote": "台風等の緊急時は交通機関等の運行停止の時には休みになります。"
  },
  {
    "id": "4771400076",
    "name": "デイサービスわら美",
    "kana": "デイサービスワラビ",
    "address": "沖縄県国頭郡今帰仁村字平敷295番地",
    "lat": 26.6890008846175,
    "lng": 127.964821371489,
    "tel": "0980-43-5321",
    "url": "https://www.warabi-nakijin.com/",
    "pref": "沖縄県",
    "city": "今帰仁村",
    "category": "community_day_service",
    "serviceType": "地域密着型通所介護",
    "capacity": 0,
    "openDays": [
      "平日",
      "土曜日",
      "祝日"
    ],
    "openDaysNote": ""
  },
  {
    "id": "4791000047",
    "name": "デイサービス　里のガーデン",
    "kana": "デイサービス　サトノガーデン",
    "address": "沖縄県糸満市字大里623番地7",
    "lat": 26.1299481,
    "lng": 127.6896434,
    "tel": "098-996-2831",
    "url": "http://www.m-sc.co.jp/msc/",
    "pref": "沖縄県",
    "city": "糸満市",
    "category": "community_day_service",
    "serviceType": "地域密着型通所介護",
    "capacity": 18,
    "openDays": [
      "平日",
      "土曜日",
      "祝日"
    ],
    "openDaysNote": "自然災害時臨時休業有（台風の暴風警報発令中等）"
  },
  {
    "id": "4791000120",
    "name": "デイサービス　里のガーデン",
    "kana": "デイサービス　サトノガーデン",
    "address": "沖縄県糸満市大里623番地7",
    "lat": 26.1299417,
    "lng": 127.6896715,
    "tel": "098-996-2831",
    "url": "",
    "pref": "沖縄県",
    "city": "糸満市",
    "category": "community_day_service",
    "serviceType": "地域密着型通所介護",
    "capacity": 0,
    "openDays": [
      "平日",
      "土曜日",
      "祝日"
    ],
    "openDaysNote": "台風などの自然災害時臨時休業あり"
  },
  {
    "id": "4791000070",
    "name": "デイサービスしんか",
    "kana": "デイサービスシンカ",
    "address": "西崎6-4-3久米ビル2F",
    "lat": 26.1425896,
    "lng": 127.6704019,
    "tel": "098-894-6548",
    "url": "http://www.shinkanochikara.com",
    "pref": "沖縄県",
    "city": "糸満市",
    "category": "community_day_service",
    "serviceType": "地域密着型通所介護",
    "capacity": 3,
    "openDays": [
      "平日",
      "祝日"
    ],
    "openDaysNote": "年末年始の休み　12月31日～1月3日"
  },
  {
    "id": "4771000405",
    "name": "デイサービスセンター　珊瑚",
    "kana": "デイサービスセンターサンゴ",
    "address": "糸満市潮崎町4丁目8-13",
    "lat": 26.1164235,
    "lng": 127.6635982,
    "tel": "098-840-3500",
    "url": "",
    "pref": "沖縄県",
    "city": "糸満市",
    "category": "community_day_service",
    "serviceType": "地域密着型通所介護",
    "capacity": 0,
    "openDays": [
      "平日",
      "土曜日",
      "祝日"
    ],
    "openDaysNote": ""
  },
  {
    "id": "4791000088",
    "name": "デイサービスセンター千寿",
    "kana": "デイサービスセンターセンジュ",
    "address": "沖縄県糸満市字真栄里339-5",
    "lat": 26.1180805,
    "lng": 127.6691343,
    "tel": "098-995-3712",
    "url": "godo-senju@gmail.com",
    "pref": "沖縄県",
    "city": "糸満市",
    "category": "community_day_service",
    "serviceType": "地域密着型通所介護",
    "capacity": null,
    "openDays": [
      "平日",
      "土曜日",
      "祝日"
    ],
    "openDaysNote": ""
  },
  {
    "id": "4791000096",
    "name": "デイサービスてぃーら",
    "kana": "デイサービスティーラ",
    "address": "沖縄県糸満市字照屋３９２－１ＫＳＢ．Ｌ．Ｄ１０２ ＫＳＢ．Ｌ．Ｄ１０２",
    "lat": 26.1299281,
    "lng": 127.6778157,
    "tel": "098-894-6986",
    "url": "http://hp.kaipoke.biz/sge/",
    "pref": "沖縄県",
    "city": "糸満市",
    "category": "community_day_service",
    "serviceType": "地域密着型通所介護",
    "capacity": 0,
    "openDays": [
      "平日",
      "土曜日",
      "祝日"
    ],
    "openDaysNote": ""
  },
  {
    "id": "4771000454",
    "name": "デイサービスわっしょい",
    "kana": "デイサービスワッショイ",
    "address": "沖縄県糸満市北波平320番地なみひらハイツ一階なみひらハイツ一階 なみひらハイツ一階",
    "lat": 26.1589663018706,
    "lng": 127.692421252761,
    "tel": "988519986",
    "url": "http://www.dswassyoi.com/",
    "pref": "沖縄県",
    "city": "糸満市",
    "category": "community_day_service",
    "serviceType": "地域密着型通所介護",
    "capacity": 0,
    "openDays": [
      "平日",
      "土曜日",
      "祝日"
    ],
    "openDaysNote": "台風時、天災時等は臨時休業あり。"
  },
  {
    "id": "4771000413",
    "name": "デイフィットあいのわ糸満",
    "kana": "デイフィットアイノワイトマン",
    "address": "沖縄県糸満市潮崎町4-28-20ここパンチ1階 ここパンチ1階",
    "lat": 26.1178213,
    "lng": 127.6625652,
    "tel": "098-996-3434",
    "url": "http://www.mkm-h.com",
    "pref": "沖縄県",
    "city": "糸満市",
    "category": "community_day_service",
    "serviceType": "地域密着型通所介護",
    "capacity": 0,
    "openDays": [
      "平日"
    ],
    "openDaysNote": "1単位目（午前の部）9：15~12：30（改行）2単位目（午後の部）13：30~16：45"
  },
  {
    "id": "4771000264",
    "name": "東西デイサービスセンター",
    "kana": "アガリイリーデイサービスセンター",
    "address": "沖縄県糸満市字米須２４９番地",
    "lat": 26.0950816,
    "lng": 127.6966767,
    "tel": "098-997-5212",
    "url": "",
    "pref": "沖縄県",
    "city": "糸満市",
    "category": "community_day_service",
    "serviceType": "地域密着型通所介護",
    "capacity": 0,
    "openDays": [
      "平日",
      "土曜日",
      "祝日"
    ],
    "openDaysNote": ""
  },
  {
    "id": "4792700041",
    "name": "デイサービスさねり",
    "kana": "デイサービスサネリ",
    "address": "沖縄県中頭郡西原町字小波津507−８",
    "lat": 26.2260912,
    "lng": 127.7557179,
    "tel": "098−943−4795",
    "url": "http://hp.kaipoke.biz/hr4/156030/base_0004.html",
    "pref": "沖縄県",
    "city": "西原町",
    "category": "community_day_service",
    "serviceType": "地域密着型通所介護",
    "capacity": 12,
    "openDays": [
      "平日",
      "土曜日",
      "祝日"
    ],
    "openDaysNote": ""
  },
  {
    "id": "4772700227",
    "name": "デイサービスセンターいと",
    "kana": "デイサービスセンターイト",
    "address": "沖縄県中頭郡西原町字小波津５０７－８糸数アパート1階 糸数アパート1階",
    "lat": 26.2260859,
    "lng": 127.7557107,
    "tel": "０９８－９４５－６３６３",
    "url": "https://itomarublog.wordpress.com/",
    "pref": "沖縄県",
    "city": "西原町",
    "category": "community_day_service",
    "serviceType": "地域密着型通所介護",
    "capacity": 10,
    "openDays": [
      "平日",
      "土曜日",
      "祝日"
    ],
    "openDaysNote": "※台風接近時、災害時等は利用者の安全を優先とし、休む場合もあり。"
  },
  {
    "id": "4772700201",
    "name": "リハプライド・西原",
    "kana": "リハプライド・ニシハラ",
    "address": "沖縄県中頭郡西原町上原２-２２-１８",
    "lat": 26.2439442009089,
    "lng": 127.763153295107,
    "tel": "098-943-3182",
    "url": "http://www.rehapride.co.jp/nishihara/",
    "pref": "沖縄県",
    "city": "西原町",
    "category": "community_day_service",
    "serviceType": "地域密着型通所介護",
    "capacity": 0,
    "openDays": [
      "平日",
      "祝日"
    ],
    "openDaysNote": ""
  },
  {
    "id": "4770700526",
    "name": "JOYいしがき",
    "kana": "ジョイイシガキ",
    "address": "沖縄県石垣市登野城582-2サンライズ大山１階 サンライズ大山１階",
    "lat": 24.3353292,
    "lng": 124.1686526,
    "tel": "0980-87-5808",
    "url": "http://ameblo.jp/joy-ishigaki/",
    "pref": "沖縄県",
    "city": "石垣市",
    "category": "community_day_service",
    "serviceType": "地域密着型通所介護",
    "capacity": 18,
    "openDays": [
      "平日",
      "祝日"
    ],
    "openDaysNote": "土日でない祝日は営業しています。（改行）年末年始（12／30・31・1／1・1／2・1／3はお休みします）"
  },
  {
    "id": "4770700450",
    "name": "グッドライフむつみデイサービス",
    "kana": "グッドライフムツミデイサービス",
    "address": "沖縄県石垣市字大川５７８番地７グッドライフむつみ グッドライフむつみ",
    "lat": 24.3494920024834,
    "lng": 124.161621423943,
    "tel": "0980-87-0838",
    "url": "",
    "pref": "沖縄県",
    "city": "石垣市",
    "category": "community_day_service",
    "serviceType": "地域密着型通所介護",
    "capacity": 0,
    "openDays": [
      "平日",
      "土曜日",
      "日曜日",
      "祝日"
    ],
    "openDaysNote": ""
  },
  {
    "id": "4790700142",
    "name": "コンパスウォーク大浜",
    "kana": "コンパスウォークオオハマ",
    "address": "沖縄県石垣市大浜801-1",
    "lat": 24.346608,
    "lng": 124.194788,
    "tel": "0980-87-6528",
    "url": "https://keigo-group.co.jp/",
    "pref": "沖縄県",
    "city": "石垣市",
    "category": "community_day_service",
    "serviceType": "地域密着型通所介護",
    "capacity": null,
    "openDays": [
      "平日"
    ],
    "openDaysNote": ""
  },
  {
    "id": "4770700443",
    "name": "さくらデイサービス",
    "kana": "サクラデイサービス",
    "address": "沖縄県石垣市字真栄里544番地",
    "lat": 24.3380093,
    "lng": 124.1813099,
    "tel": "0980-87-5226",
    "url": "saskura3975@gmail.com",
    "pref": "沖縄県",
    "city": "石垣市",
    "category": "community_day_service",
    "serviceType": "地域密着型通所介護",
    "capacity": 120,
    "openDays": [
      "平日",
      "土曜日",
      "祝日"
    ],
    "openDaysNote": ""
  },
  {
    "id": "4770700393",
    "name": "デイサービス　ハピネス平真",
    "kana": "デイサービス　ハピネスヘイシン",
    "address": "沖縄県石垣市字真栄里４３６番地１１",
    "lat": 24.3411697,
    "lng": 124.1877349,
    "tel": "0980ー82－3838",
    "url": "http://happiness901.com/",
    "pref": "沖縄県",
    "city": "石垣市",
    "category": "community_day_service",
    "serviceType": "地域密着型通所介護",
    "capacity": 18,
    "openDays": [
      "平日",
      "土曜日",
      "祝日"
    ],
    "openDaysNote": ""
  },
  {
    "id": "4770700278",
    "name": "デイサービス　ひだまり",
    "kana": "デイサービス　ヒダマリ",
    "address": "沖縄県石垣市字桴海５３５番地",
    "lat": 24.4538922175958,
    "lng": 124.19490022209,
    "tel": "0980-88-2656",
    "url": "",
    "pref": "沖縄県",
    "city": "石垣市",
    "category": "community_day_service",
    "serviceType": "地域密着型通所介護",
    "capacity": 10,
    "openDays": [
      "平日"
    ],
    "openDaysNote": ""
  },
  {
    "id": "4770700310",
    "name": "デイサービス　年輪",
    "kana": "デイサービス　ネンリン",
    "address": "字石垣２１３",
    "lat": 24.3458602,
    "lng": 124.1574917,
    "tel": "0980-88-8082",
    "url": "",
    "pref": "沖縄県",
    "city": "石垣市",
    "category": "community_day_service",
    "serviceType": "地域密着型通所介護",
    "capacity": 10,
    "openDays": [
      "平日",
      "土曜日",
      "日曜日",
      "祝日"
    ],
    "openDaysNote": ""
  },
  {
    "id": "4770700377",
    "name": "デイサービスセンター　にぃふぁいゆー",
    "kana": "デイサービスセンター　ニィファイユー",
    "address": "石垣市字登野城　676番地の2",
    "lat": 24.3392065613715,
    "lng": 124.166269277385,
    "tel": "0980-87-0518",
    "url": "",
    "pref": "沖縄県",
    "city": "石垣市",
    "category": "community_day_service",
    "serviceType": "地域密着型通所介護",
    "capacity": 18,
    "openDays": [
      "平日",
      "土曜日",
      "祝日"
    ],
    "openDaysNote": ""
  },
  {
    "id": "4770700153",
    "name": "デイサービスセンターあかゆら",
    "kana": "デイサービスセンターアカユラ",
    "address": "沖縄県石垣市浜崎町2丁目2番地8号",
    "lat": 24.3405302,
    "lng": 124.150889,
    "tel": "0980-87-7660",
    "url": "",
    "pref": "沖縄県",
    "city": "石垣市",
    "category": "community_day_service",
    "serviceType": "地域密着型通所介護",
    "capacity": null,
    "openDays": [
      "平日",
      "土曜日",
      "祝日"
    ],
    "openDaysNote": ""
  },
  {
    "id": "4770700344",
    "name": "デイサービスむつみ",
    "kana": "デイサービスムツミ",
    "address": "沖縄県石垣市字大川33番地2",
    "lat": 24.3406298,
    "lng": 124.1608552,
    "tel": "0980-87-5008",
    "url": "",
    "pref": "沖縄県",
    "city": "石垣市",
    "category": "community_day_service",
    "serviceType": "地域密着型通所介護",
    "capacity": 10,
    "openDays": [
      "平日",
      "祝日"
    ],
    "openDaysNote": ""
  },
  {
    "id": "4790700050",
    "name": "デイサービス結",
    "kana": "デイサービス　ユイ",
    "address": "沖縄県石垣市大浜８０１番地１",
    "lat": 24.3438828,
    "lng": 124.1974013,
    "tel": "０９８０－８８－１７５８",
    "url": "",
    "pref": "沖縄県",
    "city": "石垣市",
    "category": "community_day_service",
    "serviceType": "地域密着型通所介護",
    "capacity": 0,
    "openDays": [
      "平日",
      "土曜日",
      "祝日"
    ],
    "openDaysNote": ""
  },
  {
    "id": "4790700126",
    "name": "まるトレ",
    "kana": "マルトレ",
    "address": "沖縄県石垣市字真栄里567番地5美らハウスⅡ1F 美らハウスⅡ1F",
    "lat": 24.340731050945,
    "lng": 124.180676260713,
    "tel": "0980-87-6622",
    "url": "https://ishigakimarukaigo.com/",
    "pref": "沖縄県",
    "city": "石垣市",
    "category": "community_day_service",
    "serviceType": "地域密着型通所介護",
    "capacity": 100,
    "openDays": [
      "平日"
    ],
    "openDaysNote": "年末年始（12月29日から1月3日）休業"
  },
  {
    "id": "4795200023",
    "name": "老人デイサービスセンター南風見苑",
    "kana": "ロウジンデイサービスセンターハエミエン",
    "address": "沖縄県八重山郡竹富町字上原870番地　２３７",
    "lat": 24.411927,
    "lng": 123.804045,
    "tel": "0980-85-6911",
    "url": "",
    "pref": "沖縄県",
    "city": "竹富町",
    "category": "community_day_service",
    "serviceType": "地域密着型通所介護",
    "capacity": null,
    "openDays": [
      "平日",
      "祝日"
    ],
    "openDaysNote": "-"
  },
  {
    "id": "4791300033",
    "name": "東村社協いきいきデイサービス",
    "kana": "ヒガシソンシャキョウイキイキデイサービス",
    "address": "沖縄県国頭郡東村字平良804保健福祉センター内 保健福祉センター内",
    "lat": 26.6329418,
    "lng": 128.1561051,
    "tel": "0980-43-2544",
    "url": "https://www.higashi-syakyo.com/",
    "pref": "沖縄県",
    "city": "東村",
    "category": "community_day_service",
    "serviceType": "地域密着型通所介護",
    "capacity": null,
    "openDays": [
      "平日",
      "祝日"
    ],
    "openDaysNote": "年末年始休み⇒12月29日～1月3日"
  },
  {
    "id": "4772200046",
    "name": "あったかホーム",
    "kana": "アッタカホーム",
    "address": "沖縄県中頭郡読谷村大湾５３６－２",
    "lat": 26.3704886,
    "lng": 127.751422,
    "tel": "098-921-5303",
    "url": "http://www.",
    "pref": "沖縄県",
    "city": "読谷村",
    "category": "community_day_service",
    "serviceType": "地域密着型通所介護",
    "capacity": 0,
    "openDays": [
      "平日",
      "土曜日",
      "祝日"
    ],
    "openDaysNote": ""
  },
  {
    "id": "4792200091",
    "name": "デイサービス　パキラ",
    "kana": "デイサービス　パキラ",
    "address": "沖縄県中頭郡読谷村字楚辺2200番地1",
    "lat": 26.3915005155541,
    "lng": 127.730684944714,
    "tel": "098-956-8501",
    "url": "",
    "pref": "沖縄県",
    "city": "読谷村",
    "category": "community_day_service",
    "serviceType": "地域密着型通所介護",
    "capacity": 0,
    "openDays": [
      "平日",
      "祝日"
    ],
    "openDaysNote": "非常災害時（台風等）は状態により休業。"
  },
  {
    "id": "4772200418",
    "name": "デイサービスセンターあかりⅡ",
    "kana": "デイサービスセンターアカリツー",
    "address": "沖縄県中頭郡読谷村字古堅637-6",
    "lat": 26.3698303,
    "lng": 127.7473333,
    "tel": "098-923-3990",
    "url": "",
    "pref": "沖縄県",
    "city": "読谷村",
    "category": "community_day_service",
    "serviceType": "地域密着型通所介護",
    "capacity": 0,
    "openDays": [
      "平日",
      "土曜日",
      "祝日"
    ],
    "openDaysNote": "１月３日が定休日の日曜日に当たる場合は１２月３１日は営業する。"
  },
  {
    "id": "4772200269",
    "name": "デイサービス活きる家",
    "kana": "デイサービスイキルイエ",
    "address": "沖縄県中頭郡読谷村字都屋443番地",
    "lat": 26.3886977082699,
    "lng": 127.724870016947,
    "tel": "098-957-1518",
    "url": "",
    "pref": "沖縄県",
    "city": "読谷村",
    "category": "community_day_service",
    "serviceType": "地域密着型通所介護",
    "capacity": 0,
    "openDays": [
      "平日",
      "土曜日",
      "祝日"
    ],
    "openDaysNote": ""
  },
  {
    "id": "4792200083",
    "name": "リハビックス　読谷店",
    "kana": "リハビックスヨミタンテン",
    "address": "沖縄県中頭郡読谷村字古堅740",
    "lat": 26.3678259,
    "lng": 127.7449449,
    "tel": "098-923-0895",
    "url": "https://bestlife-okinawa.co.jp/",
    "pref": "沖縄県",
    "city": "読谷村",
    "category": "community_day_service",
    "serviceType": "地域密着型通所介護",
    "capacity": 18,
    "openDays": [
      "平日"
    ],
    "openDaysNote": "非常災害時は状態により休業（改行）台風接近時は公共交通機関の運行状況に合わせ判断"
  },
  {
    "id": "4770103325",
    "name": "GENKINEXT那覇松島",
    "kana": "ゲンキネクストナハマツシマ",
    "address": "沖縄県那覇市松島2-1-23",
    "lat": 26.2263781141698,
    "lng": 127.711352491402,
    "tel": "098-943-2782",
    "url": "",
    "pref": "沖縄県",
    "city": "那覇市",
    "category": "community_day_service",
    "serviceType": "地域密着型通所介護",
    "capacity": null,
    "openDays": [
      "平日",
      "土曜日",
      "祝日"
    ],
    "openDaysNote": ""
  },
  {
    "id": "4770102772",
    "name": "GENKINEXT那覇真地",
    "kana": "ゲンキネクストナハマアジ",
    "address": "沖縄県那覇市真地156-2金城ハイツ１F 金城ハイツ１F",
    "lat": 26.2054562,
    "lng": 127.7227038,
    "tel": "098-851-3617",
    "url": "867naha@kaigo-next.com",
    "pref": "沖縄県",
    "city": "那覇市",
    "category": "community_day_service",
    "serviceType": "地域密着型通所介護",
    "capacity": 120,
    "openDays": [
      "平日",
      "祝日"
    ],
    "openDaysNote": "旧盆及び年末年始は休み"
  },
  {
    "id": "4770102731",
    "name": "こくば愛日和デイサービス",
    "kana": "コクバアイビヨリデイサービス",
    "address": "沖縄県那覇市国場52番地1階　１－A 1階　１－A",
    "lat": 26.1973982,
    "lng": 127.7028618,
    "tel": "０９８－８５５－１５５１",
    "url": "",
    "pref": "沖縄県",
    "city": "那覇市",
    "category": "community_day_service",
    "serviceType": "地域密着型通所介護",
    "capacity": 18,
    "openDays": [
      "平日",
      "土曜日",
      "祝日"
    ],
    "openDaysNote": ""
  },
  {
    "id": "4790100723",
    "name": "デイサービス　なかゆくい処　具志",
    "kana": "デイサービス　ナカユクイドコロ　グシ",
    "address": "沖縄県那覇市具志二丁目20番61号",
    "lat": 26.1812005733776,
    "lng": 127.659682149074,
    "tel": "098-952-4555",
    "url": "https://www.nakayukuidokoro.jp",
    "pref": "沖縄県",
    "city": "那覇市",
    "category": "community_day_service",
    "serviceType": "地域密着型通所介護",
    "capacity": 10,
    "openDays": [
      "平日",
      "祝日"
    ],
    "openDaysNote": ""
  },
  {
    "id": "4770101931",
    "name": "デイサービス　楽",
    "kana": "デイサービス　ラク",
    "address": "沖縄県那覇市識名1-4-16",
    "lat": 26.2071443,
    "lng": 127.7034971,
    "tel": "098-987-4812",
    "url": "https://partner-raku.com/",
    "pref": "沖縄県",
    "city": "那覇市",
    "category": "community_day_service",
    "serviceType": "地域密着型通所介護",
    "capacity": 0,
    "openDays": [
      "平日",
      "土曜日",
      "祝日"
    ],
    "openDaysNote": "台風等の荒天時や暴風警報発令に伴う公共交通機関の運休時には、臨時休業する場合があります。"
  },
  {
    "id": "4770102814",
    "name": "デイサービス・ヤングハート",
    "kana": "デイサービス・ヤングハート",
    "address": "沖縄県那覇市具志二丁目２０番６１号",
    "lat": 26.1812065,
    "lng": 127.6597185,
    "tel": "098-996-2402",
    "url": "",
    "pref": "沖縄県",
    "city": "那覇市",
    "category": "community_day_service",
    "serviceType": "地域密着型通所介護",
    "capacity": 10,
    "openDays": [
      "平日",
      "祝日"
    ],
    "openDaysNote": ""
  },
  {
    "id": "4770102152",
    "name": "デイサービスかりゆしプラザ",
    "kana": "デイサービスカリユシプラザ",
    "address": "那覇市松尾2丁目2-25-4メディカルプラザまつお3F メディカルプラザまつお3F",
    "lat": 26.2140846,
    "lng": 127.6851424,
    "tel": "098-866-0408",
    "url": "",
    "pref": "沖縄県",
    "city": "那覇市",
    "category": "community_day_service",
    "serviceType": "地域密着型通所介護",
    "capacity": 5,
    "openDays": [
      "平日",
      "土曜日",
      "祝日"
    ],
    "openDaysNote": "年末年始休業（12/31～1/3）"
  },
  {
    "id": "4790100772",
    "name": "デイサービスかりゆしプラザ三原",
    "kana": "デイサービスカリユシプラザミハラ",
    "address": "沖縄県那覇市三原2丁目17-19",
    "lat": 26.2131423,
    "lng": 127.700237,
    "tel": "098-996-7474",
    "url": "",
    "pref": "沖縄県",
    "city": "那覇市",
    "category": "community_day_service",
    "serviceType": "地域密着型通所介護",
    "capacity": 0,
    "openDays": [
      "平日"
    ],
    "openDaysNote": ""
  },
  {
    "id": "4770102616",
    "name": "デイサービスセンター歩夢",
    "kana": "デイサービスセンターホーム",
    "address": "沖縄県那覇市古波蔵3-11-15パークサイドKYOWA1階 パークサイドKYOWA1階",
    "lat": 26.1995451,
    "lng": 127.6851133,
    "tel": "098-851-3407",
    "url": "",
    "pref": "沖縄県",
    "city": "那覇市",
    "category": "community_day_service",
    "serviceType": "地域密着型通所介護",
    "capacity": 0,
    "openDays": [
      "平日"
    ],
    "openDaysNote": "台風時は公共交通機関の運休時に施設もお休みとする。"
  },
  {
    "id": "4770100594",
    "name": "ディサービスゆめ・いきいき",
    "kana": "ディサービスユメ・イキイキ",
    "address": "沖縄県那覇市字仲井真２４０番地２",
    "lat": 26.195357,
    "lng": 127.7099001,
    "tel": "098-836-2755",
    "url": "",
    "pref": "沖縄県",
    "city": "那覇市",
    "category": "community_day_service",
    "serviceType": "地域密着型通所介護",
    "capacity": 0,
    "openDays": [
      "平日",
      "土曜日",
      "祝日"
    ],
    "openDaysNote": ""
  },
  {
    "id": "4770102186",
    "name": "デイサービス安樹",
    "kana": "デイサービス　アンジュ",
    "address": "沖縄県那覇市首里末吉3-13-11F",
    "lat": 26.2318752,
    "lng": 127.7078453,
    "tel": "098-887-3232",
    "url": "",
    "pref": "沖縄県",
    "city": "那覇市",
    "category": "community_day_service",
    "serviceType": "地域密着型通所介護",
    "capacity": null,
    "openDays": [
      "平日",
      "土曜日",
      "祝日"
    ],
    "openDaysNote": "台風等が発生した場合、サービス提供を中止することがあります。"
  },
  {
    "id": "4790100608",
    "name": "なかゆくい処　琉花",
    "kana": "ナカユクイドコロ　リュウカ",
    "address": "沖縄県那覇市国場188-2-1階",
    "lat": 26.1978244323796,
    "lng": 127.699298622106,
    "tel": "098-834-8909",
    "url": "nakayukuidokoro.jp",
    "pref": "沖縄県",
    "city": "那覇市",
    "category": "community_day_service",
    "serviceType": "地域密着型通所介護",
    "capacity": 0,
    "openDays": [
      "平日",
      "土曜日",
      "祝日"
    ],
    "openDaysNote": ""
  },
  {
    "id": "4770102335",
    "name": "まあるデイサービスセンター",
    "kana": "マアルデイサービスセンター",
    "address": "沖縄県那覇市三原1-25-14",
    "lat": 26.2123973,
    "lng": 127.698918,
    "tel": "098-854-5508",
    "url": "http://hp.kaipoke.biz/mzu/index.html",
    "pref": "沖縄県",
    "city": "那覇市",
    "category": "community_day_service",
    "serviceType": "地域密着型通所介護",
    "capacity": 12,
    "openDays": [
      "平日",
      "土曜日",
      "祝日"
    ],
    "openDaysNote": ""
  },
  {
    "id": "4790100806",
    "name": "リハビックスプラス県庁前",
    "kana": "リハビックスプラスケンチョウマエテン",
    "address": "沖縄県那覇市楚辺３丁目１－１",
    "lat": 26.2087778,
    "lng": 127.6822876,
    "tel": "080-6494-8476",
    "url": "https://bestlife-okinawa.co.jp/rehabix",
    "pref": "沖縄県",
    "city": "那覇市",
    "category": "community_day_service",
    "serviceType": "地域密着型通所介護",
    "capacity": 0,
    "openDays": [
      "平日"
    ],
    "openDaysNote": ""
  },
  {
    "id": "4770102582",
    "name": "リハビックス那覇店",
    "kana": "リハビックスナハテン",
    "address": "沖縄県那覇市樋川2-13-12サンマルポ城間２　１F サンマルポ城間２　１F",
    "lat": 26.2090408,
    "lng": 127.6900897,
    "tel": "988349071",
    "url": "https://bestlife-okinawa.co.jp/",
    "pref": "沖縄県",
    "city": "那覇市",
    "category": "community_day_service",
    "serviceType": "地域密着型通所介護",
    "capacity": 0,
    "openDays": [
      "平日"
    ],
    "openDaysNote": ""
  },
  {
    "id": "4790100749",
    "name": "リハビリデイサービス　ポジリハ那覇店",
    "kana": "リハビリデイサービスポジリハナハテン",
    "address": "沖縄県那覇市曙1丁目14-32",
    "lat": 26.2355877,
    "lng": 127.6813319,
    "tel": "989639614",
    "url": "https://www.posiriha.com/",
    "pref": "沖縄県",
    "city": "那覇市",
    "category": "community_day_service",
    "serviceType": "地域密着型通所介護",
    "capacity": null,
    "openDays": [
      "平日"
    ],
    "openDaysNote": ""
  },
  {
    "id": "4770102590",
    "name": "リハビリデイサービスぴたさぽ三原",
    "kana": "リハビリデイサービスピタサポミハラ",
    "address": "沖縄県那覇市三原２丁目１番２８号　１階トレンディーハウス喜納 トレンディーハウス喜納",
    "lat": 26.210391,
    "lng": 127.700411,
    "tel": "098-835-0088",
    "url": "http://carepro.ryuseki-group.jp/",
    "pref": "沖縄県",
    "city": "那覇市",
    "category": "community_day_service",
    "serviceType": "地域密着型通所介護",
    "capacity": 0,
    "openDays": [
      "平日",
      "祝日"
    ],
    "openDaysNote": ""
  },
  {
    "id": "4790100731",
    "name": "リハビリ型デイサービスFitすまいる",
    "kana": "リハビリガタデイサービスフィットスマイル",
    "address": "沖縄県那覇市識名1‐1‐19",
    "lat": 26.2068986,
    "lng": 127.7017773,
    "tel": "098‐996‐3263",
    "url": "",
    "pref": "沖縄県",
    "city": "那覇市",
    "category": "community_day_service",
    "serviceType": "地域密着型通所介護",
    "capacity": 0,
    "openDays": [
      "平日",
      "祝日"
    ],
    "openDaysNote": ""
  },
  {
    "id": "4770102962",
    "name": "リハビリ型デイサービス息吹",
    "kana": "リハビリガタデイサービスイブキ",
    "address": "沖縄県那覇市銘苅322-1真栄城ビルⅡ　1F 真栄城ビルⅡ　1F",
    "lat": 26.2384899537949,
    "lng": 127.696340754324,
    "tel": "098-975-7413",
    "url": "",
    "pref": "沖縄県",
    "city": "那覇市",
    "category": "community_day_service",
    "serviceType": "地域密着型通所介護",
    "capacity": 0,
    "openDays": [
      "平日",
      "祝日"
    ],
    "openDaysNote": ""
  },
  {
    "id": "4770102939",
    "name": "家族の手ﾃﾞｨｻｰﾋﾞｽ石嶺",
    "kana": "カゾクノテデイサービスイシミネ",
    "address": "沖縄県那覇市首里石嶺町3－162－1",
    "lat": 26.2301124,
    "lng": 127.7265353,
    "tel": "098-884-0730",
    "url": "",
    "pref": "沖縄県",
    "city": "那覇市",
    "category": "community_day_service",
    "serviceType": "地域密着型通所介護",
    "capacity": 10,
    "openDays": [
      "平日",
      "土曜日",
      "日曜日",
      "祝日"
    ],
    "openDaysNote": ""
  },
  {
    "id": "4790100533",
    "name": "寄宮偕生園デイサービスセンター",
    "kana": "ヨリミヤカイセイエンデイサービスセンター",
    "address": "沖縄県那覇市寄宮２丁目５番８号リブラハウス１階 リブラハウス１階",
    "lat": 26.2067635,
    "lng": 127.696195,
    "tel": "098-851-7750",
    "url": "http://www.kaiseikai.org/",
    "pref": "沖縄県",
    "city": "那覇市",
    "category": "community_day_service",
    "serviceType": "地域密着型通所介護",
    "capacity": 0,
    "openDays": [
      "平日"
    ],
    "openDaysNote": "地震・台風等の天災その他事業所の責に帰すべからざる事由によりサービス実施ができなくなった場合は、サービス提供を中止することがあります。"
  },
  {
    "id": "4770102707",
    "name": "元気広場　識名",
    "kana": "ゲンキヒロバ　シキナ",
    "address": "沖縄県那覇市長田１丁目４番２号タマキビル１Ｆ タマキビル１Ｆ",
    "lat": 26.2059693,
    "lng": 127.7005308,
    "tel": "０９８－８３６－６５５５",
    "url": "http://www.genkihiroba.jp/c_6.html#shikina",
    "pref": "沖縄県",
    "city": "那覇市",
    "category": "community_day_service",
    "serviceType": "地域密着型通所介護",
    "capacity": 10,
    "openDays": [
      "平日",
      "祝日"
    ],
    "openDaysNote": "祝祭日は営業します。"
  },
  {
    "id": "4790100483",
    "name": "合同会社　恵笑",
    "kana": "ゴウドウガイシャ　ケイショウ",
    "address": "沖縄県那覇市長田2丁目26番10号サンテラス長田101 サンテラス長田101",
    "lat": 26.2027116,
    "lng": 127.7071276,
    "tel": "098‐851‐9752",
    "url": "",
    "pref": "沖縄県",
    "city": "那覇市",
    "category": "community_day_service",
    "serviceType": "地域密着型通所介護",
    "capacity": 15,
    "openDays": [
      "平日",
      "土曜日",
      "祝日"
    ],
    "openDaysNote": "台風、災害時はバス等の公共機関の停止をもって休止となります。"
  },
  {
    "id": "4770102012",
    "name": "指定地域密着型通所介護事業所ゆくいば",
    "kana": "シテイチイキミッチャクガタツウショカイゴジギョウショユクイバ",
    "address": "古波蔵1丁目30番1号桜山荘「共に生きるまち」こはぐら　305 桜山荘「共に生きるまち」こはぐら　305",
    "lat": 26.1993293,
    "lng": 127.6915606,
    "tel": "098-851-7468",
    "url": "",
    "pref": "沖縄県",
    "city": "那覇市",
    "category": "community_day_service",
    "serviceType": "地域密着型通所介護",
    "capacity": 0,
    "openDays": [
      "平日",
      "土曜日",
      "祝日"
    ],
    "openDaysNote": "台風等災害時の臨時休業あり"
  },
  {
    "id": "4770101220",
    "name": "地域密着型通所介護　こまち",
    "kana": "チイキミッチャクガタツウショカイゴ　コマチ",
    "address": "沖縄県那覇市字天久798-11　1階",
    "lat": 26.2374661658292,
    "lng": 127.685819397237,
    "tel": "098-863-4525",
    "url": "www.naura-okinawa.com",
    "pref": "沖縄県",
    "city": "那覇市",
    "category": "community_day_service",
    "serviceType": "地域密着型通所介護",
    "capacity": 10,
    "openDays": [
      "平日",
      "土曜日",
      "祝日"
    ],
    "openDaysNote": ""
  },
  {
    "id": "4770103069",
    "name": "茶話本舗デイサービス小禄金城",
    "kana": "サワホンポデイサービスオロクカナグスク",
    "address": "沖縄県那覇市金城２丁目20-2",
    "lat": 26.2028463,
    "lng": 127.663853,
    "tel": "098-851-9178",
    "url": "",
    "pref": "沖縄県",
    "city": "那覇市",
    "category": "community_day_service",
    "serviceType": "地域密着型通所介護",
    "capacity": 10,
    "openDays": [
      "平日",
      "土曜日",
      "日曜日",
      "祝日"
    ],
    "openDaysNote": "３６５日２４時間年中無休"
  },
  {
    "id": "4770101972",
    "name": "通所介護事業所　デイサービス　　みずき",
    "kana": "ツウショカイゴジギョウショ　デイサービス　ミズキ",
    "address": "沖縄県那覇市鏡原町　31-21　１F",
    "lat": 26.1976807,
    "lng": 127.6783331,
    "tel": "098-851-9160",
    "url": "",
    "pref": "沖縄県",
    "city": "那覇市",
    "category": "community_day_service",
    "serviceType": "地域密着型通所介護",
    "capacity": 10,
    "openDays": [
      "平日"
    ],
    "openDaysNote": ""
  },
  {
    "id": "4770102293",
    "name": "歩家デイサービス",
    "kana": "アユムヤデイサービス",
    "address": "那覇市繁多川4丁目14-27",
    "lat": 26.2109088953511,
    "lng": 127.716675010226,
    "tel": "098-988-9523",
    "url": "http://ayumuya.net",
    "pref": "沖縄県",
    "city": "那覇市",
    "category": "community_day_service",
    "serviceType": "地域密着型通所介護",
    "capacity": 10,
    "openDays": [
      "平日",
      "土曜日",
      "日曜日",
      "祝日"
    ],
    "openDaysNote": ""
  },
  {
    "id": "4775600143",
    "name": "かふぇてりあ　愛日和　デイサービス",
    "kana": "カフェテリア　アイビヨリ　デイサービス",
    "address": "沖縄県南城市玉城字愛地361番地",
    "lat": 26.1606833,
    "lng": 127.7447376,
    "tel": "098-948-4071",
    "url": "",
    "pref": "沖縄県",
    "city": "南城市",
    "category": "community_day_service",
    "serviceType": "地域密着型通所介護",
    "capacity": 15,
    "openDays": [
      "平日",
      "祝日"
    ],
    "openDaysNote": ""
  },
  {
    "id": "4775600259",
    "name": "デイサービス　すまいる南城",
    "kana": "デイサービス　スマイルナンジョウ",
    "address": "南城市字つきしろ1739番地43",
    "lat": 26.1619317,
    "lng": 127.7954108,
    "tel": "098－948-7765",
    "url": "",
    "pref": "沖縄県",
    "city": "南城市",
    "category": "community_day_service",
    "serviceType": "地域密着型通所介護",
    "capacity": 15,
    "openDays": [
      "平日",
      "土曜日",
      "祝日"
    ],
    "openDaysNote": ""
  },
  {
    "id": "4775600168",
    "name": "デイサービス　愛里寿",
    "kana": "デイサービス　アイリス",
    "address": "沖縄県南城市玉城字喜良原１１３－１　1階",
    "lat": 26.1536990015564,
    "lng": 127.776811330966,
    "tel": "098-948-7136",
    "url": "",
    "pref": "沖縄県",
    "city": "南城市",
    "category": "community_day_service",
    "serviceType": "地域密着型通所介護",
    "capacity": null,
    "openDays": [
      "平日",
      "土曜日",
      "祝日"
    ],
    "openDaysNote": "サービス提供時間（９：００～１６：１５）"
  },
  {
    "id": "4775600317",
    "name": "デイサービスすまいるＬｉｆｅ",
    "kana": "デイサービススマイルライフ",
    "address": "沖縄県南城市佐敷字新開1番地114",
    "lat": 26.176777,
    "lng": 127.7750871,
    "tel": "098-988-1061",
    "url": "",
    "pref": "沖縄県",
    "city": "南城市",
    "category": "community_day_service",
    "serviceType": "地域密着型通所介護",
    "capacity": 0,
    "openDays": [
      "平日",
      "土曜日",
      "祝日"
    ],
    "openDaysNote": ""
  },
  {
    "id": "4795600040",
    "name": "デイサービス凜RIN",
    "kana": "デイサービスリン",
    "address": "沖縄県南城市佐敷津波古937-1城間アパート1階 城間アパート1階",
    "lat": 26.1854961,
    "lng": 127.7741463,
    "tel": "098-947-2323",
    "url": "https://www.commemoi.okinawa/",
    "pref": "沖縄県",
    "city": "南城市",
    "category": "community_day_service",
    "serviceType": "地域密着型通所介護",
    "capacity": 0,
    "openDays": [
      "平日",
      "祝日"
    ],
    "openDaysNote": "台風等により公共交通機関運休時、臨時休業"
  },
  {
    "id": "4775600325",
    "name": "ハピネス百名",
    "kana": "ハピネスヒャクナ",
    "address": "沖縄県南城市玉城字百名７番地",
    "lat": 26.1416106353702,
    "lng": 127.791900665607,
    "tel": "098-917-1366",
    "url": "mifuyuyu@outlook.jp",
    "pref": "沖縄県",
    "city": "南城市",
    "category": "community_day_service",
    "serviceType": "地域密着型通所介護",
    "capacity": 18,
    "openDays": [
      "平日",
      "土曜日",
      "祝日"
    ],
    "openDaysNote": ""
  },
  {
    "id": "4775600291",
    "name": "運動型デイサービス　R.core",
    "kana": "ウンドウガタデイサービスアールコア",
    "address": "沖縄県南城市玉城字船越773-1ルネッサンス石原　1階 ルネッサンス石原　1階",
    "lat": 26.1569226,
    "lng": 127.7489456,
    "tel": "098-988-9705",
    "url": "www.r-core.jp",
    "pref": "沖縄県",
    "city": "南城市",
    "category": "community_day_service",
    "serviceType": "地域密着型通所介護",
    "capacity": 40,
    "openDays": [
      "平日"
    ],
    "openDaysNote": ""
  },
  {
    "id": "4773600301",
    "name": "デイサービス　くばごころ",
    "kana": "デイサービス　クバゴコロ",
    "address": "沖縄県島尻郡南風原町字喜屋武422番地1　1F",
    "lat": 26.1821229,
    "lng": 127.73126,
    "tel": "098-888-5725",
    "url": "",
    "pref": "沖縄県",
    "city": "南風原町",
    "category": "community_day_service",
    "serviceType": "地域密着型通所介護",
    "capacity": 50,
    "openDays": [
      "平日",
      "土曜日",
      "祝日"
    ],
    "openDaysNote": "他自然災害時（台風等）や研修、健康診断等で臨時休業あり。"
  },
  {
    "id": "4773600228",
    "name": "デイサービス　くばの葉",
    "kana": "デイサービス　クバノハ",
    "address": "沖縄県島尻郡南風原町字新川522番地1F",
    "lat": 26.2121224,
    "lng": 127.7289668,
    "tel": "098-911-1058",
    "url": "",
    "pref": "沖縄県",
    "city": "南風原町",
    "category": "community_day_service",
    "serviceType": "地域密着型通所介護",
    "capacity": 50,
    "openDays": [
      "平日",
      "祝日"
    ],
    "openDaysNote": "台風等自然災害や研修、健康診断等臨時休業あり。"
  },
  {
    "id": "4773600194",
    "name": "デイサービス　フェアネス",
    "kana": "デイサービス　フェアネス",
    "address": "沖縄県島尻郡南風原町字本部490-6",
    "lat": 26.1924189,
    "lng": 127.727157,
    "tel": "098-987-1901",
    "url": "",
    "pref": "沖縄県",
    "city": "南風原町",
    "category": "community_day_service",
    "serviceType": "地域密着型通所介護",
    "capacity": 18,
    "openDays": [
      "平日",
      "土曜日",
      "祝日"
    ],
    "openDaysNote": ""
  },
  {
    "id": "4773600327",
    "name": "デイサービスフォスタ津嘉山",
    "kana": "デイサービス　フォスタツカザン",
    "address": "沖縄県南風原町津嘉山1535番地",
    "lat": 26.1867380141022,
    "lng": 127.710224632146,
    "tel": "098-995-8777",
    "url": "",
    "pref": "沖縄県",
    "city": "南風原町",
    "category": "community_day_service",
    "serviceType": "地域密着型通所介護",
    "capacity": 24,
    "openDays": [
      "平日",
      "祝日"
    ],
    "openDaysNote": "職員研修会の為、お休みがあります。お問い合わせくださいませ。"
  },
  {
    "id": "4775700026",
    "name": "デイサービスきらり",
    "kana": "デイサービスキラリ",
    "address": "沖縄県八重瀬町字屋宜原229番地3",
    "lat": 26.1648329,
    "lng": 127.7239227,
    "tel": "098-840-7872",
    "url": "http://wa-oki.or.jp",
    "pref": "沖縄県",
    "city": "八重瀬町",
    "category": "community_day_service",
    "serviceType": "地域密着型通所介護",
    "capacity": 16,
    "openDays": [
      "平日",
      "土曜日",
      "祝日"
    ],
    "openDaysNote": "台風時公共交通機関が機能せず、送迎時に危険であると判断された場合は、臨時休業とする。"
  },
  {
    "id": "4775700059",
    "name": "デイサービス愛ランド",
    "kana": "デイサービスアイランド",
    "address": "沖縄県八重瀬町屋宜原110番-3番地アイニティ１Ｆ アイニティ１Ｆ",
    "lat": 26.161496531009,
    "lng": 127.728412510451,
    "tel": "098-998-0049",
    "url": "",
    "pref": "沖縄県",
    "city": "八重瀬町",
    "category": "community_day_service",
    "serviceType": "地域密着型通所介護",
    "capacity": 0,
    "openDays": [
      "平日",
      "土曜日",
      "祝日"
    ],
    "openDaysNote": "台風や災害時は休業する場合がある"
  },
  {
    "id": "4795400086",
    "name": "ハートフルケアデイサービス",
    "kana": "ハートフルケアデイサービス",
    "address": "沖縄県豊見城市長堂１４６番地",
    "lat": 26.1815835,
    "lng": 127.7069764,
    "tel": "０９８－８５６－８０５１",
    "url": "",
    "pref": "沖縄県",
    "city": "豊見城市",
    "category": "community_day_service",
    "serviceType": "地域密着型通所介護",
    "capacity": 3,
    "openDays": [
      "平日",
      "土曜日",
      "祝日"
    ],
    "openDaysNote": ""
  },
  {
    "id": "4772400208",
    "name": "デイサービスまほろば",
    "kana": "デイサービスマホロバ",
    "address": "沖縄県中頭郡北谷町字吉原790-15",
    "lat": 26.3189554331963,
    "lng": 127.776845046697,
    "tel": "098-989-0838",
    "url": "https://mah.okinawa",
    "pref": "沖縄県",
    "city": "北谷町",
    "category": "community_day_service",
    "serviceType": "地域密着型通所介護",
    "capacity": 10,
    "openDays": [
      "平日",
      "土曜日",
      "祝日"
    ],
    "openDaysNote": ""
  },
  {
    "id": "4772400067",
    "name": "指定通所介護事業所　和",
    "kana": "シテイツウショカイゴジギョウショ　ナゴミ",
    "address": "沖縄県中頭郡北谷町字吉原1178番地",
    "lat": 26.3119421,
    "lng": 127.765959,
    "tel": "098-926-2292",
    "url": "",
    "pref": "沖縄県",
    "city": "北谷町",
    "category": "community_day_service",
    "serviceType": "地域密着型通所介護",
    "capacity": 0,
    "openDays": [
      "平日",
      "土曜日",
      "祝日"
    ],
    "openDaysNote": "台風などの天災にて営業できないとき"
  },
  {
    "id": "4792400055",
    "name": "通所介護ハピネス",
    "kana": "ツウショカイゴ　ハピネス",
    "address": "沖縄県北谷町上勢頭８２１－６",
    "lat": 26.3269266238192,
    "lng": 127.768837718385,
    "tel": "０９８－９２６－１２０８",
    "url": "",
    "pref": "沖縄県",
    "city": "北谷町",
    "category": "community_day_service",
    "serviceType": "地域密着型通所介護",
    "capacity": 18,
    "openDays": [
      "平日",
      "土曜日",
      "祝日"
    ],
    "openDaysNote": "入浴サービス　レクリエーション　集団体操"
  },
  {
    "id": "4771500149",
    "name": "きずなエイジングけあ通所介護事業所",
    "kana": "キズナエイジングケアツウショカイゴジギョウショ",
    "address": "沖縄県国頭郡本部町字山川1033番地1",
    "lat": 26.6847164934114,
    "lng": 127.878310931565,
    "tel": "0980-48-2323",
    "url": "",
    "pref": "沖縄県",
    "city": "本部町",
    "category": "community_day_service",
    "serviceType": "地域密着型通所介護",
    "capacity": 10,
    "openDays": [
      "平日",
      "土曜日",
      "日曜日",
      "祝日"
    ],
    "openDaysNote": "自然災害等に係る警報発令中休み"
  },
  {
    "id": "4771500156",
    "name": "デイサービス　ローズヒルホーム",
    "kana": "デイサービス　ローズヒルホーム",
    "address": "沖縄県国頭郡本部町野原482番地1",
    "lat": 26.6702168213592,
    "lng": 127.900987789055,
    "tel": "0980-47-6644",
    "url": "www.rose-home.co.jp",
    "pref": "沖縄県",
    "city": "本部町",
    "category": "community_day_service",
    "serviceType": "地域密着型通所介護",
    "capacity": 0,
    "openDays": [
      "平日",
      "土曜日",
      "祝日"
    ],
    "openDaysNote": "旧7月15日、12月31日及び1月1日～1月3日は休み（改行）暴風警報発令中は休み"
  },
  {
    "id": "4771500107",
    "name": "デイサービス美らさ",
    "kana": "デイサービスチュラサ",
    "address": "沖縄県国頭郡本部町字谷茶４５２番地１",
    "lat": 26.6585094,
    "lng": 127.8871485,
    "tel": "0980-47-7820",
    "url": "http://wa-oki.or.jp/",
    "pref": "沖縄県",
    "city": "本部町",
    "category": "community_day_service",
    "serviceType": "地域密着型通所介護",
    "capacity": 15,
    "openDays": [
      "平日",
      "土曜日",
      "祝日"
    ],
    "openDaysNote": "台風時公共交通機関が運休たなった、小中学校が休校になった時にくわえ送迎時に危険であると判断される場合は、臨時休業とする。"
  },
  {
    "id": "4771500099",
    "name": "糸通所介護事業所",
    "kana": "イトツウショカイゴジギョウショ",
    "address": "沖縄県国頭郡本部町字辺名地２８－２番地",
    "lat": 26.6543778256447,
    "lng": 127.893770933623,
    "tel": "0980-43-1544",
    "url": "",
    "pref": "沖縄県",
    "city": "本部町",
    "category": "community_day_service",
    "serviceType": "地域密着型通所介護",
    "capacity": 15,
    "openDays": [
      "平日",
      "土曜日",
      "祝日"
    ],
    "openDaysNote": "台風時、暴風警報が発令された時は臨時休業とする。"
  },
  {
    "id": "4771500057",
    "name": "通所介護事業所　あづま家",
    "kana": "ツウショカイゴジギョウショ　アヅマヤ",
    "address": "沖縄県国頭郡本部町字東４４６-１番地",
    "lat": 26.6569353,
    "lng": 127.902736,
    "tel": "0980-47-5328",
    "url": "http://www.",
    "pref": "沖縄県",
    "city": "本部町",
    "category": "community_day_service",
    "serviceType": "地域密着型通所介護",
    "capacity": 18,
    "openDays": [
      "平日",
      "土曜日",
      "祝日"
    ],
    "openDaysNote": "元旦以外の祝日は営業"
  },
  {
    "id": "4771500073",
    "name": "通所介護事業所とうばる",
    "kana": "ツウショカイゴジギョウショトウバル",
    "address": "沖縄県国頭郡本部町豊原１１-１",
    "lat": 26.6909141,
    "lng": 127.8924809,
    "tel": "0980-48-2335",
    "url": "",
    "pref": "沖縄県",
    "city": "本部町",
    "category": "community_day_service",
    "serviceType": "地域密着型通所介護",
    "capacity": 0,
    "openDays": [
      "平日",
      "土曜日",
      "祝日"
    ],
    "openDaysNote": "特になし"
  },
  {
    "id": "4790900080",
    "name": "RE・ROLE",
    "kana": "リ・ロール",
    "address": "沖縄県名護市大西3丁目7番25号",
    "lat": 26.5963352,
    "lng": 127.9848045,
    "tel": "0980-43-5454",
    "url": "",
    "pref": "沖縄県",
    "city": "名護市",
    "category": "community_day_service",
    "serviceType": "地域密着型通所介護",
    "capacity": 0,
    "openDays": [
      "平日"
    ],
    "openDaysNote": ""
  },
  {
    "id": "4790900205",
    "name": "かりゆしぬ村コミュニティーリハビリパーク",
    "kana": "カリユシヌムラコミュニティーリハビリーパーク",
    "address": "沖縄県名護市字宇茂佐１８７３番地の１",
    "lat": 26.612344107907,
    "lng": 127.966068740528,
    "tel": "0980-43-8812",
    "url": "https://www.shoraikai.com/",
    "pref": "沖縄県",
    "city": "名護市",
    "category": "community_day_service",
    "serviceType": "地域密着型通所介護",
    "capacity": 0,
    "openDays": [
      "平日",
      "祝日"
    ],
    "openDaysNote": ""
  },
  {
    "id": "4790900114",
    "name": "デイサービス　幸屋",
    "kana": "デイサービス　サチヤ",
    "address": "沖縄県名護市大東一丁目15番16号",
    "lat": 26.5899535,
    "lng": 127.9862782,
    "tel": "0980-43-6663",
    "url": "",
    "pref": "沖縄県",
    "city": "名護市",
    "category": "community_day_service",
    "serviceType": "地域密着型通所介護",
    "capacity": 0,
    "openDays": [
      "平日",
      "土曜日",
      "祝日"
    ],
    "openDaysNote": ""
  },
  {
    "id": "4790900171",
    "name": "デイサービスけあさぽプラス",
    "kana": "デイサービスケアサポプラス",
    "address": "沖縄県名護市大中1丁目8-9　1階",
    "lat": 26.5908592,
    "lng": 127.9835683,
    "tel": "0980-43-9533",
    "url": "info@care-okinawa.com",
    "pref": "沖縄県",
    "city": "名護市",
    "category": "community_day_service",
    "serviceType": "地域密着型通所介護",
    "capacity": 18,
    "openDays": [
      "平日"
    ],
    "openDaysNote": ""
  },
  {
    "id": "4790900130",
    "name": "デイサービスけあさぽ宇茂佐の森",
    "kana": "デイサービスケアサポウムサノモリ",
    "address": "沖縄県名護市宇茂佐の森二丁目８番４",
    "lat": 26.6011337,
    "lng": 127.9591291,
    "tel": "0980-43-9531",
    "url": "http://hp.kaipoke.biz/6nx/",
    "pref": "沖縄県",
    "city": "名護市",
    "category": "community_day_service",
    "serviceType": "地域密着型通所介護",
    "capacity": 18,
    "openDays": [
      "平日",
      "土曜日",
      "祝日"
    ],
    "openDaysNote": ""
  },
  {
    "id": "4770900605",
    "name": "デイサービスささえ",
    "kana": "デイサービスササエ",
    "address": "沖縄県名護市東江4丁目8番7号（103）",
    "lat": 26.5841014348602,
    "lng": 127.985311207935,
    "tel": "0980-43-5515",
    "url": "",
    "pref": "沖縄県",
    "city": "名護市",
    "category": "community_day_service",
    "serviceType": "地域密着型通所介護",
    "capacity": 2,
    "openDays": [
      "平日",
      "土曜日",
      "祝日"
    ],
    "openDaysNote": "台風接近時、警報及び注意報の発令に合わせて、中止することがあります。"
  },
  {
    "id": "4790900064",
    "name": "デイサービスセンターみやび",
    "kana": "デイサービスセンターミヤビ",
    "address": "沖縄県名護市宮里５丁目15-15島津BLDG　1F",
    "lat": 26.5983257783745,
    "lng": 127.972295645667,
    "tel": "0980-53-5446",
    "url": "info@miyabi.okinawa",
    "pref": "沖縄県",
    "city": "名護市",
    "category": "community_day_service",
    "serviceType": "地域密着型通所介護",
    "capacity": 16,
    "openDays": [
      "平日",
      "土曜日",
      "祝日"
    ],
    "openDaysNote": "日曜日以外は勤務表による週休があり。12/31～1/３迄休み"
  },
  {
    "id": "4790900189",
    "name": "デイサービスてぃださん2号館",
    "kana": "デイサービスティダサン2ゴウカン",
    "address": "沖縄県名護市字為又507-64",
    "lat": 26.6114638,
    "lng": 127.975674,
    "tel": "0980-54-3132",
    "url": "",
    "pref": "沖縄県",
    "city": "名護市",
    "category": "community_day_service",
    "serviceType": "地域密着型通所介護",
    "capacity": 0,
    "openDays": [
      "平日",
      "土曜日",
      "祝日"
    ],
    "openDaysNote": "台風接近時災害時は、利用者の安全を優先して休業することがある。"
  },
  {
    "id": "4770900522",
    "name": "デイサービスなまからどー",
    "kana": "デイサービスナマカラドー",
    "address": "大北１丁目５－２１－１",
    "lat": 26.5995227212128,
    "lng": 127.99273533971,
    "tel": "０９８０－５４－２２２８",
    "url": "",
    "pref": "沖縄県",
    "city": "名護市",
    "category": "community_day_service",
    "serviceType": "地域密着型通所介護",
    "capacity": 0,
    "openDays": [
      "平日",
      "土曜日",
      "祝日"
    ],
    "openDaysNote": ""
  },
  {
    "id": "4770900530",
    "name": "デイサービス稲田",
    "kana": "デイサービスイナダ",
    "address": "沖縄県名護市我部祖河９１番地１",
    "lat": 26.6220258,
    "lng": 128.0025412,
    "tel": "0980-43-0015",
    "url": "http://deyserbsic-inada.com",
    "pref": "沖縄県",
    "city": "名護市",
    "category": "community_day_service",
    "serviceType": "地域密着型通所介護",
    "capacity": 0,
    "openDays": [
      "平日",
      "土曜日",
      "祝日"
    ],
    "openDaysNote": ""
  },
  {
    "id": "4770900613",
    "name": "デイサービス久志交じり",
    "kana": "デイサービスクシマジリ",
    "address": "沖縄県名護市字三原２５２－５番地",
    "lat": 26.5577150976643,
    "lng": 128.077356368864,
    "tel": "0980-55-8023",
    "url": "",
    "pref": "沖縄県",
    "city": "名護市",
    "category": "community_day_service",
    "serviceType": "地域密着型通所介護",
    "capacity": 4,
    "openDays": [
      "平日",
      "土曜日",
      "日曜日",
      "祝日"
    ],
    "openDaysNote": ""
  },
  {
    "id": "4770900886",
    "name": "デイサービス手水の園",
    "kana": "デイサービステミズノエン",
    "address": "沖縄県名護市許田201番地11",
    "lat": 26.539467,
    "lng": 127.969396,
    "tel": "0980-52-7145",
    "url": "",
    "pref": "沖縄県",
    "city": "名護市",
    "category": "community_day_service",
    "serviceType": "地域密着型通所介護",
    "capacity": 0,
    "openDays": [
      "平日",
      "土曜日",
      "祝日"
    ],
    "openDaysNote": "12月31日～1月3日まで休み"
  },
  {
    "id": "4790900098",
    "name": "デイサービス美和の里",
    "kana": "デイサービスミワノサト",
    "address": "沖縄県名護市字済井出125番地",
    "lat": 26.6705168,
    "lng": 128.0203902,
    "tel": "0980-52-8111",
    "url": "miwanosato3885@herb.ocn.ne.jp",
    "pref": "沖縄県",
    "city": "名護市",
    "category": "community_day_service",
    "serviceType": "地域密着型通所介護",
    "capacity": null,
    "openDays": [
      "平日",
      "土曜日",
      "日曜日",
      "祝日"
    ],
    "openDaysNote": ""
  },
  {
    "id": "4770900720",
    "name": "ハッスル・マッスルデイサービス",
    "kana": "ハッスル・マッスルデイサービス",
    "address": "沖縄県名護市東江1丁目25番14号メゾンロイヤル１０２号 メゾンロイヤル１０２号",
    "lat": 26.5839003,
    "lng": 127.9864659,
    "tel": "0980-54-4100",
    "url": "",
    "pref": "沖縄県",
    "city": "名護市",
    "category": "community_day_service",
    "serviceType": "地域密着型通所介護",
    "capacity": 18,
    "openDays": [
      "平日",
      "土曜日",
      "祝日"
    ],
    "openDaysNote": ""
  },
  {
    "id": "4790900155",
    "name": "リハビックス名護店",
    "kana": "リハビックスナゴテン",
    "address": "沖縄県名護市宮里5丁目13-44",
    "lat": 26.5974788,
    "lng": 127.9715491,
    "tel": "0980-43-7628",
    "url": "https://bestlife-okinawa.co.jp",
    "pref": "沖縄県",
    "city": "名護市",
    "category": "community_day_service",
    "serviceType": "地域密着型通所介護",
    "capacity": 0,
    "openDays": [
      "平日"
    ],
    "openDaysNote": ""
  },
  {
    "id": "4770900712",
    "name": "合同会社　Cee　Port",
    "kana": "ゴウドウカイシャ　シーポート",
    "address": "沖縄県名護市字数久田295-5",
    "lat": 26.5677016,
    "lng": 127.9840499,
    "tel": "0980-54-8625",
    "url": "",
    "pref": "沖縄県",
    "city": "名護市",
    "category": "community_day_service",
    "serviceType": "地域密着型通所介護",
    "capacity": 13,
    "openDays": [
      "平日",
      "土曜日",
      "祝日"
    ],
    "openDaysNote": "年始休暇あり　1月1日～1月3日"
  },
  {
    "id": "4770900548",
    "name": "指定地域密着型通所介護事業所　瑞穂の郷",
    "kana": "シテイチイキミッチャクガタツウショカイゴジギョウショ　ミズホノサト",
    "address": "沖縄県名護市字親川571番地",
    "lat": 26.6165289,
    "lng": 128.0151302,
    "tel": "0980-58-1631",
    "url": "http://www.suijukai.com",
    "pref": "沖縄県",
    "city": "名護市",
    "category": "community_day_service",
    "serviceType": "地域密着型通所介護",
    "capacity": 0,
    "openDays": [
      "平日",
      "土曜日",
      "祝日"
    ],
    "openDaysNote": "12月31日～1月3日休み"
  },
  {
    "id": "4770900639",
    "name": "地域密着型デイサービス　てぃださん",
    "kana": "チイキミッチャクガタデイサービス　ティダサン",
    "address": "沖縄県名護市字為又507番地64",
    "lat": 26.6115226,
    "lng": 127.9756463,
    "tel": "0980-54-3132",
    "url": "",
    "pref": "沖縄県",
    "city": "名護市",
    "category": "community_day_service",
    "serviceType": "地域密着型通所介護",
    "capacity": 15,
    "openDays": [
      "平日",
      "土曜日",
      "祝日"
    ],
    "openDaysNote": "台風接近時災害時は、利用者の安全を優先して休業することがある。"
  },
  {
    "id": "4770900076",
    "name": "北部ケア通所介護事業所",
    "kana": "ホクブケアツウショカイゴジギョウショ",
    "address": "沖縄県名護市字宇茂佐915-10",
    "lat": 26.5965318,
    "lng": 127.9641308,
    "tel": "0980-53-6780",
    "url": "http://www.",
    "pref": "沖縄県",
    "city": "名護市",
    "category": "community_day_service",
    "serviceType": "地域密着型通所介護",
    "capacity": 0,
    "openDays": [
      "平日",
      "土曜日",
      "祝日"
    ],
    "openDaysNote": ""
  }
]