[
  {
    "id": "2571700331",
    "name": "デイサービス　いしころ民家",
    "kana": "デイサービス　イシコロミンカ",
    "address": "滋賀県愛知郡愛荘町市１３４９番地１",
    "lat": 35.1780903959857,
    "lng": 136.217700925778,
    "tel": "749295677",
    "url": "",
    "pref": "滋賀県",
    "city": "愛荘町",
    "category": "community_day_service",
    "serviceType": "地域密着型通所介護",
    "capacity": 10,
    "openDays": [
      "平日",
      "土曜日",
      "祝日"
    ],
    "openDaysNote": ""
  },
  {
    "id": "2571700026",
    "name": "デイサービスセンター愛・ユー",
    "kana": "デイサービスセンターアイ・ユー",
    "address": "滋賀県愛知郡愛荘町石橋905",
    "lat": 35.1815922,
    "lng": 136.2208534,
    "tel": "0749-42-7158",
    "url": "",
    "pref": "滋賀県",
    "city": "愛荘町",
    "category": "community_day_service",
    "serviceType": "地域密着型通所介護",
    "capacity": null,
    "openDays": [
      "平日",
      "土曜日",
      "祝日"
    ],
    "openDaysNote": ""
  },
  {
    "id": "2571700265",
    "name": "ゆらぎデイサービス",
    "kana": "ユラギデイサービス",
    "address": "滋賀県愛知郡愛荘町島川1321",
    "lat": 35.1707682,
    "lng": 136.2310516,
    "tel": "0749-42-6006",
    "url": "",
    "pref": "滋賀県",
    "city": "愛荘町",
    "category": "community_day_service",
    "serviceType": "地域密着型通所介護",
    "capacity": 10,
    "openDays": [
      "平日"
    ],
    "openDaysNote": ""
  },
  {
    "id": "2591700071",
    "name": "愛荘町社会福祉協議会秦荘通所介護事業所",
    "kana": "アイショウチョウシャカイフクシキョウギカイハタショウツウショカイゴジギョウショ",
    "address": "滋賀県愛知郡愛荘町安孫子1216番地-１愛荘町立福祉センターラポール秦荘　いきいきセンター 愛荘町立福祉センターラポール秦荘　いきいきセンター",
    "lat": 35.1730211,
    "lng": 136.2498506,
    "tel": "0749-37-8063",
    "url": "http://aisho-shakyo.or.jp",
    "pref": "滋賀県",
    "city": "愛荘町",
    "category": "community_day_service",
    "serviceType": "地域密着型通所介護",
    "capacity": null,
    "openDays": [
      "平日",
      "祝日"
    ],
    "openDaysNote": "天候等により利用者の安全が確保できないと判断した場合中止します。"
  },
  {
    "id": "2590400301",
    "name": "あかつきの郷",
    "kana": "アカツキノサト",
    "address": "滋賀県近江八幡市東町414番地",
    "lat": 35.1069901,
    "lng": 136.0855745,
    "tel": "0748-37-8126",
    "url": "",
    "pref": "滋賀県",
    "city": "近江八幡市",
    "category": "community_day_service",
    "serviceType": "地域密着型通所介護",
    "capacity": 18,
    "openDays": [
      "平日",
      "土曜日",
      "祝日"
    ],
    "openDaysNote": ""
  },
  {
    "id": "2590400277",
    "name": "アクティブプラ虹",
    "kana": "アクティブプラザニジ",
    "address": "滋賀県近江八幡市長田町2200",
    "lat": 35.1307532,
    "lng": 136.1237609,
    "tel": "0748-37-1458",
    "url": "https://mihan-shiga.site",
    "pref": "滋賀県",
    "city": "近江八幡市",
    "category": "community_day_service",
    "serviceType": "地域密着型通所介護",
    "capacity": null,
    "openDays": [
      "平日",
      "土曜日",
      "祝日"
    ],
    "openDaysNote": ""
  },
  {
    "id": "2570400594",
    "name": "アシストケアクラブ近江八幡",
    "kana": "アシストケアクラブオウミハチマン",
    "address": "滋賀県近江八幡市池田本町２２８番地",
    "lat": 35.1031481,
    "lng": 136.0808965,
    "tel": "0748-37-2113",
    "url": "https://www.assist-care-club.com/",
    "pref": "滋賀県",
    "city": "近江八幡市",
    "category": "community_day_service",
    "serviceType": "地域密着型通所介護",
    "capacity": 0,
    "openDays": [
      "平日",
      "祝日"
    ],
    "openDaysNote": ""
  },
  {
    "id": "2590400335",
    "name": "いっぷく老蘇庵",
    "kana": "イップクオイソアン",
    "address": "安土町西老蘇964番地",
    "lat": 35.1248705,
    "lng": 136.1548281,
    "tel": "0748-46-8581",
    "url": "mihan-shiga.site",
    "pref": "滋賀県",
    "city": "近江八幡市",
    "category": "community_day_service",
    "serviceType": "地域密着型通所介護",
    "capacity": null,
    "openDays": [
      "平日",
      "土曜日",
      "祝日"
    ],
    "openDaysNote": ""
  },
  {
    "id": "2570400602",
    "name": "デイサービス　やおみ",
    "kana": "デイサービス　ヤオミ",
    "address": "滋賀県近江八幡市中村町628番地",
    "lat": 35.1336765,
    "lng": 136.0883356,
    "tel": "0748-33-4854",
    "url": "",
    "pref": "滋賀県",
    "city": "近江八幡市",
    "category": "community_day_service",
    "serviceType": "地域密着型通所介護",
    "capacity": 10,
    "openDays": [
      "平日",
      "土曜日",
      "日曜日",
      "祝日"
    ],
    "openDaysNote": ""
  },
  {
    "id": "2570400685",
    "name": "デイサービス　わがや",
    "kana": "デイサービス　ワガヤ",
    "address": "滋賀県近江八幡市末広町２８０番地4",
    "lat": 35.1118606,
    "lng": 136.1511061,
    "tel": "0748-37-7863",
    "url": "",
    "pref": "滋賀県",
    "city": "近江八幡市",
    "category": "community_day_service",
    "serviceType": "地域密着型通所介護",
    "capacity": 0,
    "openDays": [
      "平日",
      "土曜日",
      "祝日"
    ],
    "openDaysNote": ""
  },
  {
    "id": "2570400628",
    "name": "デイサービスセンター　にしき",
    "kana": "デイサービスセンター　ニシキ",
    "address": "滋賀県近江八幡市安土町上豊浦６２８－８デイサービスセンター　にしき デイサービスセンター　にしき",
    "lat": 35.1378242,
    "lng": 136.1386745,
    "tel": "0748-26-5400",
    "url": "http://nishiki.shiga-saku.net/",
    "pref": "滋賀県",
    "city": "近江八幡市",
    "category": "community_day_service",
    "serviceType": "地域密着型通所介護",
    "capacity": 18,
    "openDays": [
      "平日",
      "土曜日",
      "祝日"
    ],
    "openDaysNote": ""
  },
  {
    "id": "2570400354",
    "name": "デイサービスセンターむべの里・島",
    "kana": "ムベノサト・シマ",
    "address": "滋賀県近江八幡市北津田町346-15",
    "lat": 35.1682644989021,
    "lng": 136.083065450262,
    "tel": "0748-32-3651",
    "url": "http://kohitujikai.net/kaigo/",
    "pref": "滋賀県",
    "city": "近江八幡市",
    "category": "community_day_service",
    "serviceType": "地域密着型通所介護",
    "capacity": 126,
    "openDays": [
      "平日",
      "土曜日",
      "日曜日",
      "祝日"
    ],
    "openDaysNote": ""
  },
  {
    "id": "2570400545",
    "name": "ベストライフデイサービスセンター近江八幡",
    "kana": "ベストライフデイサービスセンターオウミハチマン",
    "address": "滋賀県近江八幡市白鳥町30-3敷島第2ビル103号",
    "lat": 35.1231116,
    "lng": 136.0957042,
    "tel": "0748-36-6020",
    "url": "http://bestlifesiga.com",
    "pref": "滋賀県",
    "city": "近江八幡市",
    "category": "community_day_service",
    "serviceType": "地域密着型通所介護",
    "capacity": 10,
    "openDays": [
      "平日",
      "土曜日",
      "祝日"
    ],
    "openDaysNote": ""
  },
  {
    "id": "2590400194",
    "name": "ポラリスデイサービスセンター鷹飼",
    "kana": "ポラリスデイサービスセンタータカカイ",
    "address": "滋賀県近江八幡市鷹飼町北3-18-5",
    "lat": 35.1293005788872,
    "lng": 136.105064119049,
    "tel": "0748-31-0310",
    "url": "",
    "pref": "滋賀県",
    "city": "近江八幡市",
    "category": "community_day_service",
    "serviceType": "地域密着型通所介護",
    "capacity": 0,
    "openDays": [
      "平日",
      "土曜日",
      "祝日"
    ],
    "openDaysNote": ""
  },
  {
    "id": "2590400251",
    "name": "多世代型通所事業所　里",
    "kana": "タセダイガタツウショジギョウショ　サト",
    "address": "滋賀県近江八幡市小田町79-16",
    "lat": 35.1157964,
    "lng": 136.0453736,
    "tel": "0748-26-1050",
    "url": "http://hp.kaipoke.biz/b49/",
    "pref": "滋賀県",
    "city": "近江八幡市",
    "category": "community_day_service",
    "serviceType": "地域密着型通所介護",
    "capacity": 0,
    "openDays": [
      "平日",
      "土曜日"
    ],
    "openDaysNote": ""
  },
  {
    "id": "2570400610",
    "name": "長命デイサービス　ちとせ",
    "kana": "チョウメイデイサービス　チトセ",
    "address": "滋賀県近江八幡市長命寺町３７－１",
    "lat": 35.1579404,
    "lng": 136.0633184,
    "tel": "0748－31－1117",
    "url": "http://www.shoushikai.or.jp",
    "pref": "滋賀県",
    "city": "近江八幡市",
    "category": "community_day_service",
    "serviceType": "地域密着型通所介護",
    "capacity": 18,
    "openDays": [
      "平日",
      "土曜日",
      "祝日"
    ],
    "openDaysNote": ""
  },
  {
    "id": "2570400511",
    "name": "通所介護事業所ディサービス桐原",
    "kana": "ツウショカイゴジギョウショディサービスキリハラ",
    "address": "滋賀県近江八幡市丸の内町5-122",
    "lat": 35.1116410036829,
    "lng": 136.058591166396,
    "tel": "0748-31-2331",
    "url": "",
    "pref": "滋賀県",
    "city": "近江八幡市",
    "category": "community_day_service",
    "serviceType": "地域密着型通所介護",
    "capacity": 0,
    "openDays": [
      "平日",
      "土曜日",
      "祝日"
    ],
    "openDaysNote": ""
  },
  {
    "id": "2571200613",
    "name": "デイサービス　リハビリサポート結",
    "kana": "デイサービス　リハビリサポートユイ",
    "address": "下鈎878-1ＨＡＴ’ｓ101号室 ＨＡＴ’ｓ101号室",
    "lat": 35.0337817,
    "lng": 135.9839193,
    "tel": "077-574-8448",
    "url": "",
    "pref": "滋賀県",
    "city": "栗東市",
    "category": "community_day_service",
    "serviceType": "地域密着型通所介護",
    "capacity": 15,
    "openDays": [
      "平日",
      "祝日"
    ],
    "openDaysNote": ""
  },
  {
    "id": "2571200589",
    "name": "デイサービス　赤とんぼ",
    "kana": "デイサービス　アカトンボ",
    "address": "手原6-6-35",
    "lat": 35.0293623380078,
    "lng": 135.997655450926,
    "tel": "077-554-2110",
    "url": "http://hp.kaipoke.biz/r99/",
    "pref": "滋賀県",
    "city": "栗東市",
    "category": "community_day_service",
    "serviceType": "地域密着型通所介護",
    "capacity": 10,
    "openDays": [
      "平日",
      "土曜日",
      "祝日"
    ],
    "openDaysNote": ""
  },
  {
    "id": "2591200171",
    "name": "デイサービスセンターこんぜの郷",
    "kana": "コンゼノサト",
    "address": "滋賀県栗東市御園2025番地2",
    "lat": 34.9956698,
    "lng": 136.0239239,
    "tel": "775580056",
    "url": "http://www.hachikikai.com",
    "pref": "滋賀県",
    "city": "栗東市",
    "category": "community_day_service",
    "serviceType": "地域密着型通所介護",
    "capacity": null,
    "openDays": [
      "平日",
      "祝日"
    ],
    "openDaysNote": "上記以外の営業、休業に関しては事前に告知して実施します。"
  },
  {
    "id": "2571200399",
    "name": "デイサービス華",
    "kana": "デイサービスハナ",
    "address": "御園1822-2",
    "lat": 35.0025977,
    "lng": 136.0241073,
    "tel": "077-558-0123",
    "url": "",
    "pref": "滋賀県",
    "city": "栗東市",
    "category": "community_day_service",
    "serviceType": "地域密着型通所介護",
    "capacity": 15,
    "openDays": [
      "平日",
      "土曜日",
      "祝日"
    ],
    "openDaysNote": ""
  },
  {
    "id": "2591200148",
    "name": "リハプライド栗東",
    "kana": "リハプライドリットウ",
    "address": "滋賀県栗東市川辺201-4",
    "lat": 35.0188415,
    "lng": 135.992235,
    "tel": "077-576-7515",
    "url": "https://www.rehapride.co.jp/moriyama/",
    "pref": "滋賀県",
    "city": "栗東市",
    "category": "community_day_service",
    "serviceType": "地域密着型通所介護",
    "capacity": 18,
    "openDays": [
      "平日",
      "祝日"
    ],
    "openDaysNote": "祝日は営業（改行）（改行）その他天災（台風・大雪）などでお休みする場合があります。"
  },
  {
    "id": "2571200407",
    "name": "栗東リハビリテーションセンターゆたか",
    "kana": "リットウリハビリテーションセンターユタカ",
    "address": "滋賀県栗東市北中小路27-1",
    "lat": 35.0412889,
    "lng": 135.9762838,
    "tel": "077-553-4605",
    "url": "https://hp.kaipoke.biz/f25/",
    "pref": "滋賀県",
    "city": "栗東市",
    "category": "community_day_service",
    "serviceType": "地域密着型通所介護",
    "capacity": 0,
    "openDays": [
      "平日",
      "土曜日"
    ],
    "openDaysNote": ""
  },
  {
    "id": "2591200080",
    "name": "多世代型通所事業所　志",
    "kana": "タセダイガタツウショジギョウショ　ココロザシ",
    "address": "滋賀県栗東市御園1016-11F 1F",
    "lat": 34.9967512,
    "lng": 136.0216908,
    "tel": "077-575-4222",
    "url": "https://www.kokorozashi1003.com/index.html",
    "pref": "滋賀県",
    "city": "栗東市",
    "category": "community_day_service",
    "serviceType": "地域密着型通所介護",
    "capacity": 10,
    "openDays": [
      "平日",
      "土曜日",
      "日曜日",
      "祝日"
    ],
    "openDaysNote": ""
  },
  {
    "id": "2571200514",
    "name": "東和デイサービス大宝の家",
    "kana": "トウワダイホウイエ",
    "address": "綣8丁目19-31",
    "lat": 35.0396558,
    "lng": 135.9766921,
    "tel": "077-551-0456",
    "url": "http://towa-care.net/",
    "pref": "滋賀県",
    "city": "栗東市",
    "category": "community_day_service",
    "serviceType": "地域密着型通所介護",
    "capacity": 18,
    "openDays": [
      "平日",
      "土曜日",
      "祝日"
    ],
    "openDaysNote": ""
  },
  {
    "id": "2572300354",
    "name": "さつきデイサービスセンター",
    "kana": "サツキデイサービスセンター",
    "address": "中央二丁目125番地",
    "lat": 35.0051242739561,
    "lng": 136.083074198797,
    "tel": "0748-71-3157",
    "url": "http://ikuta-hospital.com/satuki-ds",
    "pref": "滋賀県",
    "city": "湖南市",
    "category": "community_day_service",
    "serviceType": "地域密着型通所介護",
    "capacity": 18,
    "openDays": [
      "平日",
      "土曜日",
      "祝日"
    ],
    "openDaysNote": ""
  },
  {
    "id": "2592300152",
    "name": "デイケアの家おしどり",
    "kana": "デイケアノイエオシドリ",
    "address": "滋賀県湖南市サイドタウン３－１６－７２",
    "lat": 35.0466203,
    "lng": 136.0627969,
    "tel": "0748-74-0005",
    "url": "",
    "pref": "滋賀県",
    "city": "湖南市",
    "category": "community_day_service",
    "serviceType": "地域密着型通所介護",
    "capacity": 18,
    "openDays": [
      "平日",
      "土曜日",
      "祝日"
    ],
    "openDaysNote": ""
  },
  {
    "id": "2572300156",
    "name": "デイサービスセンターらく",
    "kana": "デイサービスセンターラク",
    "address": "滋賀県湖南市西峰町1-1",
    "lat": 35.0139363,
    "lng": 136.1268745,
    "tel": "0748-75-7196",
    "url": "http://www.glow.or.jp/",
    "pref": "滋賀県",
    "city": "湖南市",
    "category": "community_day_service",
    "serviceType": "地域密着型通所介護",
    "capacity": 0,
    "openDays": [
      "平日"
    ],
    "openDaysNote": "年末年始6日間休業、研修による休業あり"
  },
  {
    "id": "2592300145",
    "name": "ゆめとまの家おしどり",
    "kana": "ユメトマノイエオシドリ",
    "address": "滋賀県湖南市サイドタウン３丁目8-33",
    "lat": 35.04449,
    "lng": 136.0630164,
    "tel": "0748-74-8880",
    "url": "http://chiiroba.jp",
    "pref": "滋賀県",
    "city": "湖南市",
    "category": "community_day_service",
    "serviceType": "地域密着型通所介護",
    "capacity": 12,
    "openDays": [
      "平日",
      "祝日"
    ],
    "openDaysNote": "年末年始の休業日１２月３０日～１月３日"
  },
  {
    "id": "2572300255",
    "name": "リハビリデイサービス　いきいき下田",
    "kana": "リハビリデイサービス　イキイキシモダ",
    "address": "滋賀県湖南市下田4171番地3",
    "lat": 35.0297677,
    "lng": 136.1279433,
    "tel": "0748-75-0375",
    "url": "https://www.ikik-simoda.com",
    "pref": "滋賀県",
    "city": "湖南市",
    "category": "community_day_service",
    "serviceType": "地域密着型通所介護",
    "capacity": 37,
    "openDays": [
      "平日",
      "祝日"
    ],
    "openDaysNote": ""
  },
  {
    "id": "2591400219",
    "name": "ＪＡゆうハートリハステージほそはら",
    "kana": "ジェイエイユウハートリハステージホソハラ",
    "address": "滋賀県甲賀市信楽町柞原793",
    "lat": 34.8614831,
    "lng": 136.0262664,
    "tel": "0748-70-6455",
    "url": "",
    "pref": "滋賀県",
    "city": "甲賀市",
    "category": "community_day_service",
    "serviceType": "地域密着型通所介護",
    "capacity": 0,
    "openDays": [
      "平日"
    ],
    "openDaysNote": ""
  },
  {
    "id": "2591400243",
    "name": "ＮＰＯしがらきデイセンター",
    "kana": "エヌピーオーシガラキデイセンター",
    "address": "滋賀県甲賀市信楽町江田６６－４",
    "lat": 34.8601982,
    "lng": 136.0461332,
    "tel": "0748-64-1021",
    "url": "https://npominakuchi.jp/",
    "pref": "滋賀県",
    "city": "甲賀市",
    "category": "community_day_service",
    "serviceType": "地域密着型通所介護",
    "capacity": null,
    "openDays": [
      "平日"
    ],
    "openDaysNote": ""
  },
  {
    "id": "2571400700",
    "name": "がんばるステーション",
    "kana": "ガンバルステーション",
    "address": "水口町南林口１７",
    "lat": 34.9715247,
    "lng": 136.1593729,
    "tel": "0748-62-0263",
    "url": "",
    "pref": "滋賀県",
    "city": "甲賀市",
    "category": "community_day_service",
    "serviceType": "地域密着型通所介護",
    "capacity": 0,
    "openDays": [
      "平日"
    ],
    "openDaysNote": ""
  },
  {
    "id": "2591400250",
    "name": "しゃかいふくしほうじん　あいしんかい　はないちご",
    "kana": "社会福祉法人愛心会　花イチゴ",
    "address": "滋賀県甲賀市水口町北泉二丁目７１番地",
    "lat": 34.9864181,
    "lng": 136.1372546,
    "tel": "0748-63-1161",
    "url": "https://r.goope.jp/shion/free/kessankoukoku",
    "pref": "滋賀県",
    "city": "甲賀市",
    "category": "community_day_service",
    "serviceType": "地域密着型通所介護",
    "capacity": null,
    "openDays": [
      "平日"
    ],
    "openDaysNote": ""
  },
  {
    "id": "2591400292",
    "name": "デイサービスすみれ弐番館",
    "kana": "デイサービス　スミレニバンカン",
    "address": "水口町城内４番９号",
    "lat": 34.9731773,
    "lng": 136.1666257,
    "tel": "748-76-4375",
    "url": "",
    "pref": "滋賀県",
    "city": "甲賀市",
    "category": "community_day_service",
    "serviceType": "地域密着型通所介護",
    "capacity": 10,
    "openDays": [
      "平日",
      "土曜日",
      "祝日"
    ],
    "openDaysNote": ""
  },
  {
    "id": "2571400817",
    "name": "デイサービスセンター　みなくち　みんなの家",
    "kana": "デイサービスセンター　ミナクチ　ミンナノイエ",
    "address": "水口町本丸2-54",
    "lat": 34.9726023,
    "lng": 136.1641587,
    "tel": "0748-76-3091",
    "url": "http://chiiroba.jp",
    "pref": "滋賀県",
    "city": "甲賀市",
    "category": "community_day_service",
    "serviceType": "地域密着型通所介護",
    "capacity": 10,
    "openDays": [
      "平日",
      "土曜日",
      "祝日"
    ],
    "openDaysNote": ""
  },
  {
    "id": "2571400809",
    "name": "デイサービスセンターささえ愛",
    "kana": "デイサービスセンターササエアイ",
    "address": "滋賀県甲賀市甲賀町田堵野516番地1",
    "lat": 34.8966645,
    "lng": 136.2246388,
    "tel": "0748-88-5115",
    "url": "",
    "pref": "滋賀県",
    "city": "甲賀市",
    "category": "community_day_service",
    "serviceType": "地域密着型通所介護",
    "capacity": 18,
    "openDays": [
      "平日",
      "祝日"
    ],
    "openDaysNote": "サービス提供時間においては、介護保険で定める時間延長利用可能"
  },
  {
    "id": "2571400536",
    "name": "デイサービスセンター四季の里",
    "kana": "デイサービスセンターシキノサト",
    "address": "滋賀県甲賀市甲賀町隠岐２１７７番地四季の里 四季の里",
    "lat": 34.9324956508658,
    "lng": 136.19505602209,
    "tel": "0748-88-8363",
    "url": "http://www.d-shikinosato.com",
    "pref": "滋賀県",
    "city": "甲賀市",
    "category": "community_day_service",
    "serviceType": "地域密着型通所介護",
    "capacity": 14,
    "openDays": [
      "平日",
      "祝日"
    ],
    "openDaysNote": "天候異変の場合（台風も電話対応しております、お電話下さい。）また、変則的な、ご利用・介護サ－ビも可能です"
  },
  {
    "id": "2591400284",
    "name": "デイサービスみどり水口",
    "kana": "デイサービスミドリミナクチ",
    "address": "滋賀県甲賀市水口町牛飼395--11",
    "lat": 34.9454225,
    "lng": 136.1494868,
    "tel": "0748－78－0215",
    "url": "",
    "pref": "滋賀県",
    "city": "甲賀市",
    "category": "community_day_service",
    "serviceType": "地域密着型通所介護",
    "capacity": null,
    "openDays": [
      "平日",
      "土曜日",
      "日曜日",
      "祝日"
    ],
    "openDaysNote": ""
  },
  {
    "id": "2591400201",
    "name": "デイサービス董花庵",
    "kana": "デイサービス　スミレアン",
    "address": "水口町城内８番１号",
    "lat": 34.9730161,
    "lng": 136.1668871,
    "tel": "0748-76-4375",
    "url": "",
    "pref": "滋賀県",
    "city": "甲賀市",
    "category": "community_day_service",
    "serviceType": "地域密着型通所介護",
    "capacity": 18,
    "openDays": [
      "平日",
      "土曜日",
      "祝日"
    ],
    "openDaysNote": ""
  },
  {
    "id": "2591400193",
    "name": "ひなたぼっこ　げんき",
    "kana": "ヒナタボッコ　ゲンキ",
    "address": "滋賀県甲賀市水口町本綾野566番地の1",
    "lat": 34.9775124,
    "lng": 136.1692769,
    "tel": "0748-78-0278",
    "url": "http://hinata-bokko.org",
    "pref": "滋賀県",
    "city": "甲賀市",
    "category": "community_day_service",
    "serviceType": "地域密着型通所介護",
    "capacity": null,
    "openDays": [
      "平日",
      "土曜日"
    ],
    "openDaysNote": "営業日：火曜日・木曜日・土曜日"
  },
  {
    "id": "2591400300",
    "name": "ひなたぼっこかつらぎ",
    "kana": "ヒナタボッコカツラギ",
    "address": "滋賀県甲賀市甲南町葛木398番地",
    "lat": 34.9297693,
    "lng": 136.1828522,
    "tel": "0748-86-8875",
    "url": "https://hinata-bokko.org",
    "pref": "滋賀県",
    "city": "甲賀市",
    "category": "community_day_service",
    "serviceType": "地域密着型通所介護",
    "capacity": null,
    "openDays": [
      "平日",
      "土曜日"
    ],
    "openDaysNote": ""
  },
  {
    "id": "2591400136",
    "name": "レッツ倶楽部たかはし信楽",
    "kana": "レッツクラブタカハシシガラキ",
    "address": "滋賀県甲賀市信楽町牧1520-1",
    "lat": 34.9080979,
    "lng": 136.0763871,
    "tel": "0748-60-7413",
    "url": "https://www.lets-club.jp/shop/takahashi-shigaraki/",
    "pref": "滋賀県",
    "city": "甲賀市",
    "category": "community_day_service",
    "serviceType": "地域密着型通所介護",
    "capacity": 28,
    "openDays": [
      "平日",
      "祝日"
    ],
    "openDaysNote": "年末年始の休日：12月31日～1月3日"
  },
  {
    "id": "2571400155",
    "name": "甲賀荘デイサービスセンター",
    "kana": "コウガソウデイサービスセンター",
    "address": "甲賀市甲賀町大原中904",
    "lat": 34.9009445,
    "lng": 136.2273939,
    "tel": "0748-88-5723",
    "url": "https://kougakai.org/",
    "pref": "滋賀県",
    "city": "甲賀市",
    "category": "community_day_service",
    "serviceType": "地域密着型通所介護",
    "capacity": 0,
    "openDays": [
      "平日",
      "土曜日",
      "祝日"
    ],
    "openDaysNote": ""
  },
  {
    "id": "2571400833",
    "name": "樹の郷デイサービスセンター",
    "kana": "イツキノサトデイサービスセンター",
    "address": "甲賀市水口町山3309",
    "lat": 35.0041010267615,
    "lng": 136.175448994512,
    "tel": "0748-63-2900",
    "url": "http://www.shigaraki-itsuki.com/index.html",
    "pref": "滋賀県",
    "city": "甲賀市",
    "category": "community_day_service",
    "serviceType": "地域密着型通所介護",
    "capacity": 15,
    "openDays": [
      "平日"
    ],
    "openDaysNote": ""
  },
  {
    "id": "2571800222",
    "name": "デイサービスあかり",
    "kana": "デイサービスアカリ",
    "address": "滋賀県犬上郡甲良町大字在士７０２番地１",
    "lat": 35.2109876700396,
    "lng": 136.264609965346,
    "tel": "0749-38-8131",
    "url": "http://hp.kaipoke.biz/au6/61395/index_0004.html",
    "pref": "滋賀県",
    "city": "甲良町",
    "category": "community_day_service",
    "serviceType": "地域密着型通所介護",
    "capacity": 10,
    "openDays": [
      "平日",
      "土曜日",
      "日曜日",
      "祝日"
    ],
    "openDaysNote": "定休日は基本として無いが、年末年始休む場合もある"
  },
  {
    "id": "2571800131",
    "name": "デイサービス笑楽",
    "kana": "デイサービスショウラク",
    "address": "滋賀県犬上郡甲良町正楽寺１５０番地１",
    "lat": 35.1935036,
    "lng": 136.2818674,
    "tel": "0749-38-8118",
    "url": "http://www.",
    "pref": "滋賀県",
    "city": "甲良町",
    "category": "community_day_service",
    "serviceType": "地域密着型通所介護",
    "capacity": 10,
    "openDays": [
      "平日",
      "祝日"
    ],
    "openDaysNote": ""
  },
  {
    "id": "2571800198",
    "name": "甲良町デイサービスセンターかつらぎ",
    "kana": "コウラチョウデイサービスセンターカツラギ",
    "address": "下之郷１５０９",
    "lat": 35.2026436,
    "lng": 136.2566305,
    "tel": "0749-38-8233",
    "url": "http://www.suzukihealthcare.co.jp",
    "pref": "滋賀県",
    "city": "甲良町",
    "category": "community_day_service",
    "serviceType": "地域密着型通所介護",
    "capacity": 10,
    "openDays": [
      "平日",
      "土曜日",
      "祝日"
    ],
    "openDaysNote": ""
  },
  {
    "id": "2572200562",
    "name": "いく歩デイサービス近江今津",
    "kana": "イクホデイサービスオウミイマヅ",
    "address": "今津町弘川１５２０－３",
    "lat": 35.4081234,
    "lng": 136.0237819,
    "tel": "0740－24－7070",
    "url": "",
    "pref": "滋賀県",
    "city": "高島市",
    "category": "community_day_service",
    "serviceType": "地域密着型通所介護",
    "capacity": 18,
    "openDays": [
      "平日",
      "土曜日",
      "祝日"
    ],
    "openDaysNote": ""
  },
  {
    "id": "2572200588",
    "name": "おうみの里マキノデイサービスセンター",
    "kana": "オウミノサトマキノデイサービスセンター",
    "address": "滋賀県高島市マキノ町西浜748-2",
    "lat": 35.4573489,
    "lng": 136.0601407,
    "tel": "0740-20-2177",
    "url": "",
    "pref": "滋賀県",
    "city": "高島市",
    "category": "community_day_service",
    "serviceType": "地域密着型通所介護",
    "capacity": 15,
    "openDays": [
      "平日",
      "祝日"
    ],
    "openDaysNote": "サービス提供時間は9:00～16:30まで"
  },
  {
    "id": "2572200208",
    "name": "デイサービス　より愛",
    "kana": "デイサービス　ヨリアイ",
    "address": "滋賀県高島市新旭町針江２９１",
    "lat": 35.3568849,
    "lng": 136.0478285,
    "tel": "0740-25-5301",
    "url": "http://www.npo-genki.com",
    "pref": "滋賀県",
    "city": "高島市",
    "category": "community_day_service",
    "serviceType": "地域密着型通所介護",
    "capacity": 0,
    "openDays": [
      "平日",
      "土曜日",
      "祝日"
    ],
    "openDaysNote": ""
  },
  {
    "id": "2592200253",
    "name": "デイサービスさくら",
    "kana": "デイサービスサクラ",
    "address": "滋賀県高島市新旭町藁園1326番地2",
    "lat": 35.343842,
    "lng": 136.0502759,
    "tel": "0740-25-8261",
    "url": "kaorikai4123@yahoo.co.jp",
    "pref": "滋賀県",
    "city": "高島市",
    "category": "community_day_service",
    "serviceType": "地域密着型通所介護",
    "capacity": 12,
    "openDays": [
      "平日"
    ],
    "openDaysNote": ""
  },
  {
    "id": "2572200158",
    "name": "デイサービスセンターじゃがいもの家",
    "kana": "デイサービスセンタージャガイモノイエ",
    "address": "滋賀県高島市マキノ町浦345番地",
    "lat": 35.4881152,
    "lng": 136.0620488,
    "tel": "0740-28-8068",
    "url": "",
    "pref": "滋賀県",
    "city": "高島市",
    "category": "community_day_service",
    "serviceType": "地域密着型通所介護",
    "capacity": 10,
    "openDays": [
      "平日",
      "土曜日",
      "祝日"
    ],
    "openDaysNote": ""
  },
  {
    "id": "2592200287",
    "name": "デイサービスひより遊庵",
    "kana": "デイサービスヒヨリユウアン",
    "address": "滋賀県高島市新旭町北畑2-2-18",
    "lat": 35.3512581,
    "lng": 136.0321865,
    "tel": "0740-20-9036",
    "url": "",
    "pref": "滋賀県",
    "city": "高島市",
    "category": "community_day_service",
    "serviceType": "地域密着型通所介護",
    "capacity": null,
    "openDays": [
      "平日"
    ],
    "openDaysNote": ""
  },
  {
    "id": "2592200337",
    "name": "リハビリステーションオアフ",
    "kana": "リハビリステーションオアフ",
    "address": "滋賀県高島市朽木市場875-1",
    "lat": 35.3517317483459,
    "lng": 135.914496087419,
    "tel": "080-9165-7864",
    "url": "",
    "pref": "滋賀県",
    "city": "高島市",
    "category": "community_day_service",
    "serviceType": "地域密着型通所介護",
    "capacity": null,
    "openDays": [
      "平日",
      "土曜日"
    ],
    "openDaysNote": "火・木・土の半日デイサービス。"
  },
  {
    "id": "2572200604",
    "name": "リハビリデイサービスひまわり",
    "kana": "リハビリデイサービスヒマワリ",
    "address": "滋賀県高島市安曇川町田中299リハビリデイサービスひまわり リハビリデイサービスひまわり",
    "lat": 35.3328171334501,
    "lng": 136.017195889469,
    "tel": "0740-20-4252",
    "url": "",
    "pref": "滋賀県",
    "city": "高島市",
    "category": "community_day_service",
    "serviceType": "地域密着型通所介護",
    "capacity": 15,
    "openDays": [
      "平日",
      "土曜日",
      "祝日"
    ],
    "openDaysNote": ""
  },
  {
    "id": "2592200279",
    "name": "リハビリデイサービスほたる",
    "kana": "リハビリデイサービスホタル",
    "address": "滋賀県高島市鴨川平3丁目4番地９",
    "lat": 35.3114261,
    "lng": 135.9943446,
    "tel": "0740-20-4052",
    "url": "",
    "pref": "滋賀県",
    "city": "高島市",
    "category": "community_day_service",
    "serviceType": "地域密着型通所介護",
    "capacity": 0,
    "openDays": [
      "平日",
      "祝日"
    ],
    "openDaysNote": ""
  },
  {
    "id": "2592200196",
    "name": "機能訓練デイサービス　ウォーク",
    "kana": "キノウクンレンデイサービスウォーク",
    "address": "滋賀県高島市勝野2245-9",
    "lat": 35.2925102,
    "lng": 136.0107048,
    "tel": "0740-36-8103",
    "url": "",
    "pref": "滋賀県",
    "city": "高島市",
    "category": "community_day_service",
    "serviceType": "地域密着型通所介護",
    "capacity": 0,
    "openDays": [
      "平日"
    ],
    "openDaysNote": "お盆・年末年始はお休みです。"
  },
  {
    "id": "2570700845",
    "name": "すこやかの家・さくら",
    "kana": "スコヤカノイエ・サクラ",
    "address": "滋賀県守山市古高町98-9",
    "lat": 35.0522683,
    "lng": 135.9802195,
    "tel": "077-583-7718",
    "url": "",
    "pref": "滋賀県",
    "city": "守山市",
    "category": "community_day_service",
    "serviceType": "地域密着型通所介護",
    "capacity": 10,
    "openDays": [
      "平日",
      "土曜日",
      "祝日"
    ],
    "openDaysNote": ""
  },
  {
    "id": "2570700357",
    "name": "デイサービスあいむ今浜",
    "kana": "デイサービスアイムイマハマ",
    "address": "今浜町157-1",
    "lat": 35.1043338,
    "lng": 135.9651754,
    "tel": "077-584-3355",
    "url": "http://k-aimu.co.jp",
    "pref": "滋賀県",
    "city": "守山市",
    "category": "community_day_service",
    "serviceType": "地域密着型通所介護",
    "capacity": 40,
    "openDays": [
      "平日",
      "土曜日",
      "祝日"
    ],
    "openDaysNote": ""
  },
  {
    "id": "2570700837",
    "name": "でいさーびすらっくもりやまよしみ",
    "kana": "デイサービスラック守山吉身",
    "address": "滋賀県守山市吉身1丁目2-17",
    "lat": 35.0546323,
    "lng": 135.9975844,
    "tel": "077-582-7070",
    "url": "http://www.rac-kaigo.jp/",
    "pref": "滋賀県",
    "city": "守山市",
    "category": "community_day_service",
    "serviceType": "地域密着型通所介護",
    "capacity": 17,
    "openDays": [
      "平日",
      "土曜日",
      "祝日"
    ],
    "openDaysNote": "祝祭日は平常通り営業いたします。"
  },
  {
    "id": "2570700803",
    "name": "デイサービスラポール",
    "kana": "デイサービスラポール",
    "address": "滋賀県守山市守山６丁目１番５号",
    "lat": 35.0603038,
    "lng": 135.994207,
    "tel": "０７７ー５８１－２７９５",
    "url": "",
    "pref": "滋賀県",
    "city": "守山市",
    "category": "community_day_service",
    "serviceType": "地域密着型通所介護",
    "capacity": 18,
    "openDays": [
      "平日",
      "土曜日",
      "祝日"
    ],
    "openDaysNote": ""
  },
  {
    "id": "2570700662",
    "name": "デイサービス彩り",
    "kana": "デイサービスイロドリ",
    "address": "守山市焔魔堂町96番地の2",
    "lat": 35.0472412,
    "lng": 135.9841136,
    "tel": "077-514-1755",
    "url": "",
    "pref": "滋賀県",
    "city": "守山市",
    "category": "community_day_service",
    "serviceType": "地域密着型通所介護",
    "capacity": 10,
    "openDays": [
      "平日",
      "土曜日",
      "祝日"
    ],
    "openDaysNote": "定休日の時は電話対応しております"
  },
  {
    "id": "2590700239",
    "name": "デイサービス浜風",
    "kana": "デイサービスハマカゼ",
    "address": "滋賀県守山市木浜町1730番地1デイサービス浜風 デイサービス浜風",
    "lat": 35.1049300772638,
    "lng": 135.951147864418,
    "tel": "077-598-6888",
    "url": "",
    "pref": "滋賀県",
    "city": "守山市",
    "category": "community_day_service",
    "serviceType": "地域密着型通所介護",
    "capacity": 18,
    "openDays": [
      "平日",
      "土曜日",
      "祝日"
    ],
    "openDaysNote": ""
  },
  {
    "id": "2570700381",
    "name": "デイホームきむらさんち",
    "kana": "デイホームキムラサンチ",
    "address": "守山市杉江町714-3",
    "lat": 35.0739566,
    "lng": 135.9553439,
    "tel": "077-585-1211",
    "url": "http://caresupportai.jp",
    "pref": "滋賀県",
    "city": "守山市",
    "category": "community_day_service",
    "serviceType": "地域密着型通所介護",
    "capacity": 10,
    "openDays": [
      "平日"
    ],
    "openDaysNote": "会社の年間休日、日数により休日営業する時がある。"
  },
  {
    "id": "2570700498",
    "name": "デイホームみずほのきむらさんち",
    "kana": "デイホームミズホノキムラサンチ",
    "address": "守山市水保町1338番地の5",
    "lat": 35.1152433,
    "lng": 135.9486598,
    "tel": "077-585-8848",
    "url": "",
    "pref": "滋賀県",
    "city": "守山市",
    "category": "community_day_service",
    "serviceType": "地域密着型通所介護",
    "capacity": 10,
    "openDays": [
      "平日"
    ],
    "openDaysNote": ""
  },
  {
    "id": "2590700189",
    "name": "まごころの家・守山",
    "kana": "マゴコロノイエ・モリヤマ",
    "address": "滋賀県守山市立入町37",
    "lat": 35.0512359393377,
    "lng": 136.007947890877,
    "tel": "077-514-3930",
    "url": "http://www.sofia-magokoro.com/",
    "pref": "滋賀県",
    "city": "守山市",
    "category": "community_day_service",
    "serviceType": "地域密着型通所介護",
    "capacity": 0,
    "openDays": [
      "平日",
      "土曜日",
      "祝日"
    ],
    "openDaysNote": ""
  },
  {
    "id": "2590700171",
    "name": "リハステーション守山　デイサービス",
    "kana": "リハステーションモリヤマ　デイサービス",
    "address": "滋賀県守山市守山6丁目11-51",
    "lat": 35.0612595,
    "lng": 135.993384,
    "tel": "077-514-0346",
    "url": "http://yuinosato.or.jp",
    "pref": "滋賀県",
    "city": "守山市",
    "category": "community_day_service",
    "serviceType": "地域密着型通所介護",
    "capacity": 15,
    "openDays": [
      "平日",
      "土曜日",
      "祝日"
    ],
    "openDaysNote": ""
  },
  {
    "id": "2570700647",
    "name": "リハビリスペース　はなみずき",
    "kana": "リハビリスペース　ハナミズキ",
    "address": "守山市水保町１３３６番地の３１",
    "lat": 35.1152822,
    "lng": 135.9484737,
    "tel": "０７７－５３５－７０２８",
    "url": "http://caresupportai.jp",
    "pref": "滋賀県",
    "city": "守山市",
    "category": "community_day_service",
    "serviceType": "地域密着型通所介護",
    "capacity": 10,
    "openDays": [
      "平日",
      "祝日"
    ],
    "openDaysNote": "祝祭日は休業する日もあります。"
  },
  {
    "id": "2570700456",
    "name": "機能訓練デイサービス　ふくろうさん",
    "kana": "キノウクンレンデイサービス　フクロウサン",
    "address": "滋賀県守山市小島町1808番地8",
    "lat": 35.0764741,
    "lng": 135.9944679,
    "tel": "077-576-1348",
    "url": "",
    "pref": "滋賀県",
    "city": "守山市",
    "category": "community_day_service",
    "serviceType": "地域密着型通所介護",
    "capacity": 15,
    "openDays": [
      "平日"
    ],
    "openDaysNote": ""
  },
  {
    "id": "2570700555",
    "name": "新庄こすもす",
    "kana": "シンジョウコスモス",
    "address": "滋賀県守山市新庄町1300番地",
    "lat": 35.0972882,
    "lng": 135.9978117,
    "tel": "(077)585-6118",
    "url": "http://www.day-cosmos.com",
    "pref": "滋賀県",
    "city": "守山市",
    "category": "community_day_service",
    "serviceType": "地域密着型通所介護",
    "capacity": null,
    "openDays": [
      "平日",
      "土曜日",
      "祝日"
    ],
    "openDaysNote": ""
  },
  {
    "id": "2570700571",
    "name": "大宝リハビリセンター",
    "kana": "ダイホウリハビリセンター",
    "address": "守山3-7-5",
    "lat": 35.0565208,
    "lng": 135.9883549,
    "tel": "077-598-5182",
    "url": "",
    "pref": "滋賀県",
    "city": "守山市",
    "category": "community_day_service",
    "serviceType": "地域密着型通所介護",
    "capacity": 0,
    "openDays": [
      "平日",
      "土曜日",
      "祝日"
    ],
    "openDaysNote": ""
  },
  {
    "id": "2570700811",
    "name": "木浜デイサービス　えんがわ",
    "kana": "コノハマデイサービス　エンガワ",
    "address": "滋賀県守山市木浜町1931－1",
    "lat": 35.1022754,
    "lng": 135.9557541,
    "tel": "０７７－５８５－７７１５",
    "url": "engawa-net.com",
    "pref": "滋賀県",
    "city": "守山市",
    "category": "community_day_service",
    "serviceType": "地域密着型通所介護",
    "capacity": 0,
    "openDays": [
      "平日",
      "土曜日"
    ],
    "openDaysNote": "８月のお盆休みは年度毎に日付を決定し、年度始まりに周知する。"
  },
  {
    "id": "2590600280",
    "name": "アルクスタジオ草津支店",
    "kana": "アルクスタジオクサツシテン",
    "address": "滋賀県草津市上笠2丁目18番16号2階",
    "lat": 35.0310536,
    "lng": 135.9480726,
    "tel": "077-599-5827",
    "url": "https://arukusutadio.com",
    "pref": "滋賀県",
    "city": "草津市",
    "category": "community_day_service",
    "serviceType": "地域密着型通所介護",
    "capacity": 100,
    "openDays": [
      "平日",
      "祝日"
    ],
    "openDaysNote": "平日が祝日の場合でも営業しております。"
  },
  {
    "id": "2590600371",
    "name": "だんらんの家近江",
    "kana": "ダンランノイエ　近江",
    "address": "橋岡町2-25１F １F",
    "lat": 35.0099055,
    "lng": 135.938569664418,
    "tel": "775633655",
    "url": "http://caretasu.com/C2001?t_shisetsucode=2500181",
    "pref": "滋賀県",
    "city": "草津市",
    "category": "community_day_service",
    "serviceType": "地域密着型通所介護",
    "capacity": 0,
    "openDays": [
      "平日"
    ],
    "openDaysNote": "サービス提供時間は１０時～１８時"
  },
  {
    "id": "2570601365",
    "name": "だんらんの家東草津",
    "kana": "ダンランノイエヒガシクサツ",
    "address": "滋賀県草津市東草津１－３－２１",
    "lat": 35.0148256,
    "lng": 135.9673908,
    "tel": "０７７－５６１－３７７３",
    "url": "",
    "pref": "滋賀県",
    "city": "草津市",
    "category": "community_day_service",
    "serviceType": "地域密着型通所介護",
    "capacity": 0,
    "openDays": [
      "平日",
      "土曜日",
      "日曜日",
      "祝日"
    ],
    "openDaysNote": "但し天候不順や災害時等、利用継続が困難と判断された場合は、事業所休業の場合あり。"
  },
  {
    "id": "2570601126",
    "name": "だんらんの家南草津",
    "kana": "ダンランノイエミナミクサツ",
    "address": "橋岡町2-24",
    "lat": 35.0098215874935,
    "lng": 135.938490850926,
    "tel": "077-574-8101",
    "url": "http://caretasu.com/C2001?t_shisetsucode=2500179#tab",
    "pref": "滋賀県",
    "city": "草津市",
    "category": "community_day_service",
    "serviceType": "地域密着型通所介護",
    "capacity": 10,
    "openDays": [
      "平日",
      "土曜日",
      "日曜日",
      "祝日"
    ],
    "openDaysNote": "※人員配置の状況により、変更となる場合が御座います。"
  },
  {
    "id": "2590600363",
    "name": "デイサービス　オリーブ",
    "kana": "デイサービス　オリーブ",
    "address": "滋賀県草津市草津四丁目8番13号",
    "lat": 35.0118691,
    "lng": 135.9599477,
    "tel": "077-576-0050",
    "url": "https://citrus-shiga.com/",
    "pref": "滋賀県",
    "city": "草津市",
    "category": "community_day_service",
    "serviceType": "地域密着型通所介護",
    "capacity": 0,
    "openDays": [
      "平日",
      "土曜日",
      "祝日"
    ],
    "openDaysNote": ""
  },
  {
    "id": "2590600421",
    "name": "デイサービス　オリーブ別邸",
    "kana": "デイサービス　オリーブベッテイ",
    "address": "滋賀県草津市野路東五丁目４番２２号",
    "lat": 34.9947795,
    "lng": 135.9544488,
    "tel": "077-575-1451",
    "url": "https://citrus-shiga.com/",
    "pref": "滋賀県",
    "city": "草津市",
    "category": "community_day_service",
    "serviceType": "地域密着型通所介護",
    "capacity": 0,
    "openDays": [
      "平日",
      "祝日"
    ],
    "openDaysNote": ""
  },
  {
    "id": "2570601241",
    "name": "デイサービスかえで",
    "kana": "デイサービスカエデ",
    "address": "滋賀県草津市追分南一丁目７－３かえで かえで",
    "lat": 35.0000276,
    "lng": 135.9612056,
    "tel": "０７７-５６６-００１１",
    "url": "http://maple-kofu.com/",
    "pref": "滋賀県",
    "city": "草津市",
    "category": "community_day_service",
    "serviceType": "地域密着型通所介護",
    "capacity": 18,
    "openDays": [
      "平日",
      "土曜日",
      "日曜日",
      "祝日"
    ],
    "openDaysNote": "年末年始(12月29日～1月3日)は休業"
  },
  {
    "id": "2570601258",
    "name": "デイサービスセンターそら",
    "kana": "デイサービスセンターソラ",
    "address": "滋賀県草津市野路8丁目15番9号",
    "lat": 34.99706809507,
    "lng": 135.952098283851,
    "tel": "077-507-0707",
    "url": "http://www.leciel3588.com/",
    "pref": "滋賀県",
    "city": "草津市",
    "category": "community_day_service",
    "serviceType": "地域密着型通所介護",
    "capacity": 9,
    "openDays": [
      "平日",
      "土曜日",
      "日曜日",
      "祝日"
    ],
    "openDaysNote": "祝日は営業いたしております。"
  },
  {
    "id": "2590600272",
    "name": "でいさーびすとなりぐみ",
    "kana": "デイサービストナリグミ",
    "address": "滋賀県草津市上笠2-18-16上笠ビル1階 上笠ビル1階",
    "lat": 35.0310536,
    "lng": 135.9480726,
    "tel": "077-596-5647",
    "url": "http://www.edanlife.com",
    "pref": "滋賀県",
    "city": "草津市",
    "category": "community_day_service",
    "serviceType": "地域密着型通所介護",
    "capacity": 10,
    "openDays": [
      "平日",
      "土曜日",
      "祝日"
    ],
    "openDaysNote": ""
  },
  {
    "id": "2590600249",
    "name": "デイサービスリハビリあっとほーむ",
    "kana": "デイサービスリハビリアットホーム",
    "address": "滋賀県草津市矢橋町7-8",
    "lat": 35.0074067,
    "lng": 135.9375826,
    "tel": "077-575-5730",
    "url": "",
    "pref": "滋賀県",
    "city": "草津市",
    "category": "community_day_service",
    "serviceType": "地域密着型通所介護",
    "capacity": 0,
    "openDays": [
      "平日",
      "土曜日"
    ],
    "openDaysNote": ""
  },
  {
    "id": "2590600330",
    "name": "リハステーション草津　デイサービス",
    "kana": "リハステーションクサツ　デイサービス",
    "address": "滋賀県草津市下笠町338-1",
    "lat": 35.0391902,
    "lng": 135.9289329,
    "tel": "077-598-5491",
    "url": "http://yuinosato.or.jp",
    "pref": "滋賀県",
    "city": "草津市",
    "category": "community_day_service",
    "serviceType": "地域密着型通所介護",
    "capacity": 6,
    "openDays": [
      "平日",
      "土曜日",
      "祝日"
    ],
    "openDaysNote": ""
  },
  {
    "id": "2570601340",
    "name": "リハプライド草津中央",
    "kana": "リハプライドクサツチュウオウ",
    "address": "滋賀県草津市草津町1512セジュール１階１号 セジュール１階１号",
    "lat": 35.0190079634925,
    "lng": 135.947601416568,
    "tel": "077-585-9170",
    "url": "http://www.rehapride.co.jp/kusatsuchuo/",
    "pref": "滋賀県",
    "city": "草津市",
    "category": "community_day_service",
    "serviceType": "地域密着型通所介護",
    "capacity": 16,
    "openDays": [
      "平日"
    ],
    "openDaysNote": "平日は祝日も営業"
  },
  {
    "id": "2570600631",
    "name": "楽　地域密着型　通所介護事業所",
    "kana": "ラクチイキミッチャクガタツウショカイゴジギョウショ",
    "address": "草津市野路町645-2",
    "lat": 35.0069156146593,
    "lng": 135.94176745582,
    "tel": "077-563-2515",
    "url": "http://raku-kusatsu.com/",
    "pref": "滋賀県",
    "city": "草津市",
    "category": "community_day_service",
    "serviceType": "地域密着型通所介護",
    "capacity": 15,
    "openDays": [
      "平日",
      "土曜日",
      "祝日"
    ],
    "openDaysNote": ""
  },
  {
    "id": "2590600355",
    "name": "共生型デイサービス向日葵",
    "kana": "キョウセイガタデイサービスヒマワリ",
    "address": "滋賀県草津市北山田町866番地",
    "lat": 35.0297181,
    "lng": 135.9196338,
    "tel": "775748334",
    "url": "https://www.fukurou-care.com",
    "pref": "滋賀県",
    "city": "草津市",
    "category": "community_day_service",
    "serviceType": "地域密着型通所介護",
    "capacity": 0,
    "openDays": [
      "平日",
      "土曜日",
      "祝日"
    ],
    "openDaysNote": ""
  },
  {
    "id": "2590600314",
    "name": "地域密着型通所介護事業所　心のほとり",
    "kana": "チイキミッチャクガタツウショカイゴジギョウショ　ココロノホトリ",
    "address": "滋賀県草津市駒井沢町337番地1",
    "lat": 35.0425217,
    "lng": 135.958349,
    "tel": "077-584-5961",
    "url": "https://takurou-kokoro.com/",
    "pref": "滋賀県",
    "city": "草津市",
    "category": "community_day_service",
    "serviceType": "地域密着型通所介護",
    "capacity": 0,
    "openDays": [
      "平日"
    ],
    "openDaysNote": "年末年始の12月29日～1月3日は、休業とさせていただいております。"
  },
  {
    "id": "2570601332",
    "name": "通所介護ステーションハーモニー",
    "kana": "ツウショカイゴステーション　ハーモニー",
    "address": "滋賀県草津市上笠三丁目27番22号",
    "lat": 35.0288440402216,
    "lng": 135.942547263229,
    "tel": "077-565-1538",
    "url": "",
    "pref": "滋賀県",
    "city": "草津市",
    "category": "community_day_service",
    "serviceType": "地域密着型通所介護",
    "capacity": 0,
    "openDays": [
      "平日",
      "土曜日",
      "祝日"
    ],
    "openDaysNote": "祝日は月により、休業の場合あり"
  },
  {
    "id": "2570600664",
    "name": "通所介護事業所　やじろべえのハウス",
    "kana": "ツウショカイゴジギョウショ　ヤジロベエノハウス",
    "address": "滋賀県草津市木川町１６０７番地",
    "lat": 35.0255514,
    "lng": 135.9359905,
    "tel": "077-566-5068",
    "url": "",
    "pref": "滋賀県",
    "city": "草津市",
    "category": "community_day_service",
    "serviceType": "地域密着型通所介護",
    "capacity": 10,
    "openDays": [
      "平日",
      "土曜日",
      "祝日"
    ],
    "openDaysNote": ""
  },
  {
    "id": "2571800099",
    "name": "はぐくみデイサービス",
    "kana": "ハグクミデイサービス",
    "address": "滋賀県犬上郡多賀町多賀　215-11",
    "lat": 35.2225318,
    "lng": 136.2935098,
    "tel": "0749-48-7272",
    "url": "https://hagukumi-shiga.com/",
    "pref": "滋賀県",
    "city": "多賀町",
    "category": "community_day_service",
    "serviceType": "地域密着型通所介護",
    "capacity": 0,
    "openDays": [
      "平日",
      "土曜日",
      "祝日"
    ],
    "openDaysNote": ""
  },
  {
    "id": "2590100679",
    "name": "FLAT",
    "kana": "フラット",
    "address": "滋賀県大津市馬場二丁目12番62号",
    "lat": 34.9990038,
    "lng": 135.8797526,
    "tel": "077-523-3601",
    "url": "http://flat.jw-hp.com/",
    "pref": "滋賀県",
    "city": "大津市",
    "category": "community_day_service",
    "serviceType": "地域密着型通所介護",
    "capacity": 0,
    "openDays": [
      "平日",
      "土曜日",
      "祝日"
    ],
    "openDaysNote": ""
  },
  {
    "id": "2590100893",
    "name": "JAレーク滋賀デイサービスセンター湖都里",
    "kana": "ジェイエイレークシガデイサービスセンターコトリ",
    "address": "滋賀県大津市大萱三丁目7番1号",
    "lat": 34.98951,
    "lng": 135.9201074,
    "tel": "077-545-3366",
    "url": "",
    "pref": "滋賀県",
    "city": "大津市",
    "category": "community_day_service",
    "serviceType": "地域密着型通所介護",
    "capacity": 0,
    "openDays": [
      "平日",
      "土曜日",
      "祝日"
    ],
    "openDaysNote": "１２月３１日～１月３日は休業日、特別警報発令時は臨時休業日とすることがあります。"
  },
  {
    "id": "2590100752",
    "name": "MSコーポレーション合同会社デイサービス近江",
    "kana": "エムエスコーポーレーションゴウドウカブシキガイシャデイサービスオウミ",
    "address": "滋賀県大津市若葉台3番12号",
    "lat": 34.9755445,
    "lng": 135.8830841,
    "tel": "077-531-1003",
    "url": "https://msc-care.com/new-job-information",
    "pref": "滋賀県",
    "city": "大津市",
    "category": "community_day_service",
    "serviceType": "地域密着型通所介護",
    "capacity": 0,
    "openDays": [
      "平日",
      "祝日"
    ],
    "openDaysNote": "上記の内容は、変更される場合がある"
  },
  {
    "id": "2570102372",
    "name": "NPO法人　デイサービス　花みずき",
    "kana": "エヌピオホウジン　デイサービス　ハナミズキ",
    "address": "松が丘５丁目１３－５",
    "lat": 34.6506964,
    "lng": 135.0197923,
    "tel": "０７７ー５４９ー１６６８",
    "url": "",
    "pref": "滋賀県",
    "city": "大津市",
    "category": "community_day_service",
    "serviceType": "地域密着型通所介護",
    "capacity": null,
    "openDays": [
      "平日",
      "土曜日",
      "祝日"
    ],
    "openDaysNote": ""
  },
  {
    "id": "2590101040",
    "name": "SPROUTデイサービスポラリスKATATA",
    "kana": "スプラウトデイサービスポラリスカタタ",
    "address": "滋賀県大津市本堅田2-31-15",
    "lat": 35.1179179,
    "lng": 135.9225222,
    "tel": "077-572-7845",
    "url": "https://www.polaris.care/office/",
    "pref": "滋賀県",
    "city": "大津市",
    "category": "community_day_service",
    "serviceType": "地域密着型通所介護",
    "capacity": 0,
    "openDays": [
      "平日",
      "土曜日",
      "祝日"
    ],
    "openDaysNote": ""
  },
  {
    "id": "2570100830",
    "name": "あかねはうすデイサービス",
    "kana": "アカネハウスデイサービス",
    "address": "滋賀県大津市唐崎１丁目30-10",
    "lat": 35.0477561435032,
    "lng": 135.869446489589,
    "tel": "077-526-5501",
    "url": "http://www.akanehouse.com",
    "pref": "滋賀県",
    "city": "大津市",
    "category": "community_day_service",
    "serviceType": "地域密着型通所介護",
    "capacity": 0,
    "openDays": [
      "平日",
      "土曜日",
      "祝日"
    ],
    "openDaysNote": ""
  },
  {
    "id": "2570102570",
    "name": "あかねはうす堅田　デイサービス",
    "kana": "アカネハウスカタタ　デイサービス",
    "address": "滋賀県大津市今堅田3丁目26番10号",
    "lat": 35.1294805,
    "lng": 135.9266641,
    "tel": "077-571-6333",
    "url": "http://www.akanehouse.com/",
    "pref": "滋賀県",
    "city": "大津市",
    "category": "community_day_service",
    "serviceType": "地域密着型通所介護",
    "capacity": 15,
    "openDays": [
      "平日",
      "祝日"
    ],
    "openDaysNote": ""
  },
  {
    "id": "2590100729",
    "name": "アルカディアリハステーション",
    "kana": "アルカディアリハステーション",
    "address": "中庄1-15-18クレストビル１Ｆ",
    "lat": 34.9901477,
    "lng": 135.8912563,
    "tel": "077-575-2498",
    "url": "https://www.ai-seikotsu.net",
    "pref": "滋賀県",
    "city": "大津市",
    "category": "community_day_service",
    "serviceType": "地域密着型通所介護",
    "capacity": 0,
    "openDays": [
      "平日"
    ],
    "openDaysNote": ""
  },
  {
    "id": "2570104428",
    "name": "あろはstyle大石",
    "kana": "アロハスタイルオオイシ",
    "address": "滋賀県大津市大石東六丁目４番22号",
    "lat": 34.9127296,
    "lng": 135.915391,
    "tel": "077‐535‐0006",
    "url": "http://love-smile-happiness.co.jp/company/index.html",
    "pref": "滋賀県",
    "city": "大津市",
    "category": "community_day_service",
    "serviceType": "地域密着型通所介護",
    "capacity": 0,
    "openDays": [
      "平日",
      "祝日"
    ],
    "openDaysNote": "年末年始（12/30～1/3）は休業致します。"
  },
  {
    "id": "2590100745",
    "name": "ウェルフィット石山",
    "kana": "ウェルフィットイシヤマ",
    "address": "滋賀県大津市別保1丁目15-4増田ビル1F 増田ビル1F",
    "lat": 34.9818095,
    "lng": 135.8956479,
    "tel": "077-534-6055",
    "url": "",
    "pref": "滋賀県",
    "city": "大津市",
    "category": "community_day_service",
    "serviceType": "地域密着型通所介護",
    "capacity": 0,
    "openDays": [
      "平日",
      "土曜日",
      "祝日"
    ],
    "openDaysNote": ""
  },
  {
    "id": "2590101107",
    "name": "うさぎリハビリステーション",
    "kana": "ウサギリハビリステーション",
    "address": "滋賀県大津市松本2-8-101階 1階",
    "lat": 35.0051531,
    "lng": 135.8731874,
    "tel": "077-525-7424",
    "url": "https://www.big-advance.site/c/161/2700",
    "pref": "滋賀県",
    "city": "大津市",
    "category": "community_day_service",
    "serviceType": "地域密着型通所介護",
    "capacity": 0,
    "openDays": [
      "平日"
    ],
    "openDaysNote": ""
  },
  {
    "id": "2590101149",
    "name": "かすがやまデイサービス",
    "kana": "カスガヤマデイサービス",
    "address": "滋賀県大津市本堅田６丁目16-8かすがやま翔裕館Ⅰ号館 かすがやま翔裕館Ⅰ号館",
    "lat": 35.1178869,
    "lng": 135.9097625,
    "tel": "077-571-2510",
    "url": "",
    "pref": "滋賀県",
    "city": "大津市",
    "category": "community_day_service",
    "serviceType": "地域密着型通所介護",
    "capacity": 0,
    "openDays": [
      "平日",
      "土曜日",
      "祝日"
    ],
    "openDaysNote": ""
  },
  {
    "id": "2570103081",
    "name": "くるみの森　唐崎",
    "kana": "クルミノモリ　カラサキ",
    "address": "際川3丁目19-2",
    "lat": 35.0422375,
    "lng": 135.8666778,
    "tel": "077-526-7689",
    "url": "http://ecopraise.jp/comfort/",
    "pref": "滋賀県",
    "city": "大津市",
    "category": "community_day_service",
    "serviceType": "地域密着型通所介護",
    "capacity": 10,
    "openDays": [
      "平日",
      "土曜日",
      "日曜日",
      "祝日"
    ],
    "openDaysNote": ""
  },
  {
    "id": "2570104188",
    "name": "サポートスペース　めろんLavie",
    "kana": "サポートスペースメロンラヴィ",
    "address": "滋賀県大津市大平2丁目7-14",
    "lat": 34.9538737851313,
    "lng": 135.897630914395,
    "tel": "077-572-8066",
    "url": "",
    "pref": "滋賀県",
    "city": "大津市",
    "category": "community_day_service",
    "serviceType": "地域密着型通所介護",
    "capacity": 2,
    "openDays": [
      "平日",
      "土曜日",
      "祝日"
    ],
    "openDaysNote": ""
  },
  {
    "id": "2570101838",
    "name": "サポートスペース　ル・ムロン",
    "kana": "サポートスペース　ル・ムロン",
    "address": "大津市大石中３丁目1-25",
    "lat": 34.9111271178876,
    "lng": 135.914155661116,
    "tel": "077-546-0111",
    "url": "",
    "pref": "滋賀県",
    "city": "大津市",
    "category": "community_day_service",
    "serviceType": "地域密着型通所介護",
    "capacity": 0,
    "openDays": [
      "平日",
      "土曜日",
      "日曜日",
      "祝日"
    ],
    "openDaysNote": "年末始休業"
  },
  {
    "id": "2590100919",
    "name": "しみんふくし滋賀　柳川デイサービスセンター",
    "kana": "シミンフクシシガ　ヤナガワデイサービスセンター",
    "address": "滋賀県大津市柳川2丁目11-25",
    "lat": 35.0327341,
    "lng": 135.8616147,
    "tel": "077-526-7610",
    "url": "http://www.shiminfukushi-shiga.jp/",
    "pref": "滋賀県",
    "city": "大津市",
    "category": "community_day_service",
    "serviceType": "地域密着型通所介護",
    "capacity": 0,
    "openDays": [
      "平日",
      "土曜日"
    ],
    "openDaysNote": ""
  },
  {
    "id": "2590100935",
    "name": "だんらんの家大津千町",
    "kana": "ダンランノイエ　オオツセンチョウ",
    "address": "千町1丁目4-20",
    "lat": 34.9462141,
    "lng": 135.8991228,
    "tel": "077-548-7667",
    "url": "https://bbd-shiga.jp/",
    "pref": "滋賀県",
    "city": "大津市",
    "category": "community_day_service",
    "serviceType": "地域密着型通所介護",
    "capacity": 10,
    "openDays": [
      "平日",
      "土曜日",
      "日曜日",
      "祝日"
    ],
    "openDaysNote": ""
  },
  {
    "id": "2570102323",
    "name": "でい・もなみ",
    "kana": "デイ・モナミ",
    "address": "大津市衣川1－24－51",
    "lat": 35.1089548,
    "lng": 135.908405,
    "tel": "077-573-5008",
    "url": "http://www.eonet.ne.jp/~monami/",
    "pref": "滋賀県",
    "city": "大津市",
    "category": "community_day_service",
    "serviceType": "地域密着型通所介護",
    "capacity": 0,
    "openDays": [
      "平日",
      "祝日"
    ],
    "openDaysNote": ""
  },
  {
    "id": "2570104089",
    "name": "デイサービス　たなかみ",
    "kana": "デイサービス　タナカミ",
    "address": "黒津2丁目21番13号",
    "lat": 34.9424577448818,
    "lng": 135.916850960713,
    "tel": "077-507-7082",
    "url": "",
    "pref": "滋賀県",
    "city": "大津市",
    "category": "community_day_service",
    "serviceType": "地域密着型通所介護",
    "capacity": 10,
    "openDays": [
      "平日",
      "土曜日",
      "祝日"
    ],
    "openDaysNote": "祝日は営業しておりますが、年始年末（12/30~1/3）の期間はお休みをいただいております。"
  },
  {
    "id": "2590101198",
    "name": "デイサービス　ベーススタジオ大津稲津",
    "kana": "デイサービス　ベーススタジオオオツイナヅ",
    "address": "滋賀県大津市稲津一丁目13-38",
    "lat": 34.9462881,
    "lng": 135.913179,
    "tel": "077-576-1579",
    "url": "https://www.wellbeingbase.site/basestudio-otsuinazu/",
    "pref": "滋賀県",
    "city": "大津市",
    "category": "community_day_service",
    "serviceType": "地域密着型通所介護",
    "capacity": null,
    "openDays": [
      "平日"
    ],
    "openDaysNote": ""
  },
  {
    "id": "2570101358",
    "name": "デイサービスさくら倶楽部",
    "kana": "デイサービスサクラクラブ",
    "address": "大津市石山寺三丁目24-1　アメニティ石山101",
    "lat": 34.9552483,
    "lng": 135.9058629,
    "tel": "077-531-0515",
    "url": "http://hakuokai.jp",
    "pref": "滋賀県",
    "city": "大津市",
    "category": "community_day_service",
    "serviceType": "地域密着型通所介護",
    "capacity": 0,
    "openDays": [
      "平日",
      "土曜日",
      "祝日"
    ],
    "openDaysNote": ""
  },
  {
    "id": "2570102141",
    "name": "デイサービスさんさん",
    "kana": "デイサービスサンサン",
    "address": "大津市朝日１丁目４－６",
    "lat": 35.1408651,
    "lng": 135.9147292,
    "tel": "077-594-5772",
    "url": "biwasunsun.com",
    "pref": "滋賀県",
    "city": "大津市",
    "category": "community_day_service",
    "serviceType": "地域密着型通所介護",
    "capacity": 10,
    "openDays": [
      "平日",
      "土曜日",
      "祝日"
    ],
    "openDaysNote": ""
  },
  {
    "id": "2570104345",
    "name": "デイサービスセンターこてつ",
    "kana": "デイサービスセンターコテツ",
    "address": "滋賀県大津市大萱6丁目4番18号",
    "lat": 34.9934498,
    "lng": 135.9139221,
    "tel": "077-544-1100",
    "url": "",
    "pref": "滋賀県",
    "city": "大津市",
    "category": "community_day_service",
    "serviceType": "地域密着型通所介護",
    "capacity": 0,
    "openDays": [
      "平日",
      "土曜日",
      "日曜日"
    ],
    "openDaysNote": ""
  },
  {
    "id": "2590100265",
    "name": "デイサービスたんぽぽ",
    "kana": "デイサービスタンポポ",
    "address": "大津市大石東六丁目1-11",
    "lat": 34.913293,
    "lng": 135.914458,
    "tel": "077-546-4666",
    "url": "http://www.ryokuseikai.jp",
    "pref": "滋賀県",
    "city": "大津市",
    "category": "community_day_service",
    "serviceType": "地域密着型通所介護",
    "capacity": null,
    "openDays": [
      "平日",
      "土曜日",
      "祝日"
    ],
    "openDaysNote": ""
  },
  {
    "id": "2590100802",
    "name": "デイサービスハイライト",
    "kana": "デイサービスハイライト",
    "address": "滋賀県大津市大萱一丁目5－2ＹＵＷＡSeta１Ｆ ＹＵＷＡSeta１Ｆ",
    "lat": 34.9848554,
    "lng": 135.9223118,
    "tel": "077-545-6780",
    "url": "https://highlight.shiga-saku.net/",
    "pref": "滋賀県",
    "city": "大津市",
    "category": "community_day_service",
    "serviceType": "地域密着型通所介護",
    "capacity": 15,
    "openDays": [
      "平日",
      "日曜日",
      "祝日"
    ],
    "openDaysNote": "年末年始に冬期休業あり（改行）本年度実績令和4年12月31日（土）～令和5年1月3日（火）"
  },
  {
    "id": "2590100810",
    "name": "デイサービスポノ",
    "kana": "デイサーピス　ポノ",
    "address": "滋賀県大津市際川３丁目３３ー２",
    "lat": 35.0432054,
    "lng": 135.8670879,
    "tel": "775760801",
    "url": "http://careq-s.com",
    "pref": "滋賀県",
    "city": "大津市",
    "category": "community_day_service",
    "serviceType": "地域密着型通所介護",
    "capacity": 10,
    "openDays": [
      "平日",
      "土曜日",
      "日曜日",
      "祝日"
    ],
    "openDaysNote": "ナイトデイサービス火・木・土１７時～２０時３０分まで運用しています。"
  },
  {
    "id": "2570104394",
    "name": "デイサービスほんかたた",
    "kana": "デイサービスホンカタタ",
    "address": "滋賀県大津市本堅田1-23-32",
    "lat": 35.1106975715465,
    "lng": 135.91877687791,
    "tel": "077-532-9111",
    "url": "http://newearth.co.jp",
    "pref": "滋賀県",
    "city": "大津市",
    "category": "community_day_service",
    "serviceType": "地域密着型通所介護",
    "capacity": 13,
    "openDays": [
      "平日",
      "土曜日",
      "祝日"
    ],
    "openDaysNote": ""
  },
  {
    "id": "2570103255",
    "name": "デイサービスまった里",
    "kana": "デイサービスマッタリ",
    "address": "滋賀県大津市里6丁目24番4号",
    "lat": 34.9364432315906,
    "lng": 135.934424069505,
    "tel": "077－572－5914",
    "url": "",
    "pref": "滋賀県",
    "city": "大津市",
    "category": "community_day_service",
    "serviceType": "地域密着型通所介護",
    "capacity": 0,
    "openDays": [
      "平日",
      "土曜日",
      "祝日"
    ],
    "openDaysNote": ""
  },
  {
    "id": "2590100828",
    "name": "デイサービスまつり",
    "kana": "デイサービスマツリ",
    "address": "滋賀県大津市桜野町１丁目1－6西大津ISⅡ　1F 西大津ISⅡ　1F",
    "lat": 35.0249847759964,
    "lng": 135.857559536228,
    "tel": "077-572-7465",
    "url": "",
    "pref": "滋賀県",
    "city": "大津市",
    "category": "community_day_service",
    "serviceType": "地域密着型通所介護",
    "capacity": 0,
    "openDays": [
      "平日",
      "祝日"
    ],
    "openDaysNote": "振替利用による他の曜日に利用する事が可能です。"
  },
  {
    "id": "2590101214",
    "name": "デイサービス葵",
    "kana": "デイサービスアオイ",
    "address": "滋賀県大津市松陽3丁目3-5",
    "lat": 34.9645498,
    "lng": 135.9198474,
    "tel": "077-536-6039",
    "url": "",
    "pref": "滋賀県",
    "city": "大津市",
    "category": "community_day_service",
    "serviceType": "地域密着型通所介護",
    "capacity": 0,
    "openDays": [
      "平日",
      "土曜日",
      "日曜日",
      "祝日"
    ],
    "openDaysNote": "定員　１０人"
  },
  {
    "id": "2590100497",
    "name": "デイサービス笑輪",
    "kana": "デイサービスエエワ",
    "address": "大平一丁目12番30号",
    "lat": 34.953523078612,
    "lng": 135.894472388857,
    "tel": "077-526-6683",
    "url": "eewa.net",
    "pref": "滋賀県",
    "city": "大津市",
    "category": "community_day_service",
    "serviceType": "地域密着型通所介護",
    "capacity": 20,
    "openDays": [
      "平日",
      "祝日"
    ],
    "openDaysNote": "サービス提供時間　午前９時００分から午後４時３０分（改行）延長サービス可能時間午前8時～９時、午後４時３０分～午後5時３０分"
  },
  {
    "id": "2570104410",
    "name": "デイ平津合同会社",
    "kana": "デイヒラツゴウドウガイシャ",
    "address": "滋賀県大津市平津１丁目２１番２２号本郷ビル１F 本郷ビル１F",
    "lat": 34.9469514,
    "lng": 135.9101189,
    "tel": "572-5070",
    "url": "",
    "pref": "滋賀県",
    "city": "大津市",
    "category": "community_day_service",
    "serviceType": "地域密着型通所介護",
    "capacity": 120,
    "openDays": [
      "平日",
      "土曜日",
      "祝日"
    ],
    "openDaysNote": "(12/29～1/3を除く)"
  },
  {
    "id": "2590100661",
    "name": "はーとふるリハビリ幸　個別対応型半日デイサービス",
    "kana": "ハートフルリハビリユキ　コベツタイオウガタハンニチデイサービス",
    "address": "滋賀県大津市別保2丁目９－４５",
    "lat": 34.9813528,
    "lng": 135.8942825,
    "tel": "０７７－５３４－５６５６",
    "url": "http://hp.kaipoke.biz/cs8/",
    "pref": "滋賀県",
    "city": "大津市",
    "category": "community_day_service",
    "serviceType": "地域密着型通所介護",
    "capacity": 0,
    "openDays": [
      "平日",
      "祝日"
    ],
    "openDaysNote": "サービス提供時間（改行）午前中（９：００～１２：１０）午後（１３：３０～１６：４０）の２部制です。"
  },
  {
    "id": "2570102265",
    "name": "ハーベスト介護予防センター",
    "kana": "ハーベストカイゴヨボウセンター",
    "address": "滋賀県大津市札の辻3-24",
    "lat": 35.0063915,
    "lng": 135.8613321,
    "tel": "077-521-4156",
    "url": "http://itahara-amjt.com/harvest/",
    "pref": "滋賀県",
    "city": "大津市",
    "category": "community_day_service",
    "serviceType": "地域密着型通所介護",
    "capacity": 10,
    "openDays": [
      "平日",
      "土曜日"
    ],
    "openDaysNote": "お盆・年末年始は不定休となります"
  },
  {
    "id": "2570103776",
    "name": "はなまるデイサービス",
    "kana": "ハナマルデイサービス",
    "address": "滋賀県大津市光が丘町４番７７号",
    "lat": 34.9732638386259,
    "lng": 135.898004689549,
    "tel": "077-533-5311",
    "url": "",
    "pref": "滋賀県",
    "city": "大津市",
    "category": "community_day_service",
    "serviceType": "地域密着型通所介護",
    "capacity": null,
    "openDays": [
      "平日",
      "土曜日",
      "祝日"
    ],
    "openDaysNote": ""
  },
  {
    "id": "2570102885",
    "name": "フィルマ石山リハビリデイサービス",
    "kana": "フィルマイシヤマリハビリデイサービス",
    "address": "滋賀県大津市松原町１７番１０号　コスモ石山101",
    "lat": 34.9778248629447,
    "lng": 135.904222902357,
    "tel": "077-537-6333",
    "url": "https://wwwfirmahabicht.net/",
    "pref": "滋賀県",
    "city": "大津市",
    "category": "community_day_service",
    "serviceType": "地域密着型通所介護",
    "capacity": 18,
    "openDays": [
      "平日",
      "祝日"
    ],
    "openDaysNote": ""
  },
  {
    "id": "2570103511",
    "name": "フィルマ膳所リハビリデイサービス",
    "kana": "フィルマゼゼリハビリデイサービス",
    "address": "滋賀県大津市本宮2丁目10－15",
    "lat": 34.9985201,
    "lng": 135.8772003,
    "tel": "077-526-5100",
    "url": "https://firmahabicht.net/",
    "pref": "滋賀県",
    "city": "大津市",
    "category": "community_day_service",
    "serviceType": "地域密着型通所介護",
    "capacity": 18,
    "openDays": [
      "平日",
      "祝日"
    ],
    "openDaysNote": ""
  },
  {
    "id": "2590100570",
    "name": "ブリッジライフ　大津",
    "kana": "ブリッジライフ　オオツ",
    "address": "滋賀県大津市長等3丁目6番16号",
    "lat": 35.0113993,
    "lng": 135.859085,
    "tel": "077-572-8712",
    "url": "",
    "pref": "滋賀県",
    "city": "大津市",
    "category": "community_day_service",
    "serviceType": "地域密着型通所介護",
    "capacity": 18,
    "openDays": [
      "平日",
      "土曜日",
      "祝日"
    ],
    "openDaysNote": ""
  },
  {
    "id": "2590101156",
    "name": "ヘルス＆フィットネス　シェイクハンズ",
    "kana": "ヘルスアンドフィットネス",
    "address": "滋賀県大津市坂本7丁目32-30ロータスビル1F ロータスビル1F",
    "lat": 35.0714852,
    "lng": 135.8796596,
    "tel": "077-579-2350",
    "url": "https://www.fukurou-care.com/",
    "pref": "滋賀県",
    "city": "大津市",
    "category": "community_day_service",
    "serviceType": "地域密着型通所介護",
    "capacity": 0,
    "openDays": [
      "平日",
      "祝日"
    ],
    "openDaysNote": ""
  },
  {
    "id": "2590100588",
    "name": "ポシブルさくら石山",
    "kana": "ポシブルサクライシヤマ",
    "address": "滋賀県大津市大平二丁目４－１５",
    "lat": 34.9540949,
    "lng": 135.9008894,
    "tel": "077－536－6686",
    "url": "",
    "pref": "滋賀県",
    "city": "大津市",
    "category": "community_day_service",
    "serviceType": "地域密着型通所介護",
    "capacity": 0,
    "openDays": [
      "平日",
      "祝日"
    ],
    "openDaysNote": "その他の休業日、８月１３日から８月１５日及び１２月３０日から１月３日。"
  },
  {
    "id": "2590101172",
    "name": "ほねつぎデイサービス浜大津",
    "kana": "ホネツギデイサービスハマオオツ",
    "address": "滋賀県大津市長等２丁目８−４０グランメゾン浜大津１０１ グランメゾン浜大津１０１",
    "lat": 35.0096641,
    "lng": 135.8600085,
    "tel": "077-526-7584",
    "url": "https://honedeihamaotsu.com/",
    "pref": "滋賀県",
    "city": "大津市",
    "category": "community_day_service",
    "serviceType": "地域密着型通所介護",
    "capacity": 0,
    "openDays": [
      "平日",
      "祝日"
    ],
    "openDaysNote": ""
  },
  {
    "id": "2590100505",
    "name": "まごころリハビリデイサービスにおの浜",
    "kana": "マゴコロリハビリデイサービスニオノハマ",
    "address": "滋賀県大津市西の庄5-17",
    "lat": 35.0019237,
    "lng": 135.8855437,
    "tel": "077-527-9111",
    "url": "http://magokoro-ie.net/",
    "pref": "滋賀県",
    "city": "大津市",
    "category": "community_day_service",
    "serviceType": "地域密着型通所介護",
    "capacity": 0,
    "openDays": [
      "平日"
    ],
    "openDaysNote": "祝日は営業しております。（改行）12月30日～翌1月3日まで、年末年始休業あり。"
  },
  {
    "id": "2590101131",
    "name": "やすらぎの郷デイサービスセンターⅡ番館",
    "kana": "ヤスラギノサトデイサービスセンターニバンカン",
    "address": "滋賀県大津市下阪本4-6-27",
    "lat": 35.0641743,
    "lng": 135.8781645,
    "tel": "077-572-9010",
    "url": "",
    "pref": "滋賀県",
    "city": "大津市",
    "category": "community_day_service",
    "serviceType": "地域密着型通所介護",
    "capacity": 0,
    "openDays": [
      "平日",
      "土曜日",
      "祝日"
    ],
    "openDaysNote": "月曜日～土曜日の週6日営業しています。月～土であれば祝日であっても営業しています。"
  },
  {
    "id": "2570103537",
    "name": "ラ・ケアこくぶ",
    "kana": "ラケアコクブ",
    "address": "滋賀県大津市国分１丁目4-1",
    "lat": 36.204824,
    "lng": 138.252924,
    "tel": "077-526-5660",
    "url": "http://la-care.jp/",
    "pref": "滋賀県",
    "city": "大津市",
    "category": "community_day_service",
    "serviceType": "地域密着型通所介護",
    "capacity": 18,
    "openDays": [
      "平日",
      "土曜日",
      "祝日"
    ],
    "openDaysNote": "１月１日～１月３日は定休日"
  },
  {
    "id": "2570103768",
    "name": "リハビリデイサービス　ドリーブ",
    "kana": "リハビリデイサービス　ドリーブ",
    "address": "滋賀県大津市御殿浜６－２９",
    "lat": 34.985497,
    "lng": 135.8955817,
    "tel": "077-537-2178",
    "url": "",
    "pref": "滋賀県",
    "city": "大津市",
    "category": "community_day_service",
    "serviceType": "地域密着型通所介護",
    "capacity": 18,
    "openDays": [
      "平日",
      "土曜日",
      "祝日"
    ],
    "openDaysNote": "祝日も営業"
  },
  {
    "id": "2590100976",
    "name": "リハビリデイサービスセンター大津店",
    "kana": "リハビリデイサービスセンターオオツテン",
    "address": "滋賀県大津市朝日が丘1丁目4-40",
    "lat": 35.0012121,
    "lng": 135.8663086,
    "tel": "077-510-1001",
    "url": "",
    "pref": "滋賀県",
    "city": "大津市",
    "category": "community_day_service",
    "serviceType": "地域密着型通所介護",
    "capacity": null,
    "openDays": [
      "平日",
      "祝日"
    ],
    "openDaysNote": ""
  },
  {
    "id": "2570104378",
    "name": "リハビリデイサービスはるか",
    "kana": "リハビリデイサービスハルカ",
    "address": "滋賀県大津市見世2丁目10番10号",
    "lat": 35.042703073931,
    "lng": 135.861475774302,
    "tel": "077-521-6686",
    "url": "https://dayservice-haruka.net/",
    "pref": "滋賀県",
    "city": "大津市",
    "category": "community_day_service",
    "serviceType": "地域密着型通所介護",
    "capacity": 10,
    "openDays": [
      "平日"
    ],
    "openDaysNote": ""
  },
  {
    "id": "2570103867",
    "name": "リハビリデイ大津",
    "kana": "リハビリデイオオツ",
    "address": "滋賀県大津市大江二丁目25-2",
    "lat": 34.9779606109397,
    "lng": 135.912772101267,
    "tel": "077-547-4801",
    "url": "",
    "pref": "滋賀県",
    "city": "大津市",
    "category": "community_day_service",
    "serviceType": "地域密着型通所介護",
    "capacity": 10,
    "openDays": [
      "平日",
      "祝日"
    ],
    "openDaysNote": "当日の健康状態、天候、交通事情等によってはサービスの利用を見合わせて無理な利用はお断りする場合がございます。"
  },
  {
    "id": "2590100844",
    "name": "リハビリりんく大津",
    "kana": "リハビリリンクオオツ",
    "address": "雄琴3丁目13番20号　2階",
    "lat": 35.0989672,
    "lng": 135.9020186,
    "tel": "077-578-8269",
    "url": "https://link-otsu.jp/",
    "pref": "滋賀県",
    "city": "大津市",
    "category": "community_day_service",
    "serviceType": "地域密着型通所介護",
    "capacity": 100,
    "openDays": [
      "平日",
      "土曜日",
      "祝日"
    ],
    "openDaysNote": ""
  },
  {
    "id": "2590100422",
    "name": "リハビリ特化型デイサービス　リハビリフィールド瀬田",
    "kana": "リハビリトッカガタデイサービス　リハビリフィールドセタ",
    "address": "滋賀県大津市神領３丁目２０番１０号",
    "lat": 34.971438,
    "lng": 135.910541,
    "tel": "０７７－５０７－９８０４",
    "url": "",
    "pref": "滋賀県",
    "city": "大津市",
    "category": "community_day_service",
    "serviceType": "地域密着型通所介護",
    "capacity": 8,
    "openDays": [
      "平日",
      "祝日"
    ],
    "openDaysNote": ""
  },
  {
    "id": "2590100703",
    "name": "リハプライド・大津阪本",
    "kana": "リハプライド・オオツサカモト",
    "address": "滋賀県大津市下阪本1-15-1",
    "lat": 35.0537535,
    "lng": 135.8739917,
    "tel": "077-511-9707",
    "url": "https://rehacon.com/profile.html#prof_04",
    "pref": "滋賀県",
    "city": "大津市",
    "category": "community_day_service",
    "serviceType": "地域密着型通所介護",
    "capacity": null,
    "openDays": [
      "平日"
    ],
    "openDaysNote": "月・火・水・木・金曜日（祝日は営業）ただし、年末年始に一週間程度のお休み。"
  },
  {
    "id": "2570104220",
    "name": "近江リハビリセンター",
    "kana": "オウミリハビリセンター",
    "address": "唐崎3丁目8-13",
    "lat": 35.0509113,
    "lng": 135.8643583,
    "tel": "077-578-5757",
    "url": "",
    "pref": "滋賀県",
    "city": "大津市",
    "category": "community_day_service",
    "serviceType": "地域密着型通所介護",
    "capacity": 0,
    "openDays": [
      "平日",
      "土曜日"
    ],
    "openDaysNote": "水曜日は午前営業　8時30分～12時30分"
  },
  {
    "id": "2590101180",
    "name": "近江リハビリセンター　おごと",
    "kana": "オウミリハビリセンター　オゴト",
    "address": "滋賀県大津市雄琴６丁目11-3",
    "lat": 35.0915986,
    "lng": 135.8994952,
    "tel": "077-532-1809",
    "url": "",
    "pref": "滋賀県",
    "city": "大津市",
    "category": "community_day_service",
    "serviceType": "地域密着型通所介護",
    "capacity": null,
    "openDays": [
      "平日"
    ],
    "openDaysNote": ""
  },
  {
    "id": "2590100554",
    "name": "近江リハビリセンター坂本",
    "kana": "オウミリハビリセンターサカモト",
    "address": "坂本3丁目18-58",
    "lat": 35.0703449,
    "lng": 135.8771177,
    "tel": "077-579-0355",
    "url": "",
    "pref": "滋賀県",
    "city": "大津市",
    "category": "community_day_service",
    "serviceType": "地域密着型通所介護",
    "capacity": 0,
    "openDays": [
      "平日"
    ],
    "openDaysNote": ""
  },
  {
    "id": "2570103271",
    "name": "香・もなみ",
    "kana": "コウ・モナミ",
    "address": "大津市伊香立生津町75番１",
    "lat": 35.1407477,
    "lng": 135.8700512,
    "tel": "０７７－５９８－３１２０",
    "url": "http://www.eonet.ne.jp/~monami/",
    "pref": "滋賀県",
    "city": "大津市",
    "category": "community_day_service",
    "serviceType": "地域密着型通所介護",
    "capacity": 0,
    "openDays": [
      "平日",
      "祝日"
    ],
    "openDaysNote": ""
  },
  {
    "id": "2590100851",
    "name": "高齢者デイサービススピーク",
    "kana": "コウレイシャデイサービススピーク",
    "address": "膳所１丁目１３－３",
    "lat": 34.9947372,
    "lng": 135.8894507,
    "tel": "077-524-3680",
    "url": "https://speak-deorum.jp",
    "pref": "滋賀県",
    "city": "大津市",
    "category": "community_day_service",
    "serviceType": "地域密着型通所介護",
    "capacity": 0,
    "openDays": [
      "平日",
      "土曜日",
      "祝日"
    ],
    "openDaysNote": ""
  },
  {
    "id": "2570102752",
    "name": "時間の森",
    "kana": "トキノモリ",
    "address": "大津市大将軍1丁目15-2",
    "lat": 34.9933219,
    "lng": 135.9251672,
    "tel": "077-547-2288",
    "url": "http://rokusho.net/",
    "pref": "滋賀県",
    "city": "大津市",
    "category": "community_day_service",
    "serviceType": "地域密着型通所介護",
    "capacity": 15,
    "openDays": [
      "平日",
      "土曜日"
    ],
    "openDaysNote": ""
  },
  {
    "id": "2570102273",
    "name": "集・もなみ",
    "kana": "シュウ・モナミ",
    "address": "大津市衣川１－２３－４０",
    "lat": 35.1083826,
    "lng": 135.908005,
    "tel": "077-573-6234",
    "url": "http://www.eonet.ne.jp/~monami/",
    "pref": "滋賀県",
    "city": "大津市",
    "category": "community_day_service",
    "serviceType": "地域密着型通所介護",
    "capacity": 0,
    "openDays": [
      "平日",
      "祝日"
    ],
    "openDaysNote": ""
  },
  {
    "id": "2570104105",
    "name": "集いの家　不動寺",
    "kana": "ツドイノイエ　フドウジ",
    "address": "滋賀県大津市中庄１丁目３－２",
    "lat": 34.9903617132571,
    "lng": 135.891660319342,
    "tel": "077-524-2102",
    "url": "http://nozomi-shiga.com/",
    "pref": "滋賀県",
    "city": "大津市",
    "category": "community_day_service",
    "serviceType": "地域密着型通所介護",
    "capacity": 50,
    "openDays": [
      "平日"
    ],
    "openDaysNote": ""
  },
  {
    "id": "2570103412",
    "name": "純夢デイサービスセンター",
    "kana": "ジュンムデイサービスセンター",
    "address": "滋賀県大津市和邇中浜444-1S・Rビル1F S・Rビル1F",
    "lat": 35.1619853,
    "lng": 135.9230297,
    "tel": "077-594-8024",
    "url": "",
    "pref": "滋賀県",
    "city": "大津市",
    "category": "community_day_service",
    "serviceType": "地域密着型通所介護",
    "capacity": 0,
    "openDays": [
      "平日",
      "祝日"
    ],
    "openDaysNote": "当日の健康状態、天候によってはサービスの無理なご利用はお断りする場合がございます。"
  },
  {
    "id": "2570103651",
    "name": "純夢デイサービスセンター感謝",
    "kana": "ジュンムデイサービスセンターカンシャ",
    "address": "滋賀県大津市唐崎3-21-8つるやビル1F つるやビル1F",
    "lat": 35.113231,
    "lng": 135.910237,
    "tel": "077-572-8875",
    "url": "",
    "pref": "滋賀県",
    "city": "大津市",
    "category": "community_day_service",
    "serviceType": "地域密着型通所介護",
    "capacity": null,
    "openDays": [
      "平日",
      "祝日"
    ],
    "openDaysNote": "当日の健康状態、天候によってはサービスの無理なご利用はお断りする場合がございます。"
  },
  {
    "id": "2570104253",
    "name": "純夢デイサービスセンター心",
    "kana": "ジュンムデイサービスセンターココロ",
    "address": "滋賀県大津市衣川1丁目30-4",
    "lat": 35.113231,
    "lng": 135.910237,
    "tel": "077-574-7358",
    "url": "",
    "pref": "滋賀県",
    "city": "大津市",
    "category": "community_day_service",
    "serviceType": "地域密着型通所介護",
    "capacity": 0,
    "openDays": [
      "平日",
      "祝日"
    ],
    "openDaysNote": "当日の健康状態、天候によってはサービスの無理なご利用はお断りする場合がございます。"
  },
  {
    "id": "2570102679",
    "name": "真情（まごころ）デイサービス大江",
    "kana": "マゴコロデイサービスオオエ",
    "address": "大津市大江四丁目12-14",
    "lat": 34.9809845,
    "lng": 135.9241089,
    "tel": "077-544-1174",
    "url": "http://newones.co.jp",
    "pref": "滋賀県",
    "city": "大津市",
    "category": "community_day_service",
    "serviceType": "地域密着型通所介護",
    "capacity": 0,
    "openDays": [
      "平日",
      "土曜日",
      "日曜日",
      "祝日"
    ],
    "openDaysNote": ""
  },
  {
    "id": "2590100612",
    "name": "真情デイ・サービス　良庵",
    "kana": "マゴコロ　デイサービス　リョウアン",
    "address": "滋賀県大津市中央一丁目２－３４",
    "lat": 35.008275,
    "lng": 135.864143,
    "tel": "０７７－５１０－５２２３",
    "url": "http://newones.co.jp/",
    "pref": "滋賀県",
    "city": "大津市",
    "category": "community_day_service",
    "serviceType": "地域密着型通所介護",
    "capacity": 15,
    "openDays": [
      "平日",
      "土曜日",
      "祝日"
    ],
    "openDaysNote": ""
  },
  {
    "id": "2570102976",
    "name": "真情デイ・サービス衣川",
    "kana": "マゴコロデイサービスキヌガワ",
    "address": "衣川一丁目１１－３１",
    "lat": 35.1033639,
    "lng": 135.9034313,
    "tel": "077-573-3511",
    "url": "http://newones.co.jp/",
    "pref": "滋賀県",
    "city": "大津市",
    "category": "community_day_service",
    "serviceType": "地域密着型通所介護",
    "capacity": null,
    "openDays": [
      "平日",
      "土曜日",
      "日曜日",
      "祝日"
    ],
    "openDaysNote": ""
  },
  {
    "id": "2570103206",
    "name": "真情デイ・サービス南志賀",
    "kana": "マゴコロデイ・サービスミナミシガ",
    "address": "滋賀県大津市南志賀三丁目6番31号",
    "lat": 35.0354814,
    "lng": 135.8592958,
    "tel": "077-510-7330",
    "url": "https://newones.co.jp/",
    "pref": "滋賀県",
    "city": "大津市",
    "category": "community_day_service",
    "serviceType": "地域密着型通所介護",
    "capacity": null,
    "openDays": [
      "平日",
      "土曜日",
      "日曜日",
      "祝日"
    ],
    "openDaysNote": ""
  },
  {
    "id": "2570101895",
    "name": "晴嵐デイサービスセンター",
    "kana": "セイランデイサービスセンター",
    "address": "大津市北大路一丁目9-2",
    "lat": 34.9756899,
    "lng": 135.8988036,
    "tel": "077-537-3909",
    "url": "http://wwww.fukusi-otsu.or.jp",
    "pref": "滋賀県",
    "city": "大津市",
    "category": "community_day_service",
    "serviceType": "地域密着型通所介護",
    "capacity": 18,
    "openDays": [
      "平日",
      "祝日"
    ],
    "openDaysNote": ""
  },
  {
    "id": "2590100778",
    "name": "早稲田イーライフ大津",
    "kana": "ワセダイーライフオオツ",
    "address": "滋賀県大津市本宮二丁目34-2",
    "lat": 34.9991734,
    "lng": 135.8735822,
    "tel": "775090676",
    "url": "http://hp.kaipoke.biz/kk4/",
    "pref": "滋賀県",
    "city": "大津市",
    "category": "community_day_service",
    "serviceType": "地域密着型通所介護",
    "capacity": 150,
    "openDays": [
      "平日"
    ],
    "openDaysNote": "年末年始　12月30日～1月3日"
  },
  {
    "id": "2570101879",
    "name": "大津市立東老人福祉センター",
    "kana": "オオツシリツヒガシロウジンフクシセンター",
    "address": "大津市玉野浦６－３３",
    "lat": 34.980884,
    "lng": 135.9082024,
    "tel": "077-545-5970",
    "url": "http://www.fukusi-otsu.or.jp",
    "pref": "滋賀県",
    "city": "大津市",
    "category": "community_day_service",
    "serviceType": "地域密着型通所介護",
    "capacity": 18,
    "openDays": [
      "平日",
      "土曜日",
      "祝日"
    ],
    "openDaysNote": ""
  },
  {
    "id": "2570101861",
    "name": "大津市立南老人福祉センター",
    "kana": "オオツシリツミナミロウジンフクシセンター",
    "address": "大津市南郷１丁目14-30",
    "lat": 34.9418601,
    "lng": 135.9084941,
    "tel": "077-537-7417",
    "url": "http://www.fukusi-otsu.or.jp",
    "pref": "滋賀県",
    "city": "大津市",
    "category": "community_day_service",
    "serviceType": "地域密着型通所介護",
    "capacity": 18,
    "openDays": [
      "平日",
      "土曜日",
      "祝日"
    ],
    "openDaysNote": ""
  },
  {
    "id": "2570101853",
    "name": "大津市立北老人福祉センター",
    "kana": "オオツシリツキタロウジンフクシセンター",
    "address": "大津市今堅田二丁目4番1号",
    "lat": 35.1205121,
    "lng": 135.9207424,
    "tel": "077-573-7123",
    "url": "http://www.fukusi-otsu.or.jp",
    "pref": "滋賀県",
    "city": "大津市",
    "category": "community_day_service",
    "serviceType": "地域密着型通所介護",
    "capacity": 12,
    "openDays": [
      "平日",
      "土曜日",
      "祝日"
    ],
    "openDaysNote": ""
  },
  {
    "id": "2590101016",
    "name": "地域密着型デイサービスアネモネ",
    "kana": "チイキミッチャクガタデイサービスアネモネ",
    "address": "滋賀県大津市南郷二丁目29番7号",
    "lat": 34.9424954,
    "lng": 135.9025168,
    "tel": "077-534-4165",
    "url": "https://day-anemone.jp",
    "pref": "滋賀県",
    "city": "大津市",
    "category": "community_day_service",
    "serviceType": "地域密着型通所介護",
    "capacity": 90,
    "openDays": [
      "平日",
      "土曜日",
      "祝日"
    ],
    "openDaysNote": ""
  },
  {
    "id": "2570101903",
    "name": "唐崎デイサービスセンター",
    "kana": "カラサキデイサービスセンター",
    "address": "大津市唐崎三丁目17番35号",
    "lat": 35.0505225,
    "lng": 135.8660359,
    "tel": "077-578-6488",
    "url": "http://www.fukusi-otsu.or.jp",
    "pref": "滋賀県",
    "city": "大津市",
    "category": "community_day_service",
    "serviceType": "地域密着型通所介護",
    "capacity": 18,
    "openDays": [
      "平日",
      "土曜日",
      "祝日"
    ],
    "openDaysNote": ""
  },
  {
    "id": "2570100574",
    "name": "特定非営利活動法人宅老所はな",
    "kana": "トクテイヒエイリカツドウホウジンタクロウショハナ",
    "address": "滋賀県大津市坂本五丁目２６－３１",
    "lat": 35.0739778,
    "lng": 135.8694433,
    "tel": "077-578-6587",
    "url": "http://www.hana-npo.net",
    "pref": "滋賀県",
    "city": "大津市",
    "category": "community_day_service",
    "serviceType": "地域密着型通所介護",
    "capacity": 10,
    "openDays": [
      "平日",
      "土曜日",
      "日曜日",
      "祝日"
    ],
    "openDaysNote": ""
  },
  {
    "id": "2570100087",
    "name": "福寿荘デイサービスセンター",
    "kana": "フクジュソウデイサービスセンター",
    "address": "大津市大萱七丁目7番１号",
    "lat": 34.9948826,
    "lng": 135.9156765,
    "tel": "077-545-2160",
    "url": "katyokai@poem.ocn.ne.jp",
    "pref": "滋賀県",
    "city": "大津市",
    "category": "community_day_service",
    "serviceType": "地域密着型通所介護",
    "capacity": 18,
    "openDays": [
      "平日",
      "祝日"
    ],
    "openDaysNote": ""
  },
  {
    "id": "2570100582",
    "name": "悠悠",
    "kana": "ユウユウ",
    "address": "大津市一里山五丁目20番37号",
    "lat": 34.9790546,
    "lng": 135.9367078,
    "tel": "077-547-6828",
    "url": "http://www",
    "pref": "滋賀県",
    "city": "大津市",
    "category": "community_day_service",
    "serviceType": "地域密着型通所介護",
    "capacity": 0,
    "openDays": [
      "平日",
      "土曜日",
      "祝日"
    ],
    "openDaysNote": ""
  },
  {
    "id": "2570100905",
    "name": "有限会社　さくらケアセンター",
    "kana": "ユウゲンガイシャ　サクラケアセンター",
    "address": "滋賀県大津市湖城が丘44番番18号",
    "lat": 34.9970815,
    "lng": 135.8812026,
    "tel": "077-522-8686",
    "url": "http://sakura-center.co.jp",
    "pref": "滋賀県",
    "city": "大津市",
    "category": "community_day_service",
    "serviceType": "地域密着型通所介護",
    "capacity": 0,
    "openDays": [
      "平日",
      "土曜日",
      "祝日"
    ],
    "openDaysNote": ""
  },
  {
    "id": "2590101065",
    "name": "陽だまりデイサービスセンター",
    "kana": "ヒダマリ",
    "address": "滋賀県大津市昭和町8-15",
    "lat": 34.9975864,
    "lng": 135.8862727,
    "tel": "077-527-3131",
    "url": "https://shigahokenkai.jp/pages/50/",
    "pref": "滋賀県",
    "city": "大津市",
    "category": "community_day_service",
    "serviceType": "地域密着型通所介護",
    "capacity": 0,
    "openDays": [
      "平日",
      "土曜日",
      "祝日"
    ],
    "openDaysNote": ""
  },
  {
    "id": "2570301396",
    "name": "スマイル長浜店",
    "kana": "スマイルナガハマテン",
    "address": "滋賀県長浜市平方町238番地YFビル23　1F YFビル23　1F",
    "lat": 35.371674,
    "lng": 136.2781024,
    "tel": "0749-53-2870",
    "url": "smile-shiga.net",
    "pref": "滋賀県",
    "city": "長浜市",
    "category": "community_day_service",
    "serviceType": "地域密着型通所介護",
    "capacity": 0,
    "openDays": [
      "平日",
      "祝日"
    ],
    "openDaysNote": ""
  },
  {
    "id": "2570301081",
    "name": "デイサービス　すずらん",
    "kana": "デイサービス　スズラン",
    "address": "滋賀県長浜市三ツ矢町13－16",
    "lat": 35.3878884,
    "lng": 136.2684783,
    "tel": "0749-62-3630",
    "url": "http://sontokukai.com",
    "pref": "滋賀県",
    "city": "長浜市",
    "category": "community_day_service",
    "serviceType": "地域密着型通所介護",
    "capacity": 15,
    "openDays": [
      "平日",
      "祝日"
    ],
    "openDaysNote": "時短のご希望の方も対応させていただいてます。ご相談下さい。"
  },
  {
    "id": "2570301073",
    "name": "デイサービス　とよしま",
    "kana": "デイサービス　トヨシマ",
    "address": "滋賀県長浜市加田町１９－６老人ホームながはま 老人ホームながはま",
    "lat": 35.3572601,
    "lng": 136.3041607,
    "tel": "０７４９－６２－２８９７",
    "url": "glow.or.jp/",
    "pref": "滋賀県",
    "city": "長浜市",
    "category": "community_day_service",
    "serviceType": "地域密着型通所介護",
    "capacity": 15,
    "openDays": [
      "平日",
      "土曜日",
      "祝日"
    ],
    "openDaysNote": ""
  },
  {
    "id": "2570301149",
    "name": "デイサービス　ナナ",
    "kana": "デイサービス　ナナ",
    "address": "長浜市高月町磯野538番地",
    "lat": 35.4778129,
    "lng": 136.2104491,
    "tel": "0749-50-1316",
    "url": "",
    "pref": "滋賀県",
    "city": "長浜市",
    "category": "community_day_service",
    "serviceType": "地域密着型通所介護",
    "capacity": 18,
    "openDays": [
      "平日",
      "土曜日",
      "祝日"
    ],
    "openDaysNote": ""
  },
  {
    "id": "2590300295",
    "name": "デイプラザゆるりは",
    "kana": "デイプラザユルリハ",
    "address": "滋賀県長浜市小堀町１１８－１",
    "lat": 35.3870713711869,
    "lng": 136.289471967984,
    "tel": "0749-65-0441",
    "url": "http://www.yururiha.com",
    "pref": "滋賀県",
    "city": "長浜市",
    "category": "community_day_service",
    "serviceType": "地域密着型通所介護",
    "capacity": 0,
    "openDays": [
      "平日",
      "土曜日",
      "祝日"
    ],
    "openDaysNote": ""
  },
  {
    "id": "2590300279",
    "name": "リハデイ優美",
    "kana": "リハデイユウビ",
    "address": "東主計町165",
    "lat": 35.4305627,
    "lng": 136.3236907,
    "tel": "0749-74-8333",
    "url": "https://www.fureai-s.jp/u_bi/",
    "pref": "滋賀県",
    "city": "長浜市",
    "category": "community_day_service",
    "serviceType": "地域密着型通所介護",
    "capacity": 0,
    "openDays": [
      "平日"
    ],
    "openDaysNote": "年末年始（12月29日～1月4日）及びお盆（8月13日～8月15日）は休業"
  },
  {
    "id": "2570301313",
    "name": "リハビリデイサービス　しゅん",
    "kana": "リハビリデイサービス　シュン",
    "address": "滋賀県長浜市木之本町木之本739-5",
    "lat": 35.5034587,
    "lng": 136.2282997,
    "tel": "0749-82-8506",
    "url": "http://hp.kaipoke.biz/f94/",
    "pref": "滋賀県",
    "city": "長浜市",
    "category": "community_day_service",
    "serviceType": "地域密着型通所介護",
    "capacity": 0,
    "openDays": [
      "平日"
    ],
    "openDaysNote": "営業時間外・定休日における連絡等は、専任担当者が24時間随時対応。"
  },
  {
    "id": "2570300893",
    "name": "リハビリデイサービスいっぽん",
    "kana": "リハビリデイサービスイッポン",
    "address": "長浜市高月町高月167",
    "lat": 35.4666039,
    "lng": 136.2352661,
    "tel": "0749-85-5443",
    "url": "",
    "pref": "滋賀県",
    "city": "長浜市",
    "category": "community_day_service",
    "serviceType": "地域密着型通所介護",
    "capacity": 0,
    "openDays": [
      "平日"
    ],
    "openDaysNote": ""
  },
  {
    "id": "2570301321",
    "name": "リハビリデイ楽りら",
    "kana": "リハビリデイラクリラ",
    "address": "滋賀県長浜市大辰巳町36第17森野ビル 第17森野ビル",
    "lat": 35.3724936,
    "lng": 136.287346,
    "tel": "0749-50-7449",
    "url": "www.raku-rira.jp",
    "pref": "滋賀県",
    "city": "長浜市",
    "category": "community_day_service",
    "serviceType": "地域密着型通所介護",
    "capacity": 0,
    "openDays": [
      "平日"
    ],
    "openDaysNote": "事業所の定める日"
  },
  {
    "id": "2570301107",
    "name": "リハビリデイ湯本",
    "kana": "リハビリデイユモト",
    "address": "滋賀県弥高町231",
    "lat": 35.3744459,
    "lng": 136.2790051,
    "tel": "0749-50-3691",
    "url": "https://www.eonet.ne.jp/~yumochan1274/",
    "pref": "滋賀県",
    "city": "長浜市",
    "category": "community_day_service",
    "serviceType": "地域密着型通所介護",
    "capacity": 0,
    "openDays": [
      "平日"
    ],
    "openDaysNote": ""
  },
  {
    "id": "2570301206",
    "name": "リハビリデイ湯本　神照",
    "kana": "リハビリデイユモト　カミテル",
    "address": "長浜市新庄寺町286-8",
    "lat": 35.4001038,
    "lng": 136.2741222,
    "tel": "0749-50-1910",
    "url": "http://www.eonet.ne.jp/~yumochan1274/",
    "pref": "滋賀県",
    "city": "長浜市",
    "category": "community_day_service",
    "serviceType": "地域密着型通所介護",
    "capacity": 0,
    "openDays": [
      "平日"
    ],
    "openDaysNote": ""
  },
  {
    "id": "2570300794",
    "name": "安達クリニック　マリーデイサービス",
    "kana": "アダチクリニック　マリーデイサービス",
    "address": "滋賀県長浜市小谷丁野町379-2",
    "lat": 35.4603578,
    "lng": 136.2558634,
    "tel": "0749-78-0055",
    "url": "",
    "pref": "滋賀県",
    "city": "長浜市",
    "category": "community_day_service",
    "serviceType": "地域密着型通所介護",
    "capacity": 0,
    "openDays": [
      "平日",
      "土曜日"
    ],
    "openDaysNote": ""
  },
  {
    "id": "2570301214",
    "name": "真ごころデイサービス",
    "kana": "マゴコロデイサービス",
    "address": "滋賀県長浜市湖北町今西743番地",
    "lat": 35.4409133,
    "lng": 136.1962727,
    "tel": "0749-79-0016",
    "url": "",
    "pref": "滋賀県",
    "city": "長浜市",
    "category": "community_day_service",
    "serviceType": "地域密着型通所介護",
    "capacity": 18,
    "openDays": [
      "平日",
      "祝日"
    ],
    "openDaysNote": ""
  },
  {
    "id": "2570301420",
    "name": "早稲田イーライフ長浜",
    "kana": "ワセダイーライフナガハマ",
    "address": "八幡東町７９－１",
    "lat": 35.3816740578798,
    "lng": 136.285091154924,
    "tel": "0749-62-3860",
    "url": "http://hp.kaipoke.biz/w2d/index.html",
    "pref": "滋賀県",
    "city": "長浜市",
    "category": "community_day_service",
    "serviceType": "地域密着型通所介護",
    "capacity": 70,
    "openDays": [
      "平日",
      "祝日"
    ],
    "openDaysNote": ""
  },
  {
    "id": "2570301305",
    "name": "通所介護施設　咲くら",
    "kana": "ツウショカイゴシセツ　サクラ",
    "address": "滋賀県長浜市富田町　482-1",
    "lat": 35.4254969652889,
    "lng": 136.223189656327,
    "tel": "0749-72-5311",
    "url": "https://konet.or.jp/",
    "pref": "滋賀県",
    "city": "長浜市",
    "category": "community_day_service",
    "serviceType": "地域密着型通所介護",
    "capacity": 18,
    "openDays": [
      "平日",
      "土曜日",
      "祝日"
    ],
    "openDaysNote": "年末年始も受入れ可能"
  },
  {
    "id": "2590500274",
    "name": "i・mart　ヘルス＆ワーク倶楽部",
    "kana": "アイ・マート　ヘルス＆ワーククラブ",
    "address": "滋賀県東近江市市ケ原町109番地",
    "lat": 35.1155051,
    "lng": 136.276002,
    "tel": "080-3459-3442",
    "url": "https://www.instagram.com/imart_healthworkclub/",
    "pref": "滋賀県",
    "city": "東近江市",
    "category": "community_day_service",
    "serviceType": "地域密着型通所介護",
    "capacity": 0,
    "openDays": [
      "平日"
    ],
    "openDaysNote": ""
  },
  {
    "id": "2570500385",
    "name": "ＮＰＯ結の家ディサービスセンターとの",
    "kana": "エヌピーオーユイノイエディサービスセンタートノ",
    "address": "滋賀県東近江市愛東外町７００番地の１",
    "lat": 35.0889230471162,
    "lng": 136.291646315344,
    "tel": "080-8507-1148",
    "url": "http://fukushi-mall.com/",
    "pref": "滋賀県",
    "city": "東近江市",
    "category": "community_day_service",
    "serviceType": "地域密着型通所介護",
    "capacity": 11,
    "openDays": [
      "平日",
      "祝日"
    ],
    "openDaysNote": "祝日は営業しています。"
  },
  {
    "id": "2590500316",
    "name": "デイサービス　リハセンターかけはし",
    "kana": "デイサービスリハセンターカケハシ",
    "address": "滋賀県東近江市沖野五丁目10-8",
    "lat": 35.0955617,
    "lng": 136.2170968,
    "tel": "0748-56-1460",
    "url": "",
    "pref": "滋賀県",
    "city": "東近江市",
    "category": "community_day_service",
    "serviceType": "地域密着型通所介護",
    "capacity": 100,
    "openDays": [
      "平日",
      "土曜日",
      "祝日"
    ],
    "openDaysNote": "８月１３日～１５日　１２月２９日～１月３日　は休業"
  },
  {
    "id": "2570500534",
    "name": "デイサービスおひさま",
    "kana": "デイサービスオヒサマ",
    "address": "東近江市中小路町549番地4",
    "lat": 35.0973131411303,
    "lng": 136.228769335582,
    "tel": "0748-24-3106",
    "url": "",
    "pref": "滋賀県",
    "city": "東近江市",
    "category": "community_day_service",
    "serviceType": "地域密着型通所介護",
    "capacity": 0,
    "openDays": [
      "平日",
      "祝日"
    ],
    "openDaysNote": ""
  },
  {
    "id": "2570500989",
    "name": "デイサービスセンター　陽だまり倶楽部",
    "kana": "デイサービスセンター　ヒダマリクラブ",
    "address": "滋賀県東近江市北花沢町１８１２",
    "lat": 35.1278336736265,
    "lng": 136.253719881597,
    "tel": "0749-45-3465",
    "url": "",
    "pref": "滋賀県",
    "city": "東近江市",
    "category": "community_day_service",
    "serviceType": "地域密着型通所介護",
    "capacity": 1,
    "openDays": [
      "平日",
      "祝日"
    ],
    "openDaysNote": "天災その他やむを得ず業務を遂行できない日"
  },
  {
    "id": "2570501144",
    "name": "デイサービスセンター・アンサンブル",
    "kana": "デイサービスセンター・アンサンブル",
    "address": "滋賀県東近江市小脇町1286-5",
    "lat": 35.1168242,
    "lng": 136.1776562,
    "tel": "0748-43-2341",
    "url": "https//kk-ensemble.jp",
    "pref": "滋賀県",
    "city": "東近江市",
    "category": "community_day_service",
    "serviceType": "地域密着型通所介護",
    "capacity": 10,
    "openDays": [
      "平日",
      "祝日"
    ],
    "openDaysNote": "月曜日から金曜日の祝日は通常営業となっています"
  },
  {
    "id": "2590500217",
    "name": "デイサービスセンターてんまや",
    "kana": "デイサービスセンターテンマヤ",
    "address": "滋賀県東近江市建部日吉町312番地",
    "lat": 35.1188855,
    "lng": 136.19751,
    "tel": "0748-36-2112",
    "url": "",
    "pref": "滋賀県",
    "city": "東近江市",
    "category": "community_day_service",
    "serviceType": "地域密着型通所介護",
    "capacity": 0,
    "openDays": [
      "平日",
      "祝日"
    ],
    "openDaysNote": ""
  },
  {
    "id": "2570500583",
    "name": "デイサービスセンター加楽",
    "kana": "デイサービスセンターカラク",
    "address": "滋賀県東近江市下中野町６３７番地",
    "lat": 35.1141932,
    "lng": 136.2652163,
    "tel": "0749-46-0608",
    "url": "http://npokaraku.web.fc2.com/index.html",
    "pref": "滋賀県",
    "city": "東近江市",
    "category": "community_day_service",
    "serviceType": "地域密着型通所介護",
    "capacity": 15,
    "openDays": [
      "平日",
      "祝日"
    ],
    "openDaysNote": ""
  },
  {
    "id": "2570500435",
    "name": "デイサービスセンター水車",
    "kana": "デイサービスセンタースイシャ",
    "address": "滋賀県東近江市垣見町725",
    "lat": 35.1797862,
    "lng": 136.1688279,
    "tel": "0748-42-5300",
    "url": "",
    "pref": "滋賀県",
    "city": "東近江市",
    "category": "community_day_service",
    "serviceType": "地域密着型通所介護",
    "capacity": 15,
    "openDays": [
      "平日",
      "祝日"
    ],
    "openDaysNote": ""
  },
  {
    "id": "2570500617",
    "name": "でいサービスセンター年輪",
    "kana": "デイサービスセンターネンリン",
    "address": "東近江市市辺町3834",
    "lat": 35.0977484,
    "lng": 136.1800173,
    "tel": "0748-20-3711",
    "url": "http://www.e-nenrin.com/",
    "pref": "滋賀県",
    "city": "東近江市",
    "category": "community_day_service",
    "serviceType": "地域密着型通所介護",
    "capacity": 0,
    "openDays": [
      "平日",
      "土曜日",
      "祝日"
    ],
    "openDaysNote": ""
  },
  {
    "id": "2590500191",
    "name": "デイサービスセンター楓",
    "kana": "デイサービスセンター　カエデ",
    "address": "宮川町２４４－４４４",
    "lat": 35.0389888,
    "lng": 136.1614317,
    "tel": "０７４８－５５－５２２３",
    "url": "",
    "pref": "滋賀県",
    "city": "東近江市",
    "category": "community_day_service",
    "serviceType": "地域密着型通所介護",
    "capacity": 10,
    "openDays": [
      "平日",
      "土曜日",
      "祝日"
    ],
    "openDaysNote": "「滋賀県全域」「東近江市」大雪警報が発令されている場合、寒波による大雪の被害が予想される場合、事故防止と利用者の安全確保のため、当事業所のサービス中止等の措置をとる場合があります（改行）「滋賀県全域」「東近江市」に特別警報、暴風警報、大雨警報が発令されている場合、局地的集中豪雨や台風発生により警報が発令された場合も、サービスの中止等の措置をとる場合がございます"
  },
  {
    "id": "2570500906",
    "name": "デイサービスひいらぎの里",
    "kana": "デイサービスヒイラギノサト",
    "address": "東近江市上平木町1150",
    "lat": 35.1011952,
    "lng": 136.1303862,
    "tel": "0748-24-5353",
    "url": "",
    "pref": "滋賀県",
    "city": "東近江市",
    "category": "community_day_service",
    "serviceType": "地域密着型通所介護",
    "capacity": 12,
    "openDays": [
      "平日"
    ],
    "openDaysNote": ""
  },
  {
    "id": "2590500209",
    "name": "ほっとタイム",
    "kana": "ホットタイム",
    "address": "滋賀県東近江市東沖野2-5-5",
    "lat": 35.1018178,
    "lng": 136.202971,
    "tel": "0748-23-7042",
    "url": "http://shimin-yokaichi.net/",
    "pref": "滋賀県",
    "city": "東近江市",
    "category": "community_day_service",
    "serviceType": "地域密着型通所介護",
    "capacity": 15,
    "openDays": [
      "平日",
      "祝日"
    ],
    "openDaysNote": "8月13日から15日と12月29日から1月3日は休みとする"
  },
  {
    "id": "2570500799",
    "name": "もくれんの小径　デイサービスセンター",
    "kana": "モクレンノコミチ　デイサービスセンター",
    "address": "滋賀県東近江市湯屋町1320-1",
    "lat": 35.1413067533135,
    "lng": 136.260749756839,
    "tel": "0749-45-3233",
    "url": "http://www.taijyukai.net/kizuna/index.html",
    "pref": "滋賀県",
    "city": "東近江市",
    "category": "community_day_service",
    "serviceType": "地域密着型通所介護",
    "capacity": 0,
    "openDays": [
      "平日",
      "土曜日",
      "日曜日",
      "祝日"
    ],
    "openDaysNote": ""
  },
  {
    "id": "2570500997",
    "name": "菊水神郷デイサービスセンター",
    "kana": "キクスイジンゴウデイサービスセンター",
    "address": "滋賀県東近江市神郷町1076-1",
    "lat": 35.1814259549217,
    "lng": 136.184545398148,
    "tel": "0748-43-0728",
    "url": "http://keisenkaikikusuien.com/",
    "pref": "滋賀県",
    "city": "東近江市",
    "category": "community_day_service",
    "serviceType": "地域密着型通所介護",
    "capacity": 10,
    "openDays": [
      "平日",
      "祝日"
    ],
    "openDaysNote": ""
  },
  {
    "id": "2570500872",
    "name": "結の家デイサービスセンターおぐら",
    "kana": "ユイノイエデイサービスセンターオグラ",
    "address": "滋賀県東近江市小倉町1975番地2",
    "lat": 35.0904536,
    "lng": 136.2809402,
    "tel": "0749-46-2166",
    "url": "http://fukushi-mall.com/",
    "pref": "滋賀県",
    "city": "東近江市",
    "category": "community_day_service",
    "serviceType": "地域密着型通所介護",
    "capacity": 15,
    "openDays": [
      "平日",
      "土曜日",
      "祝日"
    ],
    "openDaysNote": "翌年1月1日はお休みをさせていただきます（改行）年末年始は、短時間（9:30分～14：35分）"
  },
  {
    "id": "2570500807",
    "name": "地域福祉館　雅",
    "kana": "チイキフクシカン　ミヤビ",
    "address": "滋賀県東近江市池庄町1554-2",
    "lat": 35.131644,
    "lng": 136.2422204,
    "tel": "0749-45-0044",
    "url": "http://www.katogroup.jp/",
    "pref": "滋賀県",
    "city": "東近江市",
    "category": "community_day_service",
    "serviceType": "地域密着型通所介護",
    "capacity": 15,
    "openDays": [
      "平日",
      "土曜日"
    ],
    "openDaysNote": ""
  },
  {
    "id": "2570501003",
    "name": "和久わくライフデイサービスセンター",
    "kana": "ワクワクライフデイサービスセンター",
    "address": "滋賀県東近江市蛇溝町1114-1",
    "lat": 35.0808422,
    "lng": 136.1939281,
    "tel": "0748-20-1313",
    "url": "http://www.wakuwakulife.biz/",
    "pref": "滋賀県",
    "city": "東近江市",
    "category": "community_day_service",
    "serviceType": "地域密着型通所介護",
    "capacity": 10,
    "openDays": [
      "平日",
      "土曜日",
      "祝日"
    ],
    "openDaysNote": ""
  },
  {
    "id": "2571500400",
    "name": "デイサービス　ともの家　ひの",
    "kana": "デイサービス　トモノイエ　ヒノ",
    "address": "滋賀県蒲生郡日野町大窪１３６３番地",
    "lat": 35.0101394471613,
    "lng": 136.24756796306,
    "tel": "０７４８－２６－１５２３",
    "url": "http://www.tomonoie.org/public/",
    "pref": "滋賀県",
    "city": "日野町",
    "category": "community_day_service",
    "serviceType": "地域密着型通所介護",
    "capacity": 0,
    "openDays": [
      "平日",
      "祝日"
    ],
    "openDaysNote": ""
  },
  {
    "id": "2590200404",
    "name": "URBAN　STUDIO　ゆるりは　平田",
    "kana": "アーバンスタジオ　ユルリハ　ヒラタ",
    "address": "滋賀県彦根市平田町409-1",
    "lat": 35.258711,
    "lng": 136.242733,
    "tel": "0749-21-5585",
    "url": "https://us-yururiha.com/",
    "pref": "滋賀県",
    "city": "彦根市",
    "category": "community_day_service",
    "serviceType": "地域密着型通所介護",
    "capacity": 0,
    "openDays": [
      "平日",
      "祝日"
    ],
    "openDaysNote": "祝祭日は営業　年末年始12/30～1/3休業"
  },
  {
    "id": "2570200721",
    "name": "アネシス南彦根",
    "kana": "アネシスミナミヒコネ",
    "address": "滋賀県彦根市小泉町木立135",
    "lat": 35.2482518,
    "lng": 136.2507108,
    "tel": "0749-27-3354",
    "url": "http://www.tanakacare.co.jp/",
    "pref": "滋賀県",
    "city": "彦根市",
    "category": "community_day_service",
    "serviceType": "地域密着型通所介護",
    "capacity": 0,
    "openDays": [
      "平日",
      "土曜日",
      "祝日"
    ],
    "openDaysNote": ""
  },
  {
    "id": "2590200313",
    "name": "デイサービス　クローバー",
    "kana": "デイサービス　クローバー",
    "address": "256-1",
    "lat": 35.2604128998251,
    "lng": 136.265599338326,
    "tel": "0749-47-3901",
    "url": "",
    "pref": "滋賀県",
    "city": "彦根市",
    "category": "community_day_service",
    "serviceType": "地域密着型通所介護",
    "capacity": 15,
    "openDays": [
      "平日",
      "祝日"
    ],
    "openDaysNote": ""
  },
  {
    "id": "2570200788",
    "name": "デイサービスセンター　　城",
    "kana": "デイサービスセンターシロ",
    "address": "滋賀県彦根市甘呂町918",
    "lat": 35.2447375,
    "lng": 136.2210659,
    "tel": "0749-47-5650",
    "url": "",
    "pref": "滋賀県",
    "city": "彦根市",
    "category": "community_day_service",
    "serviceType": "地域密着型通所介護",
    "capacity": 2,
    "openDays": [
      "平日",
      "祝日"
    ],
    "openDaysNote": ""
  },
  {
    "id": "2570200861",
    "name": "デイサービスはえみ",
    "kana": "デイサービスハエミ",
    "address": "彦根市田附町１２２７",
    "lat": 35.2090741,
    "lng": 136.1477467,
    "tel": "0749-20-4876",
    "url": "http://hp.kaipoke.biz/h7c/",
    "pref": "滋賀県",
    "city": "彦根市",
    "category": "community_day_service",
    "serviceType": "地域密着型通所介護",
    "capacity": 10,
    "openDays": [
      "平日",
      "土曜日",
      "祝日"
    ],
    "openDaysNote": ""
  },
  {
    "id": "2590200263",
    "name": "デイサービスひまわり",
    "kana": "デイサービスヒマワリ",
    "address": "滋賀県彦根市里根町191-1ハートフルヒルズ彦根 ハートフルヒルズ彦根",
    "lat": 35.2673817,
    "lng": 136.2678721,
    "tel": "0749-26-5520",
    "url": "http://www.soin-vie.co.jp",
    "pref": "滋賀県",
    "city": "彦根市",
    "category": "community_day_service",
    "serviceType": "地域密着型通所介護",
    "capacity": 10,
    "openDays": [
      "平日",
      "祝日"
    ],
    "openDaysNote": "（祝日は営業、但し12月29日から1月3日を除く）"
  },
  {
    "id": "2570200291",
    "name": "ぽぽハウス",
    "kana": "ポポハウス",
    "address": "彦根市平田町107-11",
    "lat": 35.261153829035,
    "lng": 136.24851348989,
    "tel": "0749-21-0664",
    "url": "http//www.popo-house.jp/",
    "pref": "滋賀県",
    "city": "彦根市",
    "category": "community_day_service",
    "serviceType": "地域密着型通所介護",
    "capacity": 18,
    "openDays": [
      "平日",
      "土曜日",
      "祝日"
    ],
    "openDaysNote": ""
  },
  {
    "id": "2570201083",
    "name": "ポラリスデイサービスセンター彦根",
    "kana": "ポラリスデイサービスセンターヒコネ",
    "address": "滋賀県彦根市大藪町2509-2",
    "lat": 35.2631885249014,
    "lng": 136.23443220555,
    "tel": "0749-27-3560",
    "url": "",
    "pref": "滋賀県",
    "city": "彦根市",
    "category": "community_day_service",
    "serviceType": "地域密着型通所介護",
    "capacity": 12,
    "openDays": [
      "平日",
      "土曜日",
      "祝日"
    ],
    "openDaysNote": ""
  },
  {
    "id": "2570201059",
    "name": "ミドリヤいなえ",
    "kana": "ミドリヤイナエ",
    "address": "肥田町1013-2",
    "lat": 35.2040155,
    "lng": 136.2001186,
    "tel": "0749-20-0001",
    "url": "www.kyoto-midoriya.co.jp",
    "pref": "滋賀県",
    "city": "彦根市",
    "category": "community_day_service",
    "serviceType": "地域密着型通所介護",
    "capacity": 0,
    "openDays": [
      "平日",
      "土曜日",
      "日曜日",
      "祝日"
    ],
    "openDaysNote": ""
  },
  {
    "id": "2570200812",
    "name": "レジリエンスラボ仄香",
    "kana": "レジリエンスラボ仄香",
    "address": "滋賀県彦根市戸賀町100-50",
    "lat": 35.255323403259,
    "lng": 136.237798858513,
    "tel": "0749-49-3566",
    "url": "ssu@iscare.co.jp",
    "pref": "滋賀県",
    "city": "彦根市",
    "category": "community_day_service",
    "serviceType": "地域密着型通所介護",
    "capacity": 16,
    "openDays": [
      "平日",
      "土曜日",
      "祝日"
    ],
    "openDaysNote": "9:00～12：00と13：30～16：30の3時間サービス2クール"
  },
  {
    "id": "2570200499",
    "name": "花しょうぶの郷デイサービス",
    "kana": "ハナショウブノサトデイサービス",
    "address": "稲枝町27-1",
    "lat": 35.2019875,
    "lng": 136.1953803,
    "tel": "0749-43-2431",
    "url": "http://h-shobu.jp",
    "pref": "滋賀県",
    "city": "彦根市",
    "category": "community_day_service",
    "serviceType": "地域密着型通所介護",
    "capacity": 10,
    "openDays": [
      "平日",
      "土曜日",
      "祝日"
    ],
    "openDaysNote": ""
  },
  {
    "id": "2590200297",
    "name": "機能訓練特化型デイサービスがじゅまる",
    "kana": "キノウクンレントッカガタデイサービスガジュマル",
    "address": "滋賀県彦根市川瀬馬場町1082-3",
    "lat": 35.2279258,
    "lng": 136.2242575,
    "tel": "0749-20-7074",
    "url": "day-gajumaru.com",
    "pref": "滋賀県",
    "city": "彦根市",
    "category": "community_day_service",
    "serviceType": "地域密着型通所介護",
    "capacity": 30,
    "openDays": [
      "平日",
      "土曜日",
      "祝日"
    ],
    "openDaysNote": ""
  },
  {
    "id": "2570200093",
    "name": "社会福祉法人ことぶき会指定通所介護事業所",
    "kana": "シャカイフクシホウジンコトブキカイシテイツウショカイゴジギョウショ",
    "address": "彦根市上岡部町５０３番地",
    "lat": 35.2192406,
    "lng": 136.1778017,
    "tel": "0749-43-6484",
    "url": "http//www.ans.co.jp/n/kotobukihoikuen/",
    "pref": "滋賀県",
    "city": "彦根市",
    "category": "community_day_service",
    "serviceType": "地域密着型通所介護",
    "capacity": 15,
    "openDays": [
      "平日",
      "祝日"
    ],
    "openDaysNote": ""
  },
  {
    "id": "2570200606",
    "name": "信幸ケアサービスセンター",
    "kana": "シンコウケアサービスセンター",
    "address": "滋賀県彦根市賀田山町240-2",
    "lat": 35.2208398,
    "lng": 136.2137503,
    "tel": "0749-28-0294",
    "url": "shinkohcare@gmail.com",
    "pref": "滋賀県",
    "city": "彦根市",
    "category": "community_day_service",
    "serviceType": "地域密着型通所介護",
    "capacity": 10,
    "openDays": [
      "平日",
      "土曜日",
      "祝日"
    ],
    "openDaysNote": ""
  },
  {
    "id": "2572400485",
    "name": "ｅｓｔ",
    "kana": "エスト",
    "address": "滋賀県米原市顔戸501-5",
    "lat": 35.3365045,
    "lng": 136.3028775,
    "tel": "0749-57-6277",
    "url": "http://style2010.com/",
    "pref": "滋賀県",
    "city": "米原市",
    "category": "community_day_service",
    "serviceType": "地域密着型通所介護",
    "capacity": 18,
    "openDays": [
      "平日"
    ],
    "openDaysNote": ""
  },
  {
    "id": "2592400184",
    "name": "あーばん　すたじおゆるりはまいばら",
    "kana": "URBANSTUDIOユルリハ米原",
    "address": "顔戸1315-7URBANSTUDIOゆるりは米原 URBANSTUDIOゆるりは米原",
    "lat": 35.3401821,
    "lng": 136.2966065,
    "tel": "0749-52-8550",
    "url": "https://us-yururiha.com/",
    "pref": "滋賀県",
    "city": "米原市",
    "category": "community_day_service",
    "serviceType": "地域密着型通所介護",
    "capacity": null,
    "openDays": [
      "平日"
    ],
    "openDaysNote": ""
  },
  {
    "id": "2572400493",
    "name": "いぶきの家",
    "kana": "イブキノイエ",
    "address": "滋賀県米原市井之口180",
    "lat": 35.3976833,
    "lng": 136.3574812,
    "tel": "0749-55-0205",
    "url": "",
    "pref": "滋賀県",
    "city": "米原市",
    "category": "community_day_service",
    "serviceType": "地域密着型通所介護",
    "capacity": 0,
    "openDays": [
      "平日",
      "土曜日",
      "祝日"
    ],
    "openDaysNote": "令和３年より、月曜日～土曜日開所しています。"
  },
  {
    "id": "2592400135",
    "name": "スタイルケア",
    "kana": "スタイルケア",
    "address": "滋賀県米原市高番408",
    "lat": 35.3794951,
    "lng": 136.3758539,
    "tel": "0749-58-8003",
    "url": "http://style2010.com/",
    "pref": "滋賀県",
    "city": "米原市",
    "category": "community_day_service",
    "serviceType": "地域密着型通所介護",
    "capacity": 0,
    "openDays": [
      "平日",
      "祝日"
    ],
    "openDaysNote": ""
  },
  {
    "id": "2592400192",
    "name": "スマイルデイサービスセンター",
    "kana": "スマイルデイサービスセンター",
    "address": "米原市寺倉603番地の3",
    "lat": 35.3253517,
    "lng": 136.3114067,
    "tel": "0749-54-8204",
    "url": "https://www.oumikunpuukai.com",
    "pref": "滋賀県",
    "city": "米原市",
    "category": "community_day_service",
    "serviceType": "地域密着型通所介護",
    "capacity": null,
    "openDays": [
      "平日",
      "土曜日",
      "祝日"
    ],
    "openDaysNote": ""
  },
  {
    "id": "2592400119",
    "name": "ひだまり",
    "kana": "ヒダマリ",
    "address": "滋賀県米原市一色458-2",
    "lat": 35.3383293,
    "lng": 136.3564554,
    "tel": "0749-54-2277",
    "url": "http://www.hidamari-shiga.jp",
    "pref": "滋賀県",
    "city": "米原市",
    "category": "community_day_service",
    "serviceType": "地域密着型通所介護",
    "capacity": null,
    "openDays": [
      "平日",
      "土曜日",
      "日曜日",
      "祝日"
    ],
    "openDaysNote": "日曜日は基本的にお休みですが、隣接するほっとひだまりの職員が電話応対させていただきます。また、管理者直通携帯電話がありますので、適宜対応が可能です。"
  },
  {
    "id": "2592400150",
    "name": "ファミールケア米原センター",
    "kana": "ファミールケアマイバラセンター",
    "address": "米原市中多良１丁目１７番",
    "lat": 35.3166892,
    "lng": 136.2810544,
    "tel": "0749-52-5665",
    "url": "https://www.famille-care.co.jp",
    "pref": "滋賀県",
    "city": "米原市",
    "category": "community_day_service",
    "serviceType": "地域密着型通所介護",
    "capacity": 0,
    "openDays": [
      "平日",
      "土曜日",
      "祝日"
    ],
    "openDaysNote": ""
  },
  {
    "id": "2592400176",
    "name": "ライセル株式会社",
    "kana": "ライセルカブシキガイシャ",
    "address": "滋賀県米原市宇賀野181",
    "lat": 35.3436466,
    "lng": 136.2897017,
    "tel": "0749-52-1211",
    "url": "https://raiseru.co.jp",
    "pref": "滋賀県",
    "city": "米原市",
    "category": "community_day_service",
    "serviceType": "地域密着型通所介護",
    "capacity": 0,
    "openDays": [
      "平日",
      "祝日"
    ],
    "openDaysNote": ""
  },
  {
    "id": "2572400444",
    "name": "ラウンド多和田",
    "kana": "ラウンドタワダ",
    "address": "滋賀県米原市多和田1033番地1",
    "lat": 35.3359296,
    "lng": 136.3326354,
    "tel": "0749-54-1022",
    "url": "http://www.sinca100.biz/",
    "pref": "滋賀県",
    "city": "米原市",
    "category": "community_day_service",
    "serviceType": "地域密着型通所介護",
    "capacity": 13,
    "openDays": [
      "平日",
      "土曜日",
      "祝日"
    ],
    "openDaysNote": ""
  },
  {
    "id": "2572400196",
    "name": "社会福祉法人米原市社会福祉協議会デイサービスセンター寄ろ家うかの",
    "kana": "シャカイフクシホウジンマイバラシシャカイフクシキョウギカイデイサービスセンターヨロカウカノ",
    "address": "滋賀県米原市宇賀野590",
    "lat": 35.3402873,
    "lng": 136.2880487,
    "tel": "0749-52-6880",
    "url": "http://maibara-shakyo.or.jp",
    "pref": "滋賀県",
    "city": "米原市",
    "category": "community_day_service",
    "serviceType": "地域密着型通所介護",
    "capacity": 10,
    "openDays": [
      "平日",
      "土曜日",
      "祝日"
    ],
    "openDaysNote": "特になし"
  },
  {
    "id": "2572400188",
    "name": "社会福祉法人米原市社会福祉協議会デイサービスセンター行こ家のとせ",
    "kana": "マイバラシシャカイフクシキョウギカイデイサービスセンターイコカノトセ",
    "address": "滋賀県米原市能登瀬1294-3",
    "lat": 35.331619,
    "lng": 136.3165316,
    "tel": "0749-54-8188",
    "url": "ikokanotose@maibara-shakyo.or.Jp",
    "pref": "滋賀県",
    "city": "米原市",
    "category": "community_day_service",
    "serviceType": "地域密着型通所介護",
    "capacity": 10,
    "openDays": [
      "平日",
      "土曜日",
      "祝日"
    ],
    "openDaysNote": ""
  },
  {
    "id": "2572400329",
    "name": "社会福祉法人米原市社会福祉協議会東部デイサービスセンターはびろ",
    "kana": "シャカイフクシホウジンマイバラシシャカイフクシキョウギカイトウブデイサービスセンターハビロ",
    "address": "滋賀県米原市柏原2202柏原福祉交流センター 柏原福祉交流センター",
    "lat": 35.3409015,
    "lng": 136.3970899,
    "tel": "0749-57-1800",
    "url": "habiroday@maibara-shakyo.or.jp",
    "pref": "滋賀県",
    "city": "米原市",
    "category": "community_day_service",
    "serviceType": "地域密着型通所介護",
    "capacity": 16,
    "openDays": [
      "平日",
      "土曜日",
      "祝日"
    ],
    "openDaysNote": ""
  },
  {
    "id": "2572400311",
    "name": "社会福祉法人米原市社会福祉協議会北部デイサービスセンターきたで～",
    "kana": "シャカイフクシホウジンマイバラシシャカイフクシキョウギカイホクブデイサービスセンターキタデ～",
    "address": "滋賀県米原市大久保885番地",
    "lat": 35.4266893,
    "lng": 136.3703043,
    "tel": "0749-58-8010",
    "url": "maibara-shakyo.or.jp/",
    "pref": "滋賀県",
    "city": "米原市",
    "category": "community_day_service",
    "serviceType": "地域密着型通所介護",
    "capacity": 10,
    "openDays": [
      "平日",
      "土曜日",
      "祝日"
    ],
    "openDaysNote": ""
  },
  {
    "id": "2572400212",
    "name": "特定非営利活動法人　ほほえみ",
    "kana": "特定非営利活動法人　ホホエミ",
    "address": "滋賀県米原市上野1056番地",
    "lat": 35.3934749,
    "lng": 136.3816007,
    "tel": "0749-58-2288",
    "url": "",
    "pref": "滋賀県",
    "city": "米原市",
    "category": "community_day_service",
    "serviceType": "地域密着型通所介護",
    "capacity": 0,
    "openDays": [
      "平日",
      "土曜日",
      "祝日"
    ],
    "openDaysNote": ""
  },
  {
    "id": "2571300611",
    "name": "アクティブ野洲",
    "kana": "アクティブヤス",
    "address": "滋賀県野洲市冨波乙712-12",
    "lat": 35.0783497,
    "lng": 136.0311581,
    "tel": "077-587-1055",
    "url": "http://activeoumi.web.fc2.com/",
    "pref": "滋賀県",
    "city": "野洲市",
    "category": "community_day_service",
    "serviceType": "地域密着型通所介護",
    "capacity": 18,
    "openDays": [
      "平日",
      "土曜日",
      "祝日"
    ],
    "openDaysNote": "月曜日～土曜日の祝日に関しては営業しています。"
  },
  {
    "id": "2571300405",
    "name": "デイサービス　あっちゃん家",
    "kana": "デイサービス　アッチャンチ",
    "address": "冨波乙311-2",
    "lat": 35.0783636,
    "lng": 136.0361242,
    "tel": "077-586-7273",
    "url": "",
    "pref": "滋賀県",
    "city": "野洲市",
    "category": "community_day_service",
    "serviceType": "地域密着型通所介護",
    "capacity": 10,
    "openDays": [
      "平日",
      "日曜日",
      "祝日"
    ],
    "openDaysNote": "盆に関しては、曜日との兼ね合いにより多少前後することがある。"
  },
  {
    "id": "2571300520",
    "name": "デイサービスセンター　ほほえみ",
    "kana": "デイサービスセンター　ホホエミ",
    "address": "滋賀県野洲市吉地419番地",
    "lat": 35.1058183,
    "lng": 136.0127156,
    "tel": "077-575-5547",
    "url": "http://www.hohoemi-hohoemi.com/",
    "pref": "滋賀県",
    "city": "野洲市",
    "category": "community_day_service",
    "serviceType": "地域密着型通所介護",
    "capacity": null,
    "openDays": [
      "平日",
      "祝日"
    ],
    "openDaysNote": "8月14日～8月16日、12月29日～1月3日はお休みです"
  },
  {
    "id": "2591300088",
    "name": "デイサービスセンターほほえみプラス",
    "kana": "デイサービスセンターホホエミプラス",
    "address": "久野部138-7サントピアビル1-Ｃ サントピアビル1-Ｃ",
    "lat": 35.074003,
    "lng": 136.0271336,
    "tel": "077-518-2533",
    "url": "http://www.hohoemi-hohoemi.com/",
    "pref": "滋賀県",
    "city": "野洲市",
    "category": "community_day_service",
    "serviceType": "地域密着型通所介護",
    "capacity": 18,
    "openDays": [
      "平日",
      "祝日"
    ],
    "openDaysNote": "8月14日～8月16日、12月29日～1月3日"
  },
  {
    "id": "2571300231",
    "name": "のどかの家高木",
    "kana": "ノドカノイエタカギ",
    "address": "滋賀県野洲市高木７３７",
    "lat": 35.1008165,
    "lng": 136.0568745,
    "tel": "077-587-4561",
    "url": "http://www.eonet.ne.jp/~nodokanoie/",
    "pref": "滋賀県",
    "city": "野洲市",
    "category": "community_day_service",
    "serviceType": "地域密着型通所介護",
    "capacity": 0,
    "openDays": [
      "平日",
      "祝日"
    ],
    "openDaysNote": ""
  },
  {
    "id": "2571300330",
    "name": "のどかの家大篠原",
    "kana": "ノドカノイエオオシノハラ",
    "address": "滋賀県野洲市大篠原２９７９",
    "lat": 35.0776223,
    "lng": 136.0628073,
    "tel": "077-587-2477",
    "url": "http://www.eonet.ne.jp/~nodokanoie/",
    "pref": "滋賀県",
    "city": "野洲市",
    "category": "community_day_service",
    "serviceType": "地域密着型通所介護",
    "capacity": 0,
    "openDays": [
      "平日",
      "祝日"
    ],
    "openDaysNote": ""
  },
  {
    "id": "2571300272",
    "name": "のどかの家長島",
    "kana": "ノドカノイエナガシマ",
    "address": "滋賀県野洲市長島６０６－２",
    "lat": 35.0960506,
    "lng": 136.062849,
    "tel": "077-587-4530",
    "url": "http://www.eonet.ne.jp/~nodokanoie/",
    "pref": "滋賀県",
    "city": "野洲市",
    "category": "community_day_service",
    "serviceType": "地域密着型通所介護",
    "capacity": 0,
    "openDays": [
      "平日",
      "祝日"
    ],
    "openDaysNote": ""
  },
  {
    "id": "2571300249",
    "name": "プチ・トマト堤地域密着型通所介護事業所",
    "kana": "プチ・トマトツツミチイキミッチャクガタツウショカイゴジギョウショ",
    "address": "滋賀県野洲市堤323-8",
    "lat": 35.1138169,
    "lng": 135.997342,
    "tel": "077-589-6647",
    "url": "http://www.yuusuge.co.jp/",
    "pref": "滋賀県",
    "city": "野洲市",
    "category": "community_day_service",
    "serviceType": "地域密着型通所介護",
    "capacity": 0,
    "openDays": [
      "平日"
    ],
    "openDaysNote": ""
  },
  {
    "id": "2571300306",
    "name": "やすリハビリセンター",
    "kana": "ヤスリハビリセンター",
    "address": "滋賀県野洲市小篠原1570-5",
    "lat": 35.0694397,
    "lng": 136.0334828,
    "tel": "077-587-5188",
    "url": "",
    "pref": "滋賀県",
    "city": "野洲市",
    "category": "community_day_service",
    "serviceType": "地域密着型通所介護",
    "capacity": 0,
    "openDays": [
      "平日",
      "土曜日"
    ],
    "openDaysNote": ""
  },
  {
    "id": "2591300104",
    "name": "ライブリースペース　ＣＯＣＯＲＯ祇王",
    "kana": "ライブリースペース　ココロギオウ",
    "address": "滋賀県野洲市冨波乙176",
    "lat": 35.0748307,
    "lng": 136.031297,
    "tel": "077-518-1008",
    "url": "http://k-aimu.co.jp",
    "pref": "滋賀県",
    "city": "野洲市",
    "category": "community_day_service",
    "serviceType": "地域密着型通所介護",
    "capacity": 0,
    "openDays": [
      "平日",
      "土曜日",
      "祝日"
    ],
    "openDaysNote": ""
  },
  {
    "id": "2571300280",
    "name": "共生型デイサービス芽ばえ",
    "kana": "キョウセイガタデイサービスメバエ",
    "address": "滋賀県野洲市小南1876番地",
    "lat": 35.1034023,
    "lng": 136.0500975,
    "tel": "077-535-0914",
    "url": "https://www.fukurou-care.com/",
    "pref": "滋賀県",
    "city": "野洲市",
    "category": "community_day_service",
    "serviceType": "地域密着型通所介護",
    "capacity": 10,
    "openDays": [
      "平日",
      "祝日"
    ],
    "openDaysNote": ""
  },
  {
    "id": "2571500350",
    "name": "デイサービスセンター　樹",
    "kana": "デイサービスセンター　イツキ",
    "address": "滋賀県蒲生郡竜王町小口５４１－４",
    "lat": 35.0605529942733,
    "lng": 136.116669032541,
    "tel": "０７４８－２６－６０５５",
    "url": "",
    "pref": "滋賀県",
    "city": "竜王町",
    "category": "community_day_service",
    "serviceType": "地域密着型通所介護",
    "capacity": 0,
    "openDays": [
      "平日",
      "土曜日",
      "祝日"
    ],
    "openDaysNote": "営業日・営業時間外は必要に応じて対応する"
  }
]