[
  {
    "id": "4373101254",
    "name": "ＪＡくま福祉の里木綿葉「サロンｄｏ須恵」",
    "kana": "ジェイエイクマフクシノサトユウバサロンドスエ",
    "address": "熊本県球磨郡あさぎり町須恵覚井828番地",
    "lat": 32.2595722684625,
    "lng": 130.899847183328,
    "tel": "0966-45-2511",
    "url": "kaigofukushi@mx21.tiki.ne.jp",
    "pref": "熊本県",
    "city": "あさぎり町",
    "category": "community_day_service",
    "serviceType": "地域密着型通所介護",
    "capacity": 0,
    "openDays": [
      "平日",
      "土曜日",
      "祝日"
    ],
    "openDaysNote": "休日、営業時間外は併設施設の職員が電話等で対応し、担当職員へ連絡する体制をとっています。"
  },
  {
    "id": "4391400100",
    "name": "デイサービスセンターあその杜",
    "kana": "デイサービスセンターアソノモリ",
    "address": "熊本県阿蘇市乙姫1776番地",
    "lat": 32.93635,
    "lng": 131.043999,
    "tel": "0967-32-5000",
    "url": "http://www.yamanami.or.jp",
    "pref": "熊本県",
    "city": "阿蘇市",
    "category": "community_day_service",
    "serviceType": "地域密着型通所介護",
    "capacity": null,
    "openDays": [
      "平日",
      "土曜日",
      "祝日"
    ],
    "openDaysNote": ""
  },
  {
    "id": "4371400344",
    "name": "デイサービスセンター宝泉郷",
    "kana": "デイサービスセンターホウセンキョウ",
    "address": "熊本県阿蘇市内牧１１１０番地１",
    "lat": 32.9715870642517,
    "lng": 131.044334449414,
    "tel": "0967-32-5488",
    "url": "http://www.asospahp.jp",
    "pref": "熊本県",
    "city": "阿蘇市",
    "category": "community_day_service",
    "serviceType": "地域密着型通所介護",
    "capacity": 0,
    "openDays": [
      "平日",
      "土曜日",
      "祝日"
    ],
    "openDaysNote": ""
  },
  {
    "id": "4393000122",
    "name": "吉尾デイサービスセンター",
    "kana": "ヨシオデイサービスセンター",
    "address": "熊本県葦北郡芦北町吉尾197番地",
    "lat": 32.3309074,
    "lng": 130.5883806,
    "tel": "0966-83-9661",
    "url": "",
    "pref": "熊本県",
    "city": "芦北町",
    "category": "community_day_service",
    "serviceType": "地域密着型通所介護",
    "capacity": 0,
    "openDays": [
      "平日"
    ],
    "openDaysNote": ""
  },
  {
    "id": "4393000114",
    "name": "田の浦荘",
    "kana": "タノウラソウ",
    "address": "熊本県葦北郡芦北町大字田浦町８７０番地の１",
    "lat": 32.364308,
    "lng": 130.505162,
    "tel": "0966-87-0810",
    "url": "https://eiwafukusikai.com/",
    "pref": "熊本県",
    "city": "芦北町",
    "category": "community_day_service",
    "serviceType": "地域密着型通所介護",
    "capacity": 0,
    "openDays": [
      "平日",
      "祝日"
    ],
    "openDaysNote": ""
  },
  {
    "id": "4373000670",
    "name": "八幡荘デイサービスセンター",
    "kana": "ハチマンソウデイサービスセンター",
    "address": "葦北郡芦北町大字田浦町664番地芦北町高齢者生活福祉センター「八幡荘」 芦北町高齢者生活福祉センター「八幡荘」",
    "lat": 32.3648937,
    "lng": 130.5071212,
    "tel": "0966-87-0294",
    "url": "http://www.ashikita-shakyo.com",
    "pref": "熊本県",
    "city": "芦北町",
    "category": "community_day_service",
    "serviceType": "地域密着型通所介護",
    "capacity": 18,
    "openDays": [
      "平日",
      "祝日"
    ],
    "openDaysNote": ""
  },
  {
    "id": "4371300502",
    "name": "デイサービスきおう",
    "kana": "デイサービスキオウ",
    "address": "熊本県宇城市松橋町1445-1",
    "lat": 32.6551814289935,
    "lng": 130.679403466745,
    "tel": "0964-31-0888",
    "url": "kiou.ukiuki@gmail.com",
    "pref": "熊本県",
    "city": "宇城市",
    "category": "community_day_service",
    "serviceType": "地域密着型通所介護",
    "capacity": 10,
    "openDays": [
      "平日",
      "土曜日",
      "祝日"
    ],
    "openDaysNote": "水曜日営業時間8：30-12:30（改行）※令和7年5月〜水曜日の営業時間は8：30-17:30を予定しています。"
  },
  {
    "id": "4391300193",
    "name": "デイサービスセンター　こころ",
    "kana": "デイサービスセンター　ココロ",
    "address": "熊本県宇城市松橋町南豊崎855",
    "lat": 32.6293345,
    "lng": 130.6778555,
    "tel": "0964-27-4735",
    "url": "",
    "pref": "熊本県",
    "city": "宇城市",
    "category": "community_day_service",
    "serviceType": "地域密着型通所介護",
    "capacity": 0,
    "openDays": [
      "平日",
      "土曜日",
      "祝日"
    ],
    "openDaysNote": ""
  },
  {
    "id": "4371300445",
    "name": "デイサービスセンター　もちのき苑",
    "kana": "デイサービスセンター　モチノキエン",
    "address": "宇城市不知火町御領171番地３",
    "lat": 32.6594848,
    "lng": 130.6733324,
    "tel": "0964-34-3577",
    "url": "http://mochinokien.web.fc2.com/",
    "pref": "熊本県",
    "city": "宇城市",
    "category": "community_day_service",
    "serviceType": "地域密着型通所介護",
    "capacity": 18,
    "openDays": [
      "平日",
      "土曜日",
      "祝日"
    ],
    "openDaysNote": ""
  },
  {
    "id": "4372301228",
    "name": "デイサービスセンター杜乃郷",
    "kana": "デイサービスセンターモリノサト",
    "address": "熊本県宇城市松橋町久具2054",
    "lat": 32.6430867436543,
    "lng": 130.696899238559,
    "tel": "0964-33-3775",
    "url": "",
    "pref": "熊本県",
    "city": "宇城市",
    "category": "community_day_service",
    "serviceType": "地域密着型通所介護",
    "capacity": 15,
    "openDays": [
      "平日",
      "土曜日",
      "祝日"
    ],
    "openDaysNote": ""
  },
  {
    "id": "4371300825",
    "name": "デイサービス豊福",
    "kana": "デイサービス　トヨフク",
    "address": "松橋町豊福1198-2",
    "lat": 32.6345377,
    "lng": 130.7063617,
    "tel": "0964-27-5628",
    "url": "ｈｔｔｐｓ：//ｗｗｗ.youko-uki.com",
    "pref": "熊本県",
    "city": "宇城市",
    "category": "community_day_service",
    "serviceType": "地域密着型通所介護",
    "capacity": 16,
    "openDays": [
      "平日"
    ],
    "openDaysNote": "月曜日から金曜日における祝日は原則として営業するものとする。"
  },
  {
    "id": "4312311501",
    "name": "通所介護ふれあい倶楽部",
    "kana": "ツウショカイゴフレアイクラブ",
    "address": "宇城市松橋町久具３２３番地の１",
    "lat": 32.6494302,
    "lng": 130.6863902,
    "tel": "0964-46-1011",
    "url": "",
    "pref": "熊本県",
    "city": "宇城市",
    "category": "community_day_service",
    "serviceType": "地域密着型通所介護",
    "capacity": 15,
    "openDays": [
      "平日",
      "祝日"
    ],
    "openDaysNote": ""
  },
  {
    "id": "4371100696",
    "name": "デイサービスうと本町",
    "kana": "デイサービスウトホンマチ",
    "address": "宇土市新小路町２番地",
    "lat": 32.6864488,
    "lng": 130.6636433,
    "tel": "0964-24-5888",
    "url": "http://www.kanamori.or.jp",
    "pref": "熊本県",
    "city": "宇土市",
    "category": "community_day_service",
    "serviceType": "地域密着型通所介護",
    "capacity": null,
    "openDays": [
      "平日",
      "土曜日",
      "祝日"
    ],
    "openDaysNote": "なし"
  },
  {
    "id": "4391100106",
    "name": "デイサービスセンター　ユーライフ船場",
    "kana": "デイサービスセンター　ユーライフセンバ",
    "address": "熊本県宇土市船場町66-1",
    "lat": 32.686721,
    "lng": 130.6610349,
    "tel": "0964-42-9051",
    "url": "http://u-splan.co.jp/index.html",
    "pref": "熊本県",
    "city": "宇土市",
    "category": "community_day_service",
    "serviceType": "地域密着型通所介護",
    "capacity": 0,
    "openDays": [
      "平日",
      "土曜日",
      "日曜日",
      "祝日"
    ],
    "openDaysNote": ""
  },
  {
    "id": "4371100720",
    "name": "まちなかリハビリ",
    "kana": "マチナカリハビリ",
    "address": "熊本県宇土市北段原町69-3",
    "lat": 32.6881124,
    "lng": 130.6569131,
    "tel": "0964-27-5151",
    "url": "http://www.kanamori.or.jp/",
    "pref": "熊本県",
    "city": "宇土市",
    "category": "community_day_service",
    "serviceType": "地域密着型通所介護",
    "capacity": 18,
    "openDays": [
      "平日",
      "土曜日",
      "祝日"
    ],
    "openDaysNote": ""
  },
  {
    "id": "4371100837",
    "name": "喜楽苑　扶桑デイサービスセンター",
    "kana": "キラクエン　フソウデイサービスセンター",
    "address": "馬之瀬町727-4",
    "lat": 32.6916186090803,
    "lng": 130.646480838623,
    "tel": "0964-22-5411",
    "url": "m-kirakuen.com",
    "pref": "熊本県",
    "city": "宇土市",
    "category": "community_day_service",
    "serviceType": "地域密着型通所介護",
    "capacity": 2,
    "openDays": [
      "平日",
      "土曜日",
      "祝日"
    ],
    "openDaysNote": "日曜日のデイサービス営業はなし"
  },
  {
    "id": "4391100122",
    "name": "照古苑ひまわりホームデイサービス",
    "kana": "ショウコエンヒマワリホームデイサービス",
    "address": "熊本県宇土市松山町野田1988",
    "lat": 32.6691032,
    "lng": 130.6703047,
    "tel": "0964-22-5200",
    "url": "http://hakujitsukai.jp",
    "pref": "熊本県",
    "city": "宇土市",
    "category": "community_day_service",
    "serviceType": "地域密着型通所介護",
    "capacity": null,
    "openDays": [
      "平日",
      "土曜日",
      "祝日"
    ],
    "openDaysNote": "年末年始は暦により休みの日が変更あります。"
  },
  {
    "id": "4371100894",
    "name": "城之浦デイサービス　宇土駅前通り",
    "kana": "ジョウノウラデイサービス　ウトエキマエドオリ",
    "address": "熊本県宇土市城之浦町115",
    "lat": 32.6908926577466,
    "lng": 130.667342708212,
    "tel": "0964-31-7234",
    "url": "https://www.taiyonowa.co.jp",
    "pref": "熊本県",
    "city": "宇土市",
    "category": "community_day_service",
    "serviceType": "地域密着型通所介護",
    "capacity": 10,
    "openDays": [
      "平日",
      "土曜日",
      "祝日"
    ],
    "openDaysNote": ""
  },
  {
    "id": "4371100928",
    "name": "地域活性特化型デイサービスＷｉｓｈ",
    "kana": "チイキカッセイトッカガタデイサービスウィッシュ",
    "address": "熊本県宇土市古城町362-8",
    "lat": 32.6817297,
    "lng": 130.6516663,
    "tel": "0964-53-9745",
    "url": "http://www.tsunagu-wish.co.jp",
    "pref": "熊本県",
    "city": "宇土市",
    "category": "community_day_service",
    "serviceType": "地域密着型通所介護",
    "capacity": 10,
    "openDays": [
      "平日",
      "土曜日",
      "祝日"
    ],
    "openDaysNote": ""
  },
  {
    "id": "4392800266",
    "name": "ごらくデイサービスセンター",
    "kana": "ゴラクデイサービスセンター",
    "address": "熊本県上益城郡益城町赤井278",
    "lat": 32.76779,
    "lng": 130.8196326,
    "tel": "096-287-8301",
    "url": "",
    "pref": "熊本県",
    "city": "益城町",
    "category": "community_day_service",
    "serviceType": "地域密着型通所介護",
    "capacity": null,
    "openDays": [
      "平日",
      "祝日"
    ],
    "openDaysNote": ""
  },
  {
    "id": "4392800233",
    "name": "デイサービスセンターだんだん",
    "kana": "デイサービスセンターダンダン",
    "address": "熊本県上益城郡益城町小池2638-1",
    "lat": 32.7523633897289,
    "lng": 130.803728048766,
    "tel": "096-201-8803",
    "url": "http://www.hiroplan.com",
    "pref": "熊本県",
    "city": "益城町",
    "category": "community_day_service",
    "serviceType": "地域密着型通所介護",
    "capacity": 0,
    "openDays": [
      "平日",
      "祝日"
    ],
    "openDaysNote": "年末年始　12/30　～　1/3"
  },
  {
    "id": "4392800217",
    "name": "リハビリデイサービスくりけっとくりけっと",
    "kana": "リハビリデイサービスクリケットクリケット",
    "address": "熊本県上益城郡益城町惣領1440-10ルミナス105号 ルミナス105号",
    "lat": 32.7848223,
    "lng": 130.803994,
    "tel": "096-285-3977",
    "url": "https://www.vivid-life.co.jp",
    "pref": "熊本県",
    "city": "益城町",
    "category": "community_day_service",
    "serviceType": "地域密着型通所介護",
    "capacity": 0,
    "openDays": [
      "平日",
      "祝日"
    ],
    "openDaysNote": "土曜日が祝日の場合は休み"
  },
  {
    "id": "4391000165",
    "name": "ＪＡ菊池福祉センターめぐみの里デイサービスセンターゆるっと",
    "kana": "ジェイエイキクチフクシセンターメグミノサトデイサービスセンターユルット",
    "address": "熊本県菊池市旭志川辺1875番地",
    "lat": 32.9295916,
    "lng": 130.830438,
    "tel": "0968-23-3533",
    "url": "",
    "pref": "熊本県",
    "city": "菊池市",
    "category": "community_day_service",
    "serviceType": "地域密着型通所介護",
    "capacity": 0,
    "openDays": [
      "平日",
      "土曜日",
      "祝日"
    ],
    "openDaysNote": ""
  },
  {
    "id": "4391000157",
    "name": "かめお",
    "kana": "カメオ",
    "address": "熊本県菊池市七城町亀尾1897番地かめお かめお",
    "lat": 32.9566908237796,
    "lng": 130.757951511501,
    "tel": "0968-26-3011",
    "url": "",
    "pref": "熊本県",
    "city": "菊池市",
    "category": "community_day_service",
    "serviceType": "地域密着型通所介護",
    "capacity": 18,
    "openDays": [
      "平日",
      "土曜日",
      "日曜日",
      "祝日"
    ],
    "openDaysNote": ""
  },
  {
    "id": "4371000672",
    "name": "さくらの杜みさと",
    "kana": "サクラノモリミサト",
    "address": "熊本県菊池市隈府１１９５－５",
    "lat": 32.988355,
    "lng": 130.8192957,
    "tel": "0968-41-7180",
    "url": "",
    "pref": "熊本県",
    "city": "菊池市",
    "category": "community_day_service",
    "serviceType": "地域密着型通所介護",
    "capacity": 15,
    "openDays": [
      "平日",
      "祝日"
    ],
    "openDaysNote": ""
  },
  {
    "id": "4371000730",
    "name": "デイサービス　きくりん",
    "kana": "デイサービス　キクリン",
    "address": "菊池市隈府1144-2デイサービス　きくりん デイサービス　きくりん",
    "lat": 32.9835133,
    "lng": 130.81248,
    "tel": "0968-23-6063",
    "url": "http://www.kikuchi-grandhotel.jp/kikurin",
    "pref": "熊本県",
    "city": "菊池市",
    "category": "community_day_service",
    "serviceType": "地域密着型通所介護",
    "capacity": 18,
    "openDays": [
      "平日",
      "祝日"
    ],
    "openDaysNote": ""
  },
  {
    "id": "4391000173",
    "name": "デイサービス　ノアの湯",
    "kana": "デイサービス　ノアノユ",
    "address": "熊本県菊池市七城町亀尾1492-1",
    "lat": 32.9504402929294,
    "lng": 130.762299016545,
    "tel": "0968-38-0055",
    "url": "",
    "pref": "熊本県",
    "city": "菊池市",
    "category": "community_day_service",
    "serviceType": "地域密着型通所介護",
    "capacity": null,
    "openDays": [
      "平日"
    ],
    "openDaysNote": ""
  },
  {
    "id": "4391000181",
    "name": "デイサービス　優里",
    "kana": "デイサービス　ユウリ",
    "address": "熊本県菊池市七城町砂田249番地",
    "lat": 32.9748337,
    "lng": 130.7768787,
    "tel": "0968-36-9404",
    "url": "",
    "pref": "熊本県",
    "city": "菊池市",
    "category": "community_day_service",
    "serviceType": "地域密着型通所介護",
    "capacity": 15,
    "openDays": [
      "平日",
      "祝日"
    ],
    "openDaysNote": ""
  },
  {
    "id": "4391000132",
    "name": "デイサービスセンター　みちのうえ",
    "kana": "デイサービスセンター　ミチノウエ",
    "address": "熊本県菊池市亘字道ノ上３５９番地２プラットタウン　サンティエ プラットタウン　サンティエ",
    "lat": 32.9820943,
    "lng": 130.8194433,
    "tel": "0968-25-6000",
    "url": "https：//kikuaikai.org/",
    "pref": "熊本県",
    "city": "菊池市",
    "category": "community_day_service",
    "serviceType": "地域密着型通所介護",
    "capacity": 0,
    "openDays": [
      "平日",
      "祝日"
    ],
    "openDaysNote": "年末・年始休みあり。"
  },
  {
    "id": "4371000805",
    "name": "デイサービスなのはな",
    "kana": "デイサービスナノハナ",
    "address": "熊本県菊池市西迫間３００番地",
    "lat": 32.9965513,
    "lng": 130.8131737,
    "tel": "0968-36-9848",
    "url": "aozora-nanohana.com",
    "pref": "熊本県",
    "city": "菊池市",
    "category": "community_day_service",
    "serviceType": "地域密着型通所介護",
    "capacity": 0,
    "openDays": [
      "平日",
      "土曜日",
      "祝日"
    ],
    "openDaysNote": ""
  },
  {
    "id": "4371001027",
    "name": "デイサービスもも",
    "kana": "デイサービスモモ",
    "address": "菊池市出田604-1デイサービスもも デイサービスもも",
    "lat": 32.9543609927255,
    "lng": 130.807881774136,
    "tel": "0968-25-6226",
    "url": "",
    "pref": "熊本県",
    "city": "菊池市",
    "category": "community_day_service",
    "serviceType": "地域密着型通所介護",
    "capacity": 0,
    "openDays": [
      "平日",
      "土曜日",
      "祝日"
    ],
    "openDaysNote": ""
  },
  {
    "id": "4371000540",
    "name": "デイサービスリーベ",
    "kana": "デイサービスリーベ",
    "address": "熊本県菊池市深川４００",
    "lat": 32.9695917,
    "lng": 130.8016761,
    "tel": "0968-24-5788",
    "url": "",
    "pref": "熊本県",
    "city": "菊池市",
    "category": "community_day_service",
    "serviceType": "地域密着型通所介護",
    "capacity": 18,
    "openDays": [
      "平日",
      "祝日"
    ],
    "openDaysNote": ""
  },
  {
    "id": "4371000870",
    "name": "デイサービス花見丁",
    "kana": "デイサービスハナミチョウ",
    "address": "隈府２３８番地",
    "lat": 32.9835938,
    "lng": 130.8120273,
    "tel": "０９６８－２６－５２２０",
    "url": "http://hanamicyou.jp/",
    "pref": "熊本県",
    "city": "菊池市",
    "category": "community_day_service",
    "serviceType": "地域密着型通所介護",
    "capacity": 12,
    "openDays": [
      "平日",
      "土曜日",
      "祝日"
    ],
    "openDaysNote": "その他年間の休日（改行）12月29日～1月3日"
  },
  {
    "id": "4391000199",
    "name": "リハビリ特化型デイサービス　ポップ・リハ",
    "kana": "リハビリトッカガタデイサービス　ポップ　リハ",
    "address": "熊本県菊池市大字片角290番地菊池ショッピングシティー　キャニオン 菊池ショッピングシティー　キャニオン",
    "lat": 32.9764975,
    "lng": 130.8138403,
    "tel": "080-9830-5103",
    "url": "",
    "pref": "熊本県",
    "city": "菊池市",
    "category": "community_day_service",
    "serviceType": "地域密着型通所介護",
    "capacity": 0,
    "openDays": [
      "平日"
    ],
    "openDaysNote": ""
  },
  {
    "id": "4371000664",
    "name": "リラックスデイサービス",
    "kana": "リラックスデイサービス",
    "address": "熊本県菊池市大琳寺２９２－１３リラックスデイサービス リラックスデイサービス",
    "lat": 32.9771275,
    "lng": 130.8096445,
    "tel": "0968-41-4114",
    "url": "http://hp.kaipoke.biz/6gv/61942/detail_0004.html",
    "pref": "熊本県",
    "city": "菊池市",
    "category": "community_day_service",
    "serviceType": "地域密着型通所介護",
    "capacity": 60,
    "openDays": [
      "平日",
      "祝日"
    ],
    "openDaysNote": ""
  },
  {
    "id": "4371000771",
    "name": "菊池　よかとこデイ",
    "kana": "キクチ　ヨカトコデイ",
    "address": "熊本県菊池市隈府１０４",
    "lat": 32.9826354,
    "lng": 130.80705,
    "tel": "0968-24-9511",
    "url": "http://www.ipponmatu.com/",
    "pref": "熊本県",
    "city": "菊池市",
    "category": "community_day_service",
    "serviceType": "地域密着型通所介護",
    "capacity": 0,
    "openDays": [
      "平日",
      "祝日"
    ],
    "openDaysNote": "１月１日～１月３日のみ定休日以外での休業あり"
  },
  {
    "id": "4371000490",
    "name": "菊池市社協　ななしろ",
    "kana": "キクチシシャキョウ　ナナシロ",
    "address": "熊本県菊池市七城町流川394番地1菊池市七城老人福祉センター 菊池市七城老人福祉センター",
    "lat": 32.9833961,
    "lng": 130.7673343,
    "tel": "0968-25-5010",
    "url": "http://www.kikuchi-shakyo.or.jp/",
    "pref": "熊本県",
    "city": "菊池市",
    "category": "community_day_service",
    "serviceType": "地域密着型通所介護",
    "capacity": 18,
    "openDays": [
      "平日",
      "祝日"
    ],
    "openDaysNote": "年末年始（12月29日から1月3日）は除く。"
  },
  {
    "id": "4372601015",
    "name": "辰頭温泉リベロの家",
    "kana": "タツガシラオンセンリベロノイエ",
    "address": "熊本県菊池市泗水町田島６１４－３１",
    "lat": 32.9327317,
    "lng": 130.7399516,
    "tel": "0968-38-7585",
    "url": "http://shunseikai.com",
    "pref": "熊本県",
    "city": "菊池市",
    "category": "community_day_service",
    "serviceType": "地域密着型通所介護",
    "capacity": 15,
    "openDays": [
      "平日",
      "土曜日",
      "祝日"
    ],
    "openDaysNote": ""
  },
  {
    "id": "4392600252",
    "name": "デイサービス　カノン",
    "kana": "デイサービス　カノン",
    "address": "熊本県菊池郡菊陽町原水114番地2",
    "lat": 35.2617892,
    "lng": 136.8600733,
    "tel": "096－202－2642",
    "url": "",
    "pref": "熊本県",
    "city": "菊陽町",
    "category": "community_day_service",
    "serviceType": "地域密着型通所介護",
    "capacity": 0,
    "openDays": [
      "平日",
      "土曜日",
      "祝日"
    ],
    "openDaysNote": "当施設は祝祭日及び年末年始も営業している。"
  },
  {
    "id": "4372601908",
    "name": "デイサービスまごころ本舗原水苑",
    "kana": "デイサービスマゴコロホンポハラミズエン",
    "address": "熊本県菊池郡菊陽町原水字南方734番地1",
    "lat": 32.870937943989,
    "lng": 130.83788507994,
    "tel": "096-202-7702",
    "url": "http://dr-factory.jp/magokoro.html",
    "pref": "熊本県",
    "city": "菊陽町",
    "category": "community_day_service",
    "serviceType": "地域密着型通所介護",
    "capacity": 0,
    "openDays": [
      "平日",
      "土曜日",
      "日曜日",
      "祝日"
    ],
    "openDaysNote": ""
  },
  {
    "id": "4372400996",
    "name": "通所介護事業所はぶの",
    "kana": "ツウショカイゴジギョウショハブノ",
    "address": "熊本県玉名郡玉東町木葉713-3",
    "lat": 32.9171875028331,
    "lng": 130.63018569535,
    "tel": "0968-85-3390",
    "url": "",
    "pref": "熊本県",
    "city": "玉東町",
    "category": "community_day_service",
    "serviceType": "地域密着型通所介護",
    "capacity": 0,
    "openDays": [
      "平日",
      "土曜日",
      "日曜日",
      "祝日"
    ],
    "openDaysNote": ""
  },
  {
    "id": "4390600205",
    "name": "Let'sリハ！玉名築地店",
    "kana": "レッツリハタマナツイジテン",
    "address": "熊本県玉名市築地283-2",
    "lat": 32.9317959828259,
    "lng": 130.528704225131,
    "tel": "0968-79-7764",
    "url": "https://www.lets-reha.jp/",
    "pref": "熊本県",
    "city": "玉名市",
    "category": "community_day_service",
    "serviceType": "地域密着型通所介護",
    "capacity": null,
    "openDays": [
      "平日",
      "祝日"
    ],
    "openDaysNote": ""
  },
  {
    "id": "4370600902",
    "name": "アップルハウス",
    "kana": "アップルハウス",
    "address": "熊本県玉名市山田1591番地1",
    "lat": 32.9420644218114,
    "lng": 130.544216886515,
    "tel": "0968-73-2850",
    "url": "",
    "pref": "熊本県",
    "city": "玉名市",
    "category": "community_day_service",
    "serviceType": "地域密着型通所介護",
    "capacity": 0,
    "openDays": [
      "平日",
      "土曜日",
      "祝日"
    ],
    "openDaysNote": ""
  },
  {
    "id": "4390600189",
    "name": "デイサービスセンターかぎろい",
    "kana": "デイサービスセンターカギロイ",
    "address": "熊本県玉名市岩崎４１５－１",
    "lat": 32.9366895,
    "lng": 130.5589312,
    "tel": "0968-72-7232",
    "url": "",
    "pref": "熊本県",
    "city": "玉名市",
    "category": "community_day_service",
    "serviceType": "地域密着型通所介護",
    "capacity": 0,
    "openDays": [
      "平日",
      "祝日"
    ],
    "openDaysNote": "年末年始（12/31～1/3）はお休みとなります。"
  },
  {
    "id": "4370600951",
    "name": "デイサービスセンターみゆき苑",
    "kana": "デイサービスセンターミユキエン",
    "address": "熊本県玉名市岩崎１０４２番地有料老人ホームみゆき苑1階 有料老人ホームみゆき苑1階",
    "lat": 32.9308816,
    "lng": 130.5577705,
    "tel": "0968-74-2466",
    "url": "http://www.miyuki-en.com",
    "pref": "熊本県",
    "city": "玉名市",
    "category": "community_day_service",
    "serviceType": "地域密着型通所介護",
    "capacity": 0,
    "openDays": [
      "平日",
      "土曜日",
      "祝日"
    ],
    "openDaysNote": "月・火・水・金・土曜日営業（祝日含む）"
  },
  {
    "id": "4390600213",
    "name": "デイサービスセンターりはれく・ワンデイ",
    "kana": "デイサービスセンターリハレク・ワンデイ",
    "address": "熊本県玉名市岱明町山下字島畑141番地",
    "lat": 32.9143346,
    "lng": 130.5216165,
    "tel": "0968-79-8770",
    "url": "https://npo-chouju.com",
    "pref": "熊本県",
    "city": "玉名市",
    "category": "community_day_service",
    "serviceType": "地域密着型通所介護",
    "capacity": 0,
    "openDays": [
      "平日",
      "土曜日",
      "祝日"
    ],
    "openDaysNote": ""
  },
  {
    "id": "4370600944",
    "name": "デイサービスセンターりはれく・弥生",
    "kana": "デイサービスセンターリハレクヤヨイ",
    "address": "熊本県玉名市岱明町野口1146－12",
    "lat": 32.9231339,
    "lng": 130.5394813,
    "tel": "0968-82-7070",
    "url": "npo-cyoujyukai.com",
    "pref": "熊本県",
    "city": "玉名市",
    "category": "community_day_service",
    "serviceType": "地域密着型通所介護",
    "capacity": 18,
    "openDays": [
      "平日",
      "土曜日",
      "祝日"
    ],
    "openDaysNote": ""
  },
  {
    "id": "4370601199",
    "name": "みやの森えがお",
    "kana": "ミヤノ森エガオ",
    "address": "熊本県玉名市玉名２６４番地２",
    "lat": 32.9502019048744,
    "lng": 130.579424128172,
    "tel": "0968-57-8720",
    "url": "",
    "pref": "熊本県",
    "city": "玉名市",
    "category": "community_day_service",
    "serviceType": "地域密着型通所介護",
    "capacity": 10,
    "openDays": [
      "平日",
      "土曜日",
      "祝日"
    ],
    "openDaysNote": "なし"
  },
  {
    "id": "4390600171",
    "name": "介護予防センター　元氣塾",
    "kana": "カイゴヨボウセンター　ゲンキジュク",
    "address": "熊本県玉名市伊倉南方967-1",
    "lat": 32.9005505,
    "lng": 130.5726936,
    "tel": "0968-76-6911",
    "url": "",
    "pref": "熊本県",
    "city": "玉名市",
    "category": "community_day_service",
    "serviceType": "地域密着型通所介護",
    "capacity": 0,
    "openDays": [
      "平日",
      "土曜日",
      "祝日"
    ],
    "openDaysNote": ""
  },
  {
    "id": "4373100934",
    "name": "ひまわりデイサービス",
    "kana": "ヒマワリデイサービス",
    "address": "熊本県球磨郡錦町一武2130-1",
    "lat": 32.2034272,
    "lng": 130.8484727,
    "tel": "0966-38-7677",
    "url": "https://himawari-nishiki.com/",
    "pref": "熊本県",
    "city": "錦町",
    "category": "community_day_service",
    "serviceType": "地域密着型通所介護",
    "capacity": 18,
    "openDays": [
      "平日",
      "祝日"
    ],
    "openDaysNote": ""
  },
  {
    "id": "4390102616",
    "name": "Let'sリハ！田崎店",
    "kana": "レッツリハタサキテン",
    "address": "熊本県熊本市西区田崎1-1-201階部分 1階部分",
    "lat": 32.7846625,
    "lng": 130.6843901,
    "tel": "096-342-5526",
    "url": "https://www.lets-reha.jp/",
    "pref": "熊本県",
    "city": "熊本市西区",
    "category": "community_day_service",
    "serviceType": "地域密着型通所介護",
    "capacity": 0,
    "openDays": [
      "平日",
      "祝日"
    ],
    "openDaysNote": ""
  },
  {
    "id": "4390101980",
    "name": "いきいき倶楽部さくら",
    "kana": "イキイキクラブサクラ",
    "address": "熊本市西区松尾町近津1478",
    "lat": 53.41291,
    "lng": -8.24388999999996,
    "tel": "080-8395-9305",
    "url": "http://ryowakai.com",
    "pref": "熊本県",
    "city": "熊本市西区",
    "category": "community_day_service",
    "serviceType": "地域密着型通所介護",
    "capacity": 10,
    "openDays": [
      "平日",
      "祝日"
    ],
    "openDaysNote": ""
  },
  {
    "id": "4370106645",
    "name": "おとなの学校　花園校",
    "kana": "オトナノガッコウ　ハナゾノコウ",
    "address": "熊本市西区花園２丁目１０－１６",
    "lat": 32.8156488,
    "lng": 130.6926536,
    "tel": "096-322-7255",
    "url": "https://otona-gakkou.com/group/",
    "pref": "熊本県",
    "city": "熊本市西区",
    "category": "community_day_service",
    "serviceType": "地域密着型通所介護",
    "capacity": 18,
    "openDays": [
      "平日",
      "祝日"
    ],
    "openDaysNote": ""
  },
  {
    "id": "4370102610",
    "name": "さくらの苑デイサービスセンター",
    "kana": "サクラノソノデイサービスセンター",
    "address": "熊本市西区松尾町近津1361番地",
    "lat": 32.8025355,
    "lng": 130.6061826,
    "tel": "096-311-4333",
    "url": "http://ryowakai.com",
    "pref": "熊本県",
    "city": "熊本市西区",
    "category": "community_day_service",
    "serviceType": "地域密着型通所介護",
    "capacity": 0,
    "openDays": [
      "平日",
      "祝日"
    ],
    "openDaysNote": ""
  },
  {
    "id": "4390103069",
    "name": "たんぽぽ",
    "kana": "タンポポ",
    "address": "熊本市西区河内町白浜イ2238番地",
    "lat": 32.8454852,
    "lng": 130.5864355,
    "tel": "096-276-3387",
    "url": "",
    "pref": "熊本県",
    "city": "熊本市西区",
    "category": "community_day_service",
    "serviceType": "地域密着型通所介護",
    "capacity": null,
    "openDays": [
      "平日"
    ],
    "openDaysNote": ""
  },
  {
    "id": "4370109086",
    "name": "デイサ－ビス二本木",
    "kana": "デイサービスニホンギ",
    "address": "熊本市西区二本木4丁目22-28",
    "lat": 32.7793631,
    "lng": 130.6902045,
    "tel": "096-288-3316",
    "url": "",
    "pref": "熊本県",
    "city": "熊本市西区",
    "category": "community_day_service",
    "serviceType": "地域密着型通所介護",
    "capacity": 10,
    "openDays": [
      "平日",
      "土曜日",
      "日曜日",
      "祝日"
    ],
    "openDaysNote": "元旦のみ休み"
  },
  {
    "id": "4370110571",
    "name": "デイサービス　かたろう",
    "kana": "デイサービス　カタロウ",
    "address": "熊本県熊本市西区中原町1135番地1",
    "lat": 32.7721550064062,
    "lng": 130.633549512164,
    "tel": "096-212-2888",
    "url": "http://www.can727kaigo.com/",
    "pref": "熊本県",
    "city": "熊本市西区",
    "category": "community_day_service",
    "serviceType": "地域密着型通所介護",
    "capacity": 0,
    "openDays": [
      "平日",
      "土曜日",
      "祝日"
    ],
    "openDaysNote": ""
  },
  {
    "id": "4370110001",
    "name": "デイサービス　グッドライフ熊本駅前",
    "kana": "デイサービス　グッドライフクマモトエキマエ",
    "address": "熊本市西区春日２丁目１番２４号",
    "lat": 32.7888678,
    "lng": 130.6912125,
    "tel": "０９６－３５５－００２０",
    "url": "http://www.seishoukai-gl.jp/",
    "pref": "熊本県",
    "city": "熊本市西区",
    "category": "community_day_service",
    "serviceType": "地域密着型通所介護",
    "capacity": 0,
    "openDays": [
      "平日",
      "祝日"
    ],
    "openDaysNote": ""
  },
  {
    "id": "4390101949",
    "name": "デイサービス　だんだん",
    "kana": "デイサービス　ダンダン",
    "address": "熊本県熊本市西区二本木2丁目6-6",
    "lat": 32.7861293469785,
    "lng": 130.69013823317,
    "tel": "096-321-6966",
    "url": "",
    "pref": "熊本県",
    "city": "熊本市西区",
    "category": "community_day_service",
    "serviceType": "地域密着型通所介護",
    "capacity": 0,
    "openDays": [
      "平日",
      "祝日"
    ],
    "openDaysNote": ""
  },
  {
    "id": "4370108674",
    "name": "ディサービス　縁（えん）小島",
    "kana": "デイサービス　エン　オシマ",
    "address": "熊本市西区小島９丁目１－４０",
    "lat": 32.7803819,
    "lng": 130.6326229,
    "tel": "096-247-6014",
    "url": "https://www.living-sp.com/",
    "pref": "熊本県",
    "city": "熊本市西区",
    "category": "community_day_service",
    "serviceType": "地域密着型通所介護",
    "capacity": 12,
    "openDays": [
      "平日",
      "土曜日",
      "祝日"
    ],
    "openDaysNote": ""
  },
  {
    "id": "4370111314",
    "name": "デイサービスかみくま",
    "kana": "デイサービスカミクマ",
    "address": "熊本県熊本市西区上熊本２丁目１５番２４号",
    "lat": 32.8142852,
    "lng": 130.7000251,
    "tel": "０９６－３２２－３５３５",
    "url": "http://www.kiseikai.or.jp",
    "pref": "熊本県",
    "city": "熊本市西区",
    "category": "community_day_service",
    "serviceType": "地域密着型通所介護",
    "capacity": 0,
    "openDays": [
      "平日",
      "土曜日",
      "祝日"
    ],
    "openDaysNote": ""
  },
  {
    "id": "4370108302",
    "name": "デイサービスセンター　ファインテラス",
    "kana": "デイサービスセンター　ファインテラス",
    "address": "西区島崎２丁目１１番１３号",
    "lat": 32.8094659,
    "lng": 130.6907038,
    "tel": "096-359-8567",
    "url": "https://www.seijino.or.jp/",
    "pref": "熊本県",
    "city": "熊本市西区",
    "category": "community_day_service",
    "serviceType": "地域密着型通所介護",
    "capacity": 0,
    "openDays": [
      "平日",
      "祝日"
    ],
    "openDaysNote": ""
  },
  {
    "id": "4370110555",
    "name": "デイサービスセンター　流泳館",
    "kana": "デイサービスセンター　リュウエイカン",
    "address": "熊本県熊本市西区城山半田4丁目6番18号流泳館 流泳館",
    "lat": 32.7731858,
    "lng": 130.6557522,
    "tel": "096-329-6660",
    "url": "https://www.ryueikan.co.jp/",
    "pref": "熊本県",
    "city": "熊本市西区",
    "category": "community_day_service",
    "serviceType": "地域密着型通所介護",
    "capacity": 27,
    "openDays": [
      "平日",
      "祝日"
    ],
    "openDaysNote": "正月休み（1/1-1/3）。盆休み（8/12-8/14）（改行）定休日は上記以外に24日間営業のため、毎月2～3日の不定休がある。"
  },
  {
    "id": "4390103200",
    "name": "デイサービスセンター小島苑",
    "kana": "デイサービスセンター　オシマエン",
    "address": "熊本県熊本市西区小島5丁目15-45デイサービスセンター　小島苑 デイサービスセンター　小島苑",
    "lat": 32.7802451,
    "lng": 130.6381753,
    "tel": "096-329-3100",
    "url": "",
    "pref": "熊本県",
    "city": "熊本市西区",
    "category": "community_day_service",
    "serviceType": "地域密着型通所介護",
    "capacity": null,
    "openDays": [
      "平日"
    ],
    "openDaysNote": ""
  },
  {
    "id": "4370108757",
    "name": "デイサービスセンター和ごころ",
    "kana": "デイサービスセンターワゴコロ",
    "address": "熊本市西区八島２丁目４－１８",
    "lat": 32.7801755429874,
    "lng": 130.681717981719,
    "tel": "０９６－３５２－８６８６",
    "url": "",
    "pref": "熊本県",
    "city": "熊本市西区",
    "category": "community_day_service",
    "serviceType": "地域密着型通所介護",
    "capacity": 18,
    "openDays": [
      "平日",
      "土曜日",
      "祝日"
    ],
    "openDaysNote": ""
  },
  {
    "id": "4370109136",
    "name": "デイサービスりんどう",
    "kana": "デイサービス　リンドウ",
    "address": "西区上高橋2丁目19-1",
    "lat": 32.7876317,
    "lng": 130.6545352,
    "tel": "096-288-4082",
    "url": "ｈｔｔｐ：//ｗｗｗ．ｈａｎａｍｏｍｅｎ．ｎｅｔ/",
    "pref": "熊本県",
    "city": "熊本市西区",
    "category": "community_day_service",
    "serviceType": "地域密着型通所介護",
    "capacity": 15,
    "openDays": [
      "平日",
      "土曜日",
      "祝日"
    ],
    "openDaysNote": ""
  },
  {
    "id": "4370108054",
    "name": "デイサービス亀石別荘",
    "kana": "デイサービスカメイシベッソウ",
    "address": "池亀町18-24",
    "lat": 32.8254674,
    "lng": 130.6947812,
    "tel": "096-202-5066",
    "url": "",
    "pref": "熊本県",
    "city": "熊本市西区",
    "category": "community_day_service",
    "serviceType": "地域密着型通所介護",
    "capacity": 10,
    "openDays": [
      "平日",
      "土曜日",
      "祝日"
    ],
    "openDaysNote": ""
  },
  {
    "id": "4370103980",
    "name": "デーサービスセンター一桃",
    "kana": "デーサービスセンターイットウ",
    "address": "熊本県熊本市西区新土河原2丁目3-36",
    "lat": 32.7758634,
    "lng": 130.6717674,
    "tel": "096-322-0373",
    "url": "",
    "pref": "熊本県",
    "city": "熊本市西区",
    "category": "community_day_service",
    "serviceType": "地域密着型通所介護",
    "capacity": 15,
    "openDays": [
      "平日",
      "土曜日",
      "祝日"
    ],
    "openDaysNote": ""
  },
  {
    "id": "4370107619",
    "name": "ほうむ熊本西",
    "kana": "ホウムクマモトニシ",
    "address": "熊本市西区島崎5丁目４－３２",
    "lat": 32.8112018,
    "lng": 130.6834822,
    "tel": "096-245-6578",
    "url": "",
    "pref": "熊本県",
    "city": "熊本市西区",
    "category": "community_day_service",
    "serviceType": "地域密着型通所介護",
    "capacity": 0,
    "openDays": [
      "平日",
      "土曜日",
      "日曜日",
      "祝日"
    ],
    "openDaysNote": ""
  },
  {
    "id": "4390103267",
    "name": "海辺を歩けるデイサービス　ホームライフ",
    "kana": "ウミベヲアルケルデイサービス　ホームライフ",
    "address": "熊本県熊本市西区小島下町4589-1",
    "lat": 32.7813066,
    "lng": 130.6093861,
    "tel": "096-223-6627",
    "url": "https://www.home-life4589-1.com",
    "pref": "熊本県",
    "city": "熊本市西区",
    "category": "community_day_service",
    "serviceType": "地域密着型通所介護",
    "capacity": null,
    "openDays": [
      "平日",
      "祝日"
    ],
    "openDaysNote": ""
  },
  {
    "id": "4370110506",
    "name": "生活リハクラブ",
    "kana": "セイカツリハクラブ",
    "address": "熊本県熊本市西区池上町1233番地6",
    "lat": 32.7939451,
    "lng": 130.6699004,
    "tel": "096-200-5174",
    "url": "life-reha.com",
    "pref": "熊本県",
    "city": "熊本市西区",
    "category": "community_day_service",
    "serviceType": "地域密着型通所介護",
    "capacity": 15,
    "openDays": [
      "平日",
      "土曜日",
      "祝日"
    ],
    "openDaysNote": "その他休業日は年末年始"
  },
  {
    "id": "4370108930",
    "name": "通所介護事業所　上熊本苑",
    "kana": "ツウショカイゴジギョウショ　カミクマモトエン",
    "address": "熊本県熊本市西区上熊本３丁目１２番２４号",
    "lat": 32.82339,
    "lng": 130.7018111,
    "tel": "096-288-0256",
    "url": "http://www.shafuku-aiseikai.or.jp/",
    "pref": "熊本県",
    "city": "熊本市西区",
    "category": "community_day_service",
    "serviceType": "地域密着型通所介護",
    "capacity": 0,
    "openDays": [
      "平日",
      "土曜日",
      "祝日"
    ],
    "openDaysNote": "特別な需要がある場合はこの限りではない"
  },
  {
    "id": "4390102145",
    "name": "Let's　リハ！九品寺店",
    "kana": "レッツリハ！クホンジテン",
    "address": "熊本県熊本市中央区九品寺4丁目23ｰ3アビリアテラス九品寺1階 アビリアテラス九品寺1階",
    "lat": 32.7925890959617,
    "lng": 130.715600058754,
    "tel": "096-342-8870",
    "url": "https://www.lets-reha.jp/shop/kumamoto-kuhonji/",
    "pref": "熊本県",
    "city": "熊本市中央区",
    "category": "community_day_service",
    "serviceType": "地域密着型通所介護",
    "capacity": 0,
    "openDays": [
      "平日"
    ],
    "openDaysNote": ""
  },
  {
    "id": "4370110399",
    "name": "エミタスデイサービス薬園町",
    "kana": "エミタスデイサービスヤクエンチョウ",
    "address": "熊本県熊本市中央区薬園町3-32",
    "lat": 32.8141552,
    "lng": 130.7174569,
    "tel": "096-343-3226",
    "url": "kihara-hc.com",
    "pref": "熊本県",
    "city": "熊本市中央区",
    "category": "community_day_service",
    "serviceType": "地域密着型通所介護",
    "capacity": 18,
    "openDays": [
      "平日",
      "土曜日",
      "祝日"
    ],
    "openDaysNote": "12月31日～1月3日は休み"
  },
  {
    "id": "4390102707",
    "name": "おとなの学校　三郎校",
    "kana": "オトナノガッコウ　サブロウコウ",
    "address": "熊本県熊本市中央区三郎1丁目1番80号",
    "lat": 32.7997736,
    "lng": 130.7553826,
    "tel": "096-381-0275",
    "url": "https://shoukei-kai.com",
    "pref": "熊本県",
    "city": "熊本市中央区",
    "category": "community_day_service",
    "serviceType": "地域密着型通所介護",
    "capacity": 18,
    "openDays": [
      "平日",
      "祝日"
    ],
    "openDaysNote": ""
  },
  {
    "id": "4390102467",
    "name": "せんだメディカルデイサービスセンター　ディーバ",
    "kana": "センダメディカルデイサービスセンター　ディーバ",
    "address": "熊本県熊本市中央区島崎1丁目３３－１１",
    "lat": 32.8024260609221,
    "lng": 130.690534966594,
    "tel": "096-312-1122",
    "url": "",
    "pref": "熊本県",
    "city": "熊本市中央区",
    "category": "community_day_service",
    "serviceType": "地域密着型通所介護",
    "capacity": 18,
    "openDays": [
      "平日",
      "土曜日"
    ],
    "openDaysNote": ""
  },
  {
    "id": "4390101808",
    "name": "つなぐデイサービス",
    "kana": "ツナグデイサービス",
    "address": "熊本県熊本市中央区出水7丁目56-12",
    "lat": 32.7751393,
    "lng": 130.7199853,
    "tel": "096-201-2331",
    "url": "",
    "pref": "熊本県",
    "city": "熊本市中央区",
    "category": "community_day_service",
    "serviceType": "地域密着型通所介護",
    "capacity": 0,
    "openDays": [
      "平日",
      "土曜日",
      "祝日"
    ],
    "openDaysNote": "12月30日から1月3日までは休業"
  },
  {
    "id": "4390102434",
    "name": "つなぐデイサービス水前寺",
    "kana": "ツナグデイサービススイゼンジ",
    "address": "熊本市中央区水前寺３丁目44-37",
    "lat": 32.7997155,
    "lng": 130.736825,
    "tel": "096-201-1361",
    "url": "",
    "pref": "熊本県",
    "city": "熊本市中央区",
    "category": "community_day_service",
    "serviceType": "地域密着型通所介護",
    "capacity": 0,
    "openDays": [
      "平日",
      "土曜日",
      "祝日"
    ],
    "openDaysNote": ""
  },
  {
    "id": "4390101741",
    "name": "デイサービス　あいランド",
    "kana": "デイサービス　アイランド",
    "address": "小沢町38パティナ小沢町 パティナ小沢町",
    "lat": 32.7969477,
    "lng": 130.6943036,
    "tel": "096-211-1303",
    "url": "",
    "pref": "熊本県",
    "city": "熊本市中央区",
    "category": "community_day_service",
    "serviceType": "地域密着型通所介護",
    "capacity": 0,
    "openDays": [
      "平日",
      "土曜日",
      "祝日"
    ],
    "openDaysNote": "年末年始（12/30～1/3まで）休日あり。"
  },
  {
    "id": "4370109748",
    "name": "デイサービス　あい工房木村屋　新町店",
    "kana": "デイサービス　アイコウボウキムラヤ　シンマチテン",
    "address": "中央区新町3丁目4番2号兵庫屋ビル　203号 兵庫屋ビル　203号",
    "lat": 32.802671637765,
    "lng": 130.696733347291,
    "tel": "096-277-1083",
    "url": "",
    "pref": "熊本県",
    "city": "熊本市中央区",
    "category": "community_day_service",
    "serviceType": "地域密着型通所介護",
    "capacity": 13,
    "openDays": [
      "平日",
      "土曜日",
      "祝日"
    ],
    "openDaysNote": "相談に応じます。"
  },
  {
    "id": "4370105266",
    "name": "デイサービス　あやめの里",
    "kana": "デイサービス　アヤメノサト",
    "address": "熊本県熊本市中央区渡鹿５丁目１７－２６",
    "lat": 32.8093173045559,
    "lng": 130.732936125131,
    "tel": "096-211-5363",
    "url": "",
    "pref": "熊本県",
    "city": "熊本市中央区",
    "category": "community_day_service",
    "serviceType": "地域密着型通所介護",
    "capacity": 18,
    "openDays": [
      "平日",
      "土曜日",
      "祝日"
    ],
    "openDaysNote": ""
  },
  {
    "id": "4370106033",
    "name": "デイサービス　こ・こ（Ｃｏ・Ｃｏ）",
    "kana": "デイサービス　コ・コ",
    "address": "熊本市中央区坪井3丁目9番27号",
    "lat": 32.8124469,
    "lng": 130.714896,
    "tel": "096-284-5000",
    "url": "http://www.kiseikai.or.jp",
    "pref": "熊本県",
    "city": "熊本市中央区",
    "category": "community_day_service",
    "serviceType": "地域密着型通所介護",
    "capacity": 18,
    "openDays": [
      "平日",
      "土曜日",
      "祝日"
    ],
    "openDaysNote": ""
  },
  {
    "id": "4370110209",
    "name": "でいさーびす　さぺりあ",
    "kana": "デイサービス　サペリア",
    "address": "熊本県熊本市中央区大江本町7-9ビクトリアビル2F ビクトリアビル2F",
    "lat": 32.7950265,
    "lng": 130.7242566,
    "tel": "096-372-8310",
    "url": "http://www.victoria.ne.jp/page0136.html",
    "pref": "熊本県",
    "city": "熊本市中央区",
    "category": "community_day_service",
    "serviceType": "地域密着型通所介護",
    "capacity": 0,
    "openDays": [
      "平日",
      "土曜日",
      "日曜日",
      "祝日"
    ],
    "openDaysNote": ""
  },
  {
    "id": "4390102632",
    "name": "デイサービスおれんじ",
    "kana": "デイサービスオレンジ",
    "address": "熊本市中央区上京塚町4-15",
    "lat": 32.7902131,
    "lng": 130.7461336,
    "tel": "096-237-7413",
    "url": "https://www.pure-sml.jp",
    "pref": "熊本県",
    "city": "熊本市中央区",
    "category": "community_day_service",
    "serviceType": "地域密着型通所介護",
    "capacity": 0,
    "openDays": [
      "平日",
      "土曜日",
      "祝日"
    ],
    "openDaysNote": ""
  },
  {
    "id": "4370104525",
    "name": "デイサービスセンターえづ",
    "kana": "デイサービスセンターエヅ",
    "address": "熊本県熊本市中央区出水８丁目２９番１２号",
    "lat": 32.7765254,
    "lng": 130.7308985,
    "tel": "096-375-2885",
    "url": "",
    "pref": "熊本県",
    "city": "熊本市中央区",
    "category": "community_day_service",
    "serviceType": "地域密着型通所介護",
    "capacity": 15,
    "openDays": [
      "平日",
      "土曜日",
      "日曜日",
      "祝日"
    ],
    "openDaysNote": ""
  },
  {
    "id": "4370104913",
    "name": "デイサービスセンター出水",
    "kana": "デイサービスセンターイズミ",
    "address": "熊本市中央区国府２丁目６－９１",
    "lat": 32.7877688,
    "lng": 130.7262929,
    "tel": "096-375-3040",
    "url": "http://sanwaso.jp/",
    "pref": "熊本県",
    "city": "熊本市中央区",
    "category": "community_day_service",
    "serviceType": "地域密着型通所介護",
    "capacity": 18,
    "openDays": [
      "平日",
      "土曜日",
      "祝日"
    ],
    "openDaysNote": "台風、地震等自然災害時、感染症の流行等、営業することが利用者にとって危険と判断される場合は、止むを得ず休ませて頂く事があります。"
  },
  {
    "id": "4370106017",
    "name": "デイサービスセンター創幸",
    "kana": "デイサービスセンターソウコウ",
    "address": "熊本県熊本市中央区九品寺３丁目１７番２４号九品寺Ｍ・IIビル１階 九品寺Ｍ・IIビル１階",
    "lat": 32.7927793,
    "lng": 130.71721,
    "tel": "096-375-5008",
    "url": "",
    "pref": "熊本県",
    "city": "熊本市中央区",
    "category": "community_day_service",
    "serviceType": "地域密着型通所介護",
    "capacity": 15,
    "openDays": [
      "平日",
      "祝日"
    ],
    "openDaysNote": ""
  },
  {
    "id": "4390102228",
    "name": "デイサービス幸の家",
    "kana": "デイサービスユキノイエ",
    "address": "熊本市中央区帯山7丁目9番69号有料老人ホーム幸の家　2階 有料老人ホーム幸の家　2階",
    "lat": 32.8070754,
    "lng": 130.755811,
    "tel": "096-385-1005",
    "url": "yukinoie,net",
    "pref": "熊本県",
    "city": "熊本市中央区",
    "category": "community_day_service",
    "serviceType": "地域密着型通所介護",
    "capacity": null,
    "openDays": [
      "平日",
      "祝日"
    ],
    "openDaysNote": "年末年始については、カレンダーの日程により営業することがあります。"
  },
  {
    "id": "4370104764",
    "name": "デイサービス水前寺",
    "kana": "デイサービススイゼンジ",
    "address": "熊本市水前寺2丁目19-8",
    "lat": 32.7962264,
    "lng": 130.7350256,
    "tel": "096-383-3448",
    "url": "",
    "pref": "熊本県",
    "city": "熊本市中央区",
    "category": "community_day_service",
    "serviceType": "地域密着型通所介護",
    "capacity": 12,
    "openDays": [
      "平日",
      "祝日"
    ],
    "openDaysNote": "・お盆の８月14日、8月15日は定休日　・年末年始の12月30日から1月3日までは定休日"
  },
  {
    "id": "4370108153",
    "name": "デイサービス正直家",
    "kana": "デイサービスショウジキヤ",
    "address": "中央区帯山七丁目1番35号谷崎ＭＡクリニック附属帯山在宅総合ケアセンター　正直家 谷崎ＭＡクリニック附属帯山在宅総合ケアセンター　正直家",
    "lat": 32.8076171,
    "lng": 130.7520583,
    "tel": "096-274-4126",
    "url": "http://syojikiya-ma.com/",
    "pref": "熊本県",
    "city": "熊本市中央区",
    "category": "community_day_service",
    "serviceType": "地域密着型通所介護",
    "capacity": 18,
    "openDays": [
      "平日",
      "土曜日",
      "祝日"
    ],
    "openDaysNote": "特になし"
  },
  {
    "id": "4370106900",
    "name": "デイサービス悠里",
    "kana": "デイサービスユウリ",
    "address": "熊本市中央区保田窪１丁目２-１６",
    "lat": 32.8055228,
    "lng": 130.7416059,
    "tel": "096-381-5955",
    "url": "",
    "pref": "熊本県",
    "city": "熊本市中央区",
    "category": "community_day_service",
    "serviceType": "地域密着型通所介護",
    "capacity": 0,
    "openDays": [
      "平日",
      "祝日"
    ],
    "openDaysNote": "延長にも対応しております。"
  },
  {
    "id": "4390102160",
    "name": "ゆほびかデイサービスセンター",
    "kana": "ユホビカデイサービスセンター",
    "address": "熊本県熊本市中央区国府１丁目３－１０ゆほびか水前寺 ゆほびか水前寺",
    "lat": 32.7926851,
    "lng": 130.7266733,
    "tel": "096-371-8787",
    "url": "",
    "pref": "熊本県",
    "city": "熊本市中央区",
    "category": "community_day_service",
    "serviceType": "地域密着型通所介護",
    "capacity": 4,
    "openDays": [
      "平日",
      "土曜日",
      "祝日"
    ],
    "openDaysNote": ""
  },
  {
    "id": "4390102863",
    "name": "リハライフ水前寺",
    "kana": "リハライフスイゼンジ",
    "address": "水前寺3丁目12番17号",
    "lat": 32.7975238,
    "lng": 130.7339915,
    "tel": "096-381-8555",
    "url": "",
    "pref": "熊本県",
    "city": "熊本市中央区",
    "category": "community_day_service",
    "serviceType": "地域密着型通所介護",
    "capacity": null,
    "openDays": [
      "平日",
      "祝日"
    ],
    "openDaysNote": ""
  },
  {
    "id": "4390102111",
    "name": "指定地域密着型通所介護昭孝園",
    "kana": "シテイチイキミッチャクガタツウショカイゴ　ショウコウエン",
    "address": "熊本県熊本市中央区薬園町10-17",
    "lat": 32.8140604231492,
    "lng": 130.719670258544,
    "tel": "096-343-1703",
    "url": "",
    "pref": "熊本県",
    "city": "熊本市中央区",
    "category": "community_day_service",
    "serviceType": "地域密着型通所介護",
    "capacity": 0,
    "openDays": [
      "平日",
      "祝日"
    ],
    "openDaysNote": ""
  },
  {
    "id": "4390103465",
    "name": "笑顔の広場水前寺",
    "kana": "エガオノヒロバスイゼンジ",
    "address": "熊本県熊本市中央区水前寺５丁目18-13フレール水前寺1F フレール水前寺1F",
    "lat": 32.7964295,
    "lng": 130.7391333,
    "tel": "096-384-6211",
    "url": "http//www.egao-home.com",
    "pref": "熊本県",
    "city": "熊本市中央区",
    "category": "community_day_service",
    "serviceType": "地域密着型通所介護",
    "capacity": 18,
    "openDays": [
      "平日",
      "土曜日",
      "祝日"
    ],
    "openDaysNote": "年末年始定休日：12月30日～1月3日"
  },
  {
    "id": "4370109342",
    "name": "上通りデイサービス",
    "kana": "カミトオリデイサービス",
    "address": "熊本市中央区南坪井町1-29",
    "lat": 32.8069168,
    "lng": 130.7124629,
    "tel": "096-356-9349",
    "url": "http://www.kamitooriseikotsuin.jp/xoops/",
    "pref": "熊本県",
    "city": "熊本市中央区",
    "category": "community_day_service",
    "serviceType": "地域密着型通所介護",
    "capacity": 0,
    "openDays": [
      "平日"
    ],
    "openDaysNote": ""
  },
  {
    "id": "4390102137",
    "name": "新町フィットネスデイ",
    "kana": "シンマチフィットネスデイ",
    "address": "熊本県熊本市中央区新町3丁目8-18",
    "lat": 32.802085851522,
    "lng": 130.695382199594,
    "tel": "096-200-8308",
    "url": "",
    "pref": "熊本県",
    "city": "熊本市中央区",
    "category": "community_day_service",
    "serviceType": "地域密着型通所介護",
    "capacity": 0,
    "openDays": [
      "平日",
      "祝日"
    ],
    "openDaysNote": ""
  },
  {
    "id": "4370104897",
    "name": "水前寺しょうぶ苑",
    "kana": "スイゼンジショウブエン",
    "address": "熊本市中央区水前寺３丁目１３－１０",
    "lat": 32.7971541,
    "lng": 130.7337951,
    "tel": "096-381-2080",
    "url": "http://www.shoubuen.com",
    "pref": "熊本県",
    "city": "熊本市中央区",
    "category": "community_day_service",
    "serviceType": "地域密着型通所介護",
    "capacity": 15,
    "openDays": [
      "平日",
      "土曜日",
      "祝日"
    ],
    "openDaysNote": "正月の定休日は変更ある場合は、事前にご利用者様・職員には知らせています。（改行）祝日は営業しています。"
  },
  {
    "id": "4370106454",
    "name": "赤い実",
    "kana": "アカイミ",
    "address": "中央区水前寺2－18－12",
    "lat": 32.795807,
    "lng": 130.7347229,
    "tel": "096－381ー8740",
    "url": "",
    "pref": "熊本県",
    "city": "熊本市中央区",
    "category": "community_day_service",
    "serviceType": "地域密着型通所介護",
    "capacity": 10,
    "openDays": [
      "平日",
      "土曜日",
      "祝日"
    ],
    "openDaysNote": "8月14．15日（改行）12月30～1月3日　休み"
  },
  {
    "id": "4390102194",
    "name": "早稲田イーライフ江津湖",
    "kana": "ワセダイーライフエヅコ",
    "address": "熊本県熊本市中央区出水4-15-27",
    "lat": 32.78075,
    "lng": 130.7333316,
    "tel": "096-288-2221",
    "url": "",
    "pref": "熊本県",
    "city": "熊本市中央区",
    "category": "community_day_service",
    "serviceType": "地域密着型通所介護",
    "capacity": 130,
    "openDays": [
      "平日",
      "土曜日"
    ],
    "openDaysNote": ""
  },
  {
    "id": "4370109029",
    "name": "早稲田イーライフ帯山",
    "kana": "ワセダイーライフオビヤマ",
    "address": "熊本県熊本市中央区帯山5－1－3Ｋ１ビルＦ Ｋ１ビルＦ",
    "lat": 32.8003316,
    "lng": 130.7509167,
    "tel": "096－285－8890",
    "url": "",
    "pref": "熊本県",
    "city": "熊本市中央区",
    "category": "community_day_service",
    "serviceType": "地域密着型通所介護",
    "capacity": 130,
    "openDays": [
      "平日",
      "土曜日"
    ],
    "openDaysNote": ""
  },
  {
    "id": "4390102673",
    "name": "特養デイサービス琴平本町",
    "kana": "トクヨウデイサービスコトヒラホンマチ",
    "address": "熊本県熊本市中央区琴平本町10－32",
    "lat": 32.7870448,
    "lng": 130.7045976,
    "tel": "096-362-0200",
    "url": "https//www.kumamoto-houjyukai.jp/",
    "pref": "熊本県",
    "city": "熊本市中央区",
    "category": "community_day_service",
    "serviceType": "地域密着型通所介護",
    "capacity": 0,
    "openDays": [
      "平日",
      "土曜日",
      "祝日"
    ],
    "openDaysNote": ""
  },
  {
    "id": "4370110100",
    "name": "風流街もやい館　グループホーム・デイサービスセンター　五福",
    "kana": "フルマチモヤイカン　グループホーム・デイサービスセンター　ゴフク",
    "address": "熊本県熊本市中央区細工町４丁目３４－１風流街もやい館　五福 風流街もやい館　五福",
    "lat": 32.7938119,
    "lng": 130.694337,
    "tel": "096－326－0550",
    "url": "",
    "pref": "熊本県",
    "city": "熊本市中央区",
    "category": "community_day_service",
    "serviceType": "地域密着型通所介護",
    "capacity": null,
    "openDays": [
      "平日",
      "祝日"
    ],
    "openDaysNote": "１２月３１日～１月３日"
  },
  {
    "id": "4390103127",
    "name": "風流街もやい館グループホーム・デイサービスセンター五福",
    "kana": "フルマチモヤイカングループホーム・デイサービスセンターゴフク",
    "address": "熊本市中央区細工町4丁目34－1風流街もやい館五福 風流街もやい館五福",
    "lat": 32.7937996,
    "lng": 130.6943482,
    "tel": "096-326-0550",
    "url": "http://gofuku-moyai.com/",
    "pref": "熊本県",
    "city": "熊本市中央区",
    "category": "community_day_service",
    "serviceType": "地域密着型通所介護",
    "capacity": null,
    "openDays": [
      "平日",
      "祝日"
    ],
    "openDaysNote": "12月31日～1月3日。"
  },
  {
    "id": "4390103325",
    "name": "CareStationSOWAKA長嶺",
    "kana": "ケアステーションソワカナガミネ",
    "address": "長嶺東4丁目15−33",
    "lat": 32.8243245,
    "lng": 130.7744707,
    "tel": "096-273-9851",
    "url": "https://www.sowaka.info",
    "pref": "熊本県",
    "city": "熊本市東区",
    "category": "community_day_service",
    "serviceType": "地域密着型通所介護",
    "capacity": null,
    "openDays": [
      "平日",
      "土曜日",
      "祝日"
    ],
    "openDaysNote": ""
  },
  {
    "id": "4390103143",
    "name": "Let'sリハ！シュロアモール長嶺店",
    "kana": "レッツリハシュロアモールナガミネテン",
    "address": "熊本県熊本市東区長嶺西１丁目5-1",
    "lat": 32.8108959646205,
    "lng": 130.762879582368,
    "tel": "096-288-7990",
    "url": "https://www.lets-reha.jp/shop/kumamoto-nagamine/",
    "pref": "熊本県",
    "city": "熊本市東区",
    "category": "community_day_service",
    "serviceType": "地域密着型通所介護",
    "capacity": null,
    "openDays": [
      "平日",
      "土曜日",
      "祝日"
    ],
    "openDaysNote": ""
  },
  {
    "id": "4390102475",
    "name": "Let'sリハ！神水店",
    "kana": "レッツリハクワミズテン",
    "address": "熊本市東区健軍2-2-5",
    "lat": 32.7842366,
    "lng": 130.7468236,
    "tel": "096-285-7740",
    "url": "https://www.sakurajyuji.or.jp/service/dayservice/",
    "pref": "熊本県",
    "city": "熊本市東区",
    "category": "community_day_service",
    "serviceType": "地域密着型通所介護",
    "capacity": 5,
    "openDays": [
      "平日",
      "祝日"
    ],
    "openDaysNote": ""
  },
  {
    "id": "4370106462",
    "name": "こんぺいとう",
    "kana": "コンペイトウ",
    "address": "熊本県熊本市東区下江津6丁目１０－３０",
    "lat": 32.7710037,
    "lng": 130.7479143,
    "tel": "096-245-8683",
    "url": "",
    "pref": "熊本県",
    "city": "熊本市東区",
    "category": "community_day_service",
    "serviceType": "地域密着型通所介護",
    "capacity": 13,
    "openDays": [
      "平日",
      "祝日"
    ],
    "openDaysNote": "９時間以上のサービス提供は、延長加算で対応しております。"
  },
  {
    "id": "4390102384",
    "name": "デイサービス　ワンステップ",
    "kana": "デイサービス　ワンステップ",
    "address": "熊本県熊本市東区長嶺東8丁目12番12号",
    "lat": 32.8317122,
    "lng": 130.7806311,
    "tel": "096-288-6563",
    "url": "https://emiasu.co.jp/",
    "pref": "熊本県",
    "city": "熊本市東区",
    "category": "community_day_service",
    "serviceType": "地域密着型通所介護",
    "capacity": 0,
    "openDays": [
      "平日",
      "土曜日",
      "祝日"
    ],
    "openDaysNote": ""
  },
  {
    "id": "4370106611",
    "name": "デイサービス　絹の和香",
    "kana": "デイサービス　キヌノワカ",
    "address": "熊本県熊本市東区御領2丁目15-9",
    "lat": 32.8236296,
    "lng": 130.7655686,
    "tel": "096-221-3845",
    "url": "https://www.kinunowaka.com/",
    "pref": "熊本県",
    "city": "熊本市東区",
    "category": "community_day_service",
    "serviceType": "地域密着型通所介護",
    "capacity": 10,
    "openDays": [
      "平日",
      "土曜日",
      "祝日"
    ],
    "openDaysNote": ""
  },
  {
    "id": "4390102590",
    "name": "デイサービス　五色の花",
    "kana": "デイサービス　ゴシキノハナ",
    "address": "熊本市東区保田窪5丁目9番92号",
    "lat": 32.813609672885,
    "lng": 130.755853457366,
    "tel": "096-285-7544",
    "url": "http://goshikinohana.com",
    "pref": "熊本県",
    "city": "熊本市東区",
    "category": "community_day_service",
    "serviceType": "地域密着型通所介護",
    "capacity": 0,
    "openDays": [
      "平日",
      "祝日"
    ],
    "openDaysNote": "年末年始の休業（12月30日~1月3日）"
  },
  {
    "id": "4370111009",
    "name": "デイサービス　想叶",
    "kana": "デイサービス　ココネ",
    "address": "熊本市東区長峰東5-3-26",
    "lat": 32.8213566518508,
    "lng": 130.782143167786,
    "tel": "096-285-5920",
    "url": "",
    "pref": "熊本県",
    "city": "熊本市東区",
    "category": "community_day_service",
    "serviceType": "地域密着型通所介護",
    "capacity": 10,
    "openDays": [
      "平日",
      "祝日"
    ],
    "openDaysNote": ""
  },
  {
    "id": "4370105324",
    "name": "デイサービス　太陽の園",
    "kana": "デイサービス　タイヨウノソノ",
    "address": "熊本市東区長嶺西２丁目７番８号サンパーク長嶺 サンパーク長嶺",
    "lat": 32.813339,
    "lng": 130.7654742,
    "tel": "096-388-4145",
    "url": "",
    "pref": "熊本県",
    "city": "熊本市東区",
    "category": "community_day_service",
    "serviceType": "地域密着型通所介護",
    "capacity": 0,
    "openDays": [
      "平日",
      "土曜日",
      "祝日"
    ],
    "openDaysNote": "お盆休みは、利用者様の都合により営業する場合があります。"
  },
  {
    "id": "4390102293",
    "name": "デイサービスここわら",
    "kana": "デイサービスココワラ",
    "address": "熊本県熊本市東区画図東1-11-15",
    "lat": 32.7662763,
    "lng": 130.7503809,
    "tel": "096-288-6857",
    "url": "https://chihiro-fukushi.jp/day/",
    "pref": "熊本県",
    "city": "熊本市東区",
    "category": "community_day_service",
    "serviceType": "地域密着型通所介護",
    "capacity": 18,
    "openDays": [
      "平日",
      "土曜日",
      "祝日"
    ],
    "openDaysNote": ""
  },
  {
    "id": "4390102723",
    "name": "デイサービスごりょうの里",
    "kana": "デイサービスゴリョウノサト",
    "address": "熊本県熊本市東区戸島西2丁目6-97",
    "lat": 32.8134946,
    "lng": 130.7841896,
    "tel": "096-360-3700",
    "url": "",
    "pref": "熊本県",
    "city": "熊本市東区",
    "category": "community_day_service",
    "serviceType": "地域密着型通所介護",
    "capacity": 0,
    "openDays": [
      "平日",
      "土曜日",
      "祝日"
    ],
    "openDaysNote": ""
  },
  {
    "id": "4390103499",
    "name": "デイサービススマイルプラス",
    "kana": "デイサービススマイルプラス",
    "address": "熊本県熊本市東区神園2丁目6-21住宅型有料老人ホームSmile　House内 住宅型有料老人ホームSmile　House内",
    "lat": 32.8359639,
    "lng": 130.7825305,
    "tel": "096-273-8930",
    "url": "",
    "pref": "熊本県",
    "city": "熊本市東区",
    "category": "community_day_service",
    "serviceType": "地域密着型通所介護",
    "capacity": null,
    "openDays": [
      "平日"
    ],
    "openDaysNote": ""
  },
  {
    "id": "4390102483",
    "name": "ディサービスセンター　Cocoa",
    "kana": "ディサービスセンター　ココア",
    "address": "熊本県熊本市東区新外２丁目１番１５号吉祥苑　新外 吉祥苑　新外",
    "lat": 32.8012656,
    "lng": 130.767073,
    "tel": "096-383-5077",
    "url": "",
    "pref": "熊本県",
    "city": "熊本市東区",
    "category": "community_day_service",
    "serviceType": "地域密着型通所介護",
    "capacity": 0,
    "openDays": [
      "平日",
      "祝日"
    ],
    "openDaysNote": ""
  },
  {
    "id": "4390102327",
    "name": "デイサービスセンターく～る",
    "kana": "デイサービスセンターク～ル",
    "address": "熊本県熊本市東区新外２丁目１番１５号",
    "lat": 32.8012707,
    "lng": 130.767102,
    "tel": "096-214-6188",
    "url": "",
    "pref": "熊本県",
    "city": "熊本市東区",
    "category": "community_day_service",
    "serviceType": "地域密着型通所介護",
    "capacity": null,
    "openDays": [
      "平日",
      "祝日"
    ],
    "openDaysNote": ""
  },
  {
    "id": "4390103390",
    "name": "デイサービスセンターこもれび桜木東",
    "kana": "デイサービスセンターコモレビサクラギヒガシ",
    "address": "熊本県熊本市東区佐土原二丁目７番20号",
    "lat": 32.792882,
    "lng": 130.7812505,
    "tel": "096ｰ365ｰ6200",
    "url": "http://shinseiki.jp/",
    "pref": "熊本県",
    "city": "熊本市東区",
    "category": "community_day_service",
    "serviceType": "地域密着型通所介護",
    "capacity": 10,
    "openDays": [
      "平日",
      "祝日"
    ],
    "openDaysNote": ""
  },
  {
    "id": "4370104160",
    "name": "デイサービスセンターふくし大夢",
    "kana": "デイサービスセンターフクシタイム",
    "address": "熊本市東区山ノ神1丁目４－１３",
    "lat": 32.7956324,
    "lng": 130.7722211,
    "tel": "096-360-6234",
    "url": "http://fkstime.web.fc2.com/",
    "pref": "熊本県",
    "city": "熊本市東区",
    "category": "community_day_service",
    "serviceType": "地域密着型通所介護",
    "capacity": 0,
    "openDays": [
      "平日",
      "祝日"
    ],
    "openDaysNote": ""
  },
  {
    "id": "4390102731",
    "name": "デイサービスセンターまるもり",
    "kana": "デイサービスセンターマルモリ",
    "address": "長嶺南4丁目12-5",
    "lat": 32.8080209,
    "lng": 130.7747422,
    "tel": "096-285-5707",
    "url": "http://marumori-kumamoto.com/",
    "pref": "熊本県",
    "city": "熊本市東区",
    "category": "community_day_service",
    "serviceType": "地域密着型通所介護",
    "capacity": 0,
    "openDays": [
      "平日",
      "土曜日",
      "日曜日",
      "祝日"
    ],
    "openDaysNote": ""
  },
  {
    "id": "4390102913",
    "name": "デイサービスセンター白樺",
    "kana": "デイサービスセンターシラカバ",
    "address": "熊本県熊本市東区戸島６丁目１８－１２",
    "lat": 32.8032164,
    "lng": 130.7079369,
    "tel": "０９６－２４３ー０８００",
    "url": "",
    "pref": "熊本県",
    "city": "熊本市東区",
    "category": "community_day_service",
    "serviceType": "地域密着型通所介護",
    "capacity": null,
    "openDays": [
      "平日",
      "祝日"
    ],
    "openDaysNote": "年末年始休みあり"
  },
  {
    "id": "4390103572",
    "name": "デイサービスたくまの里",
    "kana": "デイサービスタクマノサト",
    "address": "熊本市東区御領1丁目13-26",
    "lat": 32.8217419,
    "lng": 130.7616702,
    "tel": "096-382-3110",
    "url": "takumanosato.com",
    "pref": "熊本県",
    "city": "熊本市東区",
    "category": "community_day_service",
    "serviceType": "地域密着型通所介護",
    "capacity": 0,
    "openDays": [
      "平日",
      "土曜日",
      "祝日"
    ],
    "openDaysNote": "自然災害、感染等のリスクがある場合は急遽休む場合がある。"
  },
  {
    "id": "4370110977",
    "name": "デイサービスらくらく尾ノ上",
    "kana": "デイサービラクラクスオノウエ",
    "address": "熊本県熊本市東区尾ノ上１丁目８－１",
    "lat": 32.7954475726557,
    "lng": 130.757724917791,
    "tel": "０９６－３６０－０６００",
    "url": "http://www.raku2kaigo.jp/",
    "pref": "熊本県",
    "city": "熊本市東区",
    "category": "community_day_service",
    "serviceType": "地域密着型通所介護",
    "capacity": 10,
    "openDays": [
      "平日",
      "土曜日",
      "日曜日",
      "祝日"
    ],
    "openDaysNote": "送迎対応時間は　６：３０～２１：００　とします。"
  },
  {
    "id": "4370105688",
    "name": "デイサービス彩",
    "kana": "デイサービスサエ",
    "address": "熊本県熊本市八反田2丁目10-12",
    "lat": 32.8163805416012,
    "lng": 130.761931519049,
    "tel": "096-389-1002",
    "url": "",
    "pref": "熊本県",
    "city": "熊本市東区",
    "category": "community_day_service",
    "serviceType": "地域密着型通所介護",
    "capacity": 16,
    "openDays": [
      "平日",
      "土曜日",
      "祝日"
    ],
    "openDaysNote": ""
  },
  {
    "id": "4390102350",
    "name": "デイサービス小山",
    "kana": "デイサービスオヤマ",
    "address": "熊本県熊本市東区小山1丁目3-26",
    "lat": 32.8323316,
    "lng": 130.7839558,
    "tel": "096-285-8563",
    "url": "",
    "pref": "熊本県",
    "city": "熊本市東区",
    "category": "community_day_service",
    "serviceType": "地域密着型通所介護",
    "capacity": null,
    "openDays": [
      "平日",
      "土曜日",
      "日曜日",
      "祝日"
    ],
    "openDaysNote": ""
  },
  {
    "id": "4390102962",
    "name": "デイサービス小山",
    "kana": "デイサービスオヤマ",
    "address": "熊本県熊本市東区小山1丁目3－26",
    "lat": 32.8323172,
    "lng": 130.7839545,
    "tel": "096-285-8563",
    "url": "",
    "pref": "熊本県",
    "city": "熊本市東区",
    "category": "community_day_service",
    "serviceType": "地域密着型通所介護",
    "capacity": null,
    "openDays": [
      "平日",
      "土曜日",
      "日曜日",
      "祝日"
    ],
    "openDaysNote": ""
  },
  {
    "id": "4370109037",
    "name": "デイサービス長嶺",
    "kana": "デイサービスナガミネ",
    "address": "熊本市東区長嶺東六丁目１０－４３",
    "lat": 32.8223411,
    "lng": 130.7842616,
    "tel": "096-388-5234",
    "url": "",
    "pref": "熊本県",
    "city": "熊本市東区",
    "category": "community_day_service",
    "serviceType": "地域密着型通所介護",
    "capacity": 10,
    "openDays": [
      "平日",
      "土曜日",
      "祝日"
    ],
    "openDaysNote": ""
  },
  {
    "id": "4390102970",
    "name": "デイホーム土屋　熊本",
    "kana": "デイホームツチヤクマモト",
    "address": "熊本県熊本市東区花立2丁目11－29",
    "lat": 32.7802448,
    "lng": 130.7757709,
    "tel": "050‐3187‐5989",
    "url": "https://tcy.co.jp/service/dayhome/",
    "pref": "熊本県",
    "city": "熊本市東区",
    "category": "community_day_service",
    "serviceType": "地域密着型通所介護",
    "capacity": 14,
    "openDays": [
      "平日",
      "土曜日",
      "日曜日",
      "祝日"
    ],
    "openDaysNote": "365日稼働。"
  },
  {
    "id": "4390102285",
    "name": "ヒューマンライフケアあきつ",
    "kana": "ヒューマンライフケアアキツ",
    "address": "熊本県熊本市東区若葉2丁目15番25号モナーク秋津　1階 モナーク秋津　1階",
    "lat": 32.7771476,
    "lng": 130.7648271,
    "tel": "096-365-8022",
    "url": "kaigo.human-lifecare.jp",
    "pref": "熊本県",
    "city": "熊本市東区",
    "category": "community_day_service",
    "serviceType": "地域密着型通所介護",
    "capacity": null,
    "openDays": [
      "平日",
      "土曜日",
      "祝日"
    ],
    "openDaysNote": ""
  },
  {
    "id": "4370109284",
    "name": "ホームケアサービス下無田の里",
    "kana": "ホームケアサービスシモムタノサト",
    "address": "画図町下無田１５２２",
    "lat": 32.7547024,
    "lng": 130.7373295,
    "tel": "096-285-4316",
    "url": "gennki.simomuta0201@crocus.ocn.ne.jp",
    "pref": "熊本県",
    "city": "熊本市東区",
    "category": "community_day_service",
    "serviceType": "地域密着型通所介護",
    "capacity": 13,
    "openDays": [
      "平日",
      "土曜日",
      "祝日"
    ],
    "openDaysNote": ""
  },
  {
    "id": "4390103234",
    "name": "ほねつぎデイサービス長嶺",
    "kana": "ホネツギデイサービスナガミネ",
    "address": "熊本県熊本市東区長嶺南４丁目2－6",
    "lat": 32.8108085,
    "lng": 130.7728825,
    "tel": "096-234-7988",
    "url": "",
    "pref": "熊本県",
    "city": "熊本市東区",
    "category": "community_day_service",
    "serviceType": "地域密着型通所介護",
    "capacity": 10,
    "openDays": [
      "平日",
      "祝日"
    ],
    "openDaysNote": "夏季（８月１３日から８月１５日）、年末年始（１２月２９日から１月3日）は休業とする"
  },
  {
    "id": "4370111561",
    "name": "ライフパートナーすてっぷ",
    "kana": "ライフパートナーステップ",
    "address": "新生１丁目3-20",
    "lat": 32.7791363,
    "lng": 130.7561554,
    "tel": "096-284-9003",
    "url": "http://imagawa-kumamoto.com/service/",
    "pref": "熊本県",
    "city": "熊本市東区",
    "category": "community_day_service",
    "serviceType": "地域密着型通所介護",
    "capacity": 0,
    "openDays": [
      "平日"
    ],
    "openDaysNote": ""
  },
  {
    "id": "4390102665",
    "name": "リハビリ　デイサービス　オリーブ新南部",
    "kana": "リハビリ　デイサービス　オリーブシンナベ",
    "address": "熊本県熊本市東区新南部６丁目２－５",
    "lat": 32.8176876,
    "lng": 130.7524614,
    "tel": "096-387-8686",
    "url": "http://okajima-s.com",
    "pref": "熊本県",
    "city": "熊本市東区",
    "category": "community_day_service",
    "serviceType": "地域密着型通所介護",
    "capacity": null,
    "openDays": [
      "平日",
      "土曜日"
    ],
    "openDaysNote": ""
  },
  {
    "id": "4370106199",
    "name": "リハビリ・デイサービスセンター「しん」",
    "kana": "リハビリ・デイサービスセンター「シン」",
    "address": "熊本県熊本市東区小山７丁目7-70",
    "lat": 32.8322844,
    "lng": 130.8031374,
    "tel": "096-247-7788",
    "url": "http://scc.g2.xrea.com/",
    "pref": "熊本県",
    "city": "熊本市東区",
    "category": "community_day_service",
    "serviceType": "地域密着型通所介護",
    "capacity": 18,
    "openDays": [
      "平日",
      "祝日"
    ],
    "openDaysNote": ""
  },
  {
    "id": "4370111165",
    "name": "リハビリセンターRelief",
    "kana": "リハビリセンターリリーフ",
    "address": "熊本県熊本市東区月出1丁目1-53",
    "lat": 32.8003429,
    "lng": 130.7616162,
    "tel": "096-200-1561",
    "url": "http://relief0418.com/",
    "pref": "熊本県",
    "city": "熊本市東区",
    "category": "community_day_service",
    "serviceType": "地域密着型通所介護",
    "capacity": 15,
    "openDays": [
      "平日",
      "土曜日",
      "祝日"
    ],
    "openDaysNote": "祝日の営業時間はその該当曜日に準ずる"
  },
  {
    "id": "4370107684",
    "name": "リハビリデイサービスオリーブ",
    "kana": "リハビリデイサービスオリーブ",
    "address": "熊本県熊本市東区長嶺東４丁目15-32",
    "lat": 32.8243808742329,
    "lng": 130.774461306204,
    "tel": "096-285-7263",
    "url": "",
    "pref": "熊本県",
    "city": "熊本市東区",
    "category": "community_day_service",
    "serviceType": "地域密着型通所介護",
    "capacity": 18,
    "openDays": [
      "平日",
      "土曜日"
    ],
    "openDaysNote": ""
  },
  {
    "id": "4370109243",
    "name": "株式会社　こころ　デイサービス湧水の郷",
    "kana": "カブシキガイシャ　ココロ　デイサービスユウスイノサト",
    "address": "東区江津3丁目7-31",
    "lat": 32.7747084974965,
    "lng": 130.740083699475,
    "tel": "096-377-5561",
    "url": "http://www.yusuinsato.com",
    "pref": "熊本県",
    "city": "熊本市東区",
    "category": "community_day_service",
    "serviceType": "地域密着型通所介護",
    "capacity": 18,
    "openDays": [
      "平日",
      "祝日"
    ],
    "openDaysNote": ""
  },
  {
    "id": "4370108724",
    "name": "株式会社楽楽　デイサービスらくらく八反田",
    "kana": "カブシキカイシャラクラク　デイサービスラクラクハッタンダ",
    "address": "熊本県熊本市東区八反田３丁目７番８号",
    "lat": 32.8187635,
    "lng": 130.7692461,
    "tel": "096-284-1670",
    "url": "sawa-hattanda@raku2kaigo.jp",
    "pref": "熊本県",
    "city": "熊本市東区",
    "category": "community_day_service",
    "serviceType": "地域密着型通所介護",
    "capacity": 10,
    "openDays": [
      "平日",
      "土曜日",
      "日曜日",
      "祝日"
    ],
    "openDaysNote": ""
  },
  {
    "id": "4390102921",
    "name": "熊本県身体障害者能力開発センター",
    "kana": "クマモトケンシンタイショウガイシャノウリョクカイハツセンター",
    "address": "熊本県熊本市東区長嶺南２丁目３番２号",
    "lat": 32.8087561,
    "lng": 130.7670029,
    "tel": "096-381-4413",
    "url": "https://k-jig.com/nokai/index.html",
    "pref": "熊本県",
    "city": "熊本市東区",
    "category": "community_day_service",
    "serviceType": "地域密着型通所介護",
    "capacity": null,
    "openDays": [
      "平日"
    ],
    "openDaysNote": ""
  },
  {
    "id": "4390101931",
    "name": "健軍くらしささえ愛工房　地域密着型通所介護",
    "kana": "ケングンクラシササエアイコウボウ　チイキミッチャクガタツウショカイゴ",
    "address": "熊本県熊本市東区栄町２番１５号県営健軍団地1階県営健軍団地１階 県営健軍団地１階",
    "lat": 32.7751256,
    "lng": 130.7604774,
    "tel": "096-214-0305",
    "url": "http://www.kengun.net/",
    "pref": "熊本県",
    "city": "熊本市東区",
    "category": "community_day_service",
    "serviceType": "地域密着型通所介護",
    "capacity": 0,
    "openDays": [
      "平日",
      "土曜日",
      "祝日"
    ],
    "openDaysNote": ""
  },
  {
    "id": "4390103341",
    "name": "健康Laboウォークラン",
    "kana": "ケンコウラボウォークラン",
    "address": "熊本県熊本市東区月出2-4-411F 1F",
    "lat": 32.8027232,
    "lng": 130.7621227,
    "tel": "962346636",
    "url": "https://walkrun-project.info",
    "pref": "熊本県",
    "city": "熊本市東区",
    "category": "community_day_service",
    "serviceType": "地域密着型通所介護",
    "capacity": 0,
    "openDays": [
      "平日"
    ],
    "openDaysNote": ""
  },
  {
    "id": "4370103063",
    "name": "御領ケアセンター",
    "kana": "ゴリョウケアセンター",
    "address": "熊本県熊本市東区御領１丁目３番４１号",
    "lat": 32.8192022,
    "lng": 130.7611078,
    "tel": "096-380-0038",
    "url": "http://www.sls-kumamoto.co.jp",
    "pref": "熊本県",
    "city": "熊本市東区",
    "category": "community_day_service",
    "serviceType": "地域密着型通所介護",
    "capacity": null,
    "openDays": [
      "平日",
      "祝日"
    ],
    "openDaysNote": "上記定休日に応相談の上、実施することがあります。"
  },
  {
    "id": "4370104194",
    "name": "指定地域密着型通所介護　昭孝園　東部ステーション",
    "kana": "シテイチイキミッチャクガタツウショカイゴ　ショウコウエン　トウブステーション",
    "address": "熊本市東区保田窪4丁目14-33",
    "lat": 32.8108953019699,
    "lng": 130.758460096434,
    "tel": "096-285-1793",
    "url": "",
    "pref": "熊本県",
    "city": "熊本市東区",
    "category": "community_day_service",
    "serviceType": "地域密着型通所介護",
    "capacity": 0,
    "openDays": [
      "平日",
      "土曜日",
      "祝日"
    ],
    "openDaysNote": ""
  },
  {
    "id": "4390102491",
    "name": "自立支援型通所介護　リハクル",
    "kana": "ジリツシエンガタツウショカイゴ　リハクル",
    "address": "熊本県熊本市東区保田窪3丁目17番10号西口ビル（1階） 西口ビル（1階）",
    "lat": 32.8111301,
    "lng": 130.7501217,
    "tel": "096-285-5323",
    "url": "",
    "pref": "熊本県",
    "city": "熊本市東区",
    "category": "community_day_service",
    "serviceType": "地域密着型通所介護",
    "capacity": 50,
    "openDays": [
      "平日",
      "祝日"
    ],
    "openDaysNote": "その他の休業日は事業所カレンダーに準ずる"
  },
  {
    "id": "4390103481",
    "name": "自立支援型通所介護　リハクル",
    "kana": "ジリツシエンガタツウショカイゴ　リハクル",
    "address": "熊本県熊本市東区保田窪3丁目17番10号西口ビル（1階） 西口ビル（1階）",
    "lat": 32.811136,
    "lng": 130.75013,
    "tel": "096-285-5323",
    "url": "https://rihaclue.jp",
    "pref": "熊本県",
    "city": "熊本市東区",
    "category": "community_day_service",
    "serviceType": "地域密着型通所介護",
    "capacity": 0,
    "openDays": [
      "平日",
      "祝日"
    ],
    "openDaysNote": "・年末年始（改行）・その他の休業日は事業所カレンダーに準ずる"
  },
  {
    "id": "4390103101",
    "name": "樹楽　熊本東",
    "kana": "キラク　クマモトヒガシ",
    "address": "熊本県熊本市東区若葉２丁目10-24",
    "lat": 32.7763283,
    "lng": 130.7627174,
    "tel": "096-282-8615",
    "url": "",
    "pref": "熊本県",
    "city": "熊本市東区",
    "category": "community_day_service",
    "serviceType": "地域密着型通所介護",
    "capacity": 10,
    "openDays": [
      "平日",
      "土曜日",
      "日曜日",
      "祝日"
    ],
    "openDaysNote": ""
  },
  {
    "id": "4390103150",
    "name": "心空の広場",
    "kana": "ココアノヒロバ",
    "address": "熊本県熊本市東区御領2丁目10-2住宅型有料老人ホームごりょうの里 住宅型有料老人ホームごりょうの里",
    "lat": 32.8230616,
    "lng": 130.7672283,
    "tel": "096-388-3700",
    "url": "",
    "pref": "熊本県",
    "city": "熊本市東区",
    "category": "community_day_service",
    "serviceType": "地域密着型通所介護",
    "capacity": 16,
    "openDays": [
      "平日",
      "土曜日",
      "祝日"
    ],
    "openDaysNote": "令和5年度は　令和5年12月31日～令和6年1月2日まで休み"
  },
  {
    "id": "4390102889",
    "name": "地域密着型デイサービスセンターＲｅｓｔハウス",
    "kana": "チイキミッチャクガタデイサービスセンターレストハウス",
    "address": "熊本市東区戸島１丁目４－２０",
    "lat": 32.8153818,
    "lng": 130.7942451,
    "tel": "096-285-1139",
    "url": "https://relair-k.com/",
    "pref": "熊本県",
    "city": "熊本市東区",
    "category": "community_day_service",
    "serviceType": "地域密着型通所介護",
    "capacity": 6,
    "openDays": [
      "平日",
      "土曜日",
      "祝日"
    ],
    "openDaysNote": ""
  },
  {
    "id": "4390102954",
    "name": "地域密着型通所介護事業所　サンテあかつき",
    "kana": "チイキミッチャクガタツウショカイゴジギョウショ　サンテアカツキ",
    "address": "熊本県熊本市東区戸島西２丁目４－５０",
    "lat": 32.8125282,
    "lng": 130.7817846,
    "tel": "０９６－２１４－０５２０",
    "url": "",
    "pref": "熊本県",
    "city": "熊本市東区",
    "category": "community_day_service",
    "serviceType": "地域密着型通所介護",
    "capacity": 0,
    "openDays": [
      "平日"
    ],
    "openDaysNote": "年末年始は休み（12/31・1/1）"
  },
  {
    "id": "4370106306",
    "name": "風の木苑デイサービスセンター",
    "kana": "フウノキエンデイサービスセンター",
    "address": "西原１丁目１１－６３",
    "lat": 32.8150175574231,
    "lng": 130.751624461377,
    "tel": "096-385-1888",
    "url": "http://www.eikou.or.jp",
    "pref": "熊本県",
    "city": "熊本市東区",
    "category": "community_day_service",
    "serviceType": "地域密着型通所介護",
    "capacity": 18,
    "openDays": [
      "平日",
      "土曜日",
      "祝日"
    ],
    "openDaysNote": ""
  },
  {
    "id": "4370101372",
    "name": "老人デイサービスセンター　パンプキンハウス",
    "kana": "ロウジンデイサービスセンター　パンプキンハウス",
    "address": "熊本市東区佐土原1丁目22-20",
    "lat": 32.7917744,
    "lng": 130.7750349,
    "tel": "096-360-4150",
    "url": "http://sadohara-fukushikai.net/",
    "pref": "熊本県",
    "city": "熊本市東区",
    "category": "community_day_service",
    "serviceType": "地域密着型通所介護",
    "capacity": 15,
    "openDays": [
      "平日",
      "土曜日",
      "祝日"
    ],
    "openDaysNote": ""
  },
  {
    "id": "4390102020",
    "name": "Let’s　リハ！　inthemallはません店",
    "kana": "レッツリハインザモールハマセンテン",
    "address": "熊本県熊本市南区田井島1-2-1ゆめタウンはません3F ゆめタウンはません3F",
    "lat": 32.7717314,
    "lng": 130.7264211,
    "tel": "096-273-8761",
    "url": "http://www.sakurajyuji.or.jp/service/dayservice/",
    "pref": "熊本県",
    "city": "熊本市南区",
    "category": "community_day_service",
    "serviceType": "地域密着型通所介護",
    "capacity": 120,
    "openDays": [
      "平日"
    ],
    "openDaysNote": ""
  },
  {
    "id": "4390102251",
    "name": "Let's　リハ！富合店",
    "kana": "レッツリハトミアイテン",
    "address": "熊本市南区富合町清藤389",
    "lat": 32.7157602,
    "lng": 130.6764247,
    "tel": "096-342-4242",
    "url": "sakurajyuji.or.jp",
    "pref": "熊本県",
    "city": "熊本市南区",
    "category": "community_day_service",
    "serviceType": "地域密着型通所介護",
    "capacity": 120,
    "openDays": [
      "平日",
      "祝日"
    ],
    "openDaysNote": ""
  },
  {
    "id": "4390101899",
    "name": "あさひデイサービスセンター御幸",
    "kana": "アサヒデイサービスセンターミユキ",
    "address": "熊本県熊本市南区御幸西1丁目14番23号",
    "lat": 32.7592125,
    "lng": 130.7032069,
    "tel": "096-285-1622",
    "url": "asahiday-miyuki.com",
    "pref": "熊本県",
    "city": "熊本市南区",
    "category": "community_day_service",
    "serviceType": "地域密着型通所介護",
    "capacity": 6,
    "openDays": [
      "平日",
      "土曜日",
      "日曜日",
      "祝日"
    ],
    "openDaysNote": ""
  },
  {
    "id": "4370111405",
    "name": "あじさいのもり九州",
    "kana": "アジサイノモリキュウシュウ",
    "address": "熊本県熊本市南区砂原町200-1",
    "lat": 32.7653052205563,
    "lng": 130.661984026945,
    "tel": "096-245-6400",
    "url": "https://sites.google.com/d/1-ku-4MeIWXckUQlL3H-gKFVS--nvrPqF/p/1LG4WzlcHWhYul5wc7AIcB1BjQVJWRnqT/edit",
    "pref": "熊本県",
    "city": "熊本市南区",
    "category": "community_day_service",
    "serviceType": "地域密着型通所介護",
    "capacity": 10,
    "openDays": [
      "平日",
      "土曜日"
    ],
    "openDaysNote": "定休日以外の祝日は営業"
  },
  {
    "id": "4390103259",
    "name": "いこいいこ",
    "kana": "イコイイコ",
    "address": "熊本県熊本市南区川口町2118-4",
    "lat": 32.7195258,
    "lng": 130.6405152,
    "tel": "096-223-8384",
    "url": "",
    "pref": "熊本県",
    "city": "熊本市南区",
    "category": "community_day_service",
    "serviceType": "地域密着型通所介護",
    "capacity": 0,
    "openDays": [
      "平日",
      "土曜日",
      "祝日"
    ],
    "openDaysNote": "※延長をご希望される場合は、原則午前8時から午後10時まで対応いたします。ご相談下さい。（改行）※災害等及び利用者の心身の状況に応じて本人または家族等の希望によりサービス提供が必要と判断した場合は、営業日以外でもサービス提供を行います。その際は、居宅介護支援事業所等と連携をとり必要な措置を行います。"
  },
  {
    "id": "4390101915",
    "name": "ケアサポートメロンDEKIRU",
    "kana": "ケアサポートメロンデキル",
    "address": "熊本県熊本市南区上ノ郷2丁目16-1",
    "lat": 32.7637849997941,
    "lng": 130.684343654806,
    "tel": "096-327-8282",
    "url": "htpp://www.care-melon.co.jp",
    "pref": "熊本県",
    "city": "熊本市南区",
    "category": "community_day_service",
    "serviceType": "地域密着型通所介護",
    "capacity": 18,
    "openDays": [
      "平日",
      "土曜日",
      "祝日"
    ],
    "openDaysNote": "祝日も通常営業しています。"
  },
  {
    "id": "4390102996",
    "name": "デイサービス　エル",
    "kana": "デイサービス　エル",
    "address": "熊本県熊本市南区近見2473番地アメニティL　201号 アメニティL　201号",
    "lat": 32.761696,
    "lng": 130.6847627,
    "tel": "096-288-4861",
    "url": "",
    "pref": "熊本県",
    "city": "熊本市南区",
    "category": "community_day_service",
    "serviceType": "地域密着型通所介護",
    "capacity": 10,
    "openDays": [
      "平日",
      "祝日"
    ],
    "openDaysNote": "（年末休み）12月29日から1月3日"
  },
  {
    "id": "4390102319",
    "name": "デイサービス　ここわら　ステップ",
    "kana": "デイサービス　ココワラ　ステップ",
    "address": "熊本県熊本市南区出仲間8丁目1-11",
    "lat": 32.7685204,
    "lng": 130.7183829,
    "tel": "096-285-6015",
    "url": "https://chihiro-fukushi.jp",
    "pref": "熊本県",
    "city": "熊本市南区",
    "category": "community_day_service",
    "serviceType": "地域密着型通所介護",
    "capacity": 10,
    "openDays": [
      "平日",
      "祝日"
    ],
    "openDaysNote": ""
  },
  {
    "id": "4370110258",
    "name": "デイサービス　サンフラワー",
    "kana": "デイサービス　サンフラワー",
    "address": "熊本県熊本市南区城南町隈庄３７６番地",
    "lat": 32.7025775530606,
    "lng": 130.727895132512,
    "tel": "0964‐27‐9902",
    "url": "http://sunsmile2013.co.jp",
    "pref": "熊本県",
    "city": "熊本市南区",
    "category": "community_day_service",
    "serviceType": "地域密着型通所介護",
    "capacity": 15,
    "openDays": [
      "平日",
      "祝日"
    ],
    "openDaysNote": ""
  },
  {
    "id": "4390102574",
    "name": "デイサービス　タカヒロうちだの里",
    "kana": "デイサービス　タカヒロウチダノサト",
    "address": "熊本市南区内田町663-2",
    "lat": 32.7444617,
    "lng": 130.6542524,
    "tel": "096-288-3722",
    "url": "",
    "pref": "熊本県",
    "city": "熊本市南区",
    "category": "community_day_service",
    "serviceType": "地域密着型通所介護",
    "capacity": null,
    "openDays": [
      "平日",
      "祝日"
    ],
    "openDaysNote": "ただし、12/31～1/3までを除く。"
  },
  {
    "id": "4390102830",
    "name": "デイサービス　タカヒロうちだの里",
    "kana": "デイサービス　タカヒロウチダノサト",
    "address": "熊本県熊本市南区内田町663-2",
    "lat": 32.7444617,
    "lng": 130.6542524,
    "tel": "096-288-3722",
    "url": "",
    "pref": "熊本県",
    "city": "熊本市南区",
    "category": "community_day_service",
    "serviceType": "地域密着型通所介護",
    "capacity": null,
    "openDays": [
      "平日",
      "土曜日",
      "祝日"
    ],
    "openDaysNote": "ただし、12/31～1/3までを除く。"
  },
  {
    "id": "4370108781",
    "name": "デイサービス　フォーマルケア夢",
    "kana": "デイサービス　フォーマルケアユメ",
    "address": "熊本市南区御幸笛田2丁目20番56号",
    "lat": 32.7617614790681,
    "lng": 130.706274478435,
    "tel": "096-334-8070",
    "url": "http://yume.hp.gogo.jp/pc/",
    "pref": "熊本県",
    "city": "熊本市南区",
    "category": "community_day_service",
    "serviceType": "地域密着型通所介護",
    "capacity": 10,
    "openDays": [
      "平日",
      "祝日"
    ],
    "openDaysNote": ""
  },
  {
    "id": "4370110464",
    "name": "デイサービス　花スミレ",
    "kana": "デイサービス　ハナスミレ",
    "address": "熊本県熊本市南区砂原町440-4",
    "lat": 32.7640450509354,
    "lng": 130.660221228836,
    "tel": "096-288-3158",
    "url": "",
    "pref": "熊本県",
    "city": "熊本市南区",
    "category": "community_day_service",
    "serviceType": "地域密着型通所介護",
    "capacity": 9,
    "openDays": [
      "平日",
      "土曜日",
      "祝日"
    ],
    "openDaysNote": ""
  },
  {
    "id": "4390103440",
    "name": "デイサービスくれよん",
    "kana": "デイサービスクレヨン",
    "address": "熊本県熊本市南区田井島2丁目2番116号",
    "lat": 32.7646097,
    "lng": 130.718546,
    "tel": "096-378-6043",
    "url": "",
    "pref": "熊本県",
    "city": "熊本市南区",
    "category": "community_day_service",
    "serviceType": "地域密着型通所介護",
    "capacity": 10,
    "openDays": [
      "平日",
      "土曜日",
      "日曜日",
      "祝日"
    ],
    "openDaysNote": ""
  },
  {
    "id": "4372301277",
    "name": "デイサービスセンターいつものところ",
    "kana": "デイサービスセンター　イツモノトコロ",
    "address": "熊本県熊本市南区城南町隈庄648",
    "lat": 32.7076816,
    "lng": 130.7288905,
    "tel": "0964-26-2088",
    "url": "http：//wasoukai.com",
    "pref": "熊本県",
    "city": "熊本市南区",
    "category": "community_day_service",
    "serviceType": "地域密着型通所介護",
    "capacity": 5,
    "openDays": [
      "平日",
      "祝日"
    ],
    "openDaysNote": "なし"
  },
  {
    "id": "4370111835",
    "name": "デイサービスセンター元気もりもり",
    "kana": "デイサービスセンターゲンキモリモリ",
    "address": "熊本県熊本市南区会富町86-3",
    "lat": 32.754407,
    "lng": 130.658372,
    "tel": "096-227-6163",
    "url": "http://genkimorimori-ainoshima.jimdo.com/",
    "pref": "熊本県",
    "city": "熊本市南区",
    "category": "community_day_service",
    "serviceType": "地域密着型通所介護",
    "capacity": 10,
    "openDays": [
      "平日",
      "祝日"
    ],
    "openDaysNote": "営業日は月曜日から金曜日までとする。ただし、12月30日から1月3日までを除く。また、悪天候の際は状況をみて休止する場合あり。"
  },
  {
    "id": "4370108039",
    "name": "デイサービスセンター太陽",
    "kana": "デイサービスセンタータイヨウ",
    "address": "熊本市南区浜口町765-3",
    "lat": 32.7582033,
    "lng": 130.6390815,
    "tel": "096-245-7351",
    "url": "https://www.taiyonowa.co.jp",
    "pref": "熊本県",
    "city": "熊本市南区",
    "category": "community_day_service",
    "serviceType": "地域密着型通所介護",
    "capacity": 18,
    "openDays": [
      "平日",
      "土曜日",
      "日曜日",
      "祝日"
    ],
    "openDaysNote": ""
  },
  {
    "id": "4370110936",
    "name": "デイサービスななみ",
    "kana": "デイサービスナナミ",
    "address": "熊本県熊本市南区富合町杉島1127",
    "lat": 32.7304837161076,
    "lng": 130.67892854523,
    "tel": "096-358-0313",
    "url": "https://www.nanami-himawari.com",
    "pref": "熊本県",
    "city": "熊本市南区",
    "category": "community_day_service",
    "serviceType": "地域密着型通所介護",
    "capacity": null,
    "openDays": [
      "平日",
      "土曜日",
      "祝日"
    ],
    "openDaysNote": ""
  },
  {
    "id": "4370108880",
    "name": "デイサービス吾亦紅",
    "kana": "デイサービスワレモコウ",
    "address": "熊本市南区良町５丁目12番28号デイサービス吾亦紅 デイサービス吾亦紅",
    "lat": 32.7554226882037,
    "lng": 130.719557635151,
    "tel": "096-379-4677",
    "url": "",
    "pref": "熊本県",
    "city": "熊本市南区",
    "category": "community_day_service",
    "serviceType": "地域密着型通所介護",
    "capacity": 10,
    "openDays": [
      "平日",
      "土曜日",
      "祝日"
    ],
    "openDaysNote": ""
  },
  {
    "id": "4390103028",
    "name": "デイサービス昭和クラブ",
    "kana": "デイサービス　ショウワクラブ",
    "address": "熊本県熊本市南区城南町下宮地429-1",
    "lat": 32.7015843,
    "lng": 130.7319747,
    "tel": "0964-27-5963",
    "url": "http://lifecareclub.info",
    "pref": "熊本県",
    "city": "熊本市南区",
    "category": "community_day_service",
    "serviceType": "地域密着型通所介護",
    "capacity": 17,
    "openDays": [
      "平日",
      "土曜日",
      "祝日"
    ],
    "openDaysNote": ""
  },
  {
    "id": "4370110530",
    "name": "デイサービス土河原",
    "kana": "デイサービストガワラ",
    "address": "熊本県熊本市南区土河原町１９９－１",
    "lat": 32.7683585,
    "lng": 130.6668708,
    "tel": "096-223-5221",
    "url": "",
    "pref": "熊本県",
    "city": "熊本市南区",
    "category": "community_day_service",
    "serviceType": "地域密着型通所介護",
    "capacity": 10,
    "openDays": [
      "平日",
      "土曜日",
      "日曜日",
      "祝日"
    ],
    "openDaysNote": "12月31日・1月1日・1月2日は休みとなります。"
  },
  {
    "id": "4370110407",
    "name": "デイハウス　まきの木",
    "kana": "デイハウス　マキノキ",
    "address": "熊本県熊本市南区城南町宮地1040",
    "lat": 32.709017146682,
    "lng": 130.729986603952,
    "tel": "0964-27-5430",
    "url": "",
    "pref": "熊本県",
    "city": "熊本市南区",
    "category": "community_day_service",
    "serviceType": "地域密着型通所介護",
    "capacity": 18,
    "openDays": [
      "平日",
      "土曜日",
      "祝日"
    ],
    "openDaysNote": ""
  },
  {
    "id": "4370108211",
    "name": "みらいデイサービス熊本南",
    "kana": "ミライデイサービスクマモトミナミ",
    "address": "熊本市南区城南町下宮地４２９－１",
    "lat": 32.7015544,
    "lng": 130.7319572,
    "tel": "0964-28-7447",
    "url": "http://www.mirai-day.com",
    "pref": "熊本県",
    "city": "熊本市南区",
    "category": "community_day_service",
    "serviceType": "地域密着型通所介護",
    "capacity": 10,
    "openDays": [
      "平日",
      "土曜日",
      "祝日"
    ],
    "openDaysNote": ""
  },
  {
    "id": "4370105704",
    "name": "リノ・クプナ　紅い華",
    "kana": "リノ・クプナ　アカイハナ",
    "address": "熊本市南区元三3丁目2-13",
    "lat": 32.7391591101026,
    "lng": 130.690199586369,
    "tel": "096-234‐7238",
    "url": "http://akaihana.info/",
    "pref": "熊本県",
    "city": "熊本市南区",
    "category": "community_day_service",
    "serviceType": "地域密着型通所介護",
    "capacity": 10,
    "openDays": [
      "平日",
      "土曜日",
      "祝日"
    ],
    "openDaysNote": "営業日は毎週月～土曜日とする。但し12月31日～1月3日を除く。"
  },
  {
    "id": "4370111512",
    "name": "リハビリテーション強化型　デイサービスセンター　あ・ふる～る",
    "kana": "リハビリテーションキョウカガタ　デイサービスセンター　ア・フルール",
    "address": "熊本県熊本市南区田井島3丁目3-100",
    "lat": 32.7639423570227,
    "lng": 130.722099631213,
    "tel": "096-202-6500",
    "url": "https://a-fleurs.com/",
    "pref": "熊本県",
    "city": "熊本市南区",
    "category": "community_day_service",
    "serviceType": "地域密着型通所介護",
    "capacity": 18,
    "openDays": [
      "平日",
      "土曜日",
      "祝日"
    ],
    "openDaysNote": "月～土までのサービス提供を行っております。祝日も営業しております。"
  },
  {
    "id": "4370111496",
    "name": "リハプライド平成・けやき通り",
    "kana": "リハプライド・ヘイセイケヤキドオリ",
    "address": "田迎5丁目10-5サンセゾン1F サンセゾン1F",
    "lat": 32.7759695878753,
    "lng": 130.715500644991,
    "tel": "096-200-2828",
    "url": "",
    "pref": "熊本県",
    "city": "熊本市南区",
    "category": "community_day_service",
    "serviceType": "地域密着型通所介護",
    "capacity": 0,
    "openDays": [
      "平日",
      "土曜日",
      "祝日"
    ],
    "openDaysNote": ""
  },
  {
    "id": "4372301392",
    "name": "永の郷デイサービスセンター",
    "kana": "ナガノサトデイサービスセンター",
    "address": "熊本市南区城南町永1209",
    "lat": 32.7345229,
    "lng": 130.7235835,
    "tel": "0964-28-7117",
    "url": "",
    "pref": "熊本県",
    "city": "熊本市南区",
    "category": "community_day_service",
    "serviceType": "地域密着型通所介護",
    "capacity": 0,
    "openDays": [
      "平日",
      "土曜日",
      "祝日"
    ],
    "openDaysNote": ""
  },
  {
    "id": "4390103309",
    "name": "永の郷デイサービスセンター",
    "kana": "ナガノサトデイサービスセンター",
    "address": "熊本県熊本市南区城南町永1209",
    "lat": 32.7345323,
    "lng": 130.7236771,
    "tel": "964287117",
    "url": "https://www.tonanunyu.com/holdings",
    "pref": "熊本県",
    "city": "熊本市南区",
    "category": "community_day_service",
    "serviceType": "地域密着型通所介護",
    "capacity": 0,
    "openDays": [
      "平日",
      "土曜日",
      "祝日"
    ],
    "openDaysNote": ""
  },
  {
    "id": "4370108500",
    "name": "社会福祉法人グリーンコープデイサービスセンターゆるりの家・アクア",
    "kana": "シャカイフクシホウジングリーンコープデイサービスセンターユルリノイエ・アクア",
    "address": "熊本市南区島町2丁目１３－６",
    "lat": 32.7660254,
    "lng": 130.6799447,
    "tel": "０９６－３２０－３３５０",
    "url": "http://www.fukusi-greencoop.or.jp",
    "pref": "熊本県",
    "city": "熊本市南区",
    "category": "community_day_service",
    "serviceType": "地域密着型通所介護",
    "capacity": 14,
    "openDays": [
      "平日",
      "土曜日",
      "祝日"
    ],
    "openDaysNote": ""
  },
  {
    "id": "4370107791",
    "name": "樹楽団らんの家白石",
    "kana": "キラクダンランノイエシロイシ",
    "address": "熊本市白石町６９８番地",
    "lat": 32.7525538,
    "lng": 130.6367707,
    "tel": "096-223-5340",
    "url": "",
    "pref": "熊本県",
    "city": "熊本市南区",
    "category": "community_day_service",
    "serviceType": "地域密着型通所介護",
    "capacity": 10,
    "openDays": [
      "平日",
      "土曜日",
      "日曜日",
      "祝日"
    ],
    "openDaysNote": ""
  },
  {
    "id": "4370110803",
    "name": "小規模デイサービス　フクシア",
    "kana": "ショウキボデイサービス　フクシア",
    "address": "熊本県熊本市南区良町5丁目11番12号",
    "lat": 32.7561877556865,
    "lng": 130.720004215344,
    "tel": "096-288-7528",
    "url": "",
    "pref": "熊本県",
    "city": "熊本市南区",
    "category": "community_day_service",
    "serviceType": "地域密着型通所介護",
    "capacity": 9,
    "openDays": [
      "平日",
      "祝日"
    ],
    "openDaysNote": ""
  },
  {
    "id": "4370105795",
    "name": "力合つくし庵デイサービスセンター",
    "kana": "リキゴウツクシアンデイサービスセンター",
    "address": "熊本県熊本市南区合志4丁目3-50",
    "lat": 32.7553993765817,
    "lng": 130.674619284656,
    "tel": "096-357-2940",
    "url": "http://www.sanko-kai.or.jp/",
    "pref": "熊本県",
    "city": "熊本市南区",
    "category": "community_day_service",
    "serviceType": "地域密着型通所介護",
    "capacity": 0,
    "openDays": [
      "平日",
      "土曜日",
      "祝日"
    ],
    "openDaysNote": "－"
  },
  {
    "id": "4390102152",
    "name": "ｙ3ケア",
    "kana": "ワイスリーケア",
    "address": "熊本県熊本市北区龍田２丁目３番３号",
    "lat": 32.8302122,
    "lng": 130.7537777,
    "tel": "096-277-6363",
    "url": "www.seisinkai.co.jp/",
    "pref": "熊本県",
    "city": "熊本市北区",
    "category": "community_day_service",
    "serviceType": "地域密着型通所介護",
    "capacity": 15,
    "openDays": [
      "平日",
      "土曜日",
      "祝日"
    ],
    "openDaysNote": "日曜日以外の祝日は、営業日"
  },
  {
    "id": "4390103382",
    "name": "うえきの郷　通所介護",
    "kana": "ウエキノサト　ツウショカイゴ",
    "address": "熊本県熊本市北区小糸山町752-1",
    "lat": 32.8918033,
    "lng": 130.6922175,
    "tel": "096-275-1600",
    "url": "https://www.uekinosato.terao.or.jp",
    "pref": "熊本県",
    "city": "熊本市北区",
    "category": "community_day_service",
    "serviceType": "地域密着型通所介護",
    "capacity": 0,
    "openDays": [
      "平日",
      "土曜日"
    ],
    "openDaysNote": ""
  },
  {
    "id": "4372500902",
    "name": "げんきやまデイサービス",
    "kana": "ゲンキヤマデイサービス",
    "address": "熊本県熊本市北区植木町伊知坊８８６番地１",
    "lat": 32.9507935,
    "lng": 130.7127004,
    "tel": "096-288-2475",
    "url": "genki-day@email.plala.or.jp",
    "pref": "熊本県",
    "city": "熊本市北区",
    "category": "community_day_service",
    "serviceType": "地域密着型通所介護",
    "capacity": 15,
    "openDays": [
      "平日",
      "祝日"
    ],
    "openDaysNote": ""
  },
  {
    "id": "4370109193",
    "name": "ココロ･コーポレーションとどろきデイサービス",
    "kana": "ココロコーポレーショントドロキデイサービス",
    "address": "熊本市北区植木町轟615番地",
    "lat": 32.8973996,
    "lng": 130.6730095,
    "tel": "０９６－２７２－６５３５",
    "url": "cocoro_todoroki_dei@yahoo.co.jp",
    "pref": "熊本県",
    "city": "熊本市北区",
    "category": "community_day_service",
    "serviceType": "地域密着型通所介護",
    "capacity": 10,
    "openDays": [
      "平日",
      "土曜日",
      "祝日"
    ],
    "openDaysNote": ""
  },
  {
    "id": "4370110613",
    "name": "デイサービス　Natural　walk",
    "kana": "デイサービス　ナチュラルウォーク",
    "address": "熊本県熊本市北区植木町岩野991-1",
    "lat": 32.9054408,
    "lng": 130.6950024,
    "tel": "096-228-8522",
    "url": "",
    "pref": "熊本県",
    "city": "熊本市北区",
    "category": "community_day_service",
    "serviceType": "地域密着型通所介護",
    "capacity": 0,
    "openDays": [
      "平日",
      "土曜日",
      "日曜日",
      "祝日"
    ],
    "openDaysNote": ""
  },
  {
    "id": "4370109359",
    "name": "デイサービス　しんしん",
    "kana": "デイサービス　シンシン",
    "address": "熊本市北区龍田弓削一丁目16番38号",
    "lat": 32.8434916,
    "lng": 130.7653072,
    "tel": "096-348-7150",
    "url": "",
    "pref": "熊本県",
    "city": "熊本市北区",
    "category": "community_day_service",
    "serviceType": "地域密着型通所介護",
    "capacity": 0,
    "openDays": [
      "平日",
      "土曜日",
      "日曜日",
      "祝日"
    ],
    "openDaysNote": ""
  },
  {
    "id": "4390103424",
    "name": "デイサービス　すこあ",
    "kana": "デイサービス　スコア",
    "address": "熊本県熊本市北区龍田9丁目1-84",
    "lat": 32.8436304346284,
    "lng": 130.763303959525,
    "tel": "096-327-8192",
    "url": "096-282-8249",
    "pref": "熊本県",
    "city": "熊本市北区",
    "category": "community_day_service",
    "serviceType": "地域密着型通所介護",
    "capacity": 0,
    "openDays": [
      "平日",
      "土曜日",
      "日曜日",
      "祝日"
    ],
    "openDaysNote": ""
  },
  {
    "id": "4390102988",
    "name": "デイサービス　ぽかぽかの家",
    "kana": "デイサービス　ポカポカノイエ",
    "address": "熊本市北区鹿子木町196",
    "lat": 32.8733458,
    "lng": 130.7013392,
    "tel": "096-288-4671",
    "url": "https://www.pokapokabiyori.com/",
    "pref": "熊本県",
    "city": "熊本市北区",
    "category": "community_day_service",
    "serviceType": "地域密着型通所介護",
    "capacity": 0,
    "openDays": [
      "平日",
      "土曜日",
      "日曜日",
      "祝日"
    ],
    "openDaysNote": ""
  },
  {
    "id": "4390103226",
    "name": "デイサービス　みんなのいえ",
    "kana": "デイサービス　ミンナノイエ",
    "address": "熊本県熊本市北区植木町舞尾597-1元気が出る通いの場　みんなのいえ1階 元気が出る通いの場　みんなのいえ1階",
    "lat": 32.898156541816,
    "lng": 130.690739027088,
    "tel": "096-272-5566",
    "url": "https://www.instagram.com/minnanoie_day/?hl=ja",
    "pref": "熊本県",
    "city": "熊本市北区",
    "category": "community_day_service",
    "serviceType": "地域密着型通所介護",
    "capacity": 0,
    "openDays": [
      "平日",
      "祝日"
    ],
    "openDaysNote": ""
  },
  {
    "id": "4370106520",
    "name": "デイサービスいきいきかじお",
    "kana": "デイサービスイキイキカジオ",
    "address": "熊本市北区梶尾町３０５番地",
    "lat": 32.8717361,
    "lng": 130.7231994,
    "tel": "096-273-6100",
    "url": "",
    "pref": "熊本県",
    "city": "熊本市北区",
    "category": "community_day_service",
    "serviceType": "地域密着型通所介護",
    "capacity": 0,
    "openDays": [
      "平日",
      "土曜日",
      "祝日"
    ],
    "openDaysNote": ""
  },
  {
    "id": "4390103192",
    "name": "デイサービスからいもさん",
    "kana": "デイサービスカライモサン",
    "address": "津浦町30-54",
    "lat": 32.8278636,
    "lng": 130.7130383,
    "tel": "096-227-7761",
    "url": "",
    "pref": "熊本県",
    "city": "熊本市北区",
    "category": "community_day_service",
    "serviceType": "地域密着型通所介護",
    "capacity": 0,
    "openDays": [
      "平日",
      "土曜日"
    ],
    "openDaysNote": ""
  },
  {
    "id": "4390102640",
    "name": "ディサービスセンターCocoa山室",
    "kana": "ディサービスセンターココアヤマムロ",
    "address": "熊本市北区山室１丁目1-23",
    "lat": 32.8391431,
    "lng": 130.710824,
    "tel": "096-354-6789",
    "url": "",
    "pref": "熊本県",
    "city": "熊本市北区",
    "category": "community_day_service",
    "serviceType": "地域密着型通所介護",
    "capacity": 15,
    "openDays": [
      "平日"
    ],
    "openDaysNote": ""
  },
  {
    "id": "4370108120",
    "name": "デイサービスセンターエバーグリーン",
    "kana": "デイサービスセンターエバーグリーン",
    "address": "熊本市鶴羽田一丁目10-1",
    "lat": 32.8559683,
    "lng": 130.7255063,
    "tel": "096-227-6361",
    "url": "www.d-evergreen.com",
    "pref": "熊本県",
    "city": "熊本市北区",
    "category": "community_day_service",
    "serviceType": "地域密着型通所介護",
    "capacity": 0,
    "openDays": [
      "平日",
      "土曜日"
    ],
    "openDaysNote": "施設紹介動画（改行）https://www.youtube.com/watch?v=gUsQHlWOUUg&t=2s"
  },
  {
    "id": "4390102046",
    "name": "デイサービスセンター楽園",
    "kana": "デイサービスセンターラクエン",
    "address": "熊本県熊本市北区貢町4番地２",
    "lat": 32.845877,
    "lng": 130.7062439,
    "tel": "096-321-6208",
    "url": "",
    "pref": "熊本県",
    "city": "熊本市北区",
    "category": "community_day_service",
    "serviceType": "地域密着型通所介護",
    "capacity": 0,
    "openDays": [
      "平日",
      "土曜日",
      "祝日"
    ],
    "openDaysNote": "サービス提供時間は基本として10時半～18時、延長時間として19時まで実施。"
  },
  {
    "id": "4370103717",
    "name": "デイサービスセンター徳王ろまん館",
    "kana": "デイサービスセンタートクオウロマンカン",
    "address": "熊本県熊本市北区徳王1丁目7番6号",
    "lat": 32.840247,
    "lng": 130.7090632,
    "tel": "096-324-0825",
    "url": "http://tokuoromankan.com",
    "pref": "熊本県",
    "city": "熊本市北区",
    "category": "community_day_service",
    "serviceType": "地域密着型通所介護",
    "capacity": 18,
    "openDays": [
      "平日",
      "土曜日",
      "祝日"
    ],
    "openDaysNote": ""
  },
  {
    "id": "4390103374",
    "name": "デイサービスセンター徳王ろまん館",
    "kana": "デイサービスセンタートクオウロマンカン",
    "address": "熊本県熊本市北区徳王１丁目7-6",
    "lat": 32.8401562,
    "lng": 130.709085,
    "tel": "096-324-0825",
    "url": "https://www.tokuoromankan.com/",
    "pref": "熊本県",
    "city": "熊本市北区",
    "category": "community_day_service",
    "serviceType": "地域密着型通所介護",
    "capacity": 0,
    "openDays": [
      "平日",
      "土曜日",
      "祝日"
    ],
    "openDaysNote": "12月31日～１月３日(年末の曜日等により変更)"
  },
  {
    "id": "4370111231",
    "name": "デイサービスたいじゅ",
    "kana": "デイサービスタイジュ",
    "address": "熊本県熊本市北区下硯川町2111-3フェリーチェ進栄1F フェリーチェ進栄1F",
    "lat": 32.8559301324393,
    "lng": 130.709476605604,
    "tel": "096-351-8088",
    "url": "http://www.taiju-yomogi.co.jp/",
    "pref": "熊本県",
    "city": "熊本市北区",
    "category": "community_day_service",
    "serviceType": "地域密着型通所介護",
    "capacity": 0,
    "openDays": [
      "平日",
      "土曜日",
      "祝日"
    ],
    "openDaysNote": ""
  },
  {
    "id": "4370107387",
    "name": "デイサービスまごころ本舗武蔵ヶ丘苑",
    "kana": "デイサービスマゴコロホンポムサシガオカエン",
    "address": "熊本県熊本市北区武蔵ヶ丘1丁目8‐15エクセルハイム1Ｆ エクセルハイム1Ｆ",
    "lat": 32.8503837044571,
    "lng": 130.769016928311,
    "tel": "096-215-2722",
    "url": "http://dr-factory.jp/",
    "pref": "熊本県",
    "city": "熊本市北区",
    "category": "community_day_service",
    "serviceType": "地域密着型通所介護",
    "capacity": 10,
    "openDays": [
      "平日",
      "土曜日",
      "祝日"
    ],
    "openDaysNote": "日曜日以外の祝日（年末年始など）は営業しております。"
  },
  {
    "id": "4390102855",
    "name": "デイサービスマドレ兎谷",
    "kana": "デイサービスマドレウサギダニ",
    "address": "熊本県熊本市北区兎谷１丁目１－１７",
    "lat": 32.8367163364405,
    "lng": 130.728869231877,
    "tel": "096-273-6130",
    "url": "woodlandpass.jp/",
    "pref": "熊本県",
    "city": "熊本市北区",
    "category": "community_day_service",
    "serviceType": "地域密着型通所介護",
    "capacity": 0,
    "openDays": [
      "平日",
      "土曜日",
      "日曜日",
      "祝日"
    ],
    "openDaysNote": ""
  },
  {
    "id": "4390102715",
    "name": "デイサービスりん",
    "kana": "デイサービスリン",
    "address": "熊本県熊本市北区植木町大和78番7",
    "lat": 32.8801574,
    "lng": 130.6730855,
    "tel": "096-285-9231",
    "url": "https://www.goudou-rin.com/",
    "pref": "熊本県",
    "city": "熊本市北区",
    "category": "community_day_service",
    "serviceType": "地域密着型通所介護",
    "capacity": 0,
    "openDays": [
      "平日",
      "土曜日",
      "日曜日",
      "祝日"
    ],
    "openDaysNote": "正月も通常通り営業"
  },
  {
    "id": "4390102947",
    "name": "デイサービス憩",
    "kana": "デイサービス　イコイ",
    "address": "熊本県熊本市北区飛田1丁目9-60",
    "lat": 32.8528591,
    "lng": 130.7131042,
    "tel": "096-341-3501",
    "url": "https://ikoi00.wixsite.com/ikoi/",
    "pref": "熊本県",
    "city": "熊本市北区",
    "category": "community_day_service",
    "serviceType": "地域密着型通所介護",
    "capacity": null,
    "openDays": [
      "平日",
      "祝日"
    ],
    "openDaysNote": "GW、年末年始休暇あり"
  },
  {
    "id": "4370107130",
    "name": "デイサービス高平",
    "kana": "デイサービスタカヒラ",
    "address": "熊本県熊本市北区大窪３丁目１１番４７号",
    "lat": 32.8504879,
    "lng": 130.712835,
    "tel": "096-345-3777",
    "url": "http://www.ikueikai-kumamoto.or.jp/sunvillage/index.htm",
    "pref": "熊本県",
    "city": "熊本市北区",
    "category": "community_day_service",
    "serviceType": "地域密着型通所介護",
    "capacity": 0,
    "openDays": [
      "平日",
      "土曜日",
      "祝日"
    ],
    "openDaysNote": "12/31～1/2は定休日"
  },
  {
    "id": "4390102749",
    "name": "デイサービス和楽家にしざと苑",
    "kana": "デイサービスワガヤニシザトエン",
    "address": "熊本県熊本市北区下硯川町2111-3フェリーチェ進栄1階 フェリーチェ進栄1階",
    "lat": 32.8559133,
    "lng": 130.7094167,
    "tel": "096-326-5333",
    "url": "",
    "pref": "熊本県",
    "city": "熊本市北区",
    "category": "community_day_service",
    "serviceType": "地域密着型通所介護",
    "capacity": 10,
    "openDays": [
      "平日",
      "祝日"
    ],
    "openDaysNote": "年末年始休みあり"
  },
  {
    "id": "4370111413",
    "name": "デイサービス楡木",
    "kana": "デイサービスニレノキ",
    "address": "楡木3丁目10番12号",
    "lat": 32.8472877865006,
    "lng": 130.754238735582,
    "tel": "096-348-7968",
    "url": "",
    "pref": "熊本県",
    "city": "熊本市北区",
    "category": "community_day_service",
    "serviceType": "地域密着型通所介護",
    "capacity": 10,
    "openDays": [
      "平日",
      "土曜日",
      "日曜日",
      "祝日"
    ],
    "openDaysNote": ""
  },
  {
    "id": "4370107064",
    "name": "てとて",
    "kana": "テトテ",
    "address": "熊本県熊本市北区西梶尾町351",
    "lat": 32.8691,
    "lng": 130.7083962,
    "tel": "096-215-9255",
    "url": "http://www.kaigo-enishing.com/",
    "pref": "熊本県",
    "city": "熊本市北区",
    "category": "community_day_service",
    "serviceType": "地域密着型通所介護",
    "capacity": 10,
    "openDays": [
      "平日",
      "祝日"
    ],
    "openDaysNote": ""
  },
  {
    "id": "4370105894",
    "name": "ゆたーっと",
    "kana": "ユターット",
    "address": "熊本市北区龍田2丁目19番1号",
    "lat": 32.8321176,
    "lng": 130.7562471,
    "tel": "096-348-1080",
    "url": "",
    "pref": "熊本県",
    "city": "熊本市北区",
    "category": "community_day_service",
    "serviceType": "地域密着型通所介護",
    "capacity": 0,
    "openDays": [
      "平日",
      "土曜日",
      "祝日"
    ],
    "openDaysNote": ""
  },
  {
    "id": "4370108740",
    "name": "リハビリケアセンター　すまいる",
    "kana": "リハビリケアセンター　スマイル",
    "address": "熊本市北区八景水谷１丁目３３番３７号ロヤルコーポ　ＮＡＫＡＮＯ3階 ロヤルコーポ　ＮＡＫＡＮＯ3階",
    "lat": 32.851227,
    "lng": 130.7241147,
    "tel": "０９６－３４３－７４２１",
    "url": "rsj37908@nifty.com",
    "pref": "熊本県",
    "city": "熊本市北区",
    "category": "community_day_service",
    "serviceType": "地域密着型通所介護",
    "capacity": 0,
    "openDays": [
      "平日",
      "土曜日",
      "祝日"
    ],
    "openDaysNote": ""
  },
  {
    "id": "4370109979",
    "name": "リハビリケアセンター　すまいる新地",
    "kana": "リハビリケアセンター　スマイル　シンチ",
    "address": "熊本市北区清水新地1丁目5-8",
    "lat": 32.8495791246847,
    "lng": 130.732007417197,
    "tel": "096-273-6077",
    "url": "http://relife-aid.com",
    "pref": "熊本県",
    "city": "熊本市北区",
    "category": "community_day_service",
    "serviceType": "地域密着型通所介護",
    "capacity": 14,
    "openDays": [
      "平日",
      "土曜日",
      "祝日"
    ],
    "openDaysNote": ""
  },
  {
    "id": "4390102376",
    "name": "リハビリケアセンター　すまいる新地",
    "kana": "リハビリケアセンタースマイルシンチ",
    "address": "熊本市北区清水新地1-5-8",
    "lat": 32.8495855,
    "lng": 130.7319922,
    "tel": "096-273-6077",
    "url": "http//en-bless.jp",
    "pref": "熊本県",
    "city": "熊本市北区",
    "category": "community_day_service",
    "serviceType": "地域密着型通所介護",
    "capacity": 0,
    "openDays": [
      "平日",
      "土曜日",
      "祝日"
    ],
    "openDaysNote": ""
  },
  {
    "id": "4370111033",
    "name": "リハビリケアセンター　すまいる北部",
    "kana": "リハビリケアセンタースマイルホクブ",
    "address": "熊本県熊本市北区四方寄町612-1",
    "lat": 32.861927869955,
    "lng": 130.711615771828,
    "tel": "096-227-6213",
    "url": "http://relife-aid.com",
    "pref": "熊本県",
    "city": "熊本市北区",
    "category": "community_day_service",
    "serviceType": "地域密着型通所介護",
    "capacity": 18,
    "openDays": [
      "平日",
      "土曜日",
      "祝日"
    ],
    "openDaysNote": ""
  },
  {
    "id": "4390102848",
    "name": "リハビリラウンジGARDEN-ガーデン-",
    "kana": "リハビリラウンジガーデン",
    "address": "熊本県熊本市北区植木町鐙田１０６４－４",
    "lat": 32.8820445,
    "lng": 130.6938487,
    "tel": "096-273-6266",
    "url": "",
    "pref": "熊本県",
    "city": "熊本市北区",
    "category": "community_day_service",
    "serviceType": "地域密着型通所介護",
    "capacity": null,
    "openDays": [
      "平日",
      "土曜日",
      "祝日"
    ],
    "openDaysNote": ""
  },
  {
    "id": "4390102012",
    "name": "熊本県熊本市北区植木町味取96番地4",
    "kana": "クマモトケンクマモトシキタクウエキマチミトリ",
    "address": "熊本県熊本市北区植木町味取96番地4",
    "lat": 32.9216537,
    "lng": 130.6935997,
    "tel": "096-272-3500",
    "url": "",
    "pref": "熊本県",
    "city": "熊本市北区",
    "category": "community_day_service",
    "serviceType": "地域密着型通所介護",
    "capacity": 0,
    "openDays": [
      "平日",
      "日曜日",
      "祝日"
    ],
    "openDaysNote": ""
  },
  {
    "id": "4370107320",
    "name": "元気が出るデイサービス　ウエッキー",
    "kana": "ゲンキガデルデイサービス　ウエッキー",
    "address": "熊本市北区植木町植木555番地ショッピングプラザウエッキー２階 ショッピングプラザウエッキー２階",
    "lat": 32.8969858,
    "lng": 130.6905444,
    "tel": "096-288-3973",
    "url": "http://ugkulabu.exblog.jp/",
    "pref": "熊本県",
    "city": "熊本市北区",
    "category": "community_day_service",
    "serviceType": "地域密着型通所介護",
    "capacity": 150,
    "openDays": [
      "平日",
      "祝日"
    ],
    "openDaysNote": "１２月２９日～１月３日は休業"
  },
  {
    "id": "4390103184",
    "name": "寺尾病院　通所介護",
    "kana": "テラオビョウイン　ツウショカイゴ",
    "address": "改寄町2355-4",
    "lat": 32.8932526,
    "lng": 130.6935068,
    "tel": "096-288-2864",
    "url": "http://www.terao.or.jp",
    "pref": "熊本県",
    "city": "熊本市北区",
    "category": "community_day_service",
    "serviceType": "地域密着型通所介護",
    "capacity": 0,
    "openDays": [
      "平日",
      "土曜日"
    ],
    "openDaysNote": ""
  },
  {
    "id": "4370108336",
    "name": "笑顔あふれるデイサービスのんびり家．石川",
    "kana": "エガオアフレルデイサービスノンビリヤ．イシカワ",
    "address": "熊本県熊本市北区植木町石川473",
    "lat": 32.9107663,
    "lng": 130.7207528,
    "tel": "096-227-6138",
    "url": "http://nonbiriya.space/",
    "pref": "熊本県",
    "city": "熊本市北区",
    "category": "community_day_service",
    "serviceType": "地域密着型通所介護",
    "capacity": 18,
    "openDays": [
      "平日",
      "土曜日",
      "日曜日",
      "祝日"
    ],
    "openDaysNote": ""
  },
  {
    "id": "4370107296",
    "name": "通所介護ひらしま",
    "kana": "ツウショカイゴヒラシマ",
    "address": "熊本市北区植木町米塚４０７－４８",
    "lat": 32.9544432895984,
    "lng": 130.723096128836,
    "tel": "096-274-6086",
    "url": "",
    "pref": "熊本県",
    "city": "熊本市北区",
    "category": "community_day_service",
    "serviceType": "地域密着型通所介護",
    "capacity": 10,
    "openDays": [
      "平日",
      "土曜日",
      "祝日"
    ],
    "openDaysNote": "平成２８年４月より地域密着型通所介護での業務"
  },
  {
    "id": "4390102335",
    "name": "通所介護事業所　つるのはら",
    "kana": "ツウショカイゴジギョウショ　ツルノハラ",
    "address": "熊本県熊本市北区梶尾町1779番7",
    "lat": 32.8676035053987,
    "lng": 130.729299629407,
    "tel": "096-345-1101",
    "url": "http：//www.shafuku-aiseikai.or.jp/",
    "pref": "熊本県",
    "city": "熊本市北区",
    "category": "community_day_service",
    "serviceType": "地域密着型通所介護",
    "capacity": 18,
    "openDays": [
      "平日",
      "土曜日",
      "祝日"
    ],
    "openDaysNote": ""
  },
  {
    "id": "4370105696",
    "name": "通所介護事業所シニアクラブ菱形",
    "kana": "ツウショカイゴジギョウショシニアクラブヒシガタ",
    "address": "熊本県熊本市北区植木町滴水1653-3",
    "lat": 32.883051,
    "lng": 130.6669181,
    "tel": "096-273-5955",
    "url": "http://www.ikueikai-kumamoto.or.jp/kusuno/index.htm",
    "pref": "熊本県",
    "city": "熊本市北区",
    "category": "community_day_service",
    "serviceType": "地域密着型通所介護",
    "capacity": 15,
    "openDays": [
      "平日",
      "土曜日",
      "祝日"
    ],
    "openDaysNote": "12/31～1/2定休日"
  },
  {
    "id": "4370108393",
    "name": "通所介護事業所だんだん",
    "kana": "ツウショカイゴジギョウショ　ダンダン",
    "address": "北区植木町岩野９２７番地4",
    "lat": 32.9053187,
    "lng": 130.6995881,
    "tel": "096-273-3617",
    "url": "",
    "pref": "熊本県",
    "city": "熊本市北区",
    "category": "community_day_service",
    "serviceType": "地域密着型通所介護",
    "capacity": 0,
    "openDays": [
      "平日",
      "土曜日",
      "祝日"
    ],
    "openDaysNote": ""
  },
  {
    "id": "4370107874",
    "name": "徳王ヒルズ",
    "kana": "トクオウヒルズ",
    "address": "熊本市北区徳王２－１－６７",
    "lat": 32.8425468,
    "lng": 130.7092604,
    "tel": "096-227-6565",
    "url": "https://tokuou.nakamura-seikei.or.jp",
    "pref": "熊本県",
    "city": "熊本市北区",
    "category": "community_day_service",
    "serviceType": "地域密着型通所介護",
    "capacity": 0,
    "openDays": [
      "平日",
      "祝日"
    ],
    "openDaysNote": ""
  },
  {
    "id": "4373100496",
    "name": "五木村社協介護サービスセンター",
    "kana": "イツキムラシャキョウカイゴサービスセンター",
    "address": "熊本県球磨郡五木村甲字下手２６７２番地の４１",
    "lat": 32.3985819,
    "lng": 130.8279246,
    "tel": "0966-37-2333",
    "url": "",
    "pref": "熊本県",
    "city": "五木村",
    "category": "community_day_service",
    "serviceType": "地域密着型通所介護",
    "capacity": 10,
    "openDays": [
      "平日",
      "土曜日",
      "祝日"
    ],
    "openDaysNote": ""
  },
  {
    "id": "4372800955",
    "name": "デイサービス福老",
    "kana": "デイサービスフクロウ",
    "address": "熊本県上益城郡御船町滝川1427－4",
    "lat": 32.7142736,
    "lng": 130.7881506,
    "tel": "096-281-7703",
    "url": "http://seseragi.care.kumamoto.jp",
    "pref": "熊本県",
    "city": "御船町",
    "category": "community_day_service",
    "serviceType": "地域密着型通所介護",
    "capacity": 0,
    "openDays": [
      "平日",
      "土曜日",
      "日曜日",
      "祝日"
    ],
    "openDaysNote": ""
  },
  {
    "id": "4372801672",
    "name": "デイ・サービスセンター　松樹苑",
    "kana": "デイ・サービスセンター　ショウジュエン",
    "address": "上益城郡甲佐町岩下４９番地松樹苑 松樹苑",
    "lat": 32.65191235321,
    "lng": 130.810698300803,
    "tel": "０９６－２３４－５１３０",
    "url": "ｈｔｔｐ：／／ｗｗｗ．ｙａｔｓｕｄａ．ｋａｉ．ｊｐ",
    "pref": "熊本県",
    "city": "甲佐町",
    "category": "community_day_service",
    "serviceType": "地域密着型通所介護",
    "capacity": 18,
    "openDays": [
      "平日",
      "土曜日",
      "祝日"
    ],
    "openDaysNote": ""
  },
  {
    "id": "4370401103",
    "name": "いにしえ地域密着型通所介護事業所",
    "kana": "イニシエチイキミツチャクガタツウショカイゴジギョウショ",
    "address": "熊本県荒尾市菰屋2031番地10－2",
    "lat": 32.9675601817398,
    "lng": 130.46529648532,
    "tel": "0968-68-5222",
    "url": "contact@enai.co.jp",
    "pref": "熊本県",
    "city": "荒尾市",
    "category": "community_day_service",
    "serviceType": "地域密着型通所介護",
    "capacity": 0,
    "openDays": [
      "平日",
      "土曜日",
      "祝日"
    ],
    "openDaysNote": "特になし"
  },
  {
    "id": "4370401400",
    "name": "さくらガーデン",
    "kana": "サクラガーデン",
    "address": "熊本県荒尾市西原町三丁目６番１７号",
    "lat": 33.0028448848675,
    "lng": 130.431420513492,
    "tel": "0968-57-8585",
    "url": "",
    "pref": "熊本県",
    "city": "荒尾市",
    "category": "community_day_service",
    "serviceType": "地域密着型通所介護",
    "capacity": 8,
    "openDays": [
      "平日"
    ],
    "openDaysNote": "午前の部（９時３０分～１２時３０分）・午後の部（１３時３０分～１６時３０分）（改行）総合事業(要支援者及び事業対象者)も同じ時間帯で利用有り"
  },
  {
    "id": "4370400709",
    "name": "デイサービス　陽だまり",
    "kana": "デイサービス　ヒダマリ",
    "address": "熊本県荒尾市宮内９７８番地４",
    "lat": 32.9885049,
    "lng": 130.4446854,
    "tel": "0968-64-7480",
    "url": "",
    "pref": "熊本県",
    "city": "荒尾市",
    "category": "community_day_service",
    "serviceType": "地域密着型通所介護",
    "capacity": 15,
    "openDays": [
      "平日",
      "土曜日",
      "祝日"
    ],
    "openDaysNote": "但し、特別の需要がある場合はこの限りではない"
  },
  {
    "id": "4370401376",
    "name": "紙ふうせん　ラ・ラ・ラ",
    "kana": "カミフウセン　ラ・ラ・ラ",
    "address": "熊本県荒尾市大島町３丁目１５番７",
    "lat": 33.0007515554147,
    "lng": 130.429609944358,
    "tel": "0968-57-8285",
    "url": "http://hp.kaipoke.biz/m9k/",
    "pref": "熊本県",
    "city": "荒尾市",
    "category": "community_day_service",
    "serviceType": "地域密着型通所介護",
    "capacity": 10,
    "openDays": [
      "平日",
      "祝日"
    ],
    "openDaysNote": "週/3回の営業"
  },
  {
    "id": "4372701328",
    "name": "ひめゆりデイサービスセンター",
    "kana": "ヒメユリデイサービスセンター",
    "address": "熊本県阿蘇郡高森町大字高森993番地8",
    "lat": 32.8161852,
    "lng": 131.1225445,
    "tel": "0967-62-1001",
    "url": "http://www.baikouen.com",
    "pref": "熊本県",
    "city": "高森町",
    "category": "community_day_service",
    "serviceType": "地域密着型通所介護",
    "capacity": 18,
    "openDays": [
      "平日",
      "土曜日",
      "日曜日",
      "祝日"
    ],
    "openDaysNote": "年中無休。ただし天災その他やむを得ず業務を遂行できない日は、臨時休業する場合がある。"
  },
  {
    "id": "4371600109",
    "name": "きくどみ",
    "kana": "キクドミ",
    "address": "熊本県合志市幾久富１６４７番地６２",
    "lat": 32.8717002,
    "lng": 130.7828909,
    "tel": "096-223-8102",
    "url": "",
    "pref": "熊本県",
    "city": "合志市",
    "category": "community_day_service",
    "serviceType": "地域密着型通所介護",
    "capacity": 0,
    "openDays": [
      "平日",
      "土曜日",
      "祝日"
    ],
    "openDaysNote": ""
  },
  {
    "id": "4371600356",
    "name": "デイサービスセンター　大地の里　えがお",
    "kana": "デイサービスセンター　ダイチノサト　エガオ",
    "address": "熊本県合志市須屋2670番地3",
    "lat": 32.8773044916927,
    "lng": 130.746610571828,
    "tel": "096-242-0111",
    "url": "daichi-egao.com",
    "pref": "熊本県",
    "city": "合志市",
    "category": "community_day_service",
    "serviceType": "地域密着型通所介護",
    "capacity": 17,
    "openDays": [
      "平日",
      "土曜日",
      "祝日"
    ],
    "openDaysNote": ""
  },
  {
    "id": "4371600414",
    "name": "デイサービス和楽家ののしま苑",
    "kana": "デイサービスワガヤノノシマエン",
    "address": "熊本県合志市野々島1601-6",
    "lat": 32.9075526,
    "lng": 130.7258969,
    "tel": "096-245-6255",
    "url": "http://www.wagaya-day.com",
    "pref": "熊本県",
    "city": "合志市",
    "category": "community_day_service",
    "serviceType": "地域密着型通所介護",
    "capacity": 10,
    "openDays": [
      "平日",
      "土曜日",
      "祝日"
    ],
    "openDaysNote": "年末年始休みあり"
  },
  {
    "id": "4391600121",
    "name": "デイサービス和楽家ふくはら苑",
    "kana": "デイサービスワガヤフクハラエン",
    "address": "熊本県合志市福原2242-1",
    "lat": 32.8879748,
    "lng": 130.8004742,
    "tel": "096-288-5242",
    "url": "http://www.wagaya-day.com/",
    "pref": "熊本県",
    "city": "合志市",
    "category": "community_day_service",
    "serviceType": "地域密着型通所介護",
    "capacity": 18,
    "openDays": [
      "平日",
      "土曜日",
      "祝日"
    ],
    "openDaysNote": "年末年始休みあり"
  },
  {
    "id": "4372500563",
    "name": "あやすぎデイサービスセンター",
    "kana": "アヤスギデイサービスセンター",
    "address": "熊本県山鹿市鹿北町岩野５４９７番地２",
    "lat": 33.1082473,
    "lng": 130.6894727,
    "tel": "0968-32-2117",
    "url": "http://www.ayasugisou.com",
    "pref": "熊本県",
    "city": "山鹿市",
    "category": "community_day_service",
    "serviceType": "地域密着型通所介護",
    "capacity": 0,
    "openDays": [
      "平日",
      "土曜日",
      "祝日"
    ],
    "openDaysNote": ""
  },
  {
    "id": "4370800916",
    "name": "デイサービスゆた～と",
    "kana": "デイサービスユタ～ト",
    "address": "熊本県山鹿市鹿本町来民５８４番地４",
    "lat": 33.0016802,
    "lng": 130.7349305,
    "tel": "0968-46-2469",
    "url": "",
    "pref": "熊本県",
    "city": "山鹿市",
    "category": "community_day_service",
    "serviceType": "地域密着型通所介護",
    "capacity": 10,
    "openDays": [
      "平日",
      "祝日"
    ],
    "openDaysNote": ""
  },
  {
    "id": "4370800932",
    "name": "元気が出るデイサービス　温泉プラザ",
    "kana": "ゲンキガデル　デイサービス　オンセンプラザ",
    "address": "熊本県山鹿市山鹿１番地",
    "lat": 33.0143753,
    "lng": 130.6906702,
    "tel": "0968-36-9238",
    "url": "",
    "pref": "熊本県",
    "city": "山鹿市",
    "category": "community_day_service",
    "serviceType": "地域密着型通所介護",
    "capacity": 15,
    "openDays": [
      "平日",
      "祝日"
    ],
    "openDaysNote": "その他必要と認められる日"
  },
  {
    "id": "4370801120",
    "name": "合同会社山鹿ヘルスケアセンター",
    "kana": "ゴウドウカイシャヤマガヘルスケアセンター",
    "address": "山鹿１００－１０住宅型有料老人ホームこもれびの郷 住宅型有料老人ホームこもれびの郷",
    "lat": 33.0108033,
    "lng": 130.6899203,
    "tel": "0968-43-8875",
    "url": "",
    "pref": "熊本県",
    "city": "山鹿市",
    "category": "community_day_service",
    "serviceType": "地域密着型通所介護",
    "capacity": 15,
    "openDays": [
      "平日",
      "土曜日",
      "祝日"
    ],
    "openDaysNote": ""
  },
  {
    "id": "4370801005",
    "name": "社会福祉法人ｸﾞﾘｰﾝｺｰﾌﾟデイサービスセンター　ゆるりの家山鹿",
    "kana": "シャカイフクシホウジングリーンコープデイサービスセンターユルリノイエヤマガ",
    "address": "山鹿市久原３８２５－２",
    "lat": 33.0231946,
    "lng": 130.7119568,
    "tel": "０９６８－３６－９９３７",
    "url": "j0yamaga@greencoop.or.jp",
    "pref": "熊本県",
    "city": "山鹿市",
    "category": "community_day_service",
    "serviceType": "地域密着型通所介護",
    "capacity": 10,
    "openDays": [
      "平日",
      "土曜日",
      "祝日"
    ],
    "openDaysNote": ""
  },
  {
    "id": "4370800767",
    "name": "通所介護　よかとこデイ",
    "kana": "ツウショカイゴ　ヨカトコデイ",
    "address": "熊本県山鹿市山鹿３９",
    "lat": 33.0136892,
    "lng": 130.6900564,
    "tel": "0968-44-1228",
    "url": "http://www.ipponmatu.com/",
    "pref": "熊本県",
    "city": "山鹿市",
    "category": "community_day_service",
    "serviceType": "地域密着型通所介護",
    "capacity": 0,
    "openDays": [
      "平日",
      "祝日"
    ],
    "openDaysNote": ""
  },
  {
    "id": "4370800783",
    "name": "有限会社　サカイケアセンター　もみじ荘",
    "kana": "ユウゲンガイシャ　サカイケアセンター　モミジソウ",
    "address": "熊本県山鹿市菊鹿町木野3873-1",
    "lat": 33.0223172,
    "lng": 130.7785072,
    "tel": "0968-48-5011",
    "url": "",
    "pref": "熊本県",
    "city": "山鹿市",
    "category": "community_day_service",
    "serviceType": "地域密着型通所介護",
    "capacity": 0,
    "openDays": [
      "平日",
      "祝日"
    ],
    "openDaysNote": "祝日が月曜日～金曜日に当たる場合は営業"
  },
  {
    "id": "4372801326",
    "name": "デイサービスやすなが",
    "kana": "デイサービスヤスナガ",
    "address": "上益城郡山都町浜町259-20",
    "lat": 32.6831221,
    "lng": 130.9858441,
    "tel": "0967-72-4231",
    "url": "",
    "pref": "熊本県",
    "city": "山都町",
    "category": "community_day_service",
    "serviceType": "地域密着型通所介護",
    "capacity": 18,
    "openDays": [
      "平日",
      "祝日"
    ],
    "openDaysNote": "年末年始　12月29日～1月3日、夏季休暇　8月13日～15日は休み"
  },
  {
    "id": "4372801243",
    "name": "大地",
    "kana": "ダイチ",
    "address": "熊本県上益城郡山都町下馬尾299-1",
    "lat": 32.6855413,
    "lng": 130.9869384,
    "tel": "0967-72-0050",
    "url": "",
    "pref": "熊本県",
    "city": "山都町",
    "category": "community_day_service",
    "serviceType": "地域密着型通所介護",
    "capacity": null,
    "openDays": [
      "平日",
      "土曜日",
      "祝日"
    ],
    "openDaysNote": "管理者が必要と認めた場合は、営業日・営業時間及び休業日・休業時間を変更することができる。"
  },
  {
    "id": "4392800282",
    "name": "地域共生型デイサービスそようの森",
    "kana": "チイキキョウセイガタデイサービスソヨウノモリ",
    "address": "熊本県上益城郡山都町今５００山都町役場蘇陽支所内 山都町役場蘇陽支所内",
    "lat": 32.7247083,
    "lng": 131.1659741,
    "tel": "0967-72-9888",
    "url": "https://soyounomori.himawari-corporation.info",
    "pref": "熊本県",
    "city": "山都町",
    "category": "community_day_service",
    "serviceType": "地域密着型通所介護",
    "capacity": null,
    "openDays": [
      "平日"
    ],
    "openDaysNote": ""
  },
  {
    "id": "4372801540",
    "name": "風ノ木デイサービス",
    "kana": "フウノキデイサービス",
    "address": "熊本県上益城郡山都町千滝211",
    "lat": 32.6809223,
    "lng": 130.9837249,
    "tel": "0967-72-3401",
    "url": "https://www.tokuseikai.org",
    "pref": "熊本県",
    "city": "山都町",
    "category": "community_day_service",
    "serviceType": "地域密着型通所介護",
    "capacity": 0,
    "openDays": [
      "平日",
      "土曜日",
      "祝日"
    ],
    "openDaysNote": ""
  },
  {
    "id": "4372701286",
    "name": "デイサービス　みなみだ荘",
    "kana": "デイサービス　ミナミダソウ",
    "address": "熊本県阿蘇郡小国町宮原１１番の３",
    "lat": 33.1148876,
    "lng": 131.0695999,
    "tel": "0967-46-3691",
    "url": "",
    "pref": "熊本県",
    "city": "小国町",
    "category": "community_day_service",
    "serviceType": "地域密着型通所介護",
    "capacity": 10,
    "openDays": [
      "平日",
      "土曜日",
      "祝日"
    ],
    "openDaysNote": "自然災害等での急な休業あり"
  },
  {
    "id": "4372701369",
    "name": "みなみだ祥苑",
    "kana": "ミナミダショウエン",
    "address": "熊本県阿蘇郡小国町宮原　１１－３みなみだ祥苑 みなみだ祥苑",
    "lat": 33.1148876,
    "lng": 131.0695999,
    "tel": "0967-46-3691",
    "url": "",
    "pref": "熊本県",
    "city": "小国町",
    "category": "community_day_service",
    "serviceType": "地域密着型通所介護",
    "capacity": 10,
    "openDays": [
      "平日",
      "土曜日",
      "祝日"
    ],
    "openDaysNote": "自然災害等により、営業を休止する場合有り"
  },
  {
    "id": "4392700193",
    "name": "リハビリ特化型デイサービス　リスタ",
    "kana": "リハビリトッカガタデイサービス　リスタ",
    "address": "熊本県阿蘇郡小国町大字宮原2033-4",
    "lat": 33.1202761,
    "lng": 131.0662026,
    "tel": "0967-46-3889",
    "url": "https://bestreve.jp/",
    "pref": "熊本県",
    "city": "小国町",
    "category": "community_day_service",
    "serviceType": "地域密着型通所介護",
    "capacity": 18,
    "openDays": [
      "平日",
      "土曜日",
      "祝日"
    ],
    "openDaysNote": ""
  },
  {
    "id": "4371200116",
    "name": "デイサービス　風花",
    "kana": "デイサービス　カザハナ",
    "address": "熊本県上天草市姫戸町姫浦６５２－１",
    "lat": 32.4336538,
    "lng": 130.4055324,
    "tel": "0969-58-3110",
    "url": "",
    "pref": "熊本県",
    "city": "上天草市",
    "category": "community_day_service",
    "serviceType": "地域密着型通所介護",
    "capacity": 0,
    "openDays": [
      "平日",
      "祝日"
    ],
    "openDaysNote": ""
  },
  {
    "id": "4371200181",
    "name": "デイサービスセンター　じいちゃん家",
    "kana": "デイサービスセンター　ジイチャンチ",
    "address": "熊本県上天草市大矢野町登立１２９８６番地３",
    "lat": 32.5940101128375,
    "lng": 130.439803379901,
    "tel": "0964-56-2112",
    "url": "",
    "pref": "熊本県",
    "city": "上天草市",
    "category": "community_day_service",
    "serviceType": "地域密着型通所介護",
    "capacity": 0,
    "openDays": [
      "平日",
      "土曜日",
      "日曜日",
      "祝日"
    ],
    "openDaysNote": ""
  },
  {
    "id": "4391200120",
    "name": "ひかりの園教良木デイホーム",
    "kana": "ヒカリノソノキョウラギデイホーム",
    "address": "熊本県上天草市松島町教良木字丸山2965番3",
    "lat": 32.4650977,
    "lng": 130.3702423,
    "tel": "0969-57-0555",
    "url": "ｈｉｋａｒｉ＠ｄ7.ｄｉｏｎ.ｎｅ.ｊｐ",
    "pref": "熊本県",
    "city": "上天草市",
    "category": "community_day_service",
    "serviceType": "地域密着型通所介護",
    "capacity": 0,
    "openDays": [
      "平日",
      "祝日"
    ],
    "openDaysNote": "12/30～1/2"
  },
  {
    "id": "4391200229",
    "name": "維和デイサービスセンター",
    "kana": "イワデイサービスセンター",
    "address": "熊本県上天草市大矢野町維和1799番地１",
    "lat": 32.5743454,
    "lng": 130.4651789,
    "tel": "0694-26-7800",
    "url": "",
    "pref": "熊本県",
    "city": "上天草市",
    "category": "community_day_service",
    "serviceType": "地域密着型通所介護",
    "capacity": 18,
    "openDays": [
      "平日",
      "土曜日",
      "祝日"
    ],
    "openDaysNote": ""
  },
  {
    "id": "4370301196",
    "name": "デイサービス　ねがい",
    "kana": "デイサービス　ネガイ",
    "address": "熊本県人吉市下田代町字仮山1144番地",
    "lat": 32.1734263,
    "lng": 130.8071895,
    "tel": "0966-25-3355",
    "url": "",
    "pref": "熊本県",
    "city": "人吉市",
    "category": "community_day_service",
    "serviceType": "地域密着型通所介護",
    "capacity": 0,
    "openDays": [
      "平日",
      "土曜日",
      "祝日"
    ],
    "openDaysNote": ""
  },
  {
    "id": "4370300958",
    "name": "デイサービス　はっぴーらいふ",
    "kana": "デイサービス　ハッピーライフ",
    "address": "熊本県人吉市下原田町字荒毛１５１６‐１",
    "lat": 32.2290378,
    "lng": 130.7251431,
    "tel": "0966-24-1809",
    "url": "",
    "pref": "熊本県",
    "city": "人吉市",
    "category": "community_day_service",
    "serviceType": "地域密着型通所介護",
    "capacity": 0,
    "openDays": [
      "平日",
      "土曜日",
      "祝日"
    ],
    "openDaysNote": "年末年始（12月31日から1月3日まで）"
  },
  {
    "id": "4370301006",
    "name": "デイサービスセンター　アゼリア",
    "kana": "デイサービスセンター　アゼリア",
    "address": "熊本県人吉市蟹作町3690番地",
    "lat": 32.1955986592642,
    "lng": 130.774900363724,
    "tel": "0966-32-9350",
    "url": "http://www.tsutsumi-hospital.jp",
    "pref": "熊本県",
    "city": "人吉市",
    "category": "community_day_service",
    "serviceType": "地域密着型通所介護",
    "capacity": 18,
    "openDays": [
      "平日",
      "土曜日",
      "祝日"
    ],
    "openDaysNote": "担当職員が不在の場合は、他の施設職員が応対し、引き継ぐ形を取っている。"
  },
  {
    "id": "4390300616",
    "name": "デイサービスセンター平井",
    "kana": "デイサービスセンターヒライ",
    "address": "熊本県人吉市下林町204-2",
    "lat": 32.2198499,
    "lng": 130.7351091,
    "tel": "0966-24-8220",
    "url": "http://hiraior.com/",
    "pref": "熊本県",
    "city": "人吉市",
    "category": "community_day_service",
    "serviceType": "地域密着型通所介護",
    "capacity": 18,
    "openDays": [
      "平日",
      "土曜日",
      "祝日"
    ],
    "openDaysNote": ""
  },
  {
    "id": "4370301147",
    "name": "デイサービスはっぴーらいふ西間",
    "kana": "デイサービスハッピーライフニシアイダ",
    "address": "熊本県人吉市西間下町字高見726番3",
    "lat": 32.2011157342285,
    "lng": 130.757209624014,
    "tel": "0966-32-9841",
    "url": "",
    "pref": "熊本県",
    "city": "人吉市",
    "category": "community_day_service",
    "serviceType": "地域密着型通所介護",
    "capacity": 0,
    "openDays": [
      "平日",
      "土曜日",
      "祝日"
    ],
    "openDaysNote": ""
  },
  {
    "id": "4370500607",
    "name": "デイサービスセンター　長寿村",
    "kana": "デイサービスセンター　チョウジュムラ",
    "address": "熊本県水俣市陣内２－４－１１",
    "lat": 32.2073945,
    "lng": 130.4125666,
    "tel": "0966-62-1125",
    "url": "",
    "pref": "熊本県",
    "city": "水俣市",
    "category": "community_day_service",
    "serviceType": "地域密着型通所介護",
    "capacity": 0,
    "openDays": [
      "平日"
    ],
    "openDaysNote": ""
  },
  {
    "id": "4370500912",
    "name": "デイサービス水灯",
    "kana": "デイサービスミナアカリ",
    "address": "熊本県水俣市旭町１－２－１２百楽苑内（１階） 百楽苑内（１階）",
    "lat": 32.208483,
    "lng": 130.4013152,
    "tel": "0966－84－9801",
    "url": "http://zennsaikai-hyakurakuen.jimdo.com",
    "pref": "熊本県",
    "city": "水俣市",
    "category": "community_day_service",
    "serviceType": "地域密着型通所介護",
    "capacity": 18,
    "openDays": [
      "平日",
      "土曜日",
      "祝日"
    ],
    "openDaysNote": "特になし"
  },
  {
    "id": "4370500870",
    "name": "通所介護事業所　ビハーラまどか",
    "kana": "ツウショカイゴジギョウショ　ビハーラマドカ",
    "address": "熊本県水俣市石坂川113番2",
    "lat": 32.1622396,
    "lng": 130.4792846,
    "tel": "0966-67-1288",
    "url": "http://syotoku.jp",
    "pref": "熊本県",
    "city": "水俣市",
    "category": "community_day_service",
    "serviceType": "地域密着型通所介護",
    "capacity": 0,
    "openDays": [
      "平日",
      "祝日"
    ],
    "openDaysNote": "土曜日及び日曜日と１２月２９日から翌年１月３日までが定休日です。"
  },
  {
    "id": "4393100245",
    "name": "デイサービスセンターかわべ",
    "kana": "デイサービスセンターカワベ",
    "address": "熊本県球磨郡相良村大字川辺１７６４番地",
    "lat": 32.2566463,
    "lng": 130.8165107,
    "tel": "0966-35-0612",
    "url": "https://www.pe-toru.or.jp/",
    "pref": "熊本県",
    "city": "相良村",
    "category": "community_day_service",
    "serviceType": "地域密着型通所介護",
    "capacity": null,
    "openDays": [
      "平日",
      "土曜日",
      "祝日"
    ],
    "openDaysNote": "元旦以外の祝日については対応可"
  },
  {
    "id": "4393100195",
    "name": "デイサービスセンター　きずな",
    "kana": "デイサービスセンター　キズナ",
    "address": "熊本県球磨郡多良木町大字黒肥地２０３８番地３",
    "lat": 32.2811074,
    "lng": 130.9520403,
    "tel": "0966-35-6881",
    "url": "",
    "pref": "熊本県",
    "city": "多良木町",
    "category": "community_day_service",
    "serviceType": "地域密着型通所介護",
    "capacity": 15,
    "openDays": [
      "平日",
      "土曜日",
      "祝日"
    ],
    "openDaysNote": "年末年始"
  },
  {
    "id": "4392600278",
    "name": "デイサービス　きよまろ",
    "kana": "デイサービス　キヨマロ",
    "address": "熊本県菊池郡大津町大字杉水433番地",
    "lat": 32.9204427,
    "lng": 130.8439305,
    "tel": "096-273-8510",
    "url": "",
    "pref": "熊本県",
    "city": "大津町",
    "category": "community_day_service",
    "serviceType": "地域密着型通所介護",
    "capacity": null,
    "openDays": [
      "平日"
    ],
    "openDaysNote": ""
  },
  {
    "id": "4392600153",
    "name": "デイサービス　まごころ本舗　大津苑",
    "kana": "デイサービス　マゴコロホンポ　オオヅエン",
    "address": "熊本県菊池郡大津町下町162",
    "lat": 32.856015,
    "lng": 130.8609324,
    "tel": "096-288-7191",
    "url": "https://www.dr-factory.jp/",
    "pref": "熊本県",
    "city": "大津町",
    "category": "community_day_service",
    "serviceType": "地域密着型通所介護",
    "capacity": 0,
    "openDays": [
      "平日",
      "土曜日",
      "日曜日",
      "祝日"
    ],
    "openDaysNote": ""
  },
  {
    "id": "4392600229",
    "name": "デイサービス　絆",
    "kana": "デイサービス　キズナ",
    "address": "熊本県菊池郡大津町平川1257-21",
    "lat": 32.9011745,
    "lng": 130.8571145,
    "tel": "096-288-7988",
    "url": "hp.kaipoke.biz/k2h",
    "pref": "熊本県",
    "city": "大津町",
    "category": "community_day_service",
    "serviceType": "地域密着型通所介護",
    "capacity": 10,
    "openDays": [
      "平日",
      "土曜日",
      "祝日"
    ],
    "openDaysNote": ""
  },
  {
    "id": "4392600161",
    "name": "デイサービスＣｏＣｏスタ",
    "kana": "デイサービスココスタ",
    "address": "熊本県菊池郡大津町大字陣内６３８番地4",
    "lat": 32.864252,
    "lng": 130.8761406,
    "tel": "096-285-3317",
    "url": "http://hidamariiwasaka.com",
    "pref": "熊本県",
    "city": "大津町",
    "category": "community_day_service",
    "serviceType": "地域密着型通所介護",
    "capacity": 0,
    "openDays": [
      "平日",
      "土曜日",
      "祝日"
    ],
    "openDaysNote": ""
  },
  {
    "id": "4392600146",
    "name": "デイサービスおおばやし",
    "kana": "デイサービスオオバヤシ",
    "address": "熊本県菊池郡大津町大林780-2",
    "lat": 32.8838877,
    "lng": 130.9067611,
    "tel": "096-237-9000",
    "url": "",
    "pref": "熊本県",
    "city": "大津町",
    "category": "community_day_service",
    "serviceType": "地域密着型通所介護",
    "capacity": 0,
    "openDays": [
      "平日",
      "土曜日",
      "日曜日",
      "祝日"
    ],
    "openDaysNote": ""
  },
  {
    "id": "4372601742",
    "name": "デイサービス菊阿",
    "kana": "デイサービスキクア",
    "address": "熊本県菊池郡大津町大林785-6",
    "lat": 32.8719613,
    "lng": 130.9149689,
    "tel": "096-292-9011",
    "url": "",
    "pref": "熊本県",
    "city": "大津町",
    "category": "community_day_service",
    "serviceType": "地域密着型通所介護",
    "capacity": 0,
    "openDays": [
      "平日",
      "土曜日",
      "祝日"
    ],
    "openDaysNote": ""
  },
  {
    "id": "4372601767",
    "name": "デイサービス祐",
    "kana": "デイサービスユウ",
    "address": "熊本県菊池郡大津町室1267-1",
    "lat": 32.8825964611732,
    "lng": 130.857144358341,
    "tel": "096-237-7225",
    "url": "",
    "pref": "熊本県",
    "city": "大津町",
    "category": "community_day_service",
    "serviceType": "地域密着型通所介護",
    "capacity": 18,
    "openDays": [
      "平日",
      "土曜日",
      "祝日"
    ],
    "openDaysNote": ""
  },
  {
    "id": "4372401366",
    "name": "デイサービスセンターきんぎょ",
    "kana": "デイサービスセンターキンギョ",
    "address": "熊本県玉名郡長洲町大字長洲１３２５番地",
    "lat": 32.934022,
    "lng": 130.4466001,
    "tel": "0968-78-3940",
    "url": "",
    "pref": "熊本県",
    "city": "長洲町",
    "category": "community_day_service",
    "serviceType": "地域密着型通所介護",
    "capacity": 0,
    "openDays": [
      "平日",
      "祝日"
    ],
    "openDaysNote": ""
  },
  {
    "id": "4372401374",
    "name": "デイサービスセンター心の花",
    "kana": "デイサービスセンターココロノハナ",
    "address": "熊本県玉名郡長洲町長洲2339-1",
    "lat": 32.9308972,
    "lng": 130.4460307,
    "tel": "0968-78-0063",
    "url": "https://gekka-en.com/",
    "pref": "熊本県",
    "city": "長洲町",
    "category": "community_day_service",
    "serviceType": "地域密着型通所介護",
    "capacity": 0,
    "openDays": [
      "平日",
      "土曜日",
      "日曜日",
      "祝日"
    ],
    "openDaysNote": "サービス提供時間は9時30分～16時00分。延長サービス可能時間帯は運営規定に明記している。"
  },
  {
    "id": "4371500739",
    "name": "デイサービス　海辺ん家",
    "kana": "デイサービス　ウミベンイエ",
    "address": "熊本県天草市御所浦町御所浦2936番地9",
    "lat": 32.3500194,
    "lng": 130.3517293,
    "tel": "0969-67-2618",
    "url": "",
    "pref": "熊本県",
    "city": "天草市",
    "category": "community_day_service",
    "serviceType": "地域密着型通所介護",
    "capacity": null,
    "openDays": [
      "平日",
      "祝日"
    ],
    "openDaysNote": ""
  },
  {
    "id": "4370700645",
    "name": "デイサービス　百の郷",
    "kana": "デイサービス　モモノサト",
    "address": "熊本県天草市志柿町５３９９番地６６",
    "lat": 32.4373699,
    "lng": 130.2099961,
    "tel": "0969-22-9177",
    "url": "",
    "pref": "熊本県",
    "city": "天草市",
    "category": "community_day_service",
    "serviceType": "地域密着型通所介護",
    "capacity": 0,
    "openDays": [
      "平日",
      "祝日"
    ],
    "openDaysNote": ""
  },
  {
    "id": "4391500479",
    "name": "デイサービスステーションそよぎ",
    "kana": "デイサービスステーションソヨギ",
    "address": "熊本県天草市志柿町6039-26",
    "lat": 32.4409966,
    "lng": 130.206742,
    "tel": "0969-24-8358",
    "url": "",
    "pref": "熊本県",
    "city": "天草市",
    "category": "community_day_service",
    "serviceType": "地域密着型通所介護",
    "capacity": 0,
    "openDays": [
      "平日",
      "土曜日",
      "祝日"
    ],
    "openDaysNote": ""
  },
  {
    "id": "4371500747",
    "name": "デイサービスセンター　しらさぎ",
    "kana": "デイサービスセンター　シラサギ",
    "address": "熊本県天草市天草町下田北１２５５番地１",
    "lat": 32.4243485,
    "lng": 130.0095002,
    "tel": "0969-42-3235",
    "url": "",
    "pref": "熊本県",
    "city": "天草市",
    "category": "community_day_service",
    "serviceType": "地域密着型通所介護",
    "capacity": 17,
    "openDays": [
      "平日",
      "土曜日",
      "祝日"
    ],
    "openDaysNote": "ただし、正月休み１２月３０日から１月３日までを除く"
  },
  {
    "id": "4373201237",
    "name": "デイサービスセンター　はまかぜ",
    "kana": "デイサービスセンターハマカゼ",
    "address": "熊本県天草市倉岳町宮田２７０－１",
    "lat": 32.3995147,
    "lng": 130.3028276,
    "tel": "0969-64-3833",
    "url": "",
    "pref": "熊本県",
    "city": "天草市",
    "category": "community_day_service",
    "serviceType": "地域密着型通所介護",
    "capacity": 10,
    "openDays": [
      "平日",
      "土曜日",
      "祝日"
    ],
    "openDaysNote": ""
  },
  {
    "id": "4371500507",
    "name": "デイサービスセンターあお空",
    "kana": "デイサービスセンターアオゾラ",
    "address": "熊本県天草市河浦町宮野河内１５３０番地",
    "lat": 32.309317,
    "lng": 130.1394423,
    "tel": "0969-78-0811",
    "url": "",
    "pref": "熊本県",
    "city": "天草市",
    "category": "community_day_service",
    "serviceType": "地域密着型通所介護",
    "capacity": 5,
    "openDays": [
      "平日",
      "祝日"
    ],
    "openDaysNote": ""
  },
  {
    "id": "4371500358",
    "name": "デイサービスセンターはまかぜ茜館",
    "kana": "デイサービスセンターハマカゼアカネカン",
    "address": "熊本県天草市倉岳町宮田２６９番地１",
    "lat": 32.3983038,
    "lng": 130.307455,
    "tel": "0969-64-2030",
    "url": "https://www.hamakaze-amakusa.com",
    "pref": "熊本県",
    "city": "天草市",
    "category": "community_day_service",
    "serviceType": "地域密着型通所介護",
    "capacity": 15,
    "openDays": [
      "平日",
      "祝日"
    ],
    "openDaysNote": ""
  },
  {
    "id": "4371500432",
    "name": "デイサービスセンターひのわ",
    "kana": "デイサービスセンターヒノワ",
    "address": "熊本県天草市新和町中田２２７０",
    "lat": 32.3361531,
    "lng": 130.1589241,
    "tel": "0969-46-2350",
    "url": "info@fuminokai.care",
    "pref": "熊本県",
    "city": "天草市",
    "category": "community_day_service",
    "serviceType": "地域密着型通所介護",
    "capacity": 0,
    "openDays": [
      "平日",
      "土曜日",
      "日曜日",
      "祝日"
    ],
    "openDaysNote": "サービス提供時間は午前８時３0分から午後４時４５分まで"
  },
  {
    "id": "4371500275",
    "name": "デイサービスセンター新谷",
    "kana": "デイサービスセンターシンタニ",
    "address": "熊本県天草市五和町鬼池162番地",
    "lat": 32.545516,
    "lng": 130.1847406,
    "tel": "0969-32-2222",
    "url": "http://www.ichiyokai.or.jp/",
    "pref": "熊本県",
    "city": "天草市",
    "category": "community_day_service",
    "serviceType": "地域密着型通所介護",
    "capacity": 0,
    "openDays": [
      "平日",
      "土曜日",
      "祝日"
    ],
    "openDaysNote": "利用者の状態により時間短縮でのサービスが必要な場合は、ケアマネージャーの計画に基づきサービスを提供致します。"
  },
  {
    "id": "4370900450",
    "name": "デイサービスセンター虹の木",
    "kana": "デイサービスセンターニジノキ",
    "address": "熊本県天草市久玉町１９８７番地１",
    "lat": 32.2520046799188,
    "lng": 130.055028673541,
    "tel": "0969-73-3788",
    "url": "http://kenjukai.kataranna.com/",
    "pref": "熊本県",
    "city": "天草市",
    "category": "community_day_service",
    "serviceType": "地域密着型通所介護",
    "capacity": 14,
    "openDays": [
      "平日",
      "土曜日",
      "日曜日",
      "祝日"
    ],
    "openDaysNote": ""
  },
  {
    "id": "4370900435",
    "name": "デイサービスセンター和樂",
    "kana": "デイサービスセンターワラク",
    "address": "熊本県天草市牛深町1641-4",
    "lat": 32.1964026,
    "lng": 130.0242154,
    "tel": "0969-72-3407",
    "url": "",
    "pref": "熊本県",
    "city": "天草市",
    "category": "community_day_service",
    "serviceType": "地域密着型通所介護",
    "capacity": 15,
    "openDays": [
      "平日",
      "土曜日",
      "祝日"
    ],
    "openDaysNote": "年間の定休日　８月１５日と１２月３１日から１月３日とする。"
  },
  {
    "id": "4391500354",
    "name": "デイサービスふれあいサロン・中島さんち",
    "kana": "デイサービスフレアイサロン・ナカシマサンチ",
    "address": "熊本県天草市亀場町亀川263-2",
    "lat": 32.4436666,
    "lng": 130.1997162,
    "tel": "0969-27-0203",
    "url": "",
    "pref": "熊本県",
    "city": "天草市",
    "category": "community_day_service",
    "serviceType": "地域密着型通所介護",
    "capacity": 18,
    "openDays": [
      "平日",
      "土曜日",
      "祝日"
    ],
    "openDaysNote": ""
  },
  {
    "id": "4371500440",
    "name": "デイサービス彩り",
    "kana": "デイサービス　イロドリ",
    "address": "熊本県天草市亀場町食場689番地",
    "lat": 32.4363061,
    "lng": 130.1806149,
    "tel": "0969-66-9191",
    "url": "http://hp.kaipoke.biz/ftn/",
    "pref": "熊本県",
    "city": "天草市",
    "category": "community_day_service",
    "serviceType": "地域密着型通所介護",
    "capacity": 12,
    "openDays": [
      "平日",
      "土曜日",
      "祝日"
    ],
    "openDaysNote": ""
  },
  {
    "id": "4391500503",
    "name": "デイサービス暖暖",
    "kana": "デイサービスダンダン",
    "address": "熊本県天草市河浦町今田1333番地1",
    "lat": 32.3786381,
    "lng": 130.0781022,
    "tel": "0969-76-0383",
    "url": "",
    "pref": "熊本県",
    "city": "天草市",
    "category": "community_day_service",
    "serviceType": "地域密着型通所介護",
    "capacity": null,
    "openDays": [
      "平日"
    ],
    "openDaysNote": ""
  },
  {
    "id": "4371500689",
    "name": "リハステーションＲＩＣＨＥ",
    "kana": "リハステーションリッシュ",
    "address": "天草市川原町7-29-3ファミール川原町101 ファミール川原町101",
    "lat": 32.382594877953,
    "lng": 130.160798282324,
    "tel": "0969-66-9971",
    "url": "http://riche20130201.sakura.ne.jp/",
    "pref": "熊本県",
    "city": "天草市",
    "category": "community_day_service",
    "serviceType": "地域密着型通所介護",
    "capacity": 192,
    "openDays": [
      "平日",
      "土曜日"
    ],
    "openDaysNote": "特になし"
  },
  {
    "id": "4371500663",
    "name": "合同会社デイサービスセンター陽だまり",
    "kana": "ゴウドウガイシャデイサービスセンターヒダマリ",
    "address": "河浦町河浦963番地1",
    "lat": 32.32557025806,
    "lng": 130.070067583212,
    "tel": "0969-76-0300",
    "url": "",
    "pref": "熊本県",
    "city": "天草市",
    "category": "community_day_service",
    "serviceType": "地域密着型通所介護",
    "capacity": 0,
    "openDays": [
      "平日",
      "土曜日",
      "祝日"
    ],
    "openDaysNote": ""
  },
  {
    "id": "4391500404",
    "name": "春光苑デイサービスセンター",
    "kana": "シュンコウエンデイサービスセンター",
    "address": "熊本県天草市天草町高浜北633番地",
    "lat": 32.3845792,
    "lng": 129.9964831,
    "tel": "0969-42-0646",
    "url": "http://www.airin-syunkouen.com/index.html",
    "pref": "熊本県",
    "city": "天草市",
    "category": "community_day_service",
    "serviceType": "地域密着型通所介護",
    "capacity": null,
    "openDays": [
      "平日",
      "土曜日",
      "祝日"
    ],
    "openDaysNote": "時間外対応可能。　特別養護老人ホーム春光苑　0969-42-0646"
  },
  {
    "id": "4391500412",
    "name": "地域密着型デイサービスランチ",
    "kana": "チイキミッチャクガタデイサービスランチ",
    "address": "熊本県天草市本町新休181レインボーマンション103 レインボーマンション103",
    "lat": 32.4697895,
    "lng": 130.1505827,
    "tel": "0969-24-8481",
    "url": "",
    "pref": "熊本県",
    "city": "天草市",
    "category": "community_day_service",
    "serviceType": "地域密着型通所介護",
    "capacity": 0,
    "openDays": [
      "平日",
      "祝日"
    ],
    "openDaysNote": ""
  },
  {
    "id": "4370700587",
    "name": "通所介護菜の花",
    "kana": "ツウショカイゴナノハナ",
    "address": "熊本県天草市本渡町本渡847-8",
    "lat": 32.4608206,
    "lng": 130.1753945,
    "tel": "0969-66-9171",
    "url": "http://nanohana-group.net",
    "pref": "熊本県",
    "city": "天草市",
    "category": "community_day_service",
    "serviceType": "地域密着型通所介護",
    "capacity": 15,
    "openDays": [
      "平日",
      "土曜日",
      "祝日"
    ],
    "openDaysNote": "ご利用者の体調に合わせサービスを提供します"
  },
  {
    "id": "4370700686",
    "name": "通所介護菜の花II番館",
    "kana": "ツウショカイゴナノハナニバンカン",
    "address": "熊本県天草市本渡町本渡847-8",
    "lat": 32.4562266,
    "lng": 130.1805889,
    "tel": "0969-66-9171",
    "url": "nanohana-group.net",
    "pref": "熊本県",
    "city": "天草市",
    "category": "community_day_service",
    "serviceType": "地域密着型通所介護",
    "capacity": 11,
    "openDays": [
      "平日",
      "土曜日",
      "日曜日",
      "祝日"
    ],
    "openDaysNote": "なし"
  },
  {
    "id": "4371500812",
    "name": "通所介護菜の花東館１階",
    "kana": "ツウショカイゴナノハナヒガシカンイッカイ",
    "address": "熊本県天草市本渡町本渡847-8",
    "lat": 32.4607977,
    "lng": 130.1986411,
    "tel": "0969-66-9173",
    "url": "nanohana-group.net",
    "pref": "熊本県",
    "city": "天草市",
    "category": "community_day_service",
    "serviceType": "地域密着型通所介護",
    "capacity": 10,
    "openDays": [
      "平日",
      "土曜日",
      "日曜日",
      "祝日"
    ],
    "openDaysNote": "ご利用者の体調に合わせサービスを提供します。"
  },
  {
    "id": "4371500820",
    "name": "通所介護菜の花東館２階",
    "kana": "ツウショカイゴナノハナヒガシカンニカイ",
    "address": "熊本県天草市本渡町本渡847-8",
    "lat": 32.4562266,
    "lng": 130.1805889,
    "tel": "0969-66-9173",
    "url": "ｎanohana-group,het",
    "pref": "熊本県",
    "city": "天草市",
    "category": "community_day_service",
    "serviceType": "地域密着型通所介護",
    "capacity": 10,
    "openDays": [
      "平日",
      "土曜日",
      "日曜日",
      "祝日"
    ],
    "openDaysNote": "ご利用者様の体調に合わせサービスを提供します。"
  },
  {
    "id": "4371500564",
    "name": "天草市社協デイサービスセンターよこうら",
    "kana": "アマクサシシャキョウデイサービスセンターヨコウラ",
    "address": "天草市御所浦町横浦５４ー４平屋 平屋",
    "lat": 32.3610218,
    "lng": 130.3487595,
    "tel": "０９６９－６７－３２５１",
    "url": "",
    "pref": "熊本県",
    "city": "天草市",
    "category": "community_day_service",
    "serviceType": "地域密着型通所介護",
    "capacity": 18,
    "openDays": [
      "平日",
      "土曜日",
      "祝日"
    ],
    "openDaysNote": "営業時間は午前8時30分から午後5時15分までとする。ただし、特別の需要がある場合はこの限りではない。"
  },
  {
    "id": "4391500495",
    "name": "天草市社協デイサービスセンター新和",
    "kana": "アマクサシシャキョウデイサービスセンターシンワ",
    "address": "熊本県天草市新和町小宮地763番地13",
    "lat": 32.3683637,
    "lng": 130.1851544,
    "tel": "0969-46-3796",
    "url": "",
    "pref": "熊本県",
    "city": "天草市",
    "category": "community_day_service",
    "serviceType": "地域密着型通所介護",
    "capacity": 0,
    "openDays": [
      "平日",
      "土曜日",
      "祝日"
    ],
    "openDaysNote": ""
  },
  {
    "id": "4391500461",
    "name": "天草市社協デイサービスセンター虹のはるか",
    "kana": "アマクサシシャキョウデイサービスセンターニジノハルカ",
    "address": "熊本県天草市倉岳町浦１２５４番地４",
    "lat": 32.4300368,
    "lng": 130.3566781,
    "tel": "0969-64-3285",
    "url": "",
    "pref": "熊本県",
    "city": "天草市",
    "category": "community_day_service",
    "serviceType": "地域密着型通所介護",
    "capacity": 0,
    "openDays": [
      "平日",
      "土曜日",
      "祝日"
    ],
    "openDaysNote": "営業時間は午前8時30分から午後5時15分までとする。ただし、特別の需要がある場合はこの限りではない。"
  },
  {
    "id": "4391500438",
    "name": "苓州の里デイサービスセンター",
    "kana": "レイシュウノサトデイサービスセンター",
    "address": "熊本県天草市佐伊津町４６３－５苓州の里 苓州の里",
    "lat": 32.4861605544923,
    "lng": 130.198241824459,
    "tel": "0969-24-8333",
    "url": "https://ass-llc.com/",
    "pref": "熊本県",
    "city": "天草市",
    "category": "community_day_service",
    "serviceType": "地域密着型通所介護",
    "capacity": null,
    "openDays": [
      "平日",
      "土曜日",
      "祝日"
    ],
    "openDaysNote": ""
  },
  {
    "id": "4391500420",
    "name": "老人デイサービスセンター葉山苑　天草事業所",
    "kana": "ロウジンデイサービスセンターハヤマエンアマクサジギョウショ",
    "address": "熊本県天草市本町下河内1354番地",
    "lat": 32.4764908,
    "lng": 130.1568914,
    "tel": "0969-23-1000",
    "url": "www.hayamaen.com",
    "pref": "熊本県",
    "city": "天草市",
    "category": "community_day_service",
    "serviceType": "地域密着型通所介護",
    "capacity": 0,
    "openDays": [
      "平日",
      "土曜日",
      "祝日"
    ],
    "openDaysNote": ""
  },
  {
    "id": "4392700219",
    "name": "デイサービスセンターたいぼう",
    "kana": "デイサービスセンタータイボウ",
    "address": "熊本県阿蘇郡南阿蘇村大字河陽5390番地2",
    "lat": 32.8877127342685,
    "lng": 130.992930490213,
    "tel": "967670488",
    "url": "",
    "pref": "熊本県",
    "city": "南阿蘇村",
    "category": "community_day_service",
    "serviceType": "地域密着型通所介護",
    "capacity": 0,
    "openDays": [
      "平日",
      "土曜日",
      "祝日"
    ],
    "openDaysNote": ""
  },
  {
    "id": "4372700874",
    "name": "デイサービスみなみ阿蘇",
    "kana": "デイサービスミナミアソ",
    "address": "熊本県阿蘇郡南阿蘇村河陰148-1",
    "lat": 32.8214461,
    "lng": 131.0322485,
    "tel": "0967-67-0725",
    "url": "http://www.minamiasocare.com",
    "pref": "熊本県",
    "city": "南阿蘇村",
    "category": "community_day_service",
    "serviceType": "地域密着型通所介護",
    "capacity": 0,
    "openDays": [
      "平日",
      "土曜日",
      "日曜日",
      "祝日"
    ],
    "openDaysNote": ""
  },
  {
    "id": "4372701344",
    "name": "ディサービス喜笑楽",
    "kana": "ディサービス　キショウラク",
    "address": "一関1850-1",
    "lat": 32.846249,
    "lng": 131.0695172,
    "tel": "0967-62-8733",
    "url": "http://www.kishouraku.com",
    "pref": "熊本県",
    "city": "南阿蘇村",
    "category": "community_day_service",
    "serviceType": "地域密着型通所介護",
    "capacity": 3,
    "openDays": [
      "平日"
    ],
    "openDaysNote": "緊急時対応あり"
  },
  {
    "id": "4372401531",
    "name": "デイサービスあい",
    "kana": "デイサービス　アイ",
    "address": "熊本県玉名郡南関町四ツ原3072番地",
    "lat": 32.9961982835134,
    "lng": 130.543188259525,
    "tel": "0968-53-9866",
    "url": "",
    "pref": "熊本県",
    "city": "南関町",
    "category": "community_day_service",
    "serviceType": "地域密着型通所介護",
    "capacity": 20,
    "openDays": [
      "平日",
      "土曜日",
      "祝日"
    ],
    "openDaysNote": ""
  },
  {
    "id": "4372401465",
    "name": "デイサービス元気が一番",
    "kana": "デイサービスゲンキガイチバン",
    "address": "熊本県玉名郡南関町大字久重3385-2",
    "lat": 33.0396673,
    "lng": 130.5262273,
    "tel": "0968-57-8570",
    "url": "https://maekawa-chiryo.in",
    "pref": "熊本県",
    "city": "南関町",
    "category": "community_day_service",
    "serviceType": "地域密着型通所介護",
    "capacity": 3,
    "openDays": [
      "平日",
      "土曜日",
      "日曜日",
      "祝日"
    ],
    "openDaysNote": ""
  },
  {
    "id": "4392400117",
    "name": "デイサポートひまわり",
    "kana": "デイサポートヒマワリ",
    "address": "熊本県玉名郡南関町上坂下30番地１",
    "lat": 33.0143862,
    "lng": 130.5539411,
    "tel": "0968-57-7977",
    "url": "https://peraichi.com/landing_pages/view/j5jw6?_ga=2.27983740.1973614679.1662615953-477650334.1641965270",
    "pref": "熊本県",
    "city": "南関町",
    "category": "community_day_service",
    "serviceType": "地域密着型通所介護",
    "capacity": 0,
    "openDays": [
      "平日",
      "土曜日",
      "祝日"
    ],
    "openDaysNote": "お盆休み　8月14日～8月15日（改行）年末年始　12月30日～1月3日"
  },
  {
    "id": "4390200386",
    "name": "Let'sリハ！inthemall　ゆめタウン八代店",
    "kana": "レッツリハ　インザモール　ユメタウンヤツシロテン",
    "address": "熊本県八代市建馬町3-1ゆめタウン八代・2階 ゆめタウン八代・2階",
    "lat": 32.5058336,
    "lng": 130.5856362,
    "tel": "0965-37-8860",
    "url": "https://www.sakurajyuji.or.jp/service/dayservice/",
    "pref": "熊本県",
    "city": "八代市",
    "category": "community_day_service",
    "serviceType": "地域密着型通所介護",
    "capacity": 0,
    "openDays": [
      "平日",
      "祝日"
    ],
    "openDaysNote": ""
  },
  {
    "id": "4390200444",
    "name": "Let’ｓリハ！八代南店",
    "kana": "レッツリハヤツシロミナミテン",
    "address": "熊本県八代市本野町2047-1",
    "lat": 32.4828991095404,
    "lng": 130.607807263233,
    "tel": "0965-33-6607",
    "url": "https://www.lets-reha.jp/",
    "pref": "熊本県",
    "city": "八代市",
    "category": "community_day_service",
    "serviceType": "地域密着型通所介護",
    "capacity": 0,
    "openDays": [
      "平日",
      "祝日"
    ],
    "openDaysNote": "平日の祝日も営業"
  },
  {
    "id": "4390200550",
    "name": "Let`ｓリハ！八代高田",
    "kana": "レッツリハ　ヤツシロコウダ",
    "address": "熊本県八代市高下西町1426",
    "lat": 32.4893234,
    "lng": 130.6077576,
    "tel": "0965-45-5192",
    "url": "",
    "pref": "熊本県",
    "city": "八代市",
    "category": "community_day_service",
    "serviceType": "地域密着型通所介護",
    "capacity": 0,
    "openDays": [
      "平日",
      "祝日"
    ],
    "openDaysNote": ""
  },
  {
    "id": "4370201875",
    "name": "ちえの和",
    "kana": "チエノワ",
    "address": "熊本県八代市千丁町太牟田2471番地6",
    "lat": 32.5483886,
    "lng": 130.6398289,
    "tel": "0965-46-0797",
    "url": "http://www.nams.co.jp/",
    "pref": "熊本県",
    "city": "八代市",
    "category": "community_day_service",
    "serviceType": "地域密着型通所介護",
    "capacity": 18,
    "openDays": [
      "平日",
      "土曜日",
      "祝日"
    ],
    "openDaysNote": ""
  },
  {
    "id": "4370202303",
    "name": "デイサービス　かざぐるま",
    "kana": "デイサービス　カザグルマ",
    "address": "古閑浜町1-30",
    "lat": 32.5402394746403,
    "lng": 130.60510137686,
    "tel": "0965－32－2488",
    "url": "",
    "pref": "熊本県",
    "city": "八代市",
    "category": "community_day_service",
    "serviceType": "地域密着型通所介護",
    "capacity": 2,
    "openDays": [
      "平日",
      "土曜日",
      "祝日"
    ],
    "openDaysNote": ""
  },
  {
    "id": "4370202485",
    "name": "デイサービス　キラリ八代",
    "kana": "デイサービス　キラリヤツシロ",
    "address": "熊本県八代市古城町2564-2",
    "lat": 32.4943681,
    "lng": 130.590364,
    "tel": "0965-62-8777",
    "url": "",
    "pref": "熊本県",
    "city": "八代市",
    "category": "community_day_service",
    "serviceType": "地域密着型通所介護",
    "capacity": 0,
    "openDays": [
      "平日",
      "土曜日",
      "祝日"
    ],
    "openDaysNote": "1月1日～1月3日休業"
  },
  {
    "id": "4370202543",
    "name": "デイサービス　ひなたぼっこ",
    "kana": "デイサービス　ヒナタボッコ",
    "address": "熊本県八代市古閑中町２３２０番地",
    "lat": 32.5283914,
    "lng": 130.6062816,
    "tel": "0965-62-8775",
    "url": "",
    "pref": "熊本県",
    "city": "八代市",
    "category": "community_day_service",
    "serviceType": "地域密着型通所介護",
    "capacity": 15,
    "openDays": [
      "平日",
      "土曜日",
      "祝日"
    ],
    "openDaysNote": ""
  },
  {
    "id": "4370200943",
    "name": "ディサービス　わらべ",
    "kana": "ディサービス　ワラベ",
    "address": "熊本県八代市高下西町1835-2",
    "lat": 32.485361820882,
    "lng": 130.607846277212,
    "tel": "0965-39-5530",
    "url": "",
    "pref": "熊本県",
    "city": "八代市",
    "category": "community_day_service",
    "serviceType": "地域密着型通所介護",
    "capacity": 18,
    "openDays": [
      "平日",
      "土曜日",
      "祝日"
    ],
    "openDaysNote": ""
  },
  {
    "id": "4370201776",
    "name": "デイサービス　暖暖",
    "kana": "デイサービス　ダンダン",
    "address": "熊本県八代市鏡町鏡５５３番地４",
    "lat": 32.5719427,
    "lng": 130.6519549,
    "tel": "0965-43-8007",
    "url": "http://www.day-dandan.com/",
    "pref": "熊本県",
    "city": "八代市",
    "category": "community_day_service",
    "serviceType": "地域密着型通所介護",
    "capacity": 0,
    "openDays": [
      "平日",
      "土曜日",
      "祝日"
    ],
    "openDaysNote": "定休日、営業時間について需要があればこの限りではない。"
  },
  {
    "id": "4390200535",
    "name": "デイサービス　竹とんぼ",
    "kana": "デイサービス　タケトンボ",
    "address": "熊本県八代市鏡町内田537－1",
    "lat": 32.5610531,
    "lng": 130.651724,
    "tel": "070－9267－0896",
    "url": "",
    "pref": "熊本県",
    "city": "八代市",
    "category": "community_day_service",
    "serviceType": "地域密着型通所介護",
    "capacity": 0,
    "openDays": [
      "平日",
      "祝日"
    ],
    "openDaysNote": ""
  },
  {
    "id": "4370202675",
    "name": "デイサービス　福笑庵",
    "kana": "デイサービス　フクショウアン",
    "address": "熊本県八代市福正町918-1デイサービス福笑庵 デイサービス福笑庵",
    "lat": 32.5060331256579,
    "lng": 130.627898289163,
    "tel": "0965-62-8663",
    "url": "http://fukusyouan.com/",
    "pref": "熊本県",
    "city": "八代市",
    "category": "community_day_service",
    "serviceType": "地域密着型通所介護",
    "capacity": 5,
    "openDays": [
      "平日",
      "土曜日",
      "祝日"
    ],
    "openDaysNote": "営業時間　８：３０～１７：３０（改行）サービス提供時間　９：００～１６：３０（改行）自主サービスとして延長、夕食、洗濯サービスあり(R4.11月より一部中止)"
  },
  {
    "id": "4370202469",
    "name": "デイサービスセンター　ここね",
    "kana": "デイサービスセンター　ココネ",
    "address": "熊本県八代市二見本町718-2",
    "lat": 32.4024326584123,
    "lng": 130.556181486508,
    "tel": "0965-30-3510",
    "url": "cocone-yuukyou@estate.ocn.ne.jp",
    "pref": "熊本県",
    "city": "八代市",
    "category": "community_day_service",
    "serviceType": "地域密着型通所介護",
    "capacity": 0,
    "openDays": [
      "平日",
      "祝日"
    ],
    "openDaysNote": "ありません"
  },
  {
    "id": "4390200394",
    "name": "デイサービスセンター　こころ",
    "kana": "デイサービスセンター　ココロ",
    "address": "熊本県八代市千丁町新牟田1142-1",
    "lat": 32.5309842,
    "lng": 130.6357758,
    "tel": "0965-46-0122",
    "url": "",
    "pref": "熊本県",
    "city": "八代市",
    "category": "community_day_service",
    "serviceType": "地域密着型通所介護",
    "capacity": 10,
    "openDays": [
      "平日",
      "祝日"
    ],
    "openDaysNote": "お盆休み8/14～8/15（改行）正月休み12/30～1/3"
  },
  {
    "id": "4370201966",
    "name": "デイサービスセンター　歩生",
    "kana": "デイサービスセンター　アオイ",
    "address": "鏡町両出１３６０",
    "lat": 32.560954,
    "lng": 130.6316844,
    "tel": "0965-52-5328",
    "url": "",
    "pref": "熊本県",
    "city": "八代市",
    "category": "community_day_service",
    "serviceType": "地域密着型通所介護",
    "capacity": 0,
    "openDays": [
      "平日",
      "土曜日",
      "祝日"
    ],
    "openDaysNote": "令和４年１０月１日より定休日は、木曜日・日曜日、１月１日～３日に変更あり。"
  },
  {
    "id": "4390200345",
    "name": "デイサービスセンターはるひ",
    "kana": "デイサービスセンターハルヒ",
    "address": "熊本県八代市上日置町１９０４－１",
    "lat": 32.5039055,
    "lng": 130.6298917,
    "tel": "０９６５－３２－４８３２",
    "url": "",
    "pref": "熊本県",
    "city": "八代市",
    "category": "community_day_service",
    "serviceType": "地域密着型通所介護",
    "capacity": 18,
    "openDays": [
      "平日",
      "祝日"
    ],
    "openDaysNote": "年末、年始の定休日に関しては、状況に応じこの限りでない。（改行）※災害時等は、休業も検討する。"
  },
  {
    "id": "4370202196",
    "name": "デイサービスセンターゆるりの家・八代",
    "kana": "デイサービスセンターユルリノイエ・ヤツシロ",
    "address": "八代市本町4丁目２－２８",
    "lat": 32.5042953,
    "lng": 130.596077,
    "tel": "０９６５－３０－０１２１",
    "url": "http://www.greencoop-kumamoto.jp",
    "pref": "熊本県",
    "city": "八代市",
    "category": "community_day_service",
    "serviceType": "地域密着型通所介護",
    "capacity": 15,
    "openDays": [
      "平日",
      "土曜日",
      "祝日"
    ],
    "openDaysNote": ""
  },
  {
    "id": "4390200568",
    "name": "デイサービスセンター陽だまりの里",
    "kana": "デイサービスセンターヒダマリノサト",
    "address": "熊本県八代市高下西町字西寺川２２８０",
    "lat": 32.4825761023945,
    "lng": 130.604027460167,
    "tel": "0965-32-0081",
    "url": "",
    "pref": "熊本県",
    "city": "八代市",
    "category": "community_day_service",
    "serviceType": "地域密着型通所介護",
    "capacity": 18,
    "openDays": [
      "平日",
      "土曜日",
      "祝日"
    ],
    "openDaysNote": "特別な需要がある場合はこの限りではない。"
  },
  {
    "id": "4370202121",
    "name": "デイサービスみずしま",
    "kana": "デイサービスミズシマ",
    "address": "熊本県八代市鼠蔵町６９番地",
    "lat": 32.4809516205898,
    "lng": 130.572762550263,
    "tel": "0965-45-9298",
    "url": "",
    "pref": "熊本県",
    "city": "八代市",
    "category": "community_day_service",
    "serviceType": "地域密着型通所介護",
    "capacity": 15,
    "openDays": [
      "平日",
      "土曜日",
      "日曜日",
      "祝日"
    ],
    "openDaysNote": "年末年始は利用ニーズのある方に対しては柔軟に対応し開業する事もある。"
  },
  {
    "id": "4370201503",
    "name": "デイサービスやすらぎ",
    "kana": "デイサービスヤスラギ",
    "address": "八代市植柳新町1丁目3号6番地",
    "lat": 32.4922683,
    "lng": 130.591378,
    "tel": "0965-31-7118",
    "url": "",
    "pref": "熊本県",
    "city": "八代市",
    "category": "community_day_service",
    "serviceType": "地域密着型通所介護",
    "capacity": 18,
    "openDays": [
      "平日",
      "土曜日",
      "祝日"
    ],
    "openDaysNote": ""
  },
  {
    "id": "4390200436",
    "name": "デイサービス華（かれん）",
    "kana": "デイサービスカレン",
    "address": "横手本町3-11",
    "lat": 32.5101063430886,
    "lng": 130.612970181615,
    "tel": "0965-37-8601",
    "url": "",
    "pref": "熊本県",
    "city": "八代市",
    "category": "community_day_service",
    "serviceType": "地域密着型通所介護",
    "capacity": 18,
    "openDays": [
      "平日",
      "土曜日",
      "祝日"
    ],
    "openDaysNote": ""
  },
  {
    "id": "4370202410",
    "name": "デイサービス彩（ひかり）",
    "kana": "デイサービスヒカリ",
    "address": "八代市高下西町2216番地1",
    "lat": 32.4844324412572,
    "lng": 130.606253791402,
    "tel": "0965-62-8193",
    "url": "",
    "pref": "熊本県",
    "city": "八代市",
    "category": "community_day_service",
    "serviceType": "地域密着型通所介護",
    "capacity": 18,
    "openDays": [
      "平日",
      "土曜日",
      "祝日"
    ],
    "openDaysNote": "お盆や祝日は営業いたします。（改行）時間延長でのご利用の場合は、ご家族様による送迎をお願いすることがございます。"
  },
  {
    "id": "4370201891",
    "name": "デイサービス太子郷",
    "kana": "デイサービスタイシキョウ",
    "address": "八代市東片町452番地１",
    "lat": 32.5101556,
    "lng": 130.6479267,
    "tel": "0965-45-9521",
    "url": "",
    "pref": "熊本県",
    "city": "八代市",
    "category": "community_day_service",
    "serviceType": "地域密着型通所介護",
    "capacity": 0,
    "openDays": [
      "平日",
      "祝日"
    ],
    "openDaysNote": "祝日、祭日は営業"
  },
  {
    "id": "4390200469",
    "name": "デイサービス夢",
    "kana": "デイサービスユメ",
    "address": "熊本県八代市大村町805-1",
    "lat": 32.5165694,
    "lng": 130.6164177,
    "tel": "0965-62-9981",
    "url": "",
    "pref": "熊本県",
    "city": "八代市",
    "category": "community_day_service",
    "serviceType": "地域密着型通所介護",
    "capacity": 9,
    "openDays": [
      "平日",
      "土曜日",
      "祝日"
    ],
    "openDaysNote": ""
  },
  {
    "id": "4370201180",
    "name": "ママやつしろ",
    "kana": "ママヤツシロ",
    "address": "八代市千丁町古閑出２０３６番地",
    "lat": 32.5417379,
    "lng": 130.6157304,
    "tel": "0965-46-0822",
    "url": "",
    "pref": "熊本県",
    "city": "八代市",
    "category": "community_day_service",
    "serviceType": "地域密着型通所介護",
    "capacity": 10,
    "openDays": [
      "平日",
      "土曜日",
      "祝日"
    ],
    "openDaysNote": ""
  },
  {
    "id": "4370202725",
    "name": "リハデイにじ",
    "kana": "リハデイニジ",
    "address": "熊本県八代市上片町1302",
    "lat": 32.5058446,
    "lng": 130.642627,
    "tel": "0965-45-9173",
    "url": "",
    "pref": "熊本県",
    "city": "八代市",
    "category": "community_day_service",
    "serviceType": "地域密着型通所介護",
    "capacity": 0,
    "openDays": [
      "平日",
      "土曜日",
      "祝日"
    ],
    "openDaysNote": ""
  },
  {
    "id": "4390200360",
    "name": "リハビリデイサービスmana",
    "kana": "リハビリデイサービス　マナ",
    "address": "熊本県八代市松江町283-1",
    "lat": 32.5129145,
    "lng": 130.6023293,
    "tel": "0965-37-8881",
    "url": "https://ainaremana.wixsite.com/aina-remana",
    "pref": "熊本県",
    "city": "八代市",
    "category": "community_day_service",
    "serviceType": "地域密着型通所介護",
    "capacity": 0,
    "openDays": [
      "平日"
    ],
    "openDaysNote": "年末年始休暇12/30～1/3（改行）夏季休暇8/13"
  },
  {
    "id": "4370202097",
    "name": "リハビリ型デイサービス　アスカ",
    "kana": "リハビリガデイサービス",
    "address": "八代市大村町４０１－１",
    "lat": 32.5176734375548,
    "lng": 130.620688687386,
    "tel": "0965-35-5739",
    "url": "",
    "pref": "熊本県",
    "city": "八代市",
    "category": "community_day_service",
    "serviceType": "地域密着型通所介護",
    "capacity": 9,
    "openDays": [
      "平日",
      "祝日"
    ],
    "openDaysNote": "年末年始（改行）8/13～15(夏季）12/29~1/3(冬季）"
  },
  {
    "id": "4370202360",
    "name": "地域密着型通所介護事業所　デイサービスセンター　「なぎさの風」",
    "kana": "チイキミッチャクガタツウショカイゴジギョウショデイサービスセンター「ナギサノカゼ」",
    "address": "熊本県八代市麦島東町１０－１５",
    "lat": 32.5074666,
    "lng": 130.5765928,
    "tel": "0965-31-3107",
    "url": "",
    "pref": "熊本県",
    "city": "八代市",
    "category": "community_day_service",
    "serviceType": "地域密着型通所介護",
    "capacity": 0,
    "openDays": [
      "平日",
      "祝日"
    ],
    "openDaysNote": "12月30日～1月3日　休み"
  },
  {
    "id": "4370202626",
    "name": "地域密着型通所介護事業所ハッピーやちわ",
    "kana": "チイキミッチャクガタツウショカイゴジギョウショハッピーヤチワ",
    "address": "熊本県八代市古閑中町2260-2",
    "lat": 32.5274248,
    "lng": 130.606626,
    "tel": "965358861",
    "url": "http://happy⁻yachiwa.ｃｏｍ",
    "pref": "熊本県",
    "city": "八代市",
    "category": "community_day_service",
    "serviceType": "地域密着型通所介護",
    "capacity": 0,
    "openDays": [
      "平日",
      "祝日"
    ],
    "openDaysNote": "お盆休み8/13から8/15、正月休み12/30から1/3"
  },
  {
    "id": "4370201404",
    "name": "八代市社協　　ふくじゅ草",
    "kana": "ヤツシロシシャキョウ　　フクジュソウ",
    "address": "八代市泉町椎原又1番地１",
    "lat": 32.4909372,
    "lng": 130.906275,
    "tel": "0965-67-5651",
    "url": "http://www.yatsushiro-shakyo.jp/",
    "pref": "熊本県",
    "city": "八代市",
    "category": "community_day_service",
    "serviceType": "地域密着型通所介護",
    "capacity": 0,
    "openDays": [
      "平日",
      "祝日"
    ],
    "openDaysNote": "なし"
  },
  {
    "id": "4370202519",
    "name": "八代草デイサービスセンター",
    "kana": "ヤツシロソウデイサービスセンター",
    "address": "熊本県八代市海士江町2833番地1",
    "lat": 32.5237299535792,
    "lng": 130.621795320346,
    "tel": "0965-62-8550",
    "url": "http://yatsushirosou.or.jp",
    "pref": "熊本県",
    "city": "八代市",
    "category": "community_day_service",
    "serviceType": "地域密着型通所介護",
    "capacity": 0,
    "openDays": [
      "平日",
      "土曜日",
      "祝日"
    ],
    "openDaysNote": "なし"
  },
  {
    "id": "4390200543",
    "name": "遊-ASOBI-",
    "kana": "アソビ",
    "address": "熊本県八代市千丁町古閑出2452-5",
    "lat": 32.5385585,
    "lng": 130.6278231,
    "tel": "0965-37-7887",
    "url": "",
    "pref": "熊本県",
    "city": "八代市",
    "category": "community_day_service",
    "serviceType": "地域密着型通所介護",
    "capacity": 0,
    "openDays": [
      "平日",
      "土曜日",
      "祝日"
    ],
    "openDaysNote": ""
  },
  {
    "id": "4372900987",
    "name": "かぜの杜　デイサービスセンター",
    "kana": "カゼノモリ　デイサービスセンター",
    "address": "熊本県八代郡氷川町鹿島１９２７",
    "lat": 32.5791587,
    "lng": 130.6610456,
    "tel": "0965-52-8896",
    "url": "",
    "pref": "熊本県",
    "city": "氷川町",
    "category": "community_day_service",
    "serviceType": "地域密着型通所介護",
    "capacity": 10,
    "openDays": [
      "平日",
      "土曜日",
      "祝日"
    ],
    "openDaysNote": ""
  },
  {
    "id": "4372901092",
    "name": "デイサービスより処　ここから",
    "kana": "デイサービスヨリドコロ　ココカラ",
    "address": "熊本県八代郡氷川町鹿島1606.1607番地3",
    "lat": 32.585772,
    "lng": 130.6656977,
    "tel": "0965-52-0077",
    "url": "",
    "pref": "熊本県",
    "city": "氷川町",
    "category": "community_day_service",
    "serviceType": "地域密着型通所介護",
    "capacity": 0,
    "openDays": [
      "平日",
      "祝日"
    ],
    "openDaysNote": ""
  },
  {
    "id": "4372900938",
    "name": "デイサービス湧楽苑",
    "kana": "デイサービスユウラクエン",
    "address": "熊本県八代郡氷川町吉本108番地",
    "lat": 32.5838233,
    "lng": 130.7039923,
    "tel": "0964-43-1952",
    "url": "nagoyakahouse.com",
    "pref": "熊本県",
    "city": "氷川町",
    "category": "community_day_service",
    "serviceType": "地域密着型通所介護",
    "capacity": 15,
    "openDays": [
      "平日",
      "祝日"
    ],
    "openDaysNote": ""
  }
]