[
  {
    "id": "1772100234",
    "name": "であい処　七つ花",
    "kana": "デアイドコロ　ナナツバナ",
    "address": "木津へ4番地",
    "lat": 36.7469565,
    "lng": 136.7024727,
    "tel": "076-285-3301",
    "url": "",
    "pref": "石川県",
    "city": "かほく市",
    "category": "community_day_service",
    "serviceType": "地域密着型通所介護",
    "capacity": 18,
    "openDays": [
      "平日",
      "祝日"
    ],
    "openDaysNote": ""
  },
  {
    "id": "1772100184",
    "name": "デイサービスなぎさの家",
    "kana": "デイサービスナギサノイエ",
    "address": "かほく市白尾タ19-1",
    "lat": 36.7161209,
    "lng": 136.6950533,
    "tel": "076-283-1235",
    "url": "http://hoyasakai1060nagisa.com",
    "pref": "石川県",
    "city": "かほく市",
    "category": "community_day_service",
    "serviceType": "地域密着型通所介護",
    "capacity": 18,
    "openDays": [
      "平日",
      "土曜日",
      "祝日"
    ],
    "openDaysNote": "お盆休みを8月14から16日（改行）　（改行）年末年始は12月30日から1月3日までの5日間。"
  },
  {
    "id": "1772100267",
    "name": "デイサービス暖",
    "kana": "デイサービスダン",
    "address": "高松ヤ２９－５",
    "lat": 36.7685046,
    "lng": 136.720394,
    "tel": "076-256-5249",
    "url": "https://oyakou.com/",
    "pref": "石川県",
    "city": "かほく市",
    "category": "community_day_service",
    "serviceType": "地域密着型通所介護",
    "capacity": 10,
    "openDays": [
      "平日",
      "土曜日"
    ],
    "openDaysNote": "祝日は休まず営業、夏季と冬季に盆、正月休業あり。"
  },
  {
    "id": "1772100275",
    "name": "創楽デイサービス",
    "kana": "ソウラクデイサービス",
    "address": "石川県かほく市外日角ハ126番地２",
    "lat": 36.7267834,
    "lng": 136.6911006,
    "tel": "076-254-6516",
    "url": "http://www.bijyoukai/net",
    "pref": "石川県",
    "city": "かほく市",
    "category": "community_day_service",
    "serviceType": "地域密着型通所介護",
    "capacity": 14,
    "openDays": [
      "平日",
      "祝日"
    ],
    "openDaysNote": ""
  },
  {
    "id": "1792100073",
    "name": "地域密着型デイサービス明青クラブ",
    "kana": "チイキミッチャクガタデイサービスメイセイクラブ",
    "address": "石川県かほく市秋浜へ２０番地４",
    "lat": 36.7279707,
    "lng": 136.692476,
    "tel": "０７６－２８３－５６００",
    "url": "http://www.bijyoukai.net",
    "pref": "石川県",
    "city": "かほく市",
    "category": "community_day_service",
    "serviceType": "地域密着型通所介護",
    "capacity": 15,
    "openDays": [
      "平日",
      "祝日"
    ],
    "openDaysNote": ""
  },
  {
    "id": "1770700282",
    "name": "デイサービス　あわら",
    "kana": "デイサービス　アワラ",
    "address": "石川県羽咋市粟原町イ１０９番地",
    "lat": 36.8741461,
    "lng": 136.7851885,
    "tel": "０７６７－２２－０６６０",
    "url": "https://awara-hakui.com/",
    "pref": "石川県",
    "city": "羽咋市",
    "category": "community_day_service",
    "serviceType": "地域密着型通所介護",
    "capacity": 14,
    "openDays": [
      "平日",
      "土曜日",
      "祝日"
    ],
    "openDaysNote": "※新型コロナウイルス感染症の発生時より日曜日の営業を休止している。"
  },
  {
    "id": "1770700084",
    "name": "機能訓練特化型デイサービス　未来・羽咋",
    "kana": "キノウクンレントッカガタデイサービス　ミライ・ハクイ",
    "address": "石川県羽咋市大川町2丁目122番地",
    "lat": 36.9044471,
    "lng": 136.7768763,
    "tel": "０７６７−２３−４３３７",
    "url": "https://www.mirai-yoshimaru.com/2016/11/24/180/",
    "pref": "石川県",
    "city": "羽咋市",
    "category": "community_day_service",
    "serviceType": "地域密着型通所介護",
    "capacity": 50,
    "openDays": [
      "平日",
      "祝日"
    ],
    "openDaysNote": "平日の祝日は営業（改行）年末年始　１２月３０日から１月３日までお休み（改行）お盆休み　８月１５日"
  },
  {
    "id": "1770700233",
    "name": "唐戸山デイサービス",
    "kana": "カラトヤマデイサービス",
    "address": "羽咋市南中央町キ１５４番地１３地域ケアセンター唐戸山 地域ケアセンター唐戸山",
    "lat": 36.8906714,
    "lng": 136.7788825,
    "tel": "0767-22-4141",
    "url": "http://www.bijyoukai.net/",
    "pref": "石川県",
    "city": "羽咋市",
    "category": "community_day_service",
    "serviceType": "地域密着型通所介護",
    "capacity": 0,
    "openDays": [
      "平日",
      "土曜日",
      "祝日"
    ],
    "openDaysNote": ""
  },
  {
    "id": "1790600322",
    "name": "ケアリス山中",
    "kana": "ケアリスヤマナカ",
    "address": "石川県加賀市山中温泉上野町ル15番地１ゆいふる山中 ゆいふる山中",
    "lat": 36.2535568,
    "lng": 136.369354,
    "tel": "0761-78-0270",
    "url": "http://houwakai-g.com",
    "pref": "石川県",
    "city": "加賀市",
    "category": "community_day_service",
    "serviceType": "地域密着型通所介護",
    "capacity": 0,
    "openDays": [
      "平日",
      "土曜日"
    ],
    "openDaysNote": ""
  },
  {
    "id": "1760690717",
    "name": "さわらび通所介護事業所",
    "kana": "サワラビツウショカイゴジギョウショ",
    "address": "石川県加賀市山中温泉塚谷町ロ24番地1",
    "lat": 36.2590923,
    "lng": 136.3698288,
    "tel": "0761-78-0089",
    "url": "http://www.sawarabi-y.jp/",
    "pref": "石川県",
    "city": "加賀市",
    "category": "community_day_service",
    "serviceType": "地域密着型通所介護",
    "capacity": 0,
    "openDays": [
      "平日",
      "土曜日"
    ],
    "openDaysNote": ""
  },
  {
    "id": "1770600425",
    "name": "デイサービス　朗　加賀",
    "kana": "デイサービス　ホガラカ　カガ",
    "address": "加賀市山代温泉桔梗丘３丁目２４－３ドミトリ山代 ドミトリ山代",
    "lat": 36.2857303,
    "lng": 136.3570486,
    "tel": "0761－76－1515",
    "url": "https;//hogaraka.care/",
    "pref": "石川県",
    "city": "加賀市",
    "category": "community_day_service",
    "serviceType": "地域密着型通所介護",
    "capacity": 0,
    "openDays": [
      "平日"
    ],
    "openDaysNote": "原則として12月31日～１月３日まで（定休日）"
  },
  {
    "id": "1770600623",
    "name": "デイサービスセンター　いらっせハマナス",
    "kana": "デイサービスセンター　イラッセハマナス",
    "address": "石川県加賀市小塩町コ161番地1",
    "lat": 36.3506386,
    "lng": 136.3134508,
    "tel": "0761-72-0700",
    "url": "http://houwakai-g.com",
    "pref": "石川県",
    "city": "加賀市",
    "category": "community_day_service",
    "serviceType": "地域密着型通所介護",
    "capacity": 18,
    "openDays": [
      "平日",
      "土曜日"
    ],
    "openDaysNote": ""
  },
  {
    "id": "1770600136",
    "name": "デイサービスセンターたんぽぽ",
    "kana": "デイサービスセンタータンポポ",
    "address": "石川県加賀市河南町カ１５３番地",
    "lat": 36.2792547147406,
    "lng": 136.350744480322,
    "tel": "0761-77-8700",
    "url": "",
    "pref": "石川県",
    "city": "加賀市",
    "category": "community_day_service",
    "serviceType": "地域密着型通所介護",
    "capacity": 0,
    "openDays": [
      "平日",
      "土曜日",
      "祝日"
    ],
    "openDaysNote": ""
  },
  {
    "id": "1770600573",
    "name": "地域交流の家ふらっと",
    "kana": "チイキコウリュウノイエフラット",
    "address": "石川県加賀市山中温泉長谷田町への９１番地１",
    "lat": 36.2665749312447,
    "lng": 136.357914081615,
    "tel": "0761-78-2210",
    "url": "",
    "pref": "石川県",
    "city": "加賀市",
    "category": "community_day_service",
    "serviceType": "地域密着型通所介護",
    "capacity": null,
    "openDays": [
      "平日",
      "土曜日",
      "祝日"
    ],
    "openDaysNote": ""
  },
  {
    "id": "1770105136",
    "name": "Ｓｈａｒｅ金沢",
    "kana": "シェアカナザワ",
    "address": "石川県金沢市若松町セ104番1",
    "lat": 36.5472301,
    "lng": 136.6945028,
    "tel": "076-256-1010",
    "url": "http://share-kanazawa.com",
    "pref": "石川県",
    "city": "金沢市",
    "category": "community_day_service",
    "serviceType": "地域密着型通所介護",
    "capacity": 10,
    "openDays": [
      "平日",
      "祝日"
    ],
    "openDaysNote": ""
  },
  {
    "id": "1790101396",
    "name": "あーるじむ",
    "kana": "RーGYM",
    "address": "石川県金沢市有松4-10-2",
    "lat": 36.5397983,
    "lng": 136.6371718,
    "tel": "762255270",
    "url": "",
    "pref": "石川県",
    "city": "金沢市",
    "category": "community_day_service",
    "serviceType": "地域密着型通所介護",
    "capacity": null,
    "openDays": [
      "平日"
    ],
    "openDaysNote": ""
  },
  {
    "id": "1790101248",
    "name": "アクティブスタジオ雅",
    "kana": "アクティブスタジオミヤビ",
    "address": "石川県金沢市笠舞1丁目12-1ハイツ城　1F ハイツ城　1F",
    "lat": 36.5477506,
    "lng": 136.6739639,
    "tel": "076-208-5206",
    "url": "http://www.anthree.co.jp/active-miyabi/index.html",
    "pref": "石川県",
    "city": "金沢市",
    "category": "community_day_service",
    "serviceType": "地域密着型通所介護",
    "capacity": null,
    "openDays": [
      "平日",
      "祝日"
    ],
    "openDaysNote": "年末年始12月30日～1月3日"
  },
  {
    "id": "1790100703",
    "name": "いあし高畠",
    "kana": "イアシタカバタケ",
    "address": "石川県金沢市高畠3-88番地",
    "lat": 36.5728119,
    "lng": 136.6156964,
    "tel": "076-205-4141",
    "url": "http://i-airu.weebly.com/",
    "pref": "石川県",
    "city": "金沢市",
    "category": "community_day_service",
    "serviceType": "地域密着型通所介護",
    "capacity": 15,
    "openDays": [
      "平日",
      "土曜日",
      "祝日"
    ],
    "openDaysNote": ""
  },
  {
    "id": "1790100927",
    "name": "オークス　リハプライド小坂",
    "kana": "オークスリハプライドコサカ",
    "address": "石川県金沢市小坂町北215-5",
    "lat": 36.5932797,
    "lng": 136.6784578,
    "tel": "076-251-9931",
    "url": "http://www.oarks.co.jp",
    "pref": "石川県",
    "city": "金沢市",
    "category": "community_day_service",
    "serviceType": "地域密着型通所介護",
    "capacity": 0,
    "openDays": [
      "平日"
    ],
    "openDaysNote": ""
  },
  {
    "id": "1770102315",
    "name": "おしのハウス",
    "kana": "オシノハウス",
    "address": "金沢市押野2-162",
    "lat": 36.5487759,
    "lng": 136.6170559,
    "tel": "076-242-6123",
    "url": "http://www.yasuragi39.com/",
    "pref": "石川県",
    "city": "金沢市",
    "category": "community_day_service",
    "serviceType": "地域密着型通所介護",
    "capacity": 0,
    "openDays": [
      "平日",
      "土曜日",
      "祝日"
    ],
    "openDaysNote": ""
  },
  {
    "id": "1770101515",
    "name": "キュアデイサービスセンター",
    "kana": "キュアデイサービスセンター",
    "address": "笠舞3-18-3",
    "lat": 36.5525112680631,
    "lng": 136.669627855042,
    "tel": "076-260-8202",
    "url": "https://qua-22.com",
    "pref": "石川県",
    "city": "金沢市",
    "category": "community_day_service",
    "serviceType": "地域密着型通所介護",
    "capacity": 25,
    "openDays": [
      "平日",
      "土曜日"
    ],
    "openDaysNote": ""
  },
  {
    "id": "1790101271",
    "name": "ケアマート金澤表参道",
    "kana": "ケアマートカナザワオモテサンドウ",
    "address": "石川県金沢市安江町５－２１　２階優和ビル　２階 優和ビル　２階",
    "lat": 36.5757045,
    "lng": 136.6560052,
    "tel": "076-260-1334",
    "url": "",
    "pref": "石川県",
    "city": "金沢市",
    "category": "community_day_service",
    "serviceType": "地域密着型通所介護",
    "capacity": 0,
    "openDays": [
      "平日",
      "土曜日"
    ],
    "openDaysNote": ""
  },
  {
    "id": "1770102653",
    "name": "コープいしかわケアセンター金沢　デイサービスこーぷあいあい",
    "kana": "コープイシカワケアセンターカナザワ　デイサービスコープアイアイ",
    "address": "入江2-384",
    "lat": 36.5681988,
    "lng": 136.6265734,
    "tel": "076-292-3390",
    "url": "http://www.ishikawa.coop/index.php",
    "pref": "石川県",
    "city": "金沢市",
    "category": "community_day_service",
    "serviceType": "地域密着型通所介護",
    "capacity": 40,
    "openDays": [
      "平日",
      "土曜日",
      "祝日"
    ],
    "openDaysNote": ""
  },
  {
    "id": "1770104139",
    "name": "こみけあデイサービス光が丘弐番館",
    "kana": "コミケアデイサービスヒカリガオカニバンカン",
    "address": "金沢市光が丘3丁目1番地こみけあ光が丘弐番館 こみけあ光が丘弐番館",
    "lat": 36.5148191,
    "lng": 136.6266946,
    "tel": "076-259-1778",
    "url": "http://www.komicare.co.ｊp",
    "pref": "石川県",
    "city": "金沢市",
    "category": "community_day_service",
    "serviceType": "地域密着型通所介護",
    "capacity": 10,
    "openDays": [
      "平日",
      "祝日"
    ],
    "openDaysNote": "時間外の電話対応可"
  },
  {
    "id": "1770104584",
    "name": "シミユトランクセンター",
    "kana": "シミユトランクセンター",
    "address": "金沢市高畠2丁目35番地2",
    "lat": 36.5696762,
    "lng": 136.6116581,
    "tel": "076－259－0305",
    "url": "",
    "pref": "石川県",
    "city": "金沢市",
    "category": "community_day_service",
    "serviceType": "地域密着型通所介護",
    "capacity": 0,
    "openDays": [
      "平日",
      "土曜日"
    ],
    "openDaysNote": ""
  },
  {
    "id": "1790100851",
    "name": "すまいる千木",
    "kana": "スマイルセンギ",
    "address": "石川県金沢市千木町ヲ1-1",
    "lat": 36.6107744,
    "lng": 136.6693607,
    "tel": "076-258-5615",
    "url": "",
    "pref": "石川県",
    "city": "金沢市",
    "category": "community_day_service",
    "serviceType": "地域密着型通所介護",
    "capacity": 10,
    "openDays": [
      "平日",
      "土曜日",
      "祝日"
    ],
    "openDaysNote": ""
  },
  {
    "id": "1770105193",
    "name": "ちき・かふぇ",
    "kana": "チキ・カフェ",
    "address": "石川県金沢市高尾台2丁目102番地",
    "lat": 36.5240542,
    "lng": 136.6310664,
    "tel": "076-207-3917",
    "url": "chiki0411.jimdo.com",
    "pref": "石川県",
    "city": "金沢市",
    "category": "community_day_service",
    "serviceType": "地域密着型通所介護",
    "capacity": 0,
    "openDays": [
      "平日",
      "土曜日",
      "祝日"
    ],
    "openDaysNote": "なし"
  },
  {
    "id": "1770104295",
    "name": "ちきちき",
    "kana": "チキチキ",
    "address": "石川県金沢市三馬1丁目281番地",
    "lat": 36.5247292,
    "lng": 136.6328773,
    "tel": "076－205－5443",
    "url": "http://chiki0411.jimdo.com",
    "pref": "石川県",
    "city": "金沢市",
    "category": "community_day_service",
    "serviceType": "地域密着型通所介護",
    "capacity": 12,
    "openDays": [
      "平日",
      "土曜日",
      "祝日"
    ],
    "openDaysNote": ""
  },
  {
    "id": "1770102414",
    "name": "ちょっこりネットみんちか",
    "kana": "チョッコリネットミンチカ",
    "address": "金沢市北安江4丁目26番2号",
    "lat": 36.5874494,
    "lng": 136.642119,
    "tel": "076-263-8883",
    "url": "https://mintika55.amebaownd.com/",
    "pref": "石川県",
    "city": "金沢市",
    "category": "community_day_service",
    "serviceType": "地域密着型通所介護",
    "capacity": 10,
    "openDays": [
      "平日",
      "祝日"
    ],
    "openDaysNote": "月・水・木・土曜日は認知症対応型通所介護"
  },
  {
    "id": "1770104253",
    "name": "ディーサービスうちここ",
    "kana": "ディーサービス　ウチココ",
    "address": "高尾台２丁目149番地",
    "lat": 36.5227709,
    "lng": 136.6282889,
    "tel": "076-227-9393",
    "url": "",
    "pref": "石川県",
    "city": "金沢市",
    "category": "community_day_service",
    "serviceType": "地域密着型通所介護",
    "capacity": 17,
    "openDays": [
      "平日",
      "祝日"
    ],
    "openDaysNote": "１月１日～１月２日は休業"
  },
  {
    "id": "1790101321",
    "name": "デイサービス　クイーンオランジュ",
    "kana": "デイサービス　クイーンオランジュ",
    "address": "石川県金沢市鞍月東1丁目６番地",
    "lat": 36.593392,
    "lng": 136.6295663,
    "tel": "076-237-8200",
    "url": "",
    "pref": "石川県",
    "city": "金沢市",
    "category": "community_day_service",
    "serviceType": "地域密着型通所介護",
    "capacity": 0,
    "openDays": [
      "平日",
      "祝日"
    ],
    "openDaysNote": ""
  },
  {
    "id": "1790100893",
    "name": "デイサービス　ケアマート",
    "kana": "デイサービス　ケアマート",
    "address": "石川県金沢市暁町9-7",
    "lat": 36.5630475,
    "lng": 136.6731179,
    "tel": "076-224-1225",
    "url": "",
    "pref": "石川県",
    "city": "金沢市",
    "category": "community_day_service",
    "serviceType": "地域密着型通所介護",
    "capacity": 0,
    "openDays": [
      "平日",
      "土曜日"
    ],
    "openDaysNote": ""
  },
  {
    "id": "1770102687",
    "name": "ディサービス　のんび～っと",
    "kana": "ディサービス　ノンビ～ット",
    "address": "金沢市疋田２丁目９４",
    "lat": 36.6027645,
    "lng": 136.6750216,
    "tel": "076-204-8900",
    "url": "https://www.kanazawa-fukushi.co.jp/",
    "pref": "石川県",
    "city": "金沢市",
    "category": "community_day_service",
    "serviceType": "地域密着型通所介護",
    "capacity": 18,
    "openDays": [
      "平日",
      "祝日"
    ],
    "openDaysNote": "年末年始は、暦（曜日）の状況より、営業を実施する場合も有ります。"
  },
  {
    "id": "1770104535",
    "name": "デイサービスGGフィットネス金沢",
    "kana": "デイサービスジージーフィットネスカナザワ",
    "address": "金沢市大豆田本町甲534",
    "lat": 36.5731289,
    "lng": 136.6335228,
    "tel": "076-222-1544",
    "url": "",
    "pref": "石川県",
    "city": "金沢市",
    "category": "community_day_service",
    "serviceType": "地域密着型通所介護",
    "capacity": 0,
    "openDays": [
      "平日",
      "土曜日"
    ],
    "openDaysNote": "お盆休み、年末年始のお休みあり。"
  },
  {
    "id": "1790101313",
    "name": "デイサービスLIVEALIVE",
    "kana": "デイサービスライブアライブ",
    "address": "石川県金沢市福久1丁目114番地",
    "lat": 36.6181527321414,
    "lng": 136.680542669975,
    "tel": "076-255-6350",
    "url": "https://give-livealive.com/",
    "pref": "石川県",
    "city": "金沢市",
    "category": "community_day_service",
    "serviceType": "地域密着型通所介護",
    "capacity": 0,
    "openDays": [
      "平日",
      "祝日"
    ],
    "openDaysNote": "午前の部　8：00～12：00（改行）午後の部　13：15～16：15"
  },
  {
    "id": "1770104725",
    "name": "デイサービスあみ",
    "kana": "デイサービスアミ",
    "address": "石川県金沢市鈴見台５丁目2番20号",
    "lat": 36.5661665,
    "lng": 136.6853337,
    "tel": "076-256-1137",
    "url": "www.koushiami.co.jp/",
    "pref": "石川県",
    "city": "金沢市",
    "category": "community_day_service",
    "serviceType": "地域密着型通所介護",
    "capacity": 10,
    "openDays": [
      "平日",
      "土曜日",
      "祝日"
    ],
    "openDaysNote": "祝日も営業する。"
  },
  {
    "id": "1770103495",
    "name": "デイサービスうらうら",
    "kana": "デイサービスウラウラ",
    "address": "石川県金沢市諸江町下丁２８９番地３",
    "lat": 36.6035376771552,
    "lng": 136.647074182761,
    "tel": "076-225-8842",
    "url": "day-uraura.com",
    "pref": "石川県",
    "city": "金沢市",
    "category": "community_day_service",
    "serviceType": "地域密着型通所介護",
    "capacity": 2,
    "openDays": [
      "平日",
      "祝日"
    ],
    "openDaysNote": "但し8/13～15、12/29～1/3は休み"
  },
  {
    "id": "1770105557",
    "name": "デイサービスきたえるーむ金沢高尾台",
    "kana": "デイサービスキタエルームカナザワタカオダイ",
    "address": "石川県金沢市高尾台1丁目79",
    "lat": 36.5240044,
    "lng": 136.6367714,
    "tel": "076-220-7823",
    "url": "http://kitaeroom.com/shop/post-75.shtml",
    "pref": "石川県",
    "city": "金沢市",
    "category": "community_day_service",
    "serviceType": "地域密着型通所介護",
    "capacity": 15,
    "openDays": [
      "平日",
      "土曜日"
    ],
    "openDaysNote": ""
  },
  {
    "id": "1790101297",
    "name": "デイサービスぎふと",
    "kana": "デイサービスギフト",
    "address": "石川県金沢市南新保町へ３４番地",
    "lat": 36.5979886,
    "lng": 136.6346944,
    "tel": "076-254-5940",
    "url": "",
    "pref": "石川県",
    "city": "金沢市",
    "category": "community_day_service",
    "serviceType": "地域密着型通所介護",
    "capacity": 0,
    "openDays": [
      "平日",
      "土曜日",
      "祝日"
    ],
    "openDaysNote": ""
  },
  {
    "id": "1770104915",
    "name": "デイサービスしらさぎ",
    "kana": "デイサービスシラサギ",
    "address": "割出町186番地",
    "lat": 36.6039471,
    "lng": 136.641688,
    "tel": "076-238-0520",
    "url": "http://www.shirasagi-en.com",
    "pref": "石川県",
    "city": "金沢市",
    "category": "community_day_service",
    "serviceType": "地域密着型通所介護",
    "capacity": 10,
    "openDays": [
      "平日",
      "土曜日",
      "祝日"
    ],
    "openDaysNote": ""
  },
  {
    "id": "1770104907",
    "name": "デイサービスセンター　Paradis　de　Vieillards",
    "kana": "デイサービスセンター　パラディ　ドゥ　ウ゛ィェヤール",
    "address": "石川県金沢市泉が丘１丁目３－８５",
    "lat": 36.5459758887352,
    "lng": 136.647154930619,
    "tel": "０７６（２４７）００２４",
    "url": "https://kihoukai.jp",
    "pref": "石川県",
    "city": "金沢市",
    "category": "community_day_service",
    "serviceType": "地域密着型通所介護",
    "capacity": 15,
    "openDays": [
      "平日",
      "土曜日",
      "祝日"
    ],
    "openDaysNote": "祝⽇は⽇曜⽇以外は定休⽇とはならず。"
  },
  {
    "id": "1770105219",
    "name": "デイサービスセンター　菜の花かなざわ",
    "kana": "デイサービスセンター　ナノハナカナザワ",
    "address": "石川県金沢市駅西本町6丁目15ー8藤江南ハイム1階 藤江南ハイム1階",
    "lat": 36.5854803435398,
    "lng": 136.624698437621,
    "tel": "076-221-1187",
    "url": "http://www.meihou-kai.jp",
    "pref": "石川県",
    "city": "金沢市",
    "category": "community_day_service",
    "serviceType": "地域密着型通所介護",
    "capacity": 0,
    "openDays": [
      "平日",
      "土曜日",
      "祝日"
    ],
    "openDaysNote": ""
  },
  {
    "id": "1790101230",
    "name": "デイサービスセンターあかつき",
    "kana": "デイサービスセンターアカツキ",
    "address": "石川県金沢市平和町1丁目2番28号",
    "lat": 36.5384327,
    "lng": 136.6636641,
    "tel": "076-242-2378",
    "url": "http://www.seishi.isg.or.jp/akatsuki/index.html",
    "pref": "石川県",
    "city": "金沢市",
    "category": "community_day_service",
    "serviceType": "地域密着型通所介護",
    "capacity": 15,
    "openDays": [
      "平日",
      "土曜日",
      "祝日"
    ],
    "openDaysNote": "但し、定休日は12月30日が日曜日の場合は30日から、1月4日が日曜日の場合は、4日まで休業となります。（改行）また、臨時的に休業日を設ける事があります。"
  },
  {
    "id": "1770103230",
    "name": "デイサービスなんぶやすらぎ",
    "kana": "デイサービスナンブヤスラギ",
    "address": "石川県金沢市弥生3丁目2番1号",
    "lat": 36.5438577,
    "lng": 136.6431761,
    "tel": "076-241-9600",
    "url": "http//yasuragi39.com/",
    "pref": "石川県",
    "city": "金沢市",
    "category": "community_day_service",
    "serviceType": "地域密着型通所介護",
    "capacity": null,
    "openDays": [
      "平日",
      "土曜日",
      "祝日"
    ],
    "openDaysNote": ""
  },
  {
    "id": "1770103040",
    "name": "デイサービスふきのとう",
    "kana": "デイサービスフキノトウ",
    "address": "金沢市額谷２丁目４５番地",
    "lat": 36.5092058,
    "lng": 136.6252725,
    "tel": "０７６－２８７－０２３３",
    "url": "http://hp.kaipoke.biz/fx0/",
    "pref": "石川県",
    "city": "金沢市",
    "category": "community_day_service",
    "serviceType": "地域密着型通所介護",
    "capacity": 0,
    "openDays": [
      "平日",
      "土曜日",
      "祝日"
    ],
    "openDaysNote": ""
  },
  {
    "id": "1790100695",
    "name": "デイサービスほやね城北",
    "kana": "デイサービスホヤネジョウホク",
    "address": "石川県金沢市浅野本町2丁目18番26号",
    "lat": 36.5843612,
    "lng": 136.6596847,
    "tel": "076－208－3160",
    "url": "http://yumefukushi.jp",
    "pref": "石川県",
    "city": "金沢市",
    "category": "community_day_service",
    "serviceType": "地域密着型通所介護",
    "capacity": 18,
    "openDays": [
      "平日",
      "祝日"
    ],
    "openDaysNote": "1日2単位制　午前の部9：00～12：05　午後の部13：30～16：35"
  },
  {
    "id": "1790101388",
    "name": "デイサービスみらい・太陽丘",
    "kana": "デイサービスミライタイヨウガオカ",
    "address": "石川県金沢市太陽が丘３丁目１－１",
    "lat": 36.5322145,
    "lng": 136.7081902,
    "tel": "076-233-2225",
    "url": "http://chuoufukufhikai.jp/day-m/",
    "pref": "石川県",
    "city": "金沢市",
    "category": "community_day_service",
    "serviceType": "地域密着型通所介護",
    "capacity": 0,
    "openDays": [
      "平日",
      "土曜日",
      "祝日"
    ],
    "openDaysNote": ""
  },
  {
    "id": "1770101747",
    "name": "デイサービスみんなのいえ",
    "kana": "デイサービスミンナノイエ",
    "address": "金沢市矢木2丁目335番地",
    "lat": 36.5569694,
    "lng": 136.5943801,
    "tel": "０７６－２６９－４８８０",
    "url": "",
    "pref": "石川県",
    "city": "金沢市",
    "category": "community_day_service",
    "serviceType": "地域密着型通所介護",
    "capacity": 12,
    "openDays": [
      "平日",
      "土曜日",
      "祝日"
    ],
    "openDaysNote": ""
  },
  {
    "id": "1770104188",
    "name": "デイサービスりん",
    "kana": "デイサービスリン",
    "address": "石川県金沢市神宮寺2丁目１５－１３",
    "lat": 36.5869081,
    "lng": 136.6684381,
    "tel": "076-254-1795",
    "url": "",
    "pref": "石川県",
    "city": "金沢市",
    "category": "community_day_service",
    "serviceType": "地域密着型通所介護",
    "capacity": 10,
    "openDays": [
      "平日",
      "土曜日",
      "日曜日",
      "祝日"
    ],
    "openDaysNote": ""
  },
  {
    "id": "1770104824",
    "name": "はんなり",
    "kana": "ハンナリ",
    "address": "高尾南2丁目31番地",
    "lat": 36.5182493,
    "lng": 136.6317358,
    "tel": "０７６－２５９－１２２４",
    "url": "",
    "pref": "石川県",
    "city": "金沢市",
    "category": "community_day_service",
    "serviceType": "地域密着型通所介護",
    "capacity": 20,
    "openDays": [
      "平日",
      "土曜日",
      "祝日"
    ],
    "openDaysNote": "特別休日8月14日～8月16日、12月31日～1月3日（変更する場合あり）"
  },
  {
    "id": "1770104790",
    "name": "ひなげしの家",
    "kana": "ヒナゲシノイエ",
    "address": "石川県金沢市法光寺町214番地",
    "lat": 36.6021954,
    "lng": 136.6825737,
    "tel": "076-258-3080",
    "url": "",
    "pref": "石川県",
    "city": "金沢市",
    "category": "community_day_service",
    "serviceType": "地域密着型通所介護",
    "capacity": 10,
    "openDays": [
      "平日",
      "土曜日",
      "祝日"
    ],
    "openDaysNote": "人員が満たない日は通知の上休む場合があります。"
  },
  {
    "id": "1790100687",
    "name": "ひゃくまん星増泉　デイサービス",
    "kana": "ヒャクマンボシマスイズミ　デイサービス",
    "address": "石川県金沢市増泉1丁目16番41号",
    "lat": 36.5586254,
    "lng": 136.6448004,
    "tel": "076-280-1518",
    "url": "http://100manboshi.com/",
    "pref": "石川県",
    "city": "金沢市",
    "category": "community_day_service",
    "serviceType": "地域密着型通所介護",
    "capacity": 0,
    "openDays": [
      "平日",
      "土曜日",
      "祝日"
    ],
    "openDaysNote": ""
  },
  {
    "id": "1790100802",
    "name": "ふくし百選　デイサービス金沢",
    "kana": "フクシヒャクセン　デイサービスカナザワ",
    "address": "石川県金沢市窪7丁目271番地",
    "lat": 36.5307397,
    "lng": 136.6379991,
    "tel": "076-287-3885",
    "url": "http://www.hs-k.co.jp",
    "pref": "石川県",
    "city": "金沢市",
    "category": "community_day_service",
    "serviceType": "地域密着型通所介護",
    "capacity": 24,
    "openDays": [
      "平日",
      "祝日"
    ],
    "openDaysNote": ""
  },
  {
    "id": "1790100836",
    "name": "プラトーケアセンター疋田",
    "kana": "プラトーケアセンターヒキダ",
    "address": "石川県金沢市疋田1丁目26番地",
    "lat": 36.6040447099984,
    "lng": 136.67025703186,
    "tel": "076-251-2126",
    "url": "",
    "pref": "石川県",
    "city": "金沢市",
    "category": "community_day_service",
    "serviceType": "地域密着型通所介護",
    "capacity": 0,
    "openDays": [
      "平日",
      "土曜日"
    ],
    "openDaysNote": ""
  },
  {
    "id": "1770103917",
    "name": "プラトーこころとからだの健康回復センター神宮寺店",
    "kana": "プラトーココロトカラダノケンコウカイフクセンタージングウジテン",
    "address": "石川県金沢市神宮寺3-11-3",
    "lat": 36.5872775,
    "lng": 136.6665702,
    "tel": "076-255-0837",
    "url": "",
    "pref": "石川県",
    "city": "金沢市",
    "category": "community_day_service",
    "serviceType": "地域密着型通所介護",
    "capacity": 10,
    "openDays": [
      "平日",
      "土曜日"
    ],
    "openDaysNote": ""
  },
  {
    "id": "1770104576",
    "name": "プラトーリハセンター千日町５号店",
    "kana": "プラトーリハセンターセンニチマチゴゴウテン",
    "address": "金沢市千日町９番２７号グリーンソサエティー犀川１階 グリーンソサエティー犀川１階",
    "lat": 36.5619119457596,
    "lng": 136.645837615344,
    "tel": "０７６－２２０－６３８６",
    "url": "http://pds-plateau.com/",
    "pref": "石川県",
    "city": "金沢市",
    "category": "community_day_service",
    "serviceType": "地域密着型通所介護",
    "capacity": 18,
    "openDays": [
      "平日",
      "土曜日"
    ],
    "openDaysNote": ""
  },
  {
    "id": "1770105409",
    "name": "プラトーリハセンター北安江２号店",
    "kana": "プラトーリハセンターキタヤスエニゴウテン",
    "address": "金沢市北安江１丁目９番１７号",
    "lat": 36.5836556,
    "lng": 136.6519658,
    "tel": "076-208-3397",
    "url": "http:pds-plateau.com/",
    "pref": "石川県",
    "city": "金沢市",
    "category": "community_day_service",
    "serviceType": "地域密着型通所介護",
    "capacity": 15,
    "openDays": [
      "平日",
      "土曜日"
    ],
    "openDaysNote": ""
  },
  {
    "id": "1770104774",
    "name": "ほっとスパ兼六",
    "kana": "ホットスパケンロク",
    "address": "田井町10-26",
    "lat": 36.5600645,
    "lng": 136.6782955,
    "tel": "076-256-1475",
    "url": "",
    "pref": "石川県",
    "city": "金沢市",
    "category": "community_day_service",
    "serviceType": "地域密着型通所介護",
    "capacity": 4,
    "openDays": [
      "平日"
    ],
    "openDaysNote": ""
  },
  {
    "id": "1770103883",
    "name": "マナの家　木曳野　デイサービス",
    "kana": "マナノイエ　キビキノ　デイサービス",
    "address": "石川県金沢市木曳野2丁目150番地",
    "lat": 36.5997471,
    "lng": 136.605002,
    "tel": "076-255-6006",
    "url": "http://mananoie.com",
    "pref": "石川県",
    "city": "金沢市",
    "category": "community_day_service",
    "serviceType": "地域密着型通所介護",
    "capacity": 18,
    "openDays": [
      "平日",
      "土曜日",
      "祝日"
    ],
    "openDaysNote": ""
  },
  {
    "id": "1770104741",
    "name": "もりトレ　デイサービス",
    "kana": "モリトレ　デイサービス",
    "address": "吉原町ヨ142ブルーメアベニュー1階 ブルーメアベニュー1階",
    "lat": 36.6109777,
    "lng": 136.691567,
    "tel": "076-256-1411",
    "url": "",
    "pref": "石川県",
    "city": "金沢市",
    "category": "community_day_service",
    "serviceType": "地域密着型通所介護",
    "capacity": 9,
    "openDays": [
      "平日",
      "土曜日"
    ],
    "openDaysNote": "お盆、年末年始の休日あり（改行）（改行）定休日であっても、災害時の休業や、事業所の都合による休業の代替日の為、営業することがある。"
  },
  {
    "id": "1770105284",
    "name": "リハビリ＆フィットネス　寿リハ駅西",
    "kana": "リハビリアンドフィットネス　ジュリハエキニシ",
    "address": "石川県金沢市駅西新町3丁目18番19号",
    "lat": 36.5929438443114,
    "lng": 136.637270074511,
    "tel": "076-224-0270",
    "url": "http://aimkaigo.fitness-aim.com/",
    "pref": "石川県",
    "city": "金沢市",
    "category": "community_day_service",
    "serviceType": "地域密着型通所介護",
    "capacity": 202,
    "openDays": [
      "平日",
      "祝日"
    ],
    "openDaysNote": "月曜日～金曜日（改行）午前のクラス9：00～12：00（改行）午後のクラス13：15～16：15"
  },
  {
    "id": "1790100737",
    "name": "リハビリ＆フィットネス　寿リハ神宮寺",
    "kana": "リハビリアンドフィットネス　ジュリハ　ジングウジ",
    "address": "石川県金沢市神宮寺2丁目１５－１",
    "lat": 53.41291,
    "lng": -8.24388999999996,
    "tel": "076-251-0520",
    "url": "http://aimkaigo.fitness-aim.com/k_company/",
    "pref": "石川県",
    "city": "金沢市",
    "category": "community_day_service",
    "serviceType": "地域密着型通所介護",
    "capacity": 100,
    "openDays": [
      "平日",
      "祝日"
    ],
    "openDaysNote": ""
  },
  {
    "id": "1790101115",
    "name": "リハビリ＆フィットネス　寿リハ泉野",
    "kana": "リハビリアンドフィットネス　ジュリハイズミノ",
    "address": "石川県金沢市泉野出町4-3-35",
    "lat": 36.5349929,
    "lng": 136.648207,
    "tel": "076-242-0240",
    "url": "http://aimkaigo.fitness-aim.com/",
    "pref": "石川県",
    "city": "金沢市",
    "category": "community_day_service",
    "serviceType": "地域密着型通所介護",
    "capacity": null,
    "openDays": [
      "平日",
      "祝日"
    ],
    "openDaysNote": "12/30～1/3、8/14～8/16はお休み"
  },
  {
    "id": "1790100976",
    "name": "リハビリ＆フィットネス寿リハ　新神田",
    "kana": "リハビリアンドフィットネス　ジュリハシンカンダ",
    "address": "石川県金沢市新神田4-7-9",
    "lat": 36.5613511,
    "lng": 136.6280663,
    "tel": "076-292-0230",
    "url": "http://aimkaigo.fitness-aim.com/",
    "pref": "石川県",
    "city": "金沢市",
    "category": "community_day_service",
    "serviceType": "地域密着型通所介護",
    "capacity": 0,
    "openDays": [
      "平日",
      "土曜日",
      "祝日"
    ],
    "openDaysNote": "祝日営業（改行）8/14～16夏季休業（改行）12/30～1/3冬季休業"
  },
  {
    "id": "1770105524",
    "name": "リハビリ＆フィットネス寿リハ小立野",
    "kana": "リハビリアンドフィットネス　ジュリハコダツノ",
    "address": "石川県金沢市小立野1丁目7-22",
    "lat": 36.5441025,
    "lng": 136.6830151,
    "tel": "076-233-0650",
    "url": "http://aimkaigo.fitness-aim.com/",
    "pref": "石川県",
    "city": "金沢市",
    "category": "community_day_service",
    "serviceType": "地域密着型通所介護",
    "capacity": 350,
    "openDays": [
      "平日",
      "祝日"
    ],
    "openDaysNote": "8月14日～16日、12月30日～1月3日"
  },
  {
    "id": "1770103933",
    "name": "運動機能回復センター・ファイン",
    "kana": "ウンドウキノウカイフクセンター・ファイン",
    "address": "石川県金沢市若草町１６－３０",
    "lat": 36.5418194,
    "lng": 136.6614831,
    "tel": "762414997",
    "url": "fine-dayservice.com",
    "pref": "石川県",
    "city": "金沢市",
    "category": "community_day_service",
    "serviceType": "地域密着型通所介護",
    "capacity": 10,
    "openDays": [
      "平日",
      "土曜日",
      "祝日"
    ],
    "openDaysNote": ""
  },
  {
    "id": "1770104006",
    "name": "株式会社　あゆみ",
    "kana": "カブシキガイシャ　アユミ",
    "address": "野町2丁目14番13号",
    "lat": 36.5562033,
    "lng": 136.646334,
    "tel": "247-0208",
    "url": "http://ayumigaden.com",
    "pref": "石川県",
    "city": "金沢市",
    "category": "community_day_service",
    "serviceType": "地域密着型通所介護",
    "capacity": 0,
    "openDays": [
      "平日",
      "土曜日",
      "祝日"
    ],
    "openDaysNote": ""
  },
  {
    "id": "1790100745",
    "name": "株式会社　オーセンティック",
    "kana": "カブシキガイシャ　オーセンティック",
    "address": "石川県金沢市福増町北432番地",
    "lat": 36.5683482,
    "lng": 136.5800146,
    "tel": "076-240-6827",
    "url": "",
    "pref": "石川県",
    "city": "金沢市",
    "category": "community_day_service",
    "serviceType": "地域密着型通所介護",
    "capacity": null,
    "openDays": [
      "平日",
      "土曜日"
    ],
    "openDaysNote": ""
  },
  {
    "id": "1790100810",
    "name": "社会福祉法人　森山善隣館　デイサービス寿クラブ",
    "kana": "シャカイフクシホウジンモリヤマゼンリンカン　デイサービスコトブキクラブ",
    "address": "石川県金沢市森山２丁目１８番４号",
    "lat": 36.5781788,
    "lng": 136.6671233,
    "tel": "076-252‐0817",
    "url": "info@m-zenrinkan.jp",
    "pref": "石川県",
    "city": "金沢市",
    "category": "community_day_service",
    "serviceType": "地域密着型通所介護",
    "capacity": 15,
    "openDays": [
      "平日",
      "土曜日",
      "祝日"
    ],
    "openDaysNote": "特になし"
  },
  {
    "id": "1790101073",
    "name": "樹楽ゆいの杜",
    "kana": "キラクユイノモリ",
    "address": "堅田町甲87",
    "lat": 36.6098274,
    "lng": 136.6987388,
    "tel": "076-257-7066",
    "url": "https://kiraku-yuinomori.com/",
    "pref": "石川県",
    "city": "金沢市",
    "category": "community_day_service",
    "serviceType": "地域密着型通所介護",
    "capacity": 0,
    "openDays": [
      "平日",
      "土曜日",
      "祝日"
    ],
    "openDaysNote": ""
  },
  {
    "id": "1790101354",
    "name": "樹楽旭なごみ園",
    "kana": "キラクアサヒナゴミエン",
    "address": "石川県金沢市旭町１丁目８番地４３",
    "lat": 36.5490072,
    "lng": 136.6859374,
    "tel": "762561540",
    "url": "",
    "pref": "石川県",
    "city": "金沢市",
    "category": "community_day_service",
    "serviceType": "地域密着型通所介護",
    "capacity": null,
    "openDays": [
      "平日",
      "土曜日",
      "日曜日",
      "祝日"
    ],
    "openDaysNote": ""
  },
  {
    "id": "1790101008",
    "name": "清快舎ﾃﾞｲｻｰﾋﾞｽしらうめ",
    "kana": "セイカイシャ",
    "address": "石川県金沢市茨木町10番地在宅健康センター清快舎 在宅健康センター清快舎",
    "lat": 36.5570811,
    "lng": 136.6573254,
    "tel": "076-256-0101",
    "url": "seikaisya@bijyoukai.net",
    "pref": "石川県",
    "city": "金沢市",
    "category": "community_day_service",
    "serviceType": "地域密着型通所介護",
    "capacity": 0,
    "openDays": [
      "平日"
    ],
    "openDaysNote": ""
  },
  {
    "id": "1760190932",
    "name": "静港庵",
    "kana": "セイコウアン",
    "address": "金沢市金石北1-19-40",
    "lat": 36.6038992,
    "lng": 136.5995384,
    "tel": "076-268-2830",
    "url": "",
    "pref": "石川県",
    "city": "金沢市",
    "category": "community_day_service",
    "serviceType": "地域密着型通所介護",
    "capacity": 0,
    "openDays": [
      "平日",
      "祝日"
    ],
    "openDaysNote": ""
  },
  {
    "id": "1790101206",
    "name": "石川県金沢市弥生2丁目2番20号",
    "kana": "イシカワケンカナザワシヤヨイ",
    "address": "石川県金沢市弥生2丁目2番20号",
    "lat": 36.547135,
    "lng": 136.6430735,
    "tel": "076-241-7777",
    "url": "www.tokinoen.com",
    "pref": "石川県",
    "city": "金沢市",
    "category": "community_day_service",
    "serviceType": "地域密着型通所介護",
    "capacity": null,
    "openDays": [
      "平日",
      "土曜日",
      "日曜日",
      "祝日"
    ],
    "openDaysNote": ""
  },
  {
    "id": "1770105383",
    "name": "想愛　高尾台",
    "kana": "ソウアイ　タカオダイ",
    "address": "石川県金沢市高尾台１丁目７４番地",
    "lat": 36.5240356924755,
    "lng": 136.636151596612,
    "tel": "076-214-6633",
    "url": "www.suncare-life.com",
    "pref": "石川県",
    "city": "金沢市",
    "category": "community_day_service",
    "serviceType": "地域密着型通所介護",
    "capacity": 0,
    "openDays": [
      "平日",
      "土曜日",
      "祝日"
    ],
    "openDaysNote": ""
  },
  {
    "id": "1790101107",
    "name": "想愛　泉本町",
    "kana": "ソウアイ　イズミホンマチ",
    "address": "石川県金沢市泉本町2丁目48番地",
    "lat": 36.5488199,
    "lng": 136.6379371,
    "tel": "076-208-9050",
    "url": "www.suncare-life.com",
    "pref": "石川県",
    "city": "金沢市",
    "category": "community_day_service",
    "serviceType": "地域密着型通所介護",
    "capacity": null,
    "openDays": [
      "平日",
      "土曜日",
      "祝日"
    ],
    "openDaysNote": ""
  },
  {
    "id": "1770105375",
    "name": "想愛畝田デイサービス",
    "kana": "ソウアイウネダデイサービス",
    "address": "石川県金沢市畝田東3丁目545番地",
    "lat": 36.5956818432359,
    "lng": 136.615634378188,
    "tel": "076-254-0066",
    "url": "",
    "pref": "石川県",
    "city": "金沢市",
    "category": "community_day_service",
    "serviceType": "地域密着型通所介護",
    "capacity": 0,
    "openDays": [
      "平日",
      "土曜日",
      "祝日"
    ],
    "openDaysNote": "国民の祝日も営業（改行）１月１日　２日は休業"
  },
  {
    "id": "1790101172",
    "name": "想愛入江デイサービス",
    "kana": "ソウアイイリエデイサービス",
    "address": "石川県金沢市入江３丁目153番地2",
    "lat": 36.5687586,
    "lng": 136.6229762,
    "tel": "076-214-6530",
    "url": "http://www.suncare-life.com/",
    "pref": "石川県",
    "city": "金沢市",
    "category": "community_day_service",
    "serviceType": "地域密着型通所介護",
    "capacity": 0,
    "openDays": [
      "平日",
      "土曜日",
      "祝日"
    ],
    "openDaysNote": "コロナ感染状況により、休業することがあります。"
  },
  {
    "id": "1770104998",
    "name": "地域密着型通所介護事業所　　ふくわらい",
    "kana": "チイキミッチャクガタツウショカイゴジギョウショ　　フクワライ",
    "address": "石川県金沢市横川５丁目２１番地",
    "lat": 36.541794,
    "lng": 136.6299609,
    "tel": "０７６－２５９－６８２９",
    "url": "http://www.hakusoukai.jp",
    "pref": "石川県",
    "city": "金沢市",
    "category": "community_day_service",
    "serviceType": "地域密着型通所介護",
    "capacity": 0,
    "openDays": [
      "平日",
      "祝日"
    ],
    "openDaysNote": "年末年始は休業"
  },
  {
    "id": "1790100729",
    "name": "茶話本舗デイサービスいずみの亭",
    "kana": "サワホンポデイサービスイズミノテイ",
    "address": "石川県金沢市泉野出町2丁目20-8",
    "lat": 36.5371838,
    "lng": 136.6532838,
    "tel": "076-287-3814",
    "url": "",
    "pref": "石川県",
    "city": "金沢市",
    "category": "community_day_service",
    "serviceType": "地域密着型通所介護",
    "capacity": 0,
    "openDays": [
      "平日",
      "土曜日",
      "日曜日",
      "祝日"
    ],
    "openDaysNote": ""
  },
  {
    "id": "1790100661",
    "name": "米丸デイサ－ビスセンタ－あすなろ苑",
    "kana": "ヨネマルデイサービスセンターアスナロエン",
    "address": "石川県金沢市東力町ハ284番地",
    "lat": 36.5616661,
    "lng": 136.6184716,
    "tel": "076-292-3583",
    "url": "https://yonemaruasunaroen.sakura.com",
    "pref": "石川県",
    "city": "金沢市",
    "category": "community_day_service",
    "serviceType": "地域密着型通所介護",
    "capacity": 15,
    "openDays": [
      "平日",
      "土曜日"
    ],
    "openDaysNote": ""
  },
  {
    "id": "1790100794",
    "name": "末町スマイルデイサービス",
    "kana": "スエマチスマイルデイサービス",
    "address": "石川県金沢市末町12-67-7ベルシャトー1階 ベルシャトー1階",
    "lat": 36.5202308,
    "lng": 136.6873567,
    "tel": "076-255-1414",
    "url": "",
    "pref": "石川県",
    "city": "金沢市",
    "category": "community_day_service",
    "serviceType": "地域密着型通所介護",
    "capacity": 0,
    "openDays": [
      "平日",
      "土曜日"
    ],
    "openDaysNote": ""
  },
  {
    "id": "1791500133",
    "name": "ファミリータイズ・歩っ歩",
    "kana": "ファミリータイズ・ポッポ",
    "address": "石川県羽咋郡志賀町米町ルの5番地",
    "lat": 37.0588454461078,
    "lng": 136.77963165687,
    "tel": "0767-38-1878",
    "url": "",
    "pref": "石川県",
    "city": "志賀町",
    "category": "community_day_service",
    "serviceType": "地域密着型通所介護",
    "capacity": 0,
    "openDays": [
      "平日",
      "土曜日",
      "祝日"
    ],
    "openDaysNote": "介護と予防(総合事業)の2事業所あり（改行）（改行）介護は1/1、毎週日曜日休業日とした（改行）予防は月、火及び12/30～1/3まで休業日とした　サービス提供時間は9：30～15：30"
  },
  {
    "id": "1770200564",
    "name": "ディサービスセンターそわじ浦",
    "kana": "ディサービスセンターソワジウラ",
    "address": "石川県七尾市能登島向田町ま50",
    "lat": 37.1417061553501,
    "lng": 137.015570132941,
    "tel": "0767-84-0695",
    "url": "http://hp.kaipoke.biz/ch7/",
    "pref": "石川県",
    "city": "七尾市",
    "category": "community_day_service",
    "serviceType": "地域密着型通所介護",
    "capacity": 15,
    "openDays": [
      "平日",
      "土曜日",
      "祝日"
    ],
    "openDaysNote": ""
  },
  {
    "id": "1770200473",
    "name": "ひなたぼっこ",
    "kana": "ヒナタボッコ",
    "address": "小丸山台３丁目１３番地２",
    "lat": 37.046829617873,
    "lng": 136.94963954418,
    "tel": "0767-57-5950",
    "url": "http://hinatabokko.site/",
    "pref": "石川県",
    "city": "七尾市",
    "category": "community_day_service",
    "serviceType": "地域密着型通所介護",
    "capacity": 18,
    "openDays": [
      "平日",
      "土曜日"
    ],
    "openDaysNote": ""
  },
  {
    "id": "1770500153",
    "name": "デイサービス鶴の恩返し・珠洲",
    "kana": "デイサービスツルノオンガエシ・スズ",
    "address": "石川県珠洲市若山町出田１０部３９番地４",
    "lat": 37.4458823,
    "lng": 137.2643552,
    "tel": "０７６８－８２－１１０５",
    "url": "",
    "pref": "石川県",
    "city": "珠洲市",
    "category": "community_day_service",
    "serviceType": "地域密着型通所介護",
    "capacity": 0,
    "openDays": [
      "平日",
      "土曜日",
      "日曜日",
      "祝日"
    ],
    "openDaysNote": ""
  },
  {
    "id": "1770300760",
    "name": "ウエルネスおきまち",
    "kana": "ウエルネスオキマチ",
    "address": "小松市沖町480番地",
    "lat": 36.3967887494072,
    "lng": 136.463517660519,
    "tel": "0761-46-6524",
    "url": "http://www.nishi-wellness.jp",
    "pref": "石川県",
    "city": "小松市",
    "category": "community_day_service",
    "serviceType": "地域密着型通所介護",
    "capacity": 18,
    "openDays": [
      "平日",
      "土曜日",
      "祝日"
    ],
    "openDaysNote": ""
  },
  {
    "id": "1770300091",
    "name": "デイサービスとも",
    "kana": "デイサービストモ",
    "address": "小松市野田町丙110番地1",
    "lat": 36.4285116,
    "lng": 136.4791904,
    "tel": "0761-23-3336",
    "url": "",
    "pref": "石川県",
    "city": "小松市",
    "category": "community_day_service",
    "serviceType": "地域密着型通所介護",
    "capacity": 0,
    "openDays": [
      "平日",
      "土曜日",
      "祝日"
    ],
    "openDaysNote": ""
  },
  {
    "id": "1770300877",
    "name": "リハビリ長寿～小松みなみ道場～",
    "kana": "リハビリチョウジュ　コマツミナミドウジョウ",
    "address": "今江町9-357",
    "lat": 36.3692954,
    "lng": 136.4342961,
    "tel": "0761-44-5665",
    "url": "http://www.tyouju.co.jp/",
    "pref": "石川県",
    "city": "小松市",
    "category": "community_day_service",
    "serviceType": "地域密着型通所介護",
    "capacity": 0,
    "openDays": [
      "平日",
      "祝日"
    ],
    "openDaysNote": ""
  },
  {
    "id": "1760390821",
    "name": "リハビリ長寿～上小松道場～",
    "kana": "リハビリチョウジュ　カミコマツドウジョウ",
    "address": "石川県小松市上小松町丙41-1",
    "lat": 36.407889,
    "lng": 136.4642863,
    "tel": "0761-22-0015",
    "url": "http://www.tyouju.co.jp/",
    "pref": "石川県",
    "city": "小松市",
    "category": "community_day_service",
    "serviceType": "地域密着型通所介護",
    "capacity": null,
    "openDays": [
      "平日",
      "祝日"
    ],
    "openDaysNote": ""
  },
  {
    "id": "1770300869",
    "name": "リハビリ長寿～稚松道場～",
    "kana": "リハビリチョウジュ　チショウドウジョウ",
    "address": "石川県小松市松任町115-3",
    "lat": 36.4115373,
    "lng": 136.4504344,
    "tel": "0761-23-5530",
    "url": "http://www.tyouju.co.jp/",
    "pref": "石川県",
    "city": "小松市",
    "category": "community_day_service",
    "serviceType": "地域密着型通所介護",
    "capacity": 0,
    "openDays": [
      "平日",
      "祝日"
    ],
    "openDaysNote": ""
  },
  {
    "id": "1770300612",
    "name": "愛らんど萌寿デイサービスセンター",
    "kana": "アイランドモスデイサービスセンター",
    "address": "石川県小松市波佐谷町東６４番地",
    "lat": 36.3388637,
    "lng": 136.4797146,
    "tel": "0761-46-1112",
    "url": "",
    "pref": "石川県",
    "city": "小松市",
    "category": "community_day_service",
    "serviceType": "地域密着型通所介護",
    "capacity": 15,
    "openDays": [
      "平日",
      "土曜日",
      "祝日"
    ],
    "openDaysNote": "上記定休日（日曜日）以外に、１月１日～１月３日の３日間は休み。"
  },
  {
    "id": "1770300554",
    "name": "三草二木　西圓寺",
    "kana": "サンソウニモク　サイエンジ",
    "address": "石川県小松市野田町丁68番",
    "lat": 36.4316694,
    "lng": 136.4792153,
    "tel": "0761-48-7773",
    "url": "http://www.bussien.com",
    "pref": "石川県",
    "city": "小松市",
    "category": "community_day_service",
    "serviceType": "地域密着型通所介護",
    "capacity": 2,
    "openDays": [
      "平日"
    ],
    "openDaysNote": "特になし"
  },
  {
    "id": "1710311232",
    "name": "小松みなみ診療所",
    "kana": "コマツミナミシンリョウショ",
    "address": "小松市下粟津町み１",
    "lat": 36.3457771,
    "lng": 136.4335992,
    "tel": "0761-43-0375",
    "url": "http://ishikawa-kinikyo.jp/komatu/",
    "pref": "石川県",
    "city": "小松市",
    "category": "community_day_service",
    "serviceType": "地域密着型通所介護",
    "capacity": 18,
    "openDays": [
      "平日"
    ],
    "openDaysNote": ""
  },
  {
    "id": "1770300638",
    "name": "里川の家",
    "kana": "サトカワノイエ",
    "address": "石川県小松市里川町ト125・127番地合併",
    "lat": 36.4169444,
    "lng": 136.5319718,
    "tel": "0761-47-0310",
    "url": "",
    "pref": "石川県",
    "city": "小松市",
    "category": "community_day_service",
    "serviceType": "地域密着型通所介護",
    "capacity": 0,
    "openDays": [
      "平日",
      "祝日"
    ],
    "openDaysNote": ""
  },
  {
    "id": "1771400700",
    "name": "ディサービス　ゆめ",
    "kana": "ディサービス　ユメ",
    "address": "石川県河北郡津幡町潟端そ３番地６",
    "lat": 36.6468787,
    "lng": 136.7115113,
    "tel": "076-289-6788",
    "url": "http://hp.kaipoke.biz/ukz",
    "pref": "石川県",
    "city": "津幡町",
    "category": "community_day_service",
    "serviceType": "地域密着型通所介護",
    "capacity": 10,
    "openDays": [
      "平日",
      "祝日"
    ],
    "openDaysNote": ""
  },
  {
    "id": "1791400136",
    "name": "デイサービス･ベル津幡",
    "kana": "デイサービス・ベルツバタ",
    "address": "石川県河北郡津幡町北中条5丁目82番地",
    "lat": 36.6625579,
    "lng": 136.7287919,
    "tel": "076-255-0243",
    "url": "https://nextbell.co.jp",
    "pref": "石川県",
    "city": "津幡町",
    "category": "community_day_service",
    "serviceType": "地域密着型通所介護",
    "capacity": 0,
    "openDays": [
      "平日",
      "土曜日",
      "祝日"
    ],
    "openDaysNote": ""
  },
  {
    "id": "1771400692",
    "name": "プラトーケアセンター内灘店",
    "kana": "プラトーケアセンターウチナダテン",
    "address": "石川県河北郡内灘町鶴ヶ丘4-1-144",
    "lat": 36.6421864,
    "lng": 136.6383343,
    "tel": "762018190",
    "url": "",
    "pref": "石川県",
    "city": "内灘町",
    "category": "community_day_service",
    "serviceType": "地域密着型通所介護",
    "capacity": 0,
    "openDays": [
      "平日"
    ],
    "openDaysNote": "その他、事業所の都合により休業日有り。"
  },
  {
    "id": "1771400627",
    "name": "ほっとデイサービス内灘",
    "kana": "ホットデイサービスウチナダ",
    "address": "河北郡内灘町字向陽台1丁目315番地",
    "lat": 36.6403894,
    "lng": 136.6359178,
    "tel": "076-255-1669",
    "url": "",
    "pref": "石川県",
    "city": "内灘町",
    "category": "community_day_service",
    "serviceType": "地域密着型通所介護",
    "capacity": 10,
    "openDays": [
      "平日",
      "土曜日",
      "祝日"
    ],
    "openDaysNote": "1/1・1/2・1/3は休業させて頂きます"
  },
  {
    "id": "1791700154",
    "name": "デイサービスセンター多花楽",
    "kana": "デイサービスセンタータカラ",
    "address": "石川県鳳珠郡能登町字柳田信部1006番地能登町高齢者生活福祉センター 能登町高齢者生活福祉センター",
    "lat": 37.3693826491272,
    "lng": 137.085416183467,
    "tel": "0768-76-0980",
    "url": "",
    "pref": "石川県",
    "city": "能登町",
    "category": "community_day_service",
    "serviceType": "地域密着型通所介護",
    "capacity": 0,
    "openDays": [
      "平日",
      "土曜日",
      "日曜日",
      "祝日"
    ],
    "openDaysNote": "サービス延長時間　８時００分～９時１５分・１６時１５分～１８時００分"
  },
  {
    "id": "1771700356",
    "name": "七見デイサービスセンター",
    "kana": "シチミデイサービスセンター",
    "address": "石川県鳳珠郡能登町字七見ツ字100番地",
    "lat": 37.2665071,
    "lng": 137.0935873,
    "tel": "0768-67-8201",
    "url": "http://care-net.biz/17/houjyusou",
    "pref": "石川県",
    "city": "能登町",
    "category": "community_day_service",
    "serviceType": "地域密着型通所介護",
    "capacity": 0,
    "openDays": [
      "平日"
    ],
    "openDaysNote": "利用者は、事業所の施設、設備をその本来の用途に従って利用するものとする。"
  },
  {
    "id": "1791700139",
    "name": "小木デイサービスセンター",
    "kana": "オギデイサービスセンター",
    "address": "石川県鳳珠郡能登町字小木15字42番地2",
    "lat": 37.300332,
    "lng": 137.22334,
    "tel": "0768-74-1777",
    "url": "http://www.noto-shakyo.jp/",
    "pref": "石川県",
    "city": "能登町",
    "category": "community_day_service",
    "serviceType": "地域密着型通所介護",
    "capacity": 0,
    "openDays": [
      "平日",
      "土曜日",
      "祝日"
    ],
    "openDaysNote": ""
  },
  {
    "id": "1772300263",
    "name": "デイサービス　ちいちの華",
    "kana": "デイサービス　チイチノハナ",
    "address": "石川県能美市三ツ屋町96",
    "lat": 36.4533039,
    "lng": 136.549817,
    "tel": "0761-51-7622",
    "url": "",
    "pref": "石川県",
    "city": "能美市",
    "category": "community_day_service",
    "serviceType": "地域密着型通所介護",
    "capacity": 0,
    "openDays": [
      "平日",
      "土曜日",
      "祝日"
    ],
    "openDaysNote": ""
  },
  {
    "id": "1772300255",
    "name": "デイサービス灯(あかり)",
    "kana": "デイサービスアカリ(アカリ)",
    "address": "石川県能美市宮竹町161-1",
    "lat": 36.4556376,
    "lng": 136.5899159,
    "tel": "0761-51-3947",
    "url": "",
    "pref": "石川県",
    "city": "能美市",
    "category": "community_day_service",
    "serviceType": "地域密着型通所介護",
    "capacity": 15,
    "openDays": [
      "平日",
      "土曜日",
      "祝日"
    ],
    "openDaysNote": "※年末年始に関しては、カレンダーにより変動アリ"
  },
  {
    "id": "1772300420",
    "name": "リハビリ長寿～九谷道場～",
    "kana": "リハビリチョウジュ　クタニドウジョウ",
    "address": "石川県能美市和気町ヤ39-1",
    "lat": 36.4307061,
    "lng": 136.526164,
    "tel": "0761-51-5556",
    "url": "http://www.tyouju.co.jp/",
    "pref": "石川県",
    "city": "能美市",
    "category": "community_day_service",
    "serviceType": "地域密着型通所介護",
    "capacity": null,
    "openDays": [
      "平日",
      "祝日"
    ],
    "openDaysNote": ""
  },
  {
    "id": "1772300032",
    "name": "通所介護事業所和楽",
    "kana": "ツウショカイゴジギョウショワラク",
    "address": "能美市大成町2丁目69番1",
    "lat": 36.4485253150894,
    "lng": 136.465408988361,
    "tel": "0761-55-6008",
    "url": "http://www.slc-waraku.com",
    "pref": "石川県",
    "city": "能美市",
    "category": "community_day_service",
    "serviceType": "地域密着型通所介護",
    "capacity": 0,
    "openDays": [
      "平日",
      "土曜日",
      "祝日"
    ],
    "openDaysNote": "臨時休業の場合は、利用者に事前に通知します"
  },
  {
    "id": "1772200869",
    "name": "ごーるどくらぶ",
    "kana": "ゴールドクラブ",
    "address": "石川県白山市宮丸町1144番地",
    "lat": 36.5053476,
    "lng": 136.5524809,
    "tel": "076-274-7676",
    "url": "https://lifeone-hakusan.com/",
    "pref": "石川県",
    "city": "白山市",
    "category": "community_day_service",
    "serviceType": "地域密着型通所介護",
    "capacity": 0,
    "openDays": [
      "平日",
      "祝日"
    ],
    "openDaysNote": ""
  },
  {
    "id": "1772200497",
    "name": "デイサービス太陽のひだまり木津",
    "kana": "デイサービスタイヨウノヒダマリコウヅ",
    "address": "石川県白山市木津町１８４５",
    "lat": 36.500079,
    "lng": 136.5924644,
    "tel": "076-276-9933",
    "url": "http://www.sunwels.jp",
    "pref": "石川県",
    "city": "白山市",
    "category": "community_day_service",
    "serviceType": "地域密着型通所介護",
    "capacity": 17,
    "openDays": [
      "平日",
      "土曜日",
      "日曜日",
      "祝日"
    ],
    "openDaysNote": ""
  },
  {
    "id": "1792200212",
    "name": "プラトーケアセンター白山河内店",
    "kana": "プラトーケアセンターハクサンカワチテン",
    "address": "石川県白山市河内町きりの里62番地",
    "lat": 36.3904828,
    "lng": 136.6169785,
    "tel": "076-220-7139",
    "url": "http:pds-plateau.com/",
    "pref": "石川県",
    "city": "白山市",
    "category": "community_day_service",
    "serviceType": "地域密着型通所介護",
    "capacity": 0,
    "openDays": [
      "平日",
      "祝日"
    ],
    "openDaysNote": ""
  },
  {
    "id": "1772200711",
    "name": "やわらぎ太子の家美川",
    "kana": "ヤワラギタイシノイエミカワ",
    "address": "石川県白山市美川北町ル７３番１",
    "lat": 36.4871090829399,
    "lng": 136.484263611674,
    "tel": "076-282-7171",
    "url": "https://www.yawaragi.ne.jp/",
    "pref": "石川県",
    "city": "白山市",
    "category": "community_day_service",
    "serviceType": "地域密着型通所介護",
    "capacity": 14,
    "openDays": [
      "平日",
      "土曜日",
      "祝日"
    ],
    "openDaysNote": "令和６年の年末年始休業日はカレンダーを考慮して１２月３０日を営業し、１２月３１日～翌年１月３日を休業する"
  },
  {
    "id": "1772200802",
    "name": "三草二木　行善寺",
    "kana": "サンソウニモク　ギョウゼンジ",
    "address": "石川県白山市北安田548番地2",
    "lat": 36.5260972,
    "lng": 136.5519228,
    "tel": "076-275-0616",
    "url": "http://www.bussien.com",
    "pref": "石川県",
    "city": "白山市",
    "category": "community_day_service",
    "serviceType": "地域密着型通所介護",
    "capacity": 10,
    "openDays": [
      "平日",
      "土曜日",
      "祝日"
    ],
    "openDaysNote": "土曜日→第１・第５は開所。平日の祝日は開所。"
  },
  {
    "id": "1771300785",
    "name": "ちきそら",
    "kana": "チキソラ",
    "address": "石川県野々市市位川226番地",
    "lat": 36.5244794762093,
    "lng": 136.606048018385,
    "tel": "076-209-6906",
    "url": "http://chiki3.jimdofree.com",
    "pref": "石川県",
    "city": "野々市市",
    "category": "community_day_service",
    "serviceType": "地域密着型通所介護",
    "capacity": 15,
    "openDays": [
      "平日",
      "土曜日",
      "祝日"
    ],
    "openDaysNote": ""
  },
  {
    "id": "1790400145",
    "name": "B'sWAJIMAデイサービスセンター",
    "kana": "ビーズワジマデイサービスセンター",
    "address": "石川県輪島市河井町2部210番地",
    "lat": 37.3931913106611,
    "lng": 136.902317923479,
    "tel": "0768-23-4895",
    "url": "https://wajima-kabulet.jp",
    "pref": "石川県",
    "city": "輪島市",
    "category": "community_day_service",
    "serviceType": "地域密着型通所介護",
    "capacity": null,
    "openDays": [
      "平日",
      "日曜日"
    ],
    "openDaysNote": "夏季休業(8/13～8/15)（改行）年末年始休業(12/30～1/3)"
  },
  {
    "id": "1770400164",
    "name": "デイサービスセンター　福祉の杜",
    "kana": "デイサービスセンター　フクシノモリ",
    "address": "石川県輪島市山岸町い２６番地２",
    "lat": 37.3830523,
    "lng": 136.9072676,
    "tel": "0768-22-0008",
    "url": "https://kotobukifukushikai.com/fukushinomori/",
    "pref": "石川県",
    "city": "輪島市",
    "category": "community_day_service",
    "serviceType": "地域密着型通所介護",
    "capacity": 0,
    "openDays": [
      "平日",
      "土曜日",
      "祝日"
    ],
    "openDaysNote": "年末年始の定休日については、利用者からの依頼があった場合はその限りではない。"
  },
  {
    "id": "1770400131",
    "name": "笑い家デイサービス　みはらしの家",
    "kana": "ワライヤデイサービス　ミハラシノイエ",
    "address": "市ノ瀬町１２部１７７番地",
    "lat": 37.3474472,
    "lng": 136.905274,
    "tel": "０７６８－２２－３７９６",
    "url": "",
    "pref": "石川県",
    "city": "輪島市",
    "category": "community_day_service",
    "serviceType": "地域密着型通所介護",
    "capacity": 11,
    "openDays": [
      "平日",
      "土曜日",
      "日曜日",
      "祝日"
    ],
    "openDaysNote": ""
  },
  {
    "id": "1710410380",
    "name": "通所介護さくらの木",
    "kana": "ツウショカイゴサクラノキ",
    "address": "輪島市堀町１字13－2",
    "lat": 37.3893317,
    "lng": 136.89511,
    "tel": "0768-23-8686",
    "url": "http:www.imir.jp.htm",
    "pref": "石川県",
    "city": "輪島市",
    "category": "community_day_service",
    "serviceType": "地域密着型通所介護",
    "capacity": 15,
    "openDays": [
      "平日",
      "祝日"
    ],
    "openDaysNote": ""
  }
]