[
  {
    "id": "1870800289",
    "name": "コンフォガーデン木村　ﾃﾞｲサービスセンター",
    "kana": "コンフォガーデンキムラ　デイサービスセンター",
    "address": "福井県あわら市市姫三丁目24-8",
    "lat": 36.2091171,
    "lng": 136.2296532,
    "tel": "0776-73-3335",
    "url": "https://www.confo-g-kimura.jp/",
    "pref": "福井県",
    "city": "あわら市",
    "category": "community_day_service",
    "serviceType": "地域密着型通所介護",
    "capacity": 0,
    "openDays": [
      "平日"
    ],
    "openDaysNote": ""
  },
  {
    "id": "1870800149",
    "name": "なるざＳtep",
    "kana": "ナルザステップ",
    "address": "福井県あわら市二面2丁目211番地",
    "lat": 36.2272892,
    "lng": 136.1996276,
    "tel": "0776-77-2242",
    "url": "http://www.naruza.jp",
    "pref": "福井県",
    "city": "あわら市",
    "category": "community_day_service",
    "serviceType": "地域密着型通所介護",
    "capacity": 0,
    "openDays": [
      "平日"
    ],
    "openDaysNote": "年末年始のお休み：1月１日～３日（改行）祝日は基本的に営業しませんが、年に３日程度営業いたします。"
  },
  {
    "id": "1870800057",
    "name": "細川接骨院デイサービスセンター",
    "kana": "ホソカワセッコツインデイサービスセンター",
    "address": "福井県あわら市滝7－21",
    "lat": 36.2430446,
    "lng": 136.2576931,
    "tel": "0776-75-1518",
    "url": "http://recondition.co.jp",
    "pref": "福井県",
    "city": "あわら市",
    "category": "community_day_service",
    "serviceType": "地域密着型通所介護",
    "capacity": 4,
    "openDays": [
      "平日"
    ],
    "openDaysNote": "月から木曜日は8時45分から12時。金曜日は、8時45分から12時及び13時45分から15時。"
  },
  {
    "id": "1870300769",
    "name": "くるみの森　武生",
    "kana": "クルミノモリ　タケフ",
    "address": "越前市国高２丁目３２２－７",
    "lat": 35.9123824326318,
    "lng": 136.188341623879,
    "tel": "0778-42-8936",
    "url": "http://ecopraise.jp/comfort/",
    "pref": "福井県",
    "city": "越前市",
    "category": "community_day_service",
    "serviceType": "地域密着型通所介護",
    "capacity": 10,
    "openDays": [
      "平日",
      "土曜日",
      "日曜日",
      "祝日"
    ],
    "openDaysNote": ""
  },
  {
    "id": "1870300587",
    "name": "デイサービス　いっしょ家",
    "kana": "デイサービス　イッショヤ",
    "address": "福井県越前市家久町７４－１４－１",
    "lat": 35.9273706,
    "lng": 136.1661323,
    "tel": "0778-29-3280",
    "url": "http://isshoya.web.fc2.com/index.html",
    "pref": "福井県",
    "city": "越前市",
    "category": "community_day_service",
    "serviceType": "地域密着型通所介護",
    "capacity": 10,
    "openDays": [
      "平日",
      "土曜日",
      "日曜日",
      "祝日"
    ],
    "openDaysNote": "延長可"
  },
  {
    "id": "1870300074",
    "name": "デイサービスセンターオアシス",
    "kana": "デイサービスセンターオアシス",
    "address": "福井県越前市堀川町３－１４",
    "lat": 35.9003107645381,
    "lng": 136.17248304736,
    "tel": "0778-21-5454",
    "url": "http://www.warakuen.jp/index.html",
    "pref": "福井県",
    "city": "越前市",
    "category": "community_day_service",
    "serviceType": "地域密着型通所介護",
    "capacity": 0,
    "openDays": [
      "平日",
      "土曜日"
    ],
    "openDaysNote": "５月、９月の大型連休は曜日により開所することもある。"
  },
  {
    "id": "1890300286",
    "name": "レッツデイサービス新保",
    "kana": "レッツデイサービスシンボ",
    "address": "福井県越前市新保1-5-2",
    "lat": 35.9096006,
    "lng": 136.155034,
    "tel": "0778-42-5111",
    "url": "https://lifemore.ne.jp",
    "pref": "福井県",
    "city": "越前市",
    "category": "community_day_service",
    "serviceType": "地域密着型通所介護",
    "capacity": 18,
    "openDays": [
      "平日",
      "土曜日",
      "祝日"
    ],
    "openDaysNote": "午前の部：9:00～12:15，午後の部：13:30～16:45"
  },
  {
    "id": "1890300138",
    "name": "越前市社会福祉協議会　デイサービスセンターやふね",
    "kana": "エチゼンシシャカイフクシキョウギカイ　デイサービスセンターヤフネ",
    "address": "福井県越前市矢船町第8号12番地2",
    "lat": 35.8878153375532,
    "lng": 136.177299219238,
    "tel": "0778-25-0113",
    "url": "",
    "pref": "福井県",
    "city": "越前市",
    "category": "community_day_service",
    "serviceType": "地域密着型通所介護",
    "capacity": 0,
    "openDays": [
      "平日",
      "土曜日"
    ],
    "openDaysNote": ""
  },
  {
    "id": "1890300310",
    "name": "吉野デイサービスセンターほのか",
    "kana": "ヨシノデイサービスセンターホノカ",
    "address": "氷坂町46-41-2",
    "lat": 35.9243279,
    "lng": 136.1485755,
    "tel": "0778-22-9229",
    "url": "http://www.keishukai.com",
    "pref": "福井県",
    "city": "越前市",
    "category": "community_day_service",
    "serviceType": "地域密着型通所介護",
    "capacity": null,
    "openDays": [
      "平日",
      "土曜日",
      "祝日"
    ],
    "openDaysNote": "延長サービス提供時間　16：00～17：30"
  },
  {
    "id": "1870300389",
    "name": "総合支援センターわかたけ",
    "kana": "ソウゴウシエンセンターワカタケ",
    "address": "福井県越前市西谷町33-10-2",
    "lat": 35.8779884,
    "lng": 136.1898982,
    "tel": "0778-21-0300",
    "url": "",
    "pref": "福井県",
    "city": "越前市",
    "category": "community_day_service",
    "serviceType": "地域密着型通所介護",
    "capacity": 15,
    "openDays": [
      "平日",
      "土曜日",
      "祝日"
    ],
    "openDaysNote": ""
  },
  {
    "id": "1810314482",
    "name": "複合型デイサービス「てまり」",
    "kana": "フクゴウガタデイサービス「テマリ」",
    "address": "福井県越前市平出1丁目１２－３７",
    "lat": 35.9089838,
    "lng": 136.1598029,
    "tel": "0778-22-0305",
    "url": "http://www.myclinic.ne.jp/nojiriiin/",
    "pref": "福井県",
    "city": "越前市",
    "category": "community_day_service",
    "serviceType": "地域密着型通所介護",
    "capacity": 0,
    "openDays": [
      "平日",
      "土曜日",
      "祝日"
    ],
    "openDaysNote": ""
  },
  {
    "id": "1872300064",
    "name": "地域密着型通所介護事業所和～なごみ～",
    "kana": "チイキミッチャクガタツウショカイゴジギョウショナゴミ",
    "address": "福井県大飯郡高浜町和田117-91-2",
    "lat": 35.4892866440629,
    "lng": 135.576640334527,
    "tel": "0770-72-2151",
    "url": "http://kaigonagomi.jimdo.com",
    "pref": "福井県",
    "city": "高浜町",
    "category": "community_day_service",
    "serviceType": "地域密着型通所介護",
    "capacity": 18,
    "openDays": [
      "平日"
    ],
    "openDaysNote": ""
  },
  {
    "id": "1871700868",
    "name": "Ｂｅ’健ハウス",
    "kana": "ビケンハウス",
    "address": "春江町下小森1-3-1",
    "lat": 36.1571570578781,
    "lng": 136.192011913292,
    "tel": "0776-43-0307",
    "url": "http://www.simada-seikotuin.jp",
    "pref": "福井県",
    "city": "坂井市",
    "category": "community_day_service",
    "serviceType": "地域密着型通所介護",
    "capacity": 0,
    "openDays": [
      "平日",
      "土曜日"
    ],
    "openDaysNote": "水曜・土曜は8時30分～13時の営業となります。"
  },
  {
    "id": "1871700413",
    "name": "すいせんの家ディサービス",
    "kana": "スイセンノイエディサービス",
    "address": "福井県坂井市丸岡町北横地38-3-1",
    "lat": 36.1333423,
    "lng": 136.2552343,
    "tel": "0776-67-7774・",
    "url": "",
    "pref": "福井県",
    "city": "坂井市",
    "category": "community_day_service",
    "serviceType": "地域密着型通所介護",
    "capacity": 10,
    "openDays": [
      "平日",
      "土曜日",
      "日曜日",
      "祝日"
    ],
    "openDaysNote": ""
  },
  {
    "id": "1871700611",
    "name": "すいせんの家横地",
    "kana": "スイセンノイエヨコジ",
    "address": "坂井市丸岡町北横地38-2-1",
    "lat": 36.1336799,
    "lng": 136.2555847,
    "tel": "0776-67-7774",
    "url": "",
    "pref": "福井県",
    "city": "坂井市",
    "category": "community_day_service",
    "serviceType": "地域密着型通所介護",
    "capacity": 0,
    "openDays": [
      "平日",
      "土曜日",
      "日曜日",
      "祝日"
    ],
    "openDaysNote": ""
  },
  {
    "id": "1871701056",
    "name": "茶話本舗ディサービスはるえ",
    "kana": "サワホンポ",
    "address": "福井県坂井市丸岡町城北１丁目２１番地",
    "lat": 36.1589318502011,
    "lng": 136.27691103354,
    "tel": "０７７６－４３ー１１７０",
    "url": "",
    "pref": "福井県",
    "city": "坂井市",
    "category": "community_day_service",
    "serviceType": "地域密着型通所介護",
    "capacity": 18,
    "openDays": [
      "平日",
      "土曜日",
      "日曜日",
      "祝日"
    ],
    "openDaysNote": "２４時間３６５日無休"
  },
  {
    "id": "1871701098",
    "name": "美健　針原",
    "kana": "ビケン　ハリバラ",
    "address": "福井県坂井市春江町針原21-36",
    "lat": 36.1219767,
    "lng": 136.2011295,
    "tel": "（0776）51-6514",
    "url": "",
    "pref": "福井県",
    "city": "坂井市",
    "category": "community_day_service",
    "serviceType": "地域密着型通所介護",
    "capacity": 0,
    "openDays": [
      "平日"
    ],
    "openDaysNote": ""
  },
  {
    "id": "1870700315",
    "name": "くるみの森　丹南",
    "kana": "クルミノモリタンナン",
    "address": "福井県鯖江市新横江町１丁目3-5-1",
    "lat": 35.9419529802642,
    "lng": 136.195634167261,
    "tel": "0778-42-7748",
    "url": "",
    "pref": "福井県",
    "city": "鯖江市",
    "category": "community_day_service",
    "serviceType": "地域密着型通所介護",
    "capacity": 10,
    "openDays": [
      "平日",
      "土曜日",
      "日曜日",
      "祝日"
    ],
    "openDaysNote": ""
  },
  {
    "id": "1870700554",
    "name": "ここんデイサービスしんめい",
    "kana": "ココンデイサービスシンメイ",
    "address": "福井県鯖江市糺町19-9-1",
    "lat": 35.9753361,
    "lng": 136.1705942,
    "tel": "0778-42-7411",
    "url": "https://cocon873.wixsite.com",
    "pref": "福井県",
    "city": "鯖江市",
    "category": "community_day_service",
    "serviceType": "地域密着型通所介護",
    "capacity": 10,
    "openDays": [
      "平日"
    ],
    "openDaysNote": "祝日は営業です"
  },
  {
    "id": "1870700406",
    "name": "デイサービスえくぼ園",
    "kana": "デイサービスエクボエン",
    "address": "福井県鯖江市杉本町第15号1番地1",
    "lat": 35.9824481605634,
    "lng": 136.167810231352,
    "tel": "0778-42-7230",
    "url": "",
    "pref": "福井県",
    "city": "鯖江市",
    "category": "community_day_service",
    "serviceType": "地域密着型通所介護",
    "capacity": 0,
    "openDays": [
      "平日",
      "土曜日",
      "祝日"
    ],
    "openDaysNote": "年末年始（12月31日～1月3日）はお休みです。"
  },
  {
    "id": "1892400308",
    "name": "デイサービスセンターいずみ",
    "kana": "デイサービスセンターイズミ",
    "address": "福井県三方上中郡若狭町井崎40-80若狭町社会福祉協議会いずみ 若狭町社会福祉協議会いずみ",
    "lat": 35.5155073290499,
    "lng": 135.894888630688,
    "tel": "0770-45-2837",
    "url": "http://www.w-shakyo.or.jp",
    "pref": "福井県",
    "city": "若狭町",
    "category": "community_day_service",
    "serviceType": "地域密着型通所介護",
    "capacity": null,
    "openDays": [
      "平日",
      "土曜日",
      "祝日"
    ],
    "openDaysNote": ""
  },
  {
    "id": "1892400316",
    "name": "デイサービスセンターパレア若狭",
    "kana": "デイサービスセンターパレアワカサ",
    "address": "福井県三方上中郡若狭町市場１８－１８",
    "lat": 35.4609269,
    "lng": 135.8600664,
    "tel": "0770-62-9005",
    "url": "http://www.w-shakyo.or.jp",
    "pref": "福井県",
    "city": "若狭町",
    "category": "community_day_service",
    "serviceType": "地域密着型通所介護",
    "capacity": 18,
    "openDays": [
      "平日",
      "土曜日",
      "祝日"
    ],
    "openDaysNote": ""
  },
  {
    "id": "1872400138",
    "name": "デイサービスセンター五湖の郷",
    "kana": "デイサービスセンターゴコノサト",
    "address": "福井県三方上中郡若狭町田井２４－２",
    "lat": 35.5581841,
    "lng": 135.8677518,
    "tel": "0770-46-1212",
    "url": "http://www.w-shakyo.or.jp/gokonosato/index.htm",
    "pref": "福井県",
    "city": "若狭町",
    "category": "community_day_service",
    "serviceType": "地域密着型通所介護",
    "capacity": 0,
    "openDays": [
      "平日",
      "祝日"
    ],
    "openDaysNote": ""
  },
  {
    "id": "1892400332",
    "name": "ナーシングホームよすが",
    "kana": "ナーシングホームヨスガ",
    "address": "福井県三方上中郡若狭町鳥浜28-54-2",
    "lat": 35.5537854,
    "lng": 135.9090451,
    "tel": "0770-47-6884",
    "url": "",
    "pref": "福井県",
    "city": "若狭町",
    "category": "community_day_service",
    "serviceType": "地域密着型通所介護",
    "capacity": null,
    "openDays": [
      "平日"
    ],
    "openDaysNote": ""
  },
  {
    "id": "1870600168",
    "name": "悠悠いきいき倶楽部ちゃま",
    "kana": "ユウユウイキイキクラブチャマ",
    "address": "勝山市郡町1丁目2-51",
    "lat": 36.0696883,
    "lng": 136.4975285,
    "tel": "0779-88-1643",
    "url": "http://www.taniuchi-gp.net/",
    "pref": "福井県",
    "city": "勝山市",
    "category": "community_day_service",
    "serviceType": "地域密着型通所介護",
    "capacity": 10,
    "openDays": [
      "平日"
    ],
    "openDaysNote": ""
  },
  {
    "id": "1870400411",
    "name": "県民せいきょう小浜きらめきディサービス",
    "kana": "ケンミンセイキョウオバマキラメキデイサービス",
    "address": "遠敷9丁目501番地県民せいきょう小浜きらめき 県民せいきょう小浜きらめき",
    "lat": 35.4840087702779,
    "lng": 135.774036546571,
    "tel": "0770-56-5757",
    "url": "http://www.fukui.coop/",
    "pref": "福井県",
    "city": "小浜市",
    "category": "community_day_service",
    "serviceType": "地域密着型通所介護",
    "capacity": 18,
    "openDays": [
      "平日",
      "祝日"
    ],
    "openDaysNote": ""
  },
  {
    "id": "1870500301",
    "name": "あいデイサービスセンター",
    "kana": "アイデイサービスセンター",
    "address": "大野市中挟3丁目101番地",
    "lat": 35.9945255072969,
    "lng": 136.502190435335,
    "tel": "0779-66-6050",
    "url": "",
    "pref": "福井県",
    "city": "大野市",
    "category": "community_day_service",
    "serviceType": "地域密着型通所介護",
    "capacity": 0,
    "openDays": [
      "平日",
      "土曜日",
      "日曜日",
      "祝日"
    ],
    "openDaysNote": "1月1日から1月3日まではお休み致します。"
  },
  {
    "id": "1870500152",
    "name": "デイホーム　ひだまりでぃ",
    "kana": "デイホーム　ヒダマリディ",
    "address": "福井県大野市春日2丁目15-9",
    "lat": 35.9740010610708,
    "lng": 136.49576112842,
    "tel": "0779-66-2570",
    "url": "fukushi-ono.com",
    "pref": "福井県",
    "city": "大野市",
    "category": "community_day_service",
    "serviceType": "地域密着型通所介護",
    "capacity": 0,
    "openDays": [
      "平日",
      "土曜日",
      "日曜日",
      "祝日"
    ],
    "openDaysNote": "年末年始においてはご家族及び本人の希望により相談に応じます。サービス提供時間については、早朝及び時間延長など相談に応じます。"
  },
  {
    "id": "1870500343",
    "name": "デイホームあそじま",
    "kana": "デイホームアソジマ",
    "address": "福井県大野市下麻生嶋58字中出14-４",
    "lat": 35.9993444136361,
    "lng": 136.524932856622,
    "tel": "0779-64-5963",
    "url": "fukushi-ono.com",
    "pref": "福井県",
    "city": "大野市",
    "category": "community_day_service",
    "serviceType": "地域密着型通所介護",
    "capacity": 0,
    "openDays": [
      "平日",
      "土曜日",
      "日曜日",
      "祝日"
    ],
    "openDaysNote": "利用者の状況に合わせて変更いたします。"
  },
  {
    "id": "1870500160",
    "name": "デイホームぬくぬく",
    "kana": "デイホームヌクヌク",
    "address": "大野市有明町19番23号",
    "lat": 35.9839098317905,
    "lng": 136.501537131877,
    "tel": "0779-66-6623",
    "url": "fukusi-ono.com",
    "pref": "福井県",
    "city": "大野市",
    "category": "community_day_service",
    "serviceType": "地域密着型通所介護",
    "capacity": 0,
    "openDays": [
      "平日",
      "土曜日",
      "日曜日",
      "祝日"
    ],
    "openDaysNote": ""
  },
  {
    "id": "1870500293",
    "name": "県民せいきょう大野きらめきデイサービス",
    "kana": "ケンミンセイキョウオオノキラメキデイサービス",
    "address": "福井県大野市天神町3番21号",
    "lat": 35.9790976,
    "lng": 136.4884859,
    "tel": "0779-66-6811",
    "url": "http://www.fukui.coop/",
    "pref": "福井県",
    "city": "大野市",
    "category": "community_day_service",
    "serviceType": "地域密着型通所介護",
    "capacity": 0,
    "openDays": [
      "平日",
      "土曜日",
      "祝日"
    ],
    "openDaysNote": ""
  },
  {
    "id": "1870500202",
    "name": "社会福祉法人大野市社会福祉協議会和泉デイサービスセンター",
    "kana": "シャカイフクシホウジンオオノシシャカイフクシキョウギカイイズミデイサービスセンター",
    "address": "大野市朝日23-21",
    "lat": 35.9055358476774,
    "lng": 136.662420665607,
    "tel": "0779-78-2900",
    "url": "http://ono-shakyo.jp",
    "pref": "福井県",
    "city": "大野市",
    "category": "community_day_service",
    "serviceType": "地域密着型通所介護",
    "capacity": 0,
    "openDays": [
      "平日",
      "祝日"
    ],
    "openDaysNote": ""
  },
  {
    "id": "1890500216",
    "name": "地域密着型たんぽぽデイサービスセンター",
    "kana": "チイキミッチャクガタタンポポデイサービスセンター",
    "address": "福井県大野市鍬掛第2号16番地",
    "lat": 35.9760616153433,
    "lng": 136.480350433066,
    "tel": "0779-66-5030",
    "url": "https://www.big-adbance.site/s/170/1526",
    "pref": "福井県",
    "city": "大野市",
    "category": "community_day_service",
    "serviceType": "地域密着型通所介護",
    "capacity": null,
    "openDays": [
      "平日",
      "土曜日",
      "祝日"
    ],
    "openDaysNote": ""
  },
  {
    "id": "1870200548",
    "name": "あすかデイサービスセンター",
    "kana": "アスカデイサービスセンター",
    "address": "福井県敦賀市山泉73-914-4",
    "lat": 35.6152422,
    "lng": 136.0625152,
    "tel": "0770-47-6664",
    "url": "",
    "pref": "福井県",
    "city": "敦賀市",
    "category": "community_day_service",
    "serviceType": "地域密着型通所介護",
    "capacity": null,
    "openDays": [
      "平日",
      "土曜日",
      "祝日"
    ],
    "openDaysNote": ""
  },
  {
    "id": "1870200043",
    "name": "デイサービスセンター　眞盛苑",
    "kana": "デイサアビスセンタア　シンセイエン",
    "address": "福井県敦賀市莇生野90号3番",
    "lat": 35.6274017,
    "lng": 136.0438869,
    "tel": "0770-21-6161",
    "url": "http://www.jisyoukai.jp",
    "pref": "福井県",
    "city": "敦賀市",
    "category": "community_day_service",
    "serviceType": "地域密着型通所介護",
    "capacity": null,
    "openDays": [
      "平日",
      "祝日"
    ],
    "openDaysNote": ""
  },
  {
    "id": "1870200506",
    "name": "デイサービスつむぎ",
    "kana": "デイサービスツムギ",
    "address": "福井県敦賀市藤ヶ丘町15－5番地",
    "lat": 35.6545166,
    "lng": 136.0852675,
    "tel": "0770-21-5525",
    "url": "",
    "pref": "福井県",
    "city": "敦賀市",
    "category": "community_day_service",
    "serviceType": "地域密着型通所介護",
    "capacity": 0,
    "openDays": [
      "平日",
      "祝日"
    ],
    "openDaysNote": ""
  },
  {
    "id": "1890200197",
    "name": "デイサービス雀の学校",
    "kana": "デイサービス　スズメノガッコウ",
    "address": "堂44号岡の腰1-1有料老人ホーム雀の郷 有料老人ホーム雀の郷",
    "lat": null,
    "lng": null,
    "tel": "0770-20-1711",
    "url": "https://www.suzumenosato.co.jp/",
    "pref": "福井県",
    "city": "敦賀市",
    "category": "community_day_service",
    "serviceType": "地域密着型通所介護",
    "capacity": 0,
    "openDays": [
      "平日"
    ],
    "openDaysNote": "1/1～1/3は休み"
  },
  {
    "id": "1890200254",
    "name": "はのあデイサービス",
    "kana": "ハノアデイサービス",
    "address": "福井県敦賀市公文名35-39-1",
    "lat": 35.6200452,
    "lng": 136.0560052,
    "tel": "0770-47-5484",
    "url": "https://healing-mind-and-body-mikuni.jimdofree.com/",
    "pref": "福井県",
    "city": "敦賀市",
    "category": "community_day_service",
    "serviceType": "地域密着型通所介護",
    "capacity": 0,
    "openDays": [
      "平日",
      "祝日"
    ],
    "openDaysNote": "場合によって祝祭日の営業は不定期となる為、事業所より事前連絡を行います。"
  },
  {
    "id": "1870200290",
    "name": "駅前アクティブセンターステップ",
    "kana": "エキマエアクティブセンターステップ",
    "address": "敦賀市白銀町10-13　酒井電機ビル１階",
    "lat": 35.647422,
    "lng": 136.072604,
    "tel": "0770-21-4088",
    "url": "http://www.rehaplus.co.jp/",
    "pref": "福井県",
    "city": "敦賀市",
    "category": "community_day_service",
    "serviceType": "地域密着型通所介護",
    "capacity": 0,
    "openDays": [
      "平日",
      "土曜日"
    ],
    "openDaysNote": "12月29-1月3日までお休み。"
  },
  {
    "id": "1890200262",
    "name": "幸デイサービスセンター「暖（のん）」",
    "kana": "サチデイサービスセンターノン",
    "address": "福井県敦賀市平和町17-4",
    "lat": 35.6478599,
    "lng": 136.0498394,
    "tel": "0770-21-1188",
    "url": "http://fukushika.com/",
    "pref": "福井県",
    "city": "敦賀市",
    "category": "community_day_service",
    "serviceType": "地域密着型通所介護",
    "capacity": null,
    "openDays": [
      "平日",
      "土曜日",
      "祝日"
    ],
    "openDaysNote": ""
  },
  {
    "id": "1891900035",
    "name": "ほのぼの苑デイサービスセンター",
    "kana": "ホノボノエンデイサービスセンター",
    "address": "福井県南条郡南越前町鋳物師5-10-1",
    "lat": 35.8415716,
    "lng": 136.1977009,
    "tel": "0778-47-2078",
    "url": "http://www.honobono-en.com/",
    "pref": "福井県",
    "city": "南越前町",
    "category": "community_day_service",
    "serviceType": "地域密着型通所介護",
    "capacity": 0,
    "openDays": [
      "平日",
      "祝日"
    ],
    "openDaysNote": ""
  },
  {
    "id": "1871900237",
    "name": "南越前町社会福祉協議会河野デイサービスセンター",
    "kana": "ミナミエチゼンチョウシャカイフクシキョウギカイコウノデイサービスセンター",
    "address": "福井県南条郡南越前町甲楽城7-31-1河野保健福祉センター 河野保健福祉センター",
    "lat": 35.8432082,
    "lng": 136.0457216,
    "tel": "0778-48-2260",
    "url": "",
    "pref": "福井県",
    "city": "南越前町",
    "category": "community_day_service",
    "serviceType": "地域密着型通所介護",
    "capacity": 0,
    "openDays": [
      "平日",
      "祝日"
    ],
    "openDaysNote": ""
  },
  {
    "id": "1871900203",
    "name": "南越前町社会福祉協議会今庄デイサービスセンター",
    "kana": "ミナミエチゼンチョウシャカイフクシキョウギカイイマジョウデイサービスセンター",
    "address": "福井県南条郡南越前町今庄86-5-2今庄福祉センター 今庄福祉センター",
    "lat": 35.7719996,
    "lng": 136.2008347,
    "tel": "0778-45-1175",
    "url": "",
    "pref": "福井県",
    "city": "南越前町",
    "category": "community_day_service",
    "serviceType": "地域密着型通所介護",
    "capacity": 0,
    "openDays": [
      "平日",
      "祝日"
    ],
    "openDaysNote": ""
  },
  {
    "id": "1872100035",
    "name": "デイサービスセンター　湖岳の郷",
    "kana": "デイサービスセンター　コガクノサト",
    "address": "福井県三方郡美浜町金山２－３－２７",
    "lat": 35.5964555,
    "lng": 135.9128059,
    "tel": "0770-32-2082",
    "url": "http://www.kogakunosato.jp/",
    "pref": "福井県",
    "city": "美浜町",
    "category": "community_day_service",
    "serviceType": "地域密着型通所介護",
    "capacity": 10,
    "openDays": [
      "平日",
      "祝日"
    ],
    "openDaysNote": "年末年始とお盆は休業します。"
  },
  {
    "id": "1872100092",
    "name": "やはず苑　デイサービスセンター",
    "kana": "ヤハズエン　デイサービスセンター",
    "address": "三方郡美浜町金山19-4-11",
    "lat": 35.6008477353713,
    "lng": 135.925488100664,
    "tel": "0770-32-3382",
    "url": "http://www.fukui-youi.com",
    "pref": "福井県",
    "city": "美浜町",
    "category": "community_day_service",
    "serviceType": "地域密着型通所介護",
    "capacity": 0,
    "openDays": [
      "平日",
      "土曜日",
      "祝日"
    ],
    "openDaysNote": ""
  },
  {
    "id": "1870100540",
    "name": "あさくらデイサービスセンター",
    "kana": "アサクラデイサービスセンター",
    "address": "福井市西新町1-25",
    "lat": 35.9946987514108,
    "lng": 136.289327850262,
    "tel": "0776-43-2100",
    "url": "http://www.asakuraen.jp",
    "pref": "福井県",
    "city": "福井市",
    "category": "community_day_service",
    "serviceType": "地域密着型通所介護",
    "capacity": 0,
    "openDays": [
      "平日",
      "土曜日",
      "祝日"
    ],
    "openDaysNote": ""
  },
  {
    "id": "1870103148",
    "name": "アストレデイサービス",
    "kana": "アストレデイサービス",
    "address": "福井県福井市滝波町第60ー14ー1",
    "lat": 36.0221545,
    "lng": 136.1167564,
    "tel": "0776－98－8766",
    "url": "asutore@mx5.fctv.ne.jp",
    "pref": "福井県",
    "city": "福井市",
    "category": "community_day_service",
    "serviceType": "地域密着型通所介護",
    "capacity": 0,
    "openDays": [
      "平日",
      "土曜日"
    ],
    "openDaysNote": ""
  },
  {
    "id": "1890101163",
    "name": "アスピカケアセンターかいほつ",
    "kana": "アスピカケアセンターカイホツ",
    "address": "福井市開発5丁目101-1アスピカケアセンターかいほつ アスピカケアセンターかいほつ",
    "lat": 36.0857738,
    "lng": 136.2425901,
    "tel": "0776-53-7777",
    "url": "http//www.aspica.co.jp",
    "pref": "福井県",
    "city": "福井市",
    "category": "community_day_service",
    "serviceType": "地域密着型通所介護",
    "capacity": 0,
    "openDays": [
      "平日",
      "土曜日",
      "祝日"
    ],
    "openDaysNote": "年末年始（12/31～1/3）休業日"
  },
  {
    "id": "1890101056",
    "name": "あんのんデイサービス",
    "kana": "アンノンデイサービス",
    "address": "福井市北四ツ居2丁目7-17",
    "lat": 36.0664749,
    "lng": 136.2454883,
    "tel": "776543555",
    "url": "ansinmura.jp//annonday/",
    "pref": "福井県",
    "city": "福井市",
    "category": "community_day_service",
    "serviceType": "地域密着型通所介護",
    "capacity": 10,
    "openDays": [
      "平日",
      "祝日"
    ],
    "openDaysNote": ""
  },
  {
    "id": "1870103288",
    "name": "いちごライフ",
    "kana": "イチゴライフ",
    "address": "福井県福井市勝見3丁目20-12いちごの森1階 いちごの森1階",
    "lat": 36.0536217,
    "lng": 136.2337657,
    "tel": "0776-27-0215",
    "url": "http://kenkoukai.or.jp/daycare/life/",
    "pref": "福井県",
    "city": "福井市",
    "category": "community_day_service",
    "serviceType": "地域密着型通所介護",
    "capacity": 12,
    "openDays": [
      "平日",
      "祝日"
    ],
    "openDaysNote": "なし"
  },
  {
    "id": "1890100983",
    "name": "いなほ生活リハビリセンター",
    "kana": "イナホセイカツリハビリセンター",
    "address": "福井市江端町20字20-24",
    "lat": 36.026722,
    "lng": 136.2123517,
    "tel": "0776-38-2202",
    "url": "http://fukui-medix.com/",
    "pref": "福井県",
    "city": "福井市",
    "category": "community_day_service",
    "serviceType": "地域密着型通所介護",
    "capacity": 0,
    "openDays": [
      "平日",
      "土曜日",
      "祝日"
    ],
    "openDaysNote": ""
  },
  {
    "id": "1890101312",
    "name": "ヴィルヌーブあさくらデイサービスセンター",
    "kana": "ヴィルヌーブアサクラデイサービスセンター",
    "address": "福井市豊島1丁目2-13",
    "lat": 36.058065,
    "lng": 136.2208301,
    "tel": "0776-30-0753",
    "url": "http://www.asakuraen.jp",
    "pref": "福井県",
    "city": "福井市",
    "category": "community_day_service",
    "serviceType": "地域密着型通所介護",
    "capacity": 0,
    "openDays": [
      "平日",
      "土曜日",
      "祝日"
    ],
    "openDaysNote": ""
  },
  {
    "id": "1870102264",
    "name": "くるみの森　高木",
    "kana": "クルミノモリ　タカギ",
    "address": "福井市高木中央1丁目1717",
    "lat": 36.0905197,
    "lng": 136.2306376,
    "tel": "0776-97-6784",
    "url": "grn-plus.info",
    "pref": "福井県",
    "city": "福井市",
    "category": "community_day_service",
    "serviceType": "地域密着型通所介護",
    "capacity": 10,
    "openDays": [
      "平日",
      "土曜日",
      "日曜日",
      "祝日"
    ],
    "openDaysNote": ""
  },
  {
    "id": "1870102371",
    "name": "くるみの森　福町",
    "kana": "クルミノモリフクマチ",
    "address": "福井市福新町509",
    "lat": 36.0483575,
    "lng": 136.1856059,
    "tel": "0776-97-5669",
    "url": "grn-plus.info",
    "pref": "福井県",
    "city": "福井市",
    "category": "community_day_service",
    "serviceType": "地域密着型通所介護",
    "capacity": 10,
    "openDays": [
      "平日",
      "土曜日",
      "日曜日",
      "祝日"
    ],
    "openDaysNote": ""
  },
  {
    "id": "1890101122",
    "name": "この道グループデイサービス",
    "kana": "コノミチグループデイサービス",
    "address": "福井県福井市燈豊町39号6番地80",
    "lat": 36.1241241,
    "lng": 136.1401564,
    "tel": "0776-43-3606",
    "url": "",
    "pref": "福井県",
    "city": "福井市",
    "category": "community_day_service",
    "serviceType": "地域密着型通所介護",
    "capacity": null,
    "openDays": [
      "平日"
    ],
    "openDaysNote": ""
  },
  {
    "id": "1890100934",
    "name": "デイサービスがんばれ",
    "kana": "デイサービスガンバレ",
    "address": "福井県福井市開発2丁目306　ブルーハイツⅦ　1階南",
    "lat": 36.0789097469875,
    "lng": 136.238964199031,
    "tel": "0776-97-5553",
    "url": "",
    "pref": "福井県",
    "city": "福井市",
    "category": "community_day_service",
    "serviceType": "地域密着型通所介護",
    "capacity": 18,
    "openDays": [
      "平日",
      "土曜日",
      "祝日"
    ],
    "openDaysNote": "月曜日～土曜日の祝日は営業"
  },
  {
    "id": "1870103015",
    "name": "デイサービスセンター　きらく",
    "kana": "デイサービスセンター　キラク",
    "address": "福井県福井市松本３丁目４番４号",
    "lat": 36.0709854,
    "lng": 136.2223849,
    "tel": "0776-27-0223",
    "url": "http://kiraku291.jimdo.com/",
    "pref": "福井県",
    "city": "福井市",
    "category": "community_day_service",
    "serviceType": "地域密着型通所介護",
    "capacity": 0,
    "openDays": [
      "平日",
      "土曜日",
      "祝日"
    ],
    "openDaysNote": ""
  },
  {
    "id": "1870101415",
    "name": "デイサービスセンター　経田はうす",
    "kana": "デイサービスセンター　キョウデンハウス",
    "address": "福井県福井市経田1丁目313番地",
    "lat": 36.0887722,
    "lng": 136.222216,
    "tel": "0776-28-3362",
    "url": "http://fukui-youi.com",
    "pref": "福井県",
    "city": "福井市",
    "category": "community_day_service",
    "serviceType": "地域密着型通所介護",
    "capacity": 18,
    "openDays": [
      "平日",
      "土曜日",
      "祝日"
    ],
    "openDaysNote": ""
  },
  {
    "id": "1890100942",
    "name": "デイサービスセンター　桜手苑",
    "kana": "デイサービスセンター　オオテエン",
    "address": "福井県福井市大手2-22-18",
    "lat": 36.0666833,
    "lng": 136.2241849,
    "tel": "0776-26-7080",
    "url": "http://ooteen.org",
    "pref": "福井県",
    "city": "福井市",
    "category": "community_day_service",
    "serviceType": "地域密着型通所介護",
    "capacity": 0,
    "openDays": [
      "平日",
      "土曜日",
      "祝日"
    ],
    "openDaysNote": ""
  },
  {
    "id": "1890100868",
    "name": "デイサービスセンターサンホーム一乗",
    "kana": "デイサービスセンターサンホームイチジョウ",
    "address": "勝見3丁目22-4",
    "lat": 36.0525468,
    "lng": 136.2333519,
    "tel": "0776-50-2678",
    "url": "http://www.fuku-koumyouji.jp",
    "pref": "福井県",
    "city": "福井市",
    "category": "community_day_service",
    "serviceType": "地域密着型通所介護",
    "capacity": 40,
    "openDays": [
      "平日",
      "土曜日"
    ],
    "openDaysNote": "平日は火曜と木・土曜営業（改行）火・土曜は9時30分～12時30分（改行）木曜は9時30分～16時30分"
  },
  {
    "id": "1890101049",
    "name": "デイサービスセンターみやま",
    "kana": "デイサービスセンターミヤマ",
    "address": "市波町３２－７",
    "lat": 36.0161833,
    "lng": 136.3303971,
    "tel": "０７７６－９６－４１００",
    "url": "",
    "pref": "福井県",
    "city": "福井市",
    "category": "community_day_service",
    "serviceType": "地域密着型通所介護",
    "capacity": 0,
    "openDays": [
      "平日",
      "土曜日",
      "祝日"
    ],
    "openDaysNote": ""
  },
  {
    "id": "1890101221",
    "name": "デイサービスふう",
    "kana": "デイサービスフウ",
    "address": "市波町32-7",
    "lat": 36.0165824883297,
    "lng": 136.33012351468,
    "tel": "776964100",
    "url": "",
    "pref": "福井県",
    "city": "福井市",
    "category": "community_day_service",
    "serviceType": "地域密着型通所介護",
    "capacity": 0,
    "openDays": [
      "平日",
      "土曜日",
      "祝日"
    ],
    "openDaysNote": ""
  },
  {
    "id": "1890101247",
    "name": "デイサービス施設「パワーリハビリ　ふぁいと」",
    "kana": "デイサービスシセツパワーリハビリファイト",
    "address": "渕3丁目125-1TAKEIPOWERGYM TAKEIPOWERGYM",
    "lat": 36.0438897,
    "lng": 136.1856913,
    "tel": "090-9448-4300",
    "url": "http://takeipowergym.com/about_fight.html",
    "pref": "福井県",
    "city": "福井市",
    "category": "community_day_service",
    "serviceType": "地域密着型通所介護",
    "capacity": 0,
    "openDays": [
      "平日"
    ],
    "openDaysNote": ""
  },
  {
    "id": "1870103072",
    "name": "デイホーム楽ちんの家",
    "kana": "デイホームラクチンノイエ",
    "address": "福井県福井市市波町24-12",
    "lat": 36.0175938,
    "lng": 136.3296516,
    "tel": "0776-96-7033",
    "url": "http://www.rakuchinnoie.com",
    "pref": "福井県",
    "city": "福井市",
    "category": "community_day_service",
    "serviceType": "地域密着型通所介護",
    "capacity": 10,
    "openDays": [
      "平日",
      "土曜日",
      "祝日"
    ],
    "openDaysNote": ""
  },
  {
    "id": "1870103262",
    "name": "デイホーム楽ちんの家　なごみ",
    "kana": "デイホームラクチンノイエナゴミ",
    "address": "福井県福井市大久保町1-61",
    "lat": 36.0181965,
    "lng": 136.3293294,
    "tel": "0776-96-7077",
    "url": "http://www.rakuchinnoie.com",
    "pref": "福井県",
    "city": "福井市",
    "category": "community_day_service",
    "serviceType": "地域密着型通所介護",
    "capacity": 10,
    "openDays": [
      "平日",
      "土曜日",
      "祝日"
    ],
    "openDaysNote": ""
  },
  {
    "id": "1870103213",
    "name": "ハッピー楽トレ　デーサービス",
    "kana": "ハッピーラクトレデーサービス",
    "address": "福井県福井市田原1丁目２－１８",
    "lat": 36.0711881,
    "lng": 136.21683,
    "tel": "０７７６－２８－３２９９",
    "url": "http://www.happychiryo.jp",
    "pref": "福井県",
    "city": "福井市",
    "category": "community_day_service",
    "serviceType": "地域密着型通所介護",
    "capacity": 50,
    "openDays": [
      "平日",
      "土曜日"
    ],
    "openDaysNote": "サービス提供時間　午前９時～１２時５分、午後２時～５時５分。（改行）　　　　　　　　　午前９時～午後12時５分（水、木、土曜日のみ）"
  },
  {
    "id": "1890101031",
    "name": "ぽっかポカほのか",
    "kana": "ポッカポカホノカ",
    "address": "福井県福井市みのり1丁目５－１６ル・レーヴほのか　１階 ル・レーヴほのか　１階",
    "lat": 36.0495019692701,
    "lng": 136.217150262566,
    "tel": "0776-34-6226",
    "url": "http://www.keishukai.com/",
    "pref": "福井県",
    "city": "福井市",
    "category": "community_day_service",
    "serviceType": "地域密着型通所介護",
    "capacity": null,
    "openDays": [
      "平日",
      "土曜日",
      "祝日"
    ],
    "openDaysNote": ""
  },
  {
    "id": "1890101189",
    "name": "ゆうあいデイサービスセンター",
    "kana": "ユウアイデイサービスセンター",
    "address": "福井県福井市大願寺3丁目9-3",
    "lat": 36.0842872,
    "lng": 136.2283595,
    "tel": "0776-27-0019",
    "url": "http://fukui-youi.com/",
    "pref": "福井県",
    "city": "福井市",
    "category": "community_day_service",
    "serviceType": "地域密着型通所介護",
    "capacity": null,
    "openDays": [
      "平日",
      "土曜日",
      "祝日"
    ],
    "openDaysNote": ""
  },
  {
    "id": "1890100967",
    "name": "よつば生活リハビリセンター",
    "kana": "ヨツバセイカツリハビリセンター",
    "address": "福井市四ツ井1丁目13番23号",
    "lat": 36.0648092,
    "lng": 136.2370187,
    "tel": "0776-52-3155",
    "url": "http://fukui-medix.com",
    "pref": "福井県",
    "city": "福井市",
    "category": "community_day_service",
    "serviceType": "地域密着型通所介護",
    "capacity": null,
    "openDays": [
      "平日",
      "土曜日",
      "祝日"
    ],
    "openDaysNote": ""
  },
  {
    "id": "1890101114",
    "name": "ライフアップあさがお",
    "kana": "ライフアップアサガオ",
    "address": "福井市新保町19字35番1",
    "lat": 36.085094,
    "lng": 136.258774,
    "tel": "0776-52-6300",
    "url": "http://fukui⁻medix.com/",
    "pref": "福井県",
    "city": "福井市",
    "category": "community_day_service",
    "serviceType": "地域密着型通所介護",
    "capacity": null,
    "openDays": [
      "平日",
      "土曜日",
      "祝日"
    ],
    "openDaysNote": ""
  },
  {
    "id": "1890101239",
    "name": "りはーとふくい",
    "kana": "リハートフクイ",
    "address": "福井県福井市開発５丁目１２０７番地コミュニティリゾートリライム１階 コミュニティリゾートリライム１階",
    "lat": 36.0863717,
    "lng": 136.2449656,
    "tel": "0776-74-0810",
    "url": "https://www.reheart-fukui.net",
    "pref": "福井県",
    "city": "福井市",
    "category": "community_day_service",
    "serviceType": "地域密着型通所介護",
    "capacity": 0,
    "openDays": [
      "平日"
    ],
    "openDaysNote": "月に5回ある曜日の祝日は休業、月に4回ある曜日の祝日は営業してます。（改行）年末年始休業：12月30日～1月3日、お盆休業：8月14日～15日"
  },
  {
    "id": "1890101072",
    "name": "リハビリデイサービス　すきっぷ",
    "kana": "リハビリデイサービス　スキップ",
    "address": "福井県福井市松本3丁目29-14中村ビル1階 中村ビル1階",
    "lat": 36.0754176,
    "lng": 136.2253063,
    "tel": "0776-21-0026",
    "url": "https://aday-skip.com",
    "pref": "福井県",
    "city": "福井市",
    "category": "community_day_service",
    "serviceType": "地域密着型通所介護",
    "capacity": 10,
    "openDays": [
      "平日"
    ],
    "openDaysNote": "8/14～16　12/29～1/4までを除く。"
  },
  {
    "id": "1870103080",
    "name": "リハビリ長寿　城東道場",
    "kana": "リハビリチョウジュジョウトウドウジョウ",
    "address": "福井県福井市城東４丁目19-13",
    "lat": 36.058124,
    "lng": 136.238579,
    "tel": "0776-43-1810",
    "url": "http://www.tyouju.co.jp/",
    "pref": "福井県",
    "city": "福井市",
    "category": "community_day_service",
    "serviceType": "地域密着型通所介護",
    "capacity": 0,
    "openDays": [
      "平日",
      "祝日"
    ],
    "openDaysNote": ""
  },
  {
    "id": "1870102983",
    "name": "リハプライド　北四ツ居",
    "kana": "リハプライド　キタヨツイ",
    "address": "北四ツ居３丁目１４－２０コンフォート円山1Ｆ コンフォート円山1Ｆ",
    "lat": 36.0676428,
    "lng": 136.2462141,
    "tel": "０７７６－５２－１０６３",
    "url": "http://www.rehapride.co.jp/kitayotsui/",
    "pref": "福井県",
    "city": "福井市",
    "category": "community_day_service",
    "serviceType": "地域密着型通所介護",
    "capacity": 18,
    "openDays": [
      "平日",
      "土曜日"
    ],
    "openDaysNote": ""
  },
  {
    "id": "1870102256",
    "name": "花むつ苑　デイサービスセンター",
    "kana": "ハナムツエン　デイサービスセンター",
    "address": "福井市花堂中1丁目5-6",
    "lat": 36.0391566,
    "lng": 136.2153122,
    "tel": "0776-34-8762",
    "url": "http://www.asamutuen.jp/",
    "pref": "福井県",
    "city": "福井市",
    "category": "community_day_service",
    "serviceType": "地域密着型通所介護",
    "capacity": 0,
    "openDays": [
      "平日",
      "土曜日",
      "祝日"
    ],
    "openDaysNote": ""
  },
  {
    "id": "1870101993",
    "name": "県民せいきょう　宝永きらめきデイサービス",
    "kana": "ケンミンセイキョウ　ホウエイキラメキデイサービス",
    "address": "福井県福井市宝永3丁目3番1号",
    "lat": 36.0673194,
    "lng": 136.2240405,
    "tel": "0776-24-0810",
    "url": "http://www.fukui.coop/",
    "pref": "福井県",
    "city": "福井市",
    "category": "community_day_service",
    "serviceType": "地域密着型通所介護",
    "capacity": 0,
    "openDays": [
      "平日",
      "祝日"
    ],
    "openDaysNote": ""
  },
  {
    "id": "1870101043",
    "name": "公益社団法人福井市シルバー人材センター介護保険事業所ひだまりの家",
    "kana": "コウエキシャダンホウジンフクイシシルバージンザイセンターカイゴホケンジギョウショ",
    "address": "福井市大宮2-18-25",
    "lat": 36.0823896,
    "lng": 136.2210298,
    "tel": "0776-26-5478",
    "url": "http://www2.interbroad.or.jp/genkikun/",
    "pref": "福井県",
    "city": "福井市",
    "category": "community_day_service",
    "serviceType": "地域密着型通所介護",
    "capacity": 15,
    "openDays": [
      "平日",
      "土曜日"
    ],
    "openDaysNote": "振替利用対応可"
  },
  {
    "id": "1870101639",
    "name": "渚苑デイサービスセンター",
    "kana": "ナギサエンデイサービスセンター",
    "address": "福井県福井市蒲生町1-90-1こしの渚苑 こしの渚苑",
    "lat": 36.0382524,
    "lng": 136.0111946,
    "tel": "0776-89-2110",
    "url": "http://www.koshinonagisaen.com/",
    "pref": "福井県",
    "city": "福井市",
    "category": "community_day_service",
    "serviceType": "地域密着型通所介護",
    "capacity": 18,
    "openDays": [
      "平日",
      "土曜日",
      "祝日"
    ],
    "openDaysNote": ""
  },
  {
    "id": "1890101007",
    "name": "新田塚アークリハベル前",
    "kana": "ニッタヅカアークリハベルマエ",
    "address": "福井県福井市花堂南1丁目11-36",
    "lat": 36.0336110089091,
    "lng": 136.213478416533,
    "tel": "0776-34-2120",
    "url": "https://www.nittazuka.com/arcreha/",
    "pref": "福井県",
    "city": "福井市",
    "category": "community_day_service",
    "serviceType": "地域密着型通所介護",
    "capacity": 0,
    "openDays": [
      "平日"
    ],
    "openDaysNote": ""
  },
  {
    "id": "1890100843",
    "name": "新田塚アークリハ二の宮",
    "kana": "ニッタヅカアークリハニノミヤ",
    "address": "福井県福井市二の宮2-26-35",
    "lat": 36.0871770951344,
    "lng": 136.222511729114,
    "tel": "0776-25-2030",
    "url": "http://www.nittazuka.com/arcreha/",
    "pref": "福井県",
    "city": "福井市",
    "category": "community_day_service",
    "serviceType": "地域密着型通所介護",
    "capacity": 150,
    "openDays": [
      "平日"
    ],
    "openDaysNote": ""
  },
  {
    "id": "1870100383",
    "name": "大和田デイサービスセンター",
    "kana": "オオワダデイサービスセンター",
    "address": "大和田町第23号1番地",
    "lat": 36.0947596,
    "lng": 136.2560828,
    "tel": "0776-52-8220",
    "url": "http://www.fujishimaen.or.jp",
    "pref": "福井県",
    "city": "福井市",
    "category": "community_day_service",
    "serviceType": "地域密着型通所介護",
    "capacity": 18,
    "openDays": [
      "平日",
      "土曜日",
      "祝日"
    ],
    "openDaysNote": "日曜日の定休以外に、１2月3１日～1月３日を休業。"
  },
  {
    "id": "1870102231",
    "name": "第二ひかり苑泉の郷",
    "kana": "ダイニヒカリエンイズミノサト",
    "address": "福井県福井市今泉町25字15番１",
    "lat": 36.0680737,
    "lng": 136.253447,
    "tel": "0776-52-1300",
    "url": "http://www.hikarigroup.jp",
    "pref": "福井県",
    "city": "福井市",
    "category": "community_day_service",
    "serviceType": "地域密着型通所介護",
    "capacity": 18,
    "openDays": [
      "平日",
      "土曜日",
      "祝日"
    ],
    "openDaysNote": "延長利用は基本17時までとし、それ以降は相談に応じています"
  },
  {
    "id": "1890101106",
    "name": "認知機能訓練特化型デイサービス笑和",
    "kana": "ニンチキノウクンレントッカガタデイサービスショウワ",
    "address": "福井県福井市上北野2-23-9デイサービス笑和 デイサービス笑和",
    "lat": 36.0593626,
    "lng": 136.2512204,
    "tel": "0776-76-5600",
    "url": "作成中",
    "pref": "福井県",
    "city": "福井市",
    "category": "community_day_service",
    "serviceType": "地域密着型通所介護",
    "capacity": 0,
    "openDays": [
      "平日"
    ],
    "openDaysNote": ""
  },
  {
    "id": "1890100892",
    "name": "福まる宝永デイサービス",
    "kana": "フクマルホウエイデイサービス",
    "address": "福井県福井市宝永1丁目16-10",
    "lat": 36.0686543361242,
    "lng": 136.229604742328,
    "tel": "0776-43-6142",
    "url": "",
    "pref": "福井県",
    "city": "福井市",
    "category": "community_day_service",
    "serviceType": "地域密着型通所介護",
    "capacity": 10,
    "openDays": [
      "平日",
      "土曜日",
      "祝日"
    ],
    "openDaysNote": "水曜日はコミュニティかふぇ開催"
  },
  {
    "id": "1890101320",
    "name": "遊びにおいでや　やまりんち",
    "kana": "アソビニオイデヤ　ヤマリンチ",
    "address": "福井県福井市太田町３０－３０",
    "lat": 36.0099142,
    "lng": 136.2328027,
    "tel": "0776-76-8530",
    "url": "https://www.yamarinchi.com/",
    "pref": "福井県",
    "city": "福井市",
    "category": "community_day_service",
    "serviceType": "地域密着型通所介護",
    "capacity": 0,
    "openDays": [
      "平日",
      "土曜日",
      "日曜日",
      "祝日"
    ],
    "openDaysNote": "年末年始を除く"
  }
]