[
  {
    "id": "4077300475",
    "name": "デイサービス亀は萬年",
    "kana": "デイサービスカメハマンネン",
    "address": "吉井町千年１２番地１",
    "lat": 33.3502985293051,
    "lng": 130.776635673016,
    "tel": "0943-76-9123",
    "url": "https://kamehamannen.com/",
    "pref": "福岡県",
    "city": "うきは市",
    "category": "community_day_service",
    "serviceType": "地域密着型通所介護",
    "capacity": 18,
    "openDays": [
      "平日",
      "土曜日",
      "祝日"
    ],
    "openDaysNote": "悪天候・災害時などは変更する事もあり"
  },
  {
    "id": "4079700318",
    "name": "デイサービスセンター錦陵の苑",
    "kana": "デイサービスセンターキンリョウノソノ",
    "address": "福岡県京都郡みやこ町節丸９４１番地３有料老人ホーム錦陵の苑 有料老人ホーム錦陵の苑",
    "lat": 33.646057,
    "lng": 130.9755063,
    "tel": "0930-33-1451",
    "url": "http://www.toyotufukushikai.or.jp",
    "pref": "福岡県",
    "city": "みやこ町",
    "category": "community_day_service",
    "serviceType": "地域密着型通所介護",
    "capacity": 10,
    "openDays": [
      "平日",
      "土曜日",
      "日曜日",
      "祝日"
    ],
    "openDaysNote": ""
  },
  {
    "id": "4078700558",
    "name": "こんびびありて",
    "kana": "コンビビアリテ",
    "address": "みやま市瀬高町下庄480番地1",
    "lat": 33.147238166206,
    "lng": 130.475253181831,
    "tel": "0944－63－3711",
    "url": "",
    "pref": "福岡県",
    "city": "みやま市",
    "category": "community_day_service",
    "serviceType": "地域密着型通所介護",
    "capacity": 10,
    "openDays": [
      "平日",
      "土曜日",
      "日曜日",
      "祝日"
    ],
    "openDaysNote": ""
  },
  {
    "id": "4079000040",
    "name": "デイサービス　なずな",
    "kana": "デイサービス　ナズナ",
    "address": "福岡県みやま市山川町河原内１２２３番地-１",
    "lat": 33.1371888,
    "lng": 130.5192202,
    "tel": "0944-67-1355",
    "url": "",
    "pref": "福岡県",
    "city": "みやま市",
    "category": "community_day_service",
    "serviceType": "地域密着型通所介護",
    "capacity": 17,
    "openDays": [
      "平日",
      "土曜日",
      "祝日"
    ],
    "openDaysNote": "定休日であっても、電話対応は可能です。"
  },
  {
    "id": "4078700582",
    "name": "デイサービス　わかば庵",
    "kana": "デイサービス　ワカバアン",
    "address": "福岡県みやま市高田町田尻９０４",
    "lat": 33.1157793,
    "lng": 130.4854035,
    "tel": "０９４４－８８－８５３１",
    "url": "",
    "pref": "福岡県",
    "city": "みやま市",
    "category": "community_day_service",
    "serviceType": "地域密着型通所介護",
    "capacity": 10,
    "openDays": [
      "平日",
      "土曜日",
      "祝日"
    ],
    "openDaysNote": "12/31、1/1、1/2、1/3（年末年始休み）"
  },
  {
    "id": "4078700509",
    "name": "デイサービスおんあい",
    "kana": "デイサービスオンアイ",
    "address": "みやま市山川町河原内５１０番地",
    "lat": 33.1425686,
    "lng": 130.5120762,
    "tel": "０９４４－６７－２１５５",
    "url": "https：//onai-care.com",
    "pref": "福岡県",
    "city": "みやま市",
    "category": "community_day_service",
    "serviceType": "地域密着型通所介護",
    "capacity": 18,
    "openDays": [
      "平日",
      "土曜日",
      "祝日"
    ],
    "openDaysNote": "災害、悪天候等止むを得ない状況が生じた場合は、ご利用者様へ連絡の上変更することがあります。"
  },
  {
    "id": "4078700467",
    "name": "デイサービスのぞみ　瀬高",
    "kana": "デイサービスノゾミ　セタカ",
    "address": "瀬高町長田字浦田２６９１番地１",
    "lat": 33.1796729,
    "lng": 130.5099234,
    "tel": "0942-51-1010",
    "url": "",
    "pref": "福岡県",
    "city": "みやま市",
    "category": "community_day_service",
    "serviceType": "地域密着型通所介護",
    "capacity": 10,
    "openDays": [
      "平日",
      "土曜日",
      "日曜日",
      "祝日"
    ],
    "openDaysNote": "営業日、営業時間外についても、留守番電話で応対し、後日速やかに対応する。"
  },
  {
    "id": "4078700574",
    "name": "デイサービスりん",
    "kana": "デイサービスリン",
    "address": "高田町竹飯１０８９番地１",
    "lat": 33.1263864401977,
    "lng": 130.496804425795,
    "tel": "０９４４－６４－６５１１",
    "url": "",
    "pref": "福岡県",
    "city": "みやま市",
    "category": "community_day_service",
    "serviceType": "地域密着型通所介護",
    "capacity": 10,
    "openDays": [
      "平日",
      "土曜日",
      "祝日"
    ],
    "openDaysNote": ""
  },
  {
    "id": "4078700400",
    "name": "デイサービス四つ葉",
    "kana": "デイサ-ビスヨツバ",
    "address": "福岡県みやま市瀬高町高柳297番地3",
    "lat": 33.1472513501621,
    "lng": 130.467036657989,
    "tel": "0944-62-2970",
    "url": "",
    "pref": "福岡県",
    "city": "みやま市",
    "category": "community_day_service",
    "serviceType": "地域密着型通所介護",
    "capacity": 0,
    "openDays": [
      "平日",
      "土曜日",
      "日曜日",
      "祝日"
    ],
    "openDaysNote": ""
  },
  {
    "id": "4078700293",
    "name": "みやま市社協げんきかんデイサービス",
    "kana": "ミヤマシシャキョウゲンキカンデイサービス",
    "address": "福岡県みやま市山川町立山1234-1みやま市山川総合福祉保健センター「げんきかん」 みやま市山川総合福祉保健センター「げんきかん」",
    "lat": 33.1239178,
    "lng": 130.5185151,
    "tel": "0944-67-2566",
    "url": "http://ｗｗｗ.miyama-syakyo.com",
    "pref": "福岡県",
    "city": "みやま市",
    "category": "community_day_service",
    "serviceType": "地域密着型通所介護",
    "capacity": 18,
    "openDays": [
      "平日",
      "祝日"
    ],
    "openDaysNote": "休日が連続する場合や、災害悪天候等止むを得ない状況が生じた場合は、利用者等に連絡の上変更することがある。"
  },
  {
    "id": "4098700141",
    "name": "竹里館　デイサービスセンター",
    "kana": "チクリカン　デイサービスセンター",
    "address": "福岡県みやま市山川町原町83番地の1",
    "lat": 33.1173078,
    "lng": 130.5284911,
    "tel": "0944-67-3141",
    "url": "",
    "pref": "福岡県",
    "city": "みやま市",
    "category": "community_day_service",
    "serviceType": "地域密着型通所介護",
    "capacity": 0,
    "openDays": [
      "平日",
      "土曜日",
      "祝日"
    ],
    "openDaysNote": ""
  },
  {
    "id": "4074900236",
    "name": "デイサービス　ゆうわ",
    "kana": "デイサービス　ユウワ",
    "address": "福岡県遠賀郡芦屋町山鹿32番59号",
    "lat": 33.8986405786566,
    "lng": 130.669968411639,
    "tel": "093-221-3696",
    "url": "https://yuuwa-day.theblog.me",
    "pref": "福岡県",
    "city": "芦屋町",
    "category": "community_day_service",
    "serviceType": "地域密着型通所介護",
    "capacity": 10,
    "openDays": [
      "平日",
      "土曜日",
      "祝日"
    ],
    "openDaysNote": ""
  },
  {
    "id": "4075400483",
    "name": "デイサービスこころ　一家談楽",
    "kana": "デイサービスココロ　イッカダンラン",
    "address": "福岡県鞍手郡鞍手町古門4114",
    "lat": 33.8180375,
    "lng": 130.6679025,
    "tel": "0949-42-8877",
    "url": "https://fukushinin.co.jp/day_ikka/",
    "pref": "福岡県",
    "city": "鞍手町",
    "category": "community_day_service",
    "serviceType": "地域密着型通所介護",
    "capacity": 15,
    "openDays": [
      "平日",
      "土曜日",
      "祝日"
    ],
    "openDaysNote": ""
  },
  {
    "id": "4075400392",
    "name": "医療法人康和会りんごデイサービス",
    "kana": "イリョウホウジンコウワカイリンゴデイサービス",
    "address": "福岡県鞍手郡鞍手町大字新延字縄手2647-2",
    "lat": 33.7922183,
    "lng": 130.6739746,
    "tel": "0949-43-3000",
    "url": "http://www.kouwagroup.or.jp/ringo/index.html",
    "pref": "福岡県",
    "city": "鞍手町",
    "category": "community_day_service",
    "serviceType": "地域密着型通所介護",
    "capacity": 0,
    "openDays": [
      "平日",
      "土曜日",
      "祝日"
    ],
    "openDaysNote": "暦によっては盆営業日あり"
  },
  {
    "id": "4073800429",
    "name": "うみここ",
    "kana": "ウミココ",
    "address": "糟屋郡宇美町宇美東１丁目１番１３号",
    "lat": 33.569299730311,
    "lng": 130.526777630155,
    "tel": "092-410-3461",
    "url": "https://syourakuan.com",
    "pref": "福岡県",
    "city": "宇美町",
    "category": "community_day_service",
    "serviceType": "地域密着型通所介護",
    "capacity": 10,
    "openDays": [
      "平日",
      "土曜日",
      "祝日"
    ],
    "openDaysNote": "休日は日曜日と年末年始のみ（改行）延長サービスあり"
  },
  {
    "id": "4073800379",
    "name": "きららデイサービスセンター",
    "kana": "キララデイサービスセンター",
    "address": "福岡県粕屋郡宇美町宇美中央1丁目3番3号",
    "lat": 33.5710282,
    "lng": 130.5188809,
    "tel": "092-932-0405",
    "url": "http://hp.kaipoke.biz/h80/",
    "pref": "福岡県",
    "city": "宇美町",
    "category": "community_day_service",
    "serviceType": "地域密着型通所介護",
    "capacity": 14,
    "openDays": [
      "平日",
      "祝日"
    ],
    "openDaysNote": ""
  },
  {
    "id": "4073800585",
    "name": "つどい・うみ",
    "kana": "ツドイ・ウミ",
    "address": "福岡県粕屋郡宇美町明神坂3-6-29",
    "lat": 33.5765886,
    "lng": 130.505049,
    "tel": "092-515-5645",
    "url": "",
    "pref": "福岡県",
    "city": "宇美町",
    "category": "community_day_service",
    "serviceType": "地域密着型通所介護",
    "capacity": 10,
    "openDays": [
      "平日",
      "土曜日",
      "祝日"
    ],
    "openDaysNote": "年末12月31日・年始1月1～3日休み"
  },
  {
    "id": "4073800452",
    "name": "デイサービス　えがお",
    "kana": "デイサービス　エガオ",
    "address": "宇美5-8-22GYC宇美1F GYC宇美1F",
    "lat": 33.567462,
    "lng": 130.5121762,
    "tel": "092-692-9836",
    "url": "",
    "pref": "福岡県",
    "city": "宇美町",
    "category": "community_day_service",
    "serviceType": "地域密着型通所介護",
    "capacity": 14,
    "openDays": [
      "平日",
      "土曜日",
      "祝日"
    ],
    "openDaysNote": "１２月２９日～１月３日の６日間は定休日"
  },
  {
    "id": "4073800189",
    "name": "デイサービスセンター　同行園",
    "kana": "デイサービスセンター　ドウコウエン",
    "address": "福岡県糟屋郡宇美町貴船1丁目2-3",
    "lat": 33.5641211,
    "lng": 130.5382737,
    "tel": "092-933-2670",
    "url": "http://www.dohogroup.jp",
    "pref": "福岡県",
    "city": "宇美町",
    "category": "community_day_service",
    "serviceType": "地域密着型通所介護",
    "capacity": null,
    "openDays": [
      "平日",
      "土曜日",
      "祝日"
    ],
    "openDaysNote": "1月1・2・3日は定休日"
  },
  {
    "id": "4075200404",
    "name": "かがやきデイサービス",
    "kana": "カガヤキデイサービス",
    "address": "福岡県遠賀郡遠賀町大字鬼津1080-20",
    "lat": 33.8593607,
    "lng": 130.6651324,
    "tel": "093-701-8360",
    "url": "",
    "pref": "福岡県",
    "city": "遠賀町",
    "category": "community_day_service",
    "serviceType": "地域密着型通所介護",
    "capacity": 0,
    "openDays": [
      "平日",
      "土曜日",
      "祝日"
    ],
    "openDaysNote": ""
  },
  {
    "id": "4075200297",
    "name": "デイサービスおもや",
    "kana": "デイサービスオモヤ",
    "address": "福岡県遠賀郡遠賀町松の本3丁目897番地1",
    "lat": 33.8536419,
    "lng": 130.6655936,
    "tel": "093-293-3000",
    "url": "",
    "pref": "福岡県",
    "city": "遠賀町",
    "category": "community_day_service",
    "serviceType": "地域密着型通所介護",
    "capacity": 15,
    "openDays": [
      "平日",
      "土曜日",
      "祝日"
    ],
    "openDaysNote": "特になし"
  },
  {
    "id": "4075100562",
    "name": "デイサービス　いづか屋",
    "kana": "デイサービス　イヅカヤ",
    "address": "大字三吉字外畑820番地",
    "lat": 33.8657006,
    "lng": 130.5916832,
    "tel": "093-283-3400",
    "url": "",
    "pref": "福岡県",
    "city": "岡垣町",
    "category": "community_day_service",
    "serviceType": "地域密着型通所介護",
    "capacity": 18,
    "openDays": [
      "平日",
      "祝日"
    ],
    "openDaysNote": "祝日営業"
  },
  {
    "id": "4075100471",
    "name": "デイサービス　森の風",
    "kana": "デイサービス　モリノカゼ",
    "address": "福岡県遠賀郡岡垣町東山田2-3-19",
    "lat": 33.8495224,
    "lng": 130.6347743,
    "tel": "093-281-2201",
    "url": "",
    "pref": "福岡県",
    "city": "岡垣町",
    "category": "community_day_service",
    "serviceType": "地域密着型通所介護",
    "capacity": 18,
    "openDays": [
      "平日",
      "土曜日",
      "祝日"
    ],
    "openDaysNote": ""
  },
  {
    "id": "4075100786",
    "name": "デイサービスあゆみ　岡垣",
    "kana": "デイサービスアユミ",
    "address": "福岡県遠賀郡岡垣町大字手野９３０番１",
    "lat": 33.8684806,
    "lng": 130.5812644,
    "tel": "093-281-1660",
    "url": "",
    "pref": "福岡県",
    "city": "岡垣町",
    "category": "community_day_service",
    "serviceType": "地域密着型通所介護",
    "capacity": 10,
    "openDays": [
      "平日",
      "土曜日",
      "祝日"
    ],
    "openDaysNote": ""
  },
  {
    "id": "4075100133",
    "name": "デイサービスセンター　海老津園",
    "kana": "デイサービスセンター　エビツエン",
    "address": "福岡県遠賀郡岡垣町大字海老津７０８番の３",
    "lat": 33.8297389610402,
    "lng": 130.617697825131,
    "tel": "093-283-1260",
    "url": "tubonekai.or.jp/service/",
    "pref": "福岡県",
    "city": "岡垣町",
    "category": "community_day_service",
    "serviceType": "地域密着型通所介護",
    "capacity": 10,
    "openDays": [
      "平日",
      "土曜日",
      "祝日"
    ],
    "openDaysNote": "体調不良等で休まれる場合は、速やかに連絡をお願い致します。"
  },
  {
    "id": "4075100869",
    "name": "デイサービスセンターおひさま",
    "kana": "デイサービスセンターオヒサマ",
    "address": "福岡県遠賀郡岡垣町海老津駅前１０－１６",
    "lat": 33.8428923,
    "lng": 130.6236394,
    "tel": "093-701-7003",
    "url": "",
    "pref": "福岡県",
    "city": "岡垣町",
    "category": "community_day_service",
    "serviceType": "地域密着型通所介護",
    "capacity": null,
    "openDays": [
      "平日"
    ],
    "openDaysNote": ""
  },
  {
    "id": "4075100521",
    "name": "デイサービスセンターであい",
    "kana": "デイサービスセンターデアイ",
    "address": "遠賀郡岡垣町高倉1087番地1",
    "lat": 33.8484749,
    "lng": 130.6019106,
    "tel": "093-282-7039",
    "url": "http://helper-yosikawa.noor.JP/",
    "pref": "福岡県",
    "city": "岡垣町",
    "category": "community_day_service",
    "serviceType": "地域密着型通所介護",
    "capacity": 12,
    "openDays": [
      "平日",
      "土曜日",
      "祝日"
    ],
    "openDaysNote": "利用者の様々な変化に対応、専門性を持って支援させていただいている。"
  },
  {
    "id": "4075100695",
    "name": "デイサービスぴあ",
    "kana": "デイサービスピア",
    "address": "福岡県遠賀郡岡垣町吉木東２－１４－１",
    "lat": 33.8581342957582,
    "lng": 130.609940579133,
    "tel": "０９３－２８３－３０２０",
    "url": "",
    "pref": "福岡県",
    "city": "岡垣町",
    "category": "community_day_service",
    "serviceType": "地域密着型通所介護",
    "capacity": 0,
    "openDays": [
      "平日",
      "祝日"
    ],
    "openDaysNote": ""
  },
  {
    "id": "4092100090",
    "name": "エルシアデイサービス",
    "kana": "エルシアデイサービス",
    "address": "福岡県嘉麻市下山田407番地",
    "lat": 33.5733053,
    "lng": 130.7576469,
    "tel": "0948-52-3551",
    "url": "https://hp.kaipoke.biz",
    "pref": "福岡県",
    "city": "嘉麻市",
    "category": "community_day_service",
    "serviceType": "地域密着型通所介護",
    "capacity": 10,
    "openDays": [
      "平日",
      "土曜日",
      "日曜日",
      "祝日"
    ],
    "openDaysNote": "年中無休営業【お泊りデイサービス】になります。（改行）急な用事、緊急的な宿泊、一時避難、定期宿泊等、デイサービスご利用のご利用者様や介護負担軽減にも臨機応変に対応しています。（改行）デイサービス利用後、夕食を召し上がって頂いた後の遅いお送りも対応いたします。（改行）困った事やサービスについてはまずはご相談下さい。（改行）※悪天候等により、ご利用者様に危険が及ぶ可能性があると判断した場合は、臨時休業する場合がございます。"
  },
  {
    "id": "4092100116",
    "name": "エルシアデイサービス上山田",
    "kana": "エルシアデイサービスカミヤマダ",
    "address": "福岡県嘉麻市上山田1519番地",
    "lat": 33.5563679,
    "lng": 130.7666612,
    "tel": "0948-52-3971",
    "url": "http://hp.kaipoke.biz/ggu/info.html",
    "pref": "福岡県",
    "city": "嘉麻市",
    "category": "community_day_service",
    "serviceType": "地域密着型通所介護",
    "capacity": 0,
    "openDays": [
      "平日",
      "土曜日",
      "祝日"
    ],
    "openDaysNote": ""
  },
  {
    "id": "4072100029",
    "name": "たちばな苑デイサービスセンター",
    "kana": "タチバナエンデイサービスセンター",
    "address": "福岡県嘉麻市上山田818-18",
    "lat": 33.5645491609618,
    "lng": 130.770872404893,
    "tel": "0948-52-1477",
    "url": "tachibanaen.net",
    "pref": "福岡県",
    "city": "嘉麻市",
    "category": "community_day_service",
    "serviceType": "地域密着型通所介護",
    "capacity": 0,
    "openDays": [
      "平日",
      "土曜日",
      "祝日"
    ],
    "openDaysNote": "悪天候（台風・積雪）等により、ご利用者様に危険が及ぶ可能性があると判断した場合は、臨時休業する場合がございます。"
  },
  {
    "id": "4072100540",
    "name": "デイサービス　こもれび",
    "kana": "デイサービス　コモレビ",
    "address": "口春500番地の１",
    "lat": 33.6066641,
    "lng": 130.7132552,
    "tel": "0948-42-0031",
    "url": "",
    "pref": "福岡県",
    "city": "嘉麻市",
    "category": "community_day_service",
    "serviceType": "地域密着型通所介護",
    "capacity": 10,
    "openDays": [
      "平日",
      "土曜日",
      "祝日"
    ],
    "openDaysNote": ""
  },
  {
    "id": "4072100516",
    "name": "デイサービスセンターつつじの丘",
    "kana": "デイサービスセンター　ツツジノオカ",
    "address": "福岡県嘉麻市牛隈2510番地９８",
    "lat": 33.5748734,
    "lng": 130.7230772,
    "tel": "0948-57-1008",
    "url": "",
    "pref": "福岡県",
    "city": "嘉麻市",
    "category": "community_day_service",
    "serviceType": "地域密着型通所介護",
    "capacity": 0,
    "openDays": [
      "平日",
      "土曜日",
      "祝日"
    ],
    "openDaysNote": ""
  },
  {
    "id": "4072100342",
    "name": "デイサービスにぎわい荘",
    "kana": "デイサービスニギワイソウ",
    "address": "福岡県嘉麻市下山田336",
    "lat": 33.5754493,
    "lng": 130.7547586,
    "tel": "0948-53-0839",
    "url": "http//www1.sphere.ne.jp/fukushiseikyou/",
    "pref": "福岡県",
    "city": "嘉麻市",
    "category": "community_day_service",
    "serviceType": "地域密着型通所介護",
    "capacity": 14,
    "openDays": [
      "平日",
      "祝日"
    ],
    "openDaysNote": "利用者家族の介護負担の軽減や在宅生活の継続など在宅介護をめざす家族を利用者ニーズに合わせ支援します。特に、多くの認知症の利用者様のケア例を持っています。また、お看取りまでお世話できます。"
  },
  {
    "id": "4092100108",
    "name": "リハビリデイサービス　フクラス嘉麻",
    "kana": "リハビリデイサービス　フクラスカマ",
    "address": "福岡県嘉麻市鴨生519-2",
    "lat": 33.6047276,
    "lng": 130.7257381,
    "tel": "0948-43-9975",
    "url": "https://www.fuku2020.com/",
    "pref": "福岡県",
    "city": "嘉麻市",
    "category": "community_day_service",
    "serviceType": "地域密着型通所介護",
    "capacity": 0,
    "openDays": [
      "平日"
    ],
    "openDaysNote": "ご利用日と祝日が重なった場合は振替対応を行う。"
  },
  {
    "id": "4075800229",
    "name": "医療法人　平野医院デイサービスセンター",
    "kana": "イリョウホウジン　ヒラノイインデイサービスセンター",
    "address": "福岡県嘉麻市鴨生６５１ー４",
    "lat": 33.6077336,
    "lng": 130.7252234,
    "tel": "(デイケアセンター)094",
    "url": "",
    "pref": "福岡県",
    "city": "嘉麻市",
    "category": "community_day_service",
    "serviceType": "地域密着型通所介護",
    "capacity": 0,
    "openDays": [
      "平日",
      "土曜日"
    ],
    "openDaysNote": "盆8/13～8/15　正月12/31～1/3"
  },
  {
    "id": "4078000280",
    "name": "デイサービス　みんなの樹",
    "kana": "デイサービス　ミンナノキ",
    "address": "大字与原1893番地2",
    "lat": 33.752543,
    "lng": 130.9903295,
    "tel": "0930-25-0133",
    "url": "",
    "pref": "福岡県",
    "city": "苅田町",
    "category": "community_day_service",
    "serviceType": "地域密着型通所介護",
    "capacity": 10,
    "openDays": [
      "平日",
      "祝日"
    ],
    "openDaysNote": "災害、悪天候等止むを得ない事情が生じた場合は、利用者等に連絡の上変更することがあります。"
  },
  {
    "id": "4078000157",
    "name": "デイサービスみのり",
    "kana": "デイサービスミノリ",
    "address": "福岡県京都郡苅田町大字与原１９６２番地１",
    "lat": 33.7506440302778,
    "lng": 131.000926400061,
    "tel": "0930-25-3410",
    "url": "",
    "pref": "福岡県",
    "city": "苅田町",
    "category": "community_day_service",
    "serviceType": "地域密着型通所介護",
    "capacity": 0,
    "openDays": [
      "平日",
      "土曜日",
      "祝日"
    ],
    "openDaysNote": ""
  },
  {
    "id": "4078000371",
    "name": "通所介護　プレール",
    "kana": "ツウショカイゴ　プレール",
    "address": "福岡県京都郡苅田町新津1597番地介護付有料老人ホーム　メゾン・ド・プレール・1階 介護付有料老人ホーム　メゾン・ド・プレール・1階",
    "lat": 33.7532002615794,
    "lng": 130.971437385428,
    "tel": "0930-26-2016",
    "url": "http://www.youmeikai.jp/",
    "pref": "福岡県",
    "city": "苅田町",
    "category": "community_day_service",
    "serviceType": "地域密着型通所介護",
    "capacity": 18,
    "openDays": [
      "平日",
      "祝日"
    ],
    "openDaysNote": ""
  },
  {
    "id": "4070000494",
    "name": "デイサービスセンター吉富鳳寿園",
    "kana": "デイサービスセンターヨシトミホウジュエン",
    "address": "福岡県築上郡吉富町大字幸子803番地1",
    "lat": 33.5939027806467,
    "lng": 131.164706492065,
    "tel": "0979-23-6111",
    "url": "http://ryokufu-k.jp/",
    "pref": "福岡県",
    "city": "吉富町",
    "category": "community_day_service",
    "serviceType": "地域密着型通所介護",
    "capacity": 0,
    "openDays": [
      "平日",
      "土曜日",
      "祝日"
    ],
    "openDaysNote": "災害リスクを想定し、臨時休業させていただく場合がございます。"
  },
  {
    "id": "4071604351",
    "name": "Day　Service　無楽想",
    "kana": "デイサービス　ムラクソウ",
    "address": "福岡県久留米市上津町２２２８番地１１１６",
    "lat": 33.2675308,
    "lng": 130.5358663,
    "tel": "0942-80-7975",
    "url": "chiekonakamura@yahoo.co.jp",
    "pref": "福岡県",
    "city": "久留米市",
    "category": "community_day_service",
    "serviceType": "地域密着型通所介護",
    "capacity": 0,
    "openDays": [
      "平日",
      "祝日"
    ],
    "openDaysNote": ""
  },
  {
    "id": "4091601809",
    "name": "Letsリハ六ツ門",
    "kana": "レッツリハムツモン",
    "address": "福岡県久留米市小頭町3-16クラシオン小頭公園前１F クラシオン小頭公園前１F",
    "lat": 33.3127128,
    "lng": 130.5102232,
    "tel": "0942-48-2255",
    "url": "https://www.lets-reha.jp/",
    "pref": "福岡県",
    "city": "久留米市",
    "category": "community_day_service",
    "serviceType": "地域密着型通所介護",
    "capacity": 0,
    "openDays": [
      "平日",
      "祝日"
    ],
    "openDaysNote": ""
  },
  {
    "id": "4091601635",
    "name": "あいかわデイサービスセンター",
    "kana": "アイカワデイサービスセンター",
    "address": "福岡県久留米市合川町1529-3",
    "lat": 33.3154963,
    "lng": 130.5352476,
    "tel": "0942-46-7611",
    "url": "https://chitose-gr.com/",
    "pref": "福岡県",
    "city": "久留米市",
    "category": "community_day_service",
    "serviceType": "地域密着型通所介護",
    "capacity": 21,
    "openDays": [
      "平日",
      "土曜日",
      "祝日"
    ],
    "openDaysNote": ""
  },
  {
    "id": "4071604492",
    "name": "あすなろデイサービスセンター",
    "kana": "アスナロデイサービスセンター",
    "address": "福岡県久留米市荒木町下荒木963-2",
    "lat": 33.2707768,
    "lng": 130.4919114,
    "tel": "0942-65-6705",
    "url": "",
    "pref": "福岡県",
    "city": "久留米市",
    "category": "community_day_service",
    "serviceType": "地域密着型通所介護",
    "capacity": 18,
    "openDays": [
      "平日",
      "土曜日",
      "祝日"
    ],
    "openDaysNote": ""
  },
  {
    "id": "4071605770",
    "name": "いきいき津福デイサービスセンター",
    "kana": "イキイキツブクデイサービスセンター",
    "address": "福岡県久留米市津福本町1627-5",
    "lat": 33.2957023,
    "lng": 130.4995377,
    "tel": "0942-37-0088",
    "url": "http://www.iki2-k.com",
    "pref": "福岡県",
    "city": "久留米市",
    "category": "community_day_service",
    "serviceType": "地域密着型通所介護",
    "capacity": 25,
    "openDays": [
      "平日",
      "土曜日",
      "祝日"
    ],
    "openDaysNote": ""
  },
  {
    "id": "4071604146",
    "name": "いきいき本町デイサービスセンター",
    "kana": "イキイキホンマチデイサービスセンター",
    "address": "福岡県久留米市本町6丁目161第17上野ビル1階 第17上野ビル1階",
    "lat": 33.3089734742478,
    "lng": 130.50651492314,
    "tel": "0942-46-6333",
    "url": "http://www.iki2-k.com",
    "pref": "福岡県",
    "city": "久留米市",
    "category": "community_day_service",
    "serviceType": "地域密着型通所介護",
    "capacity": 25,
    "openDays": [
      "平日",
      "土曜日",
      "祝日"
    ],
    "openDaysNote": ""
  },
  {
    "id": "4091601692",
    "name": "くるめよかとこ",
    "kana": "クルメヨカトコ",
    "address": "福岡県久留米市梅満町1559番地",
    "lat": 33.3061148,
    "lng": 130.4972312,
    "tel": "0942-65-8838",
    "url": "",
    "pref": "福岡県",
    "city": "久留米市",
    "category": "community_day_service",
    "serviceType": "地域密着型通所介護",
    "capacity": null,
    "openDays": [
      "平日",
      "祝日"
    ],
    "openDaysNote": "その他の年間の休日12月31日～1月3日"
  },
  {
    "id": "4071605366",
    "name": "さくらデイサービスこくぶ",
    "kana": "サクラデイサービスコクブ",
    "address": "福岡県久留米市国分町1026-4",
    "lat": 60.3130569,
    "lng": 19.9417452,
    "tel": "0942-27-5245",
    "url": "",
    "pref": "福岡県",
    "city": "久留米市",
    "category": "community_day_service",
    "serviceType": "地域密着型通所介護",
    "capacity": 10,
    "openDays": [
      "平日",
      "祝日"
    ],
    "openDaysNote": ""
  },
  {
    "id": "4071602306",
    "name": "スタジオアニモ",
    "kana": "スタジオアニモ",
    "address": "福岡県久留米市野伏間１丁目８-４６",
    "lat": 33.2842386819354,
    "lng": 130.51057759674,
    "tel": "0942-65-8726",
    "url": "care-momo.com",
    "pref": "福岡県",
    "city": "久留米市",
    "category": "community_day_service",
    "serviceType": "地域密着型通所介護",
    "capacity": 15,
    "openDays": [
      "平日",
      "土曜日",
      "祝日"
    ],
    "openDaysNote": "休み中のご利用は相談に応じます。"
  },
  {
    "id": "4091601676",
    "name": "デイサービス　ピース",
    "kana": "デイサービス　ピース",
    "address": "福岡県久留米市通町362",
    "lat": 33.3161429618692,
    "lng": 130.523710038658,
    "tel": "0942－27－7120",
    "url": "",
    "pref": "福岡県",
    "city": "久留米市",
    "category": "community_day_service",
    "serviceType": "地域密着型通所介護",
    "capacity": 0,
    "openDays": [
      "平日",
      "祝日"
    ],
    "openDaysNote": ""
  },
  {
    "id": "4071600987",
    "name": "デイサービス　銀の庵",
    "kana": "デイサービス　ギンノアン",
    "address": "久留米市御井町６４０番地1",
    "lat": 33.3095964,
    "lng": 130.5552863,
    "tel": "0942-43-0270",
    "url": "http://www.ginnoan-tsubasa.com",
    "pref": "福岡県",
    "city": "久留米市",
    "category": "community_day_service",
    "serviceType": "地域密着型通所介護",
    "capacity": 0,
    "openDays": [
      "平日",
      "土曜日",
      "祝日"
    ],
    "openDaysNote": ""
  },
  {
    "id": "4071605507",
    "name": "デイサービス　風の杜",
    "kana": "デイサービス　カゼノモリ",
    "address": "福岡県久留米市大善寺町宮本861番地2",
    "lat": 33.2772592,
    "lng": 130.4800043,
    "tel": "0942-51-3050",
    "url": "",
    "pref": "福岡県",
    "city": "久留米市",
    "category": "community_day_service",
    "serviceType": "地域密着型通所介護",
    "capacity": 0,
    "openDays": [
      "平日",
      "祝日"
    ],
    "openDaysNote": "年末年始は12月31日から1月3日が休業"
  },
  {
    "id": "4071602702",
    "name": "デイサービス「仲間館・ありがとう」",
    "kana": "デイサービス　ナカマカン　アリガトウ",
    "address": "福岡県久留米市城島町内野３２２－１",
    "lat": 33.2599374,
    "lng": 130.4340449,
    "tel": "0942-51-5552",
    "url": "",
    "pref": "福岡県",
    "city": "久留米市",
    "category": "community_day_service",
    "serviceType": "地域密着型通所介護",
    "capacity": 0,
    "openDays": [
      "平日",
      "祝日"
    ],
    "openDaysNote": "祝日でも土、日曜以外は営業日"
  },
  {
    "id": "4071605408",
    "name": "デイサービス66",
    "kana": "デイサービスロクロク",
    "address": "福岡県久留米市城島町六町原373番地2",
    "lat": 33.2431255,
    "lng": 130.433808,
    "tel": "0942-62-2701",
    "url": "",
    "pref": "福岡県",
    "city": "久留米市",
    "category": "community_day_service",
    "serviceType": "地域密着型通所介護",
    "capacity": 6,
    "openDays": [
      "平日",
      "土曜日",
      "祝日"
    ],
    "openDaysNote": "夏季（8月13日・14日・15日）定休日　年末年始（12月30日・31日・1月1日・2日・3日）定休日"
  },
  {
    "id": "4091601742",
    "name": "デイサービスＨＡＷＡＩ",
    "kana": "デイサービスハワイ",
    "address": "福岡県久留米市三潴町早津崎805番地2",
    "lat": 33.266179,
    "lng": 130.4718911,
    "tel": "0942-65-7519",
    "url": "",
    "pref": "福岡県",
    "city": "久留米市",
    "category": "community_day_service",
    "serviceType": "地域密着型通所介護",
    "capacity": null,
    "openDays": [
      "平日",
      "土曜日"
    ],
    "openDaysNote": "17時45分以降は延長加算を算定"
  },
  {
    "id": "4091601353",
    "name": "デイサービスくさのね",
    "kana": "デイサービスクサノネ",
    "address": "福岡県久留米市白山町96",
    "lat": 33.3143214,
    "lng": 130.5013657,
    "tel": "0942-65-8204",
    "url": "",
    "pref": "福岡県",
    "city": "久留米市",
    "category": "community_day_service",
    "serviceType": "地域密着型通所介護",
    "capacity": 10,
    "openDays": [
      "平日",
      "土曜日",
      "祝日"
    ],
    "openDaysNote": "８月１３日から８月１５日、１２月３１日から１月３日の期間は休み"
  },
  {
    "id": "4071603726",
    "name": "デイサービスセンター　あんず",
    "kana": "デイサービスセンター　アンズ",
    "address": "福岡県久留米市津福今町160番地１コーポルーブル コーポルーブル",
    "lat": 33.2931332,
    "lng": 130.5110257,
    "tel": "0942-36-0588",
    "url": "",
    "pref": "福岡県",
    "city": "久留米市",
    "category": "community_day_service",
    "serviceType": "地域密着型通所介護",
    "capacity": 0,
    "openDays": [
      "平日",
      "土曜日",
      "祝日"
    ],
    "openDaysNote": ""
  },
  {
    "id": "4071604757",
    "name": "デイサービスセンター　花めぐり",
    "kana": "デイサービスセンター　ハナメグリ",
    "address": "久留米市藤光1丁目10-3",
    "lat": 33.2851147,
    "lng": 130.5147895,
    "tel": "0942-55-8182",
    "url": "https://hanameguri.sakura.ne.jp/",
    "pref": "福岡県",
    "city": "久留米市",
    "category": "community_day_service",
    "serviceType": "地域密着型通所介護",
    "capacity": 14,
    "openDays": [
      "平日",
      "土曜日",
      "祝日"
    ],
    "openDaysNote": ""
  },
  {
    "id": "4071602959",
    "name": "デイサービスセンター　耳納さんぽみち",
    "kana": "デイサービスセンター　ミノウサンポミチ",
    "address": "福岡県久留米市山川町１０７１－１",
    "lat": 33.3077966,
    "lng": 130.5752544,
    "tel": "0942-48-3006",
    "url": "",
    "pref": "福岡県",
    "city": "久留米市",
    "category": "community_day_service",
    "serviceType": "地域密着型通所介護",
    "capacity": 18,
    "openDays": [
      "平日",
      "土曜日",
      "祝日"
    ],
    "openDaysNote": "単独型のショートステイは年中無休。TEL0942-65-8228"
  },
  {
    "id": "4071604203",
    "name": "デイサービスセンターあいよかけよ",
    "kana": "デイサービスセンターアイヨカケヨ",
    "address": "福岡県久留米市城島町城島58-3",
    "lat": 33.2546549272811,
    "lng": 130.429687506134,
    "tel": "0942-55-3565",
    "url": "https://www.sara-fukusi.com/",
    "pref": "福岡県",
    "city": "久留米市",
    "category": "community_day_service",
    "serviceType": "地域密着型通所介護",
    "capacity": 18,
    "openDays": [
      "平日",
      "土曜日",
      "祝日"
    ],
    "openDaysNote": ""
  },
  {
    "id": "4091601163",
    "name": "デイサービスセンターすまいる上津",
    "kana": "デイサービスセンタースマイルカミツ",
    "address": "福岡県久留米市上津町1768‐20",
    "lat": 33.2801712,
    "lng": 130.540099,
    "tel": "0942‐27‐6350",
    "url": "http://www.smilehome-kanri.jp/",
    "pref": "福岡県",
    "city": "久留米市",
    "category": "community_day_service",
    "serviceType": "地域密着型通所介護",
    "capacity": 0,
    "openDays": [
      "平日",
      "土曜日",
      "祝日"
    ],
    "openDaysNote": ""
  },
  {
    "id": "4071604245",
    "name": "デイサービスセンターひばり",
    "kana": "デイサービスセンターヒバリ",
    "address": "福岡県久留米市田主丸町益生田848-2",
    "lat": 33.3305060517058,
    "lng": 130.690133427186,
    "tel": "080-7071-9748",
    "url": "http://www.hibari.info/",
    "pref": "福岡県",
    "city": "久留米市",
    "category": "community_day_service",
    "serviceType": "地域密着型通所介護",
    "capacity": 10,
    "openDays": [
      "平日",
      "土曜日",
      "祝日"
    ],
    "openDaysNote": ""
  },
  {
    "id": "4071604914",
    "name": "ディサービスなごみ",
    "kana": "ディサービスナゴミ",
    "address": "久留米市田主丸町牧1375番地1",
    "lat": 33.3390864,
    "lng": 130.6491536,
    "tel": "0943-72-1801",
    "url": "",
    "pref": "福岡県",
    "city": "久留米市",
    "category": "community_day_service",
    "serviceType": "地域密着型通所介護",
    "capacity": 15,
    "openDays": [
      "平日",
      "土曜日",
      "祝日"
    ],
    "openDaysNote": ""
  },
  {
    "id": "4071605598",
    "name": "デイサービスはたさき別館",
    "kana": "デイサービスハタサキベッカン",
    "address": "御井籏崎3-7-1",
    "lat": 33.3165607,
    "lng": 130.5614617,
    "tel": "0942-65-8510",
    "url": "http://hatasaki6500.com/bekkan",
    "pref": "福岡県",
    "city": "久留米市",
    "category": "community_day_service",
    "serviceType": "地域密着型通所介護",
    "capacity": 15,
    "openDays": [
      "平日",
      "土曜日",
      "日曜日",
      "祝日"
    ],
    "openDaysNote": "災害・悪天候など止むを得ない事情が生じた場合は、利用者等に連絡の上変更をすることがある。"
  },
  {
    "id": "4078000140",
    "name": "デイサービスひまわり",
    "kana": "デイサービスヒマワリ",
    "address": "福岡県久留米市三潴町西牟田94-6",
    "lat": 33.2539559,
    "lng": 130.4850653,
    "tel": "0942-65-0208",
    "url": "http://hp.kaipoke.biz/8ym/",
    "pref": "福岡県",
    "city": "久留米市",
    "category": "community_day_service",
    "serviceType": "地域密着型通所介護",
    "capacity": 0,
    "openDays": [
      "平日",
      "祝日"
    ],
    "openDaysNote": ""
  },
  {
    "id": "4071604815",
    "name": "デイサービス四季物語",
    "kana": "デイサービスシキモノガタリ",
    "address": "福岡県久留米市長門石四丁目11番10号",
    "lat": 33.3324071,
    "lng": 130.4836295,
    "tel": "0942-65-6611",
    "url": "",
    "pref": "福岡県",
    "city": "久留米市",
    "category": "community_day_service",
    "serviceType": "地域密着型通所介護",
    "capacity": 10,
    "openDays": [
      "平日",
      "土曜日",
      "日曜日",
      "祝日"
    ],
    "openDaysNote": ""
  },
  {
    "id": "4091601460",
    "name": "デイサービス紬",
    "kana": "デイサービスツムギ",
    "address": "福岡県久留米市藤光町946-5",
    "lat": 33.2647786,
    "lng": 130.5111839,
    "tel": "0942-65-4877",
    "url": "http://hp.kaipoke.biz/rxk/",
    "pref": "福岡県",
    "city": "久留米市",
    "category": "community_day_service",
    "serviceType": "地域密着型通所介護",
    "capacity": 14,
    "openDays": [
      "平日",
      "土曜日"
    ],
    "openDaysNote": ""
  },
  {
    "id": "4071605283",
    "name": "ドルチェデイサービスセンター",
    "kana": "ドルチェデイサービスセンター",
    "address": "三潴町田川１５７‐１",
    "lat": 33.2563471,
    "lng": 130.4699556,
    "tel": "０９４２‐６５‐１３０２",
    "url": "http://www.casadolce.info",
    "pref": "福岡県",
    "city": "久留米市",
    "category": "community_day_service",
    "serviceType": "地域密着型通所介護",
    "capacity": 0,
    "openDays": [
      "平日",
      "土曜日",
      "祝日"
    ],
    "openDaysNote": ""
  },
  {
    "id": "4091601791",
    "name": "ニコリハ",
    "kana": "ニコリハ",
    "address": "福岡県久留米市荒木町荒木802-8サンライズ荒木1F サンライズ荒木1F",
    "lat": 33.2756667,
    "lng": 130.5023993,
    "tel": "080-7354-3001",
    "url": "",
    "pref": "福岡県",
    "city": "久留米市",
    "category": "community_day_service",
    "serviceType": "地域密着型通所介護",
    "capacity": null,
    "openDays": [
      "平日",
      "祝日"
    ],
    "openDaysNote": "年末年始(12/31～1/3)は定休日となっております。"
  },
  {
    "id": "4071603296",
    "name": "ハートケアデイサービス",
    "kana": "ハートケアデイサービス",
    "address": "福岡県久留米市大善寺町宮本2145‐1ハートケアデイサービス ハートケアデイサービス",
    "lat": 33.2703478619373,
    "lng": 130.472826609509,
    "tel": "0942-48-1925",
    "url": "heartcare21.com",
    "pref": "福岡県",
    "city": "久留米市",
    "category": "community_day_service",
    "serviceType": "地域密着型通所介護",
    "capacity": 18,
    "openDays": [
      "平日",
      "土曜日",
      "祝日"
    ],
    "openDaysNote": "営業時間は月曜日から土曜日までとする。ただし、年末年始（１２月３１日から１月２日）は除く。"
  },
  {
    "id": "4091601585",
    "name": "ヘルパーステーション青空（せいてん）",
    "kana": "ヘルパーステーションセイテン",
    "address": "久留米市青峰２丁目８番１７号",
    "lat": 33.2850323,
    "lng": 130.5635863,
    "tel": "0942-27-8235",
    "url": "",
    "pref": "福岡県",
    "city": "久留米市",
    "category": "community_day_service",
    "serviceType": "地域密着型通所介護",
    "capacity": 9,
    "openDays": [
      "平日",
      "土曜日",
      "祝日"
    ],
    "openDaysNote": ""
  },
  {
    "id": "4091601759",
    "name": "ほねつぎデイサービス宮ノ陣",
    "kana": "ホネツギデイサービスミヤノジン",
    "address": "福岡県久留米市宮ノ陣4丁目5-8",
    "lat": 33.3336436,
    "lng": 130.5337732,
    "tel": "0942-65-6122",
    "url": "",
    "pref": "福岡県",
    "city": "久留米市",
    "category": "community_day_service",
    "serviceType": "地域密着型通所介護",
    "capacity": 0,
    "openDays": [
      "平日",
      "祝日"
    ],
    "openDaysNote": ""
  },
  {
    "id": "4071604278",
    "name": "モモタロウ",
    "kana": "モモタロウ",
    "address": "久留米市野伏間１丁目８の４１",
    "lat": 33.2841342,
    "lng": 130.5107399,
    "tel": "0942-65-8762",
    "url": "http//care-momo.com",
    "pref": "福岡県",
    "city": "久留米市",
    "category": "community_day_service",
    "serviceType": "地域密着型通所介護",
    "capacity": 20,
    "openDays": [
      "平日",
      "土曜日",
      "祝日"
    ],
    "openDaysNote": "営業時間以外は、電話を転送にして利用者の相談等を受けています。"
  },
  {
    "id": "4071601324",
    "name": "よあけデイサービス",
    "kana": "ヨアケデイサービス",
    "address": "久留米市大善寺町夜明８３９－２",
    "lat": 33.2721314,
    "lng": 130.4647535,
    "tel": "0942-27-0068",
    "url": "https://sawayaka-d.org",
    "pref": "福岡県",
    "city": "久留米市",
    "category": "community_day_service",
    "serviceType": "地域密着型通所介護",
    "capacity": 18,
    "openDays": [
      "平日",
      "土曜日",
      "祝日"
    ],
    "openDaysNote": "時間外随時対応"
  },
  {
    "id": "4091601684",
    "name": "よあけ陽だまりデイサービス",
    "kana": "ヨアケヒダマリデイサービス",
    "address": "福岡県久留米市大善寺町夜明838-1",
    "lat": 33.2719791,
    "lng": 130.4647811,
    "tel": "0942-64-8033",
    "url": "",
    "pref": "福岡県",
    "city": "久留米市",
    "category": "community_day_service",
    "serviceType": "地域密着型通所介護",
    "capacity": 0,
    "openDays": [
      "平日"
    ],
    "openDaysNote": "時間外随時対応"
  },
  {
    "id": "4091601650",
    "name": "リハビリ　TORICO",
    "kana": "リハビリトリコ",
    "address": "福岡県久留米市津福本町1661-3MARKSFORT津福100号 MARKSFORT津福100号",
    "lat": 33.2951533,
    "lng": 130.496052,
    "tel": "0942-64-9800",
    "url": "",
    "pref": "福岡県",
    "city": "久留米市",
    "category": "community_day_service",
    "serviceType": "地域密着型通所介護",
    "capacity": 0,
    "openDays": [
      "平日",
      "祝日"
    ],
    "openDaysNote": ""
  },
  {
    "id": "4091601502",
    "name": "リハビリデイサービス響",
    "kana": "リハビリデイサービスヒビキ",
    "address": "福岡県久留米市津福今町361番地37",
    "lat": 33.2948929,
    "lng": 130.5040048,
    "tel": "0942-46-2311",
    "url": "kurume-hibiki.com",
    "pref": "福岡県",
    "city": "久留米市",
    "category": "community_day_service",
    "serviceType": "地域密着型通所介護",
    "capacity": 25,
    "openDays": [
      "平日",
      "土曜日",
      "祝日"
    ],
    "openDaysNote": ""
  },
  {
    "id": "4091601536",
    "name": "リハプライド六ツ門2番街店",
    "kana": "リハプライドムツモンニバンガイテン",
    "address": "福岡県久留米市六ツ門町7-10",
    "lat": 33.3135257,
    "lng": 130.5129328,
    "tel": "0942-48-0955",
    "url": "https://www.rehapride.co.jp/mutsumonnibangaiten/",
    "pref": "福岡県",
    "city": "久留米市",
    "category": "community_day_service",
    "serviceType": "地域密着型通所介護",
    "capacity": 0,
    "openDays": [
      "平日",
      "祝日"
    ],
    "openDaysNote": ""
  },
  {
    "id": "4091601361",
    "name": "レコードブック久留米諏訪野店",
    "kana": "クルメスワノ",
    "address": "諏訪野町1639-1",
    "lat": 33.3004984,
    "lng": 130.5268133,
    "tel": "0942-51-8051",
    "url": "https://www.recordbook.jp/facility/kurumesuwano/",
    "pref": "福岡県",
    "city": "久留米市",
    "category": "community_day_service",
    "serviceType": "地域密着型通所介護",
    "capacity": 0,
    "openDays": [
      "平日"
    ],
    "openDaysNote": ""
  },
  {
    "id": "4071604948",
    "name": "株式会社Obriこころデイサービス",
    "kana": "カブシキガイシャオブリ　ココロデイサービス",
    "address": "津福今町３１０番地４",
    "lat": 33.2964106,
    "lng": 130.5079342,
    "tel": "0942-32-5520",
    "url": "cocoro.01@bbiq.jp",
    "pref": "福岡県",
    "city": "久留米市",
    "category": "community_day_service",
    "serviceType": "地域密着型通所介護",
    "capacity": 15,
    "openDays": [
      "平日",
      "土曜日",
      "祝日"
    ],
    "openDaysNote": "祝・祭日：営業（改行）年末年始（12/30～1/3）：休業"
  },
  {
    "id": "4071605358",
    "name": "株式会社ｼﾆｱﾗｲﾌｻﾎﾟｰﾄ　　デイサービスセンターれんげ",
    "kana": "カブシキカイシャシニアライフサポ－ト　デイサ－ビスセンタ－レンゲ",
    "address": "久留米市田主丸町船越９３３番地２",
    "lat": 33.3548256,
    "lng": 130.7111449,
    "tel": "０９４３－７２－１１６６",
    "url": "",
    "pref": "福岡県",
    "city": "久留米市",
    "category": "community_day_service",
    "serviceType": "地域密着型通所介護",
    "capacity": 0,
    "openDays": [
      "平日",
      "土曜日",
      "祝日"
    ],
    "openDaysNote": "特になし"
  },
  {
    "id": "4091601593",
    "name": "聖マリアデイサービスセンター",
    "kana": "セイマリア　デイ　サービスセンター",
    "address": "福岡県久留米市津福本町198番地2サンカルナ久留米1階南側 サンカルナ久留米1階南側",
    "lat": 33.3012325342287,
    "lng": 130.511554611501,
    "tel": "0942-46-9433",
    "url": "",
    "pref": "福岡県",
    "city": "久留米市",
    "category": "community_day_service",
    "serviceType": "地域密着型通所介護",
    "capacity": 170,
    "openDays": [
      "平日"
    ],
    "openDaysNote": ""
  },
  {
    "id": "4071605093",
    "name": "早稲田イーライフ久留米",
    "kana": "ワセダイーライフクルメ",
    "address": "福岡県久留米市高良内町2805",
    "lat": 33.2954835900984,
    "lng": 130.548795942328,
    "tel": "0942-65-9550",
    "url": "http://www.elife-fukuoka.com",
    "pref": "福岡県",
    "city": "久留米市",
    "category": "community_day_service",
    "serviceType": "地域密着型通所介護",
    "capacity": 180,
    "openDays": [
      "平日",
      "祝日"
    ],
    "openDaysNote": "休業日　8月13日～8月15日（改行）　　　　12月30日～1月3日"
  },
  {
    "id": "4091601270",
    "name": "地域密着型デイサービスひなた",
    "kana": "チイキミッチャクガタデイサービスヒナタ",
    "address": "福岡県久留米市諏訪野町2162番地錦芳ビル1階 錦芳ビル1階",
    "lat": 33.3094124,
    "lng": 130.5281964,
    "tel": "942654380",
    "url": "",
    "pref": "福岡県",
    "city": "久留米市",
    "category": "community_day_service",
    "serviceType": "地域密着型通所介護",
    "capacity": 0,
    "openDays": [
      "平日",
      "土曜日",
      "祝日"
    ],
    "openDaysNote": "夏季（お盆）、年末年始"
  },
  {
    "id": "4071600904",
    "name": "唐孔雀園デイサービスセンター",
    "kana": "カラクジャクエンデイサービスセンター",
    "address": "福岡県久留米市青峰３丁目３５５０番８７号",
    "lat": 33.2814966549737,
    "lng": 130.55549742208,
    "tel": "0942-41-1350",
    "url": "http://www.keifukukai.jp/",
    "pref": "福岡県",
    "city": "久留米市",
    "category": "community_day_service",
    "serviceType": "地域密着型通所介護",
    "capacity": 35,
    "openDays": [
      "平日",
      "土曜日",
      "祝日"
    ],
    "openDaysNote": ""
  },
  {
    "id": "4075500837",
    "name": "デイサービス　かがやき",
    "kana": "デイサービス　カガヤキ",
    "address": "福岡県宮若市小伏字吉坂1546－29",
    "lat": 33.7235676,
    "lng": 130.6666936,
    "tel": "0949-52-3060",
    "url": "",
    "pref": "福岡県",
    "city": "宮若市",
    "category": "community_day_service",
    "serviceType": "地域密着型通所介護",
    "capacity": 0,
    "openDays": [
      "平日",
      "土曜日",
      "祝日"
    ],
    "openDaysNote": ""
  },
  {
    "id": "4075500951",
    "name": "デイサービス　ジョイナス",
    "kana": "デイサービス　ジョイナス",
    "address": "宮若市本城720番地",
    "lat": 33.7290339,
    "lng": 130.6709431,
    "tel": "0949-34-5511",
    "url": "",
    "pref": "福岡県",
    "city": "宮若市",
    "category": "community_day_service",
    "serviceType": "地域密着型通所介護",
    "capacity": 18,
    "openDays": [
      "平日",
      "土曜日",
      "祝日"
    ],
    "openDaysNote": "その他　12月31日～1月3日"
  },
  {
    "id": "4075500662",
    "name": "デイサービス　なのみ",
    "kana": "デイサービスナノミ",
    "address": "福岡県宮若市四郎丸562番",
    "lat": 33.7460453,
    "lng": 130.6463584,
    "tel": "0949-34-1177",
    "url": "",
    "pref": "福岡県",
    "city": "宮若市",
    "category": "community_day_service",
    "serviceType": "地域密着型通所介護",
    "capacity": 10,
    "openDays": [
      "平日",
      "土曜日",
      "祝日"
    ],
    "openDaysNote": "年末年始12/31．～1/2まで"
  },
  {
    "id": "4075600116",
    "name": "デイサービスセンターすみれ",
    "kana": "デイサービスセンタースミレ",
    "address": "福岡県宮若市原田１４８３",
    "lat": 33.7252306,
    "lng": 130.6327182,
    "tel": "0949-55-8787",
    "url": "",
    "pref": "福岡県",
    "city": "宮若市",
    "category": "community_day_service",
    "serviceType": "地域密着型通所介護",
    "capacity": 5,
    "openDays": [
      "平日",
      "土曜日",
      "祝日"
    ],
    "openDaysNote": ""
  },
  {
    "id": "4095500098",
    "name": "デイサービス永遠の樹",
    "kana": "デイサービス　トワノキ",
    "address": "福岡県宮若市鶴田1381番地2",
    "lat": 33.7264703168191,
    "lng": 130.690259718385,
    "tel": "0949-32-8090",
    "url": "",
    "pref": "福岡県",
    "city": "宮若市",
    "category": "community_day_service",
    "serviceType": "地域密着型通所介護",
    "capacity": 0,
    "openDays": [
      "平日",
      "土曜日",
      "祝日"
    ],
    "openDaysNote": ""
  },
  {
    "id": "4095500106",
    "name": "リハビリテーションセンターODETTO",
    "kana": "リハビリテーションセンターオデット",
    "address": "福岡県宮若市金丸801-2",
    "lat": 33.7334433,
    "lng": 130.6241629,
    "tel": "0949-52-7510",
    "url": "https://odetto.webnode.jp",
    "pref": "福岡県",
    "city": "宮若市",
    "category": "community_day_service",
    "serviceType": "地域密着型通所介護",
    "capacity": 10,
    "openDays": [
      "平日"
    ],
    "openDaysNote": "お盆：8/13～8/15正月：12/30～1/3"
  },
  {
    "id": "4075500803",
    "name": "快互のデイサービス楽講",
    "kana": "カイゴノデイサービスガッコウ",
    "address": "福岡県宮若市沼口８３８番地３",
    "lat": 33.7409285,
    "lng": 130.6092581,
    "tel": "0949-52-2186",
    "url": "https://www.kaigonomori-kirakuan.com/",
    "pref": "福岡県",
    "city": "宮若市",
    "category": "community_day_service",
    "serviceType": "地域密着型通所介護",
    "capacity": 10,
    "openDays": [
      "平日",
      "祝日"
    ],
    "openDaysNote": "平日、祝日ともサービス提供時間帯は９：0０分～１６：３０分"
  },
  {
    "id": "4075500068",
    "name": "照陽園デイサービスセンター",
    "kana": "ショウヨウエンデイサービスセンター",
    "address": "福岡県宮若市磯光2159-1",
    "lat": 33.7008198,
    "lng": 130.6703827,
    "tel": "0949-32-9482",
    "url": "http://www.geocities.jp/shoyoennet/",
    "pref": "福岡県",
    "city": "宮若市",
    "category": "community_day_service",
    "serviceType": "地域密着型通所介護",
    "capacity": null,
    "openDays": [
      "平日",
      "土曜日",
      "祝日"
    ],
    "openDaysNote": ""
  },
  {
    "id": "4073600829",
    "name": "デイハウス　こもの倶楽部",
    "kana": "デイハウス　コモノクラブ",
    "address": "福岡県古賀市薦野1885-1",
    "lat": 33.7310024439449,
    "lng": 130.520943506885,
    "tel": "090-946-2212",
    "url": "http://.bihara.jp",
    "pref": "福岡県",
    "city": "古賀市",
    "category": "community_day_service",
    "serviceType": "地域密着型通所介護",
    "capacity": 0,
    "openDays": [
      "平日",
      "土曜日",
      "祝日"
    ],
    "openDaysNote": ""
  },
  {
    "id": "4073600811",
    "name": "株式会社エグチ",
    "kana": "カブシキガイシャエグチ",
    "address": "福岡県古賀市谷山1057-3",
    "lat": 33.7130968,
    "lng": 130.4995655,
    "tel": "092-410-0193",
    "url": "",
    "pref": "福岡県",
    "city": "古賀市",
    "category": "community_day_service",
    "serviceType": "地域密着型通所介護",
    "capacity": 0,
    "openDays": [
      "平日",
      "土曜日",
      "祝日"
    ],
    "openDaysNote": ""
  },
  {
    "id": "4073600555",
    "name": "小規模デイサービス　ひより茶屋",
    "kana": "ショウキボデイサービス　ヒヨリヂャヤ",
    "address": "福岡県古賀市花見東７丁目９－３１",
    "lat": 33.7515145,
    "lng": 130.471045,
    "tel": "092-940-7007",
    "url": "http://nttbj.itp.ne.jp/0929407007",
    "pref": "福岡県",
    "city": "古賀市",
    "category": "community_day_service",
    "serviceType": "地域密着型通所介護",
    "capacity": 18,
    "openDays": [
      "平日",
      "土曜日",
      "祝日"
    ],
    "openDaysNote": ""
  },
  {
    "id": "4093600056",
    "name": "笑顔満開はなことば古賀",
    "kana": "エガオマンカイハナコトバコガ",
    "address": "福岡県古賀市花見南２丁目11－9",
    "lat": 33.7423212696251,
    "lng": 130.467786765641,
    "tel": "092-940-2050",
    "url": "",
    "pref": "福岡県",
    "city": "古賀市",
    "category": "community_day_service",
    "serviceType": "地域密着型通所介護",
    "capacity": 18,
    "openDays": [
      "平日",
      "土曜日",
      "日曜日",
      "祝日"
    ],
    "openDaysNote": "保険外サービス営業時間：24時間営業（改行）『お泊りデイサービス』"
  },
  {
    "id": "4072601653",
    "name": "デイサービス　あくしゅ",
    "kana": "デイサービス　アクシュ",
    "address": "福岡県行橋市中津熊333-10",
    "lat": 33.7272695,
    "lng": 130.9566278,
    "tel": "0930-28-9530",
    "url": "",
    "pref": "福岡県",
    "city": "行橋市",
    "category": "community_day_service",
    "serviceType": "地域密着型通所介護",
    "capacity": 10,
    "openDays": [
      "平日"
    ],
    "openDaysNote": "雪や台風、地震など、安全にサービス提供する事が困難な場合には事業所をお休みする場合があります。"
  },
  {
    "id": "4092600222",
    "name": "デイサービスＭＡＮＡ",
    "kana": "デイサービスマナ",
    "address": "福岡県行橋市道場寺1498-9",
    "lat": 33.6968776,
    "lng": 131.008104,
    "tel": "0930-55-0941",
    "url": "",
    "pref": "福岡県",
    "city": "行橋市",
    "category": "community_day_service",
    "serviceType": "地域密着型通所介護",
    "capacity": null,
    "openDays": [
      "平日",
      "土曜日",
      "祝日"
    ],
    "openDaysNote": ""
  },
  {
    "id": "4072601679",
    "name": "デイサービスセンター　ハッピークローバー",
    "kana": "デイサービスセンター　ハッピークローバー",
    "address": "福岡県行橋市大字道場寺1470番地3",
    "lat": 33.6953989,
    "lng": 131.0098378,
    "tel": "0930-55-6101",
    "url": "",
    "pref": "福岡県",
    "city": "行橋市",
    "category": "community_day_service",
    "serviceType": "地域密着型通所介護",
    "capacity": 15,
    "openDays": [
      "平日",
      "土曜日",
      "祝日"
    ],
    "openDaysNote": "台風や積雪による休みあり"
  },
  {
    "id": "4072601620",
    "name": "デイサービスセンター　美来",
    "kana": "デイサービスセンター　ミライ",
    "address": "福岡県行橋市行事6丁目2番2号デイサービスセンター デイサービスセンター",
    "lat": 33.7342774,
    "lng": 130.9713179,
    "tel": "0930-23-1001",
    "url": "",
    "pref": "福岡県",
    "city": "行橋市",
    "category": "community_day_service",
    "serviceType": "地域密着型通所介護",
    "capacity": 0,
    "openDays": [
      "平日",
      "土曜日",
      "祝日"
    ],
    "openDaysNote": "12月31日～1月3日は休み"
  },
  {
    "id": "4072601281",
    "name": "デイサービスセンターコスモス今川",
    "kana": "デイサービスセンターコスモスイマガワ",
    "address": "福岡県行橋市大野井４７８番地",
    "lat": 33.713224,
    "lng": 130.9607667,
    "tel": "0930-26-0714",
    "url": "",
    "pref": "福岡県",
    "city": "行橋市",
    "category": "community_day_service",
    "serviceType": "地域密着型通所介護",
    "capacity": 0,
    "openDays": [
      "平日",
      "祝日"
    ],
    "openDaysNote": ""
  },
  {
    "id": "4072601596",
    "name": "デイサービスセンターはまゆう",
    "kana": "デイサービスセンターハマユウ",
    "address": "福岡県行橋市草野291-3",
    "lat": 33.7377161560432,
    "lng": 130.961206169034,
    "tel": "0930-26-8686",
    "url": "",
    "pref": "福岡県",
    "city": "行橋市",
    "category": "community_day_service",
    "serviceType": "地域密着型通所介護",
    "capacity": 0,
    "openDays": [
      "平日"
    ],
    "openDaysNote": ""
  },
  {
    "id": "4072601307",
    "name": "デイサービスひだまり",
    "kana": "デイサ－ビスヒダマリ",
    "address": "福岡県行橋市元永703－1",
    "lat": 33.7255753380819,
    "lng": 131.0074056242,
    "tel": "0930-55-8850",
    "url": "http://imamoto-careservice.co.jp/",
    "pref": "福岡県",
    "city": "行橋市",
    "category": "community_day_service",
    "serviceType": "地域密着型通所介護",
    "capacity": 10,
    "openDays": [
      "平日",
      "祝日"
    ],
    "openDaysNote": "災害、悪天候等の止むを得ない事情が生じた場合は、利用者等に連絡の上、利用日変更及び利用中止をすることがある。"
  },
  {
    "id": "4072601323",
    "name": "デイサービス道草こらしょ",
    "kana": "デイサービスミチクサコラショ",
    "address": "福岡県行橋市大字道場寺1268-26",
    "lat": 33.686153,
    "lng": 131.0167319,
    "tel": "0930-28-8058",
    "url": "michikusakorasyo.com",
    "pref": "福岡県",
    "city": "行橋市",
    "category": "community_day_service",
    "serviceType": "地域密着型通所介護",
    "capacity": 0,
    "openDays": [
      "平日",
      "祝日"
    ],
    "openDaysNote": ""
  },
  {
    "id": "4072601489",
    "name": "デイサービス虹の家",
    "kana": "デイサービスニジノイエ",
    "address": "福岡県行橋市泉中央6丁目11-15",
    "lat": 33.7078636,
    "lng": 130.9900976,
    "tel": "0930-28-8915",
    "url": "",
    "pref": "福岡県",
    "city": "行橋市",
    "category": "community_day_service",
    "serviceType": "地域密着型通所介護",
    "capacity": 0,
    "openDays": [
      "平日",
      "祝日"
    ],
    "openDaysNote": "年末年始12月31日～1月2日、お盆8月13日～15日はお休み"
  },
  {
    "id": "4072601638",
    "name": "リハビリデイサービスりふるゆくはし",
    "kana": "リハビリデイサービスリフルユクハシ",
    "address": "福岡県行橋市高瀬379番地１",
    "lat": 33.6986511,
    "lng": 131.0046271,
    "tel": "0930-26-1165",
    "url": "https://re-full.com/",
    "pref": "福岡県",
    "city": "行橋市",
    "category": "community_day_service",
    "serviceType": "地域密着型通所介護",
    "capacity": 18,
    "openDays": [
      "平日",
      "祝日"
    ],
    "openDaysNote": ""
  },
  {
    "id": "4092600230",
    "name": "宮の下デイサービスぼたん",
    "kana": "ミヤノシタデイサービスボタン",
    "address": "元永882番地",
    "lat": 33.7180007,
    "lng": 131.0104091,
    "tel": "0930-25-3333",
    "url": "http://dayservice-botan.com",
    "pref": "福岡県",
    "city": "行橋市",
    "category": "community_day_service",
    "serviceType": "地域密着型通所介護",
    "capacity": null,
    "openDays": [
      "平日",
      "祝日"
    ],
    "openDaysNote": "雪・台風・地震など、安全にサービス提供することが困難な場合には事業所をお休みする場合があります。"
  },
  {
    "id": "4072601240",
    "name": "宅老所第三ほのぼの",
    "kana": "タクロウショダイサンホノボノ",
    "address": "行橋市南泉1-35-2",
    "lat": 33.7022447,
    "lng": 130.9709161,
    "tel": "0930-26-3131",
    "url": "https://www.fukushiseikyou.jp/",
    "pref": "福岡県",
    "city": "行橋市",
    "category": "community_day_service",
    "serviceType": "地域密着型通所介護",
    "capacity": 15,
    "openDays": [
      "平日",
      "土曜日",
      "祝日"
    ],
    "openDaysNote": ""
  },
  {
    "id": "4072601364",
    "name": "通所介護　リハビリセンターきずな",
    "kana": "ツウショカイゴ　リハビリセンターキズナ",
    "address": "大字今井1399-1",
    "lat": 33.7157242,
    "lng": 130.9954107,
    "tel": "0930-26-3335",
    "url": "https://www.reha-kizuna.com/",
    "pref": "福岡県",
    "city": "行橋市",
    "category": "community_day_service",
    "serviceType": "地域密着型通所介護",
    "capacity": 18,
    "openDays": [
      "平日",
      "祝日"
    ],
    "openDaysNote": "午前9：30～11：30　　要支援者（改行）午後13：30～16：00　要支援者（改行）　13：30～16：30要介護者（介護度1～5）　のお時間からお選びできます！！"
  },
  {
    "id": "4079200525",
    "name": "デイサービス　かぞく",
    "kana": "デイサービス　カゾク",
    "address": "福岡県田川郡香春町大字中津原1673番地1",
    "lat": 33.6509708,
    "lng": 130.8438138,
    "tel": "0947-32-6280",
    "url": "",
    "pref": "福岡県",
    "city": "香春町",
    "category": "community_day_service",
    "serviceType": "地域密着型通所介護",
    "capacity": null,
    "openDays": [
      "平日",
      "祝日"
    ],
    "openDaysNote": ""
  },
  {
    "id": "4079200541",
    "name": "デイサービスセンターほたるの里",
    "kana": "デイサービスセンターホタルノサト",
    "address": "福岡県田川郡香春町大字採銅所１２６５－１",
    "lat": 33.7087143,
    "lng": 130.8539485,
    "tel": "0947-85-8513",
    "url": "",
    "pref": "福岡県",
    "city": "香春町",
    "category": "community_day_service",
    "serviceType": "地域密着型通所介護",
    "capacity": 0,
    "openDays": [
      "平日",
      "祝日"
    ],
    "openDaysNote": "災害、悪天候等止むを得ない事情が生じた場合は利用者に連絡の上変更があります。"
  },
  {
    "id": "4074000649",
    "name": "デイサービスセンター　クローバーかいんず",
    "kana": "デイサービスセンタークローバーカインズ",
    "address": "福岡県粕屋郡志免町別府1丁目21番13号",
    "lat": 33.6021986,
    "lng": 130.4601639,
    "tel": "092-692-6275",
    "url": "http://www.c-kinds.net.",
    "pref": "福岡県",
    "city": "志免町",
    "category": "community_day_service",
    "serviceType": "地域密着型通所介護",
    "capacity": 5,
    "openDays": [
      "平日",
      "土曜日"
    ],
    "openDaysNote": ""
  },
  {
    "id": "4074000581",
    "name": "デイサービスセンターフレンドリー",
    "kana": "デイサービスセンターフレンドリー",
    "address": "糟屋郡志免町別府1丁目1番40号",
    "lat": 33.6021546345563,
    "lng": 130.46402488834,
    "tel": "092-935-2600",
    "url": "http://mc-yms.com",
    "pref": "福岡県",
    "city": "志免町",
    "category": "community_day_service",
    "serviceType": "地域密着型通所介護",
    "capacity": 10,
    "openDays": [
      "平日",
      "土曜日",
      "祝日"
    ],
    "openDaysNote": ""
  },
  {
    "id": "4073500375",
    "name": "アクティブデイサービス　笑顔",
    "kana": "アクティブデイサービス　エガオ",
    "address": "福岡県糸島市前原1026-6",
    "lat": 33.5587172,
    "lng": 130.1924692,
    "tel": "092-324-5139",
    "url": "http.//www.egao-kaigo.com",
    "pref": "福岡県",
    "city": "糸島市",
    "category": "community_day_service",
    "serviceType": "地域密着型通所介護",
    "capacity": 10,
    "openDays": [
      "平日",
      "土曜日",
      "祝日"
    ],
    "openDaysNote": ""
  },
  {
    "id": "4093500132",
    "name": "せどなデイサービスセンター",
    "kana": "セドナデイサービスセンター",
    "address": "福岡県糸島市加布里5丁目1番22号",
    "lat": 33.546781,
    "lng": 130.1630179,
    "tel": "092-324-8718",
    "url": "https://sedonady2017.wixsite.com/mysite",
    "pref": "福岡県",
    "city": "糸島市",
    "category": "community_day_service",
    "serviceType": "地域密着型通所介護",
    "capacity": 17,
    "openDays": [
      "平日",
      "土曜日",
      "祝日"
    ],
    "openDaysNote": "8月13日～8月15日　12月30日～1月3日"
  },
  {
    "id": "4093500207",
    "name": "デイサービスウェル糸島",
    "kana": "イトシマ",
    "address": "福岡県糸島市高田４丁目３番１６号",
    "lat": 33.571603,
    "lng": 130.2351608,
    "tel": "092-321-4681",
    "url": "",
    "pref": "福岡県",
    "city": "糸島市",
    "category": "community_day_service",
    "serviceType": "地域密着型通所介護",
    "capacity": 20,
    "openDays": [
      "平日",
      "祝日"
    ],
    "openDaysNote": ""
  },
  {
    "id": "4093500223",
    "name": "デイサービスセンター　みずき",
    "kana": "デイサービスセンター　ミズキ",
    "address": "福岡県糸島市神在東二丁目3番41号",
    "lat": 33.5483189,
    "lng": 130.1807171,
    "tel": "092-330-6541",
    "url": "",
    "pref": "福岡県",
    "city": "糸島市",
    "category": "community_day_service",
    "serviceType": "地域密着型通所介護",
    "capacity": null,
    "openDays": [
      "平日",
      "土曜日",
      "祝日"
    ],
    "openDaysNote": "祝日は営業（改行）12月31日～1月2日は休業"
  },
  {
    "id": "4077200097",
    "name": "デイサービスセンター・あかり",
    "kana": "デイサービスセンター・アカリ",
    "address": "福岡県糸島市志摩小富士258番地",
    "lat": 33.5642606,
    "lng": 130.1830839,
    "tel": "092-327-3337",
    "url": "http://www.pacis-itoshima.com/",
    "pref": "福岡県",
    "city": "糸島市",
    "category": "community_day_service",
    "serviceType": "地域密着型通所介護",
    "capacity": 0,
    "openDays": [
      "平日",
      "土曜日",
      "祝日"
    ],
    "openDaysNote": ""
  },
  {
    "id": "4073500961",
    "name": "デイサービスセンターくらじ",
    "kana": "デイサービスセンタークラジ",
    "address": "福岡県糸島市井田４７１番1",
    "lat": 33.5468101139465,
    "lng": 130.234502543347,
    "tel": "092-332-0570",
    "url": "https://kuraji-ds.com",
    "pref": "福岡県",
    "city": "糸島市",
    "category": "community_day_service",
    "serviceType": "地域密着型通所介護",
    "capacity": 18,
    "openDays": [
      "平日",
      "土曜日",
      "祝日"
    ],
    "openDaysNote": ""
  },
  {
    "id": "4073500912",
    "name": "デイサービスセンターみずき",
    "kana": "デイサービスセンター　ミズキ",
    "address": "神在東2丁目3番41号",
    "lat": 33.5483605103932,
    "lng": 130.180667422055,
    "tel": "092-330-6541",
    "url": "http://mizuki-nakaniwa.com/",
    "pref": "福岡県",
    "city": "糸島市",
    "category": "community_day_service",
    "serviceType": "地域密着型通所介護",
    "capacity": 18,
    "openDays": [
      "平日",
      "土曜日",
      "祝日"
    ],
    "openDaysNote": "祝日は営業（改行）12月31日～1月2日は休業"
  },
  {
    "id": "4093500231",
    "name": "デイサービスぱんだ",
    "kana": "デイサービスパンダ",
    "address": "福岡県糸島市志摩師吉861番地",
    "lat": 33.5782737,
    "lng": 130.1775669,
    "tel": "092-332-1502",
    "url": "",
    "pref": "福岡県",
    "city": "糸島市",
    "category": "community_day_service",
    "serviceType": "地域密着型通所介護",
    "capacity": null,
    "openDays": [
      "平日",
      "土曜日",
      "日曜日",
      "祝日"
    ],
    "openDaysNote": ""
  },
  {
    "id": "4073501027",
    "name": "デイサービス伊都の里",
    "kana": "デイサービスイトノサト",
    "address": "福岡県糸島市潤4丁目7-6",
    "lat": 33.5671322,
    "lng": 130.2141827,
    "tel": "092-330-7061",
    "url": "http://itonosato.jp/",
    "pref": "福岡県",
    "city": "糸島市",
    "category": "community_day_service",
    "serviceType": "地域密着型通所介護",
    "capacity": 0,
    "openDays": [
      "平日",
      "土曜日",
      "日曜日",
      "祝日"
    ],
    "openDaysNote": ""
  },
  {
    "id": "4073501563",
    "name": "デイサービス孫の家",
    "kana": "デイサービスマゴノイエ",
    "address": "福岡県糸島市二丈松末1261番地1",
    "lat": 33.5256493,
    "lng": 130.132474,
    "tel": "092-321-7751",
    "url": "https://magonoie.com",
    "pref": "福岡県",
    "city": "糸島市",
    "category": "community_day_service",
    "serviceType": "地域密着型通所介護",
    "capacity": null,
    "openDays": [
      "平日",
      "土曜日",
      "祝日"
    ],
    "openDaysNote": ""
  },
  {
    "id": "4073500896",
    "name": "マイネスハウス浦志　デイサービスセンター",
    "kana": "マイネスハウスウラシ　デイサービスセンター",
    "address": "福岡県糸島市浦志3丁目4番地12号",
    "lat": 33.5642366,
    "lng": 130.2082452,
    "tel": "092-332-8208",
    "url": "http://www.m-h.jp",
    "pref": "福岡県",
    "city": "糸島市",
    "category": "community_day_service",
    "serviceType": "地域密着型通所介護",
    "capacity": 15,
    "openDays": [
      "平日",
      "土曜日",
      "祝日"
    ],
    "openDaysNote": "時間外については併設施設にて電話対応できる体制を整えています。"
  },
  {
    "id": "4073501233",
    "name": "リハビリ特化型デイ　ムーブメントプロ前原",
    "kana": "リハビリトッカガタデイ　ムーブメントプロマエバル",
    "address": "福岡県糸島市前原駅南1丁目3-1サンスーシー桜台1階 サンスーシー桜台1階",
    "lat": 33.5546981,
    "lng": 130.1981616,
    "tel": "092-332-7641",
    "url": "https://www.randc-shonan.co.jp/",
    "pref": "福岡県",
    "city": "糸島市",
    "category": "community_day_service",
    "serviceType": "地域密着型通所介護",
    "capacity": 0,
    "openDays": [
      "平日"
    ],
    "openDaysNote": ""
  },
  {
    "id": "4073500920",
    "name": "運動ひろば愛もっと倶楽部",
    "kana": "ウンドウヒロバアイモットクラブ",
    "address": "糸島市神在西一丁目4番33号",
    "lat": 33.5469457000004,
    "lng": 130.173195593254,
    "tel": "092-332-7892",
    "url": "www.purevice.jp",
    "pref": "福岡県",
    "city": "糸島市",
    "category": "community_day_service",
    "serviceType": "地域密着型通所介護",
    "capacity": 60,
    "openDays": [
      "平日",
      "土曜日",
      "祝日"
    ],
    "openDaysNote": "夏季休業日：8/13、8/14、8/15（改行）冬季休業日：12/31、1/1、1/2、1/3"
  },
  {
    "id": "4073500672",
    "name": "糸島市社会福祉協議会デイサービス「福寿苑」",
    "kana": "イトシマシシャカイフクシキョウギカイデイサービス「フクジュエン」",
    "address": "福岡県糸島市二丈福井4822-1",
    "lat": 33.5005156,
    "lng": 130.0927783,
    "tel": "092-326-9860",
    "url": "fukujuen@sound.ocn.ne.jp",
    "pref": "福岡県",
    "city": "糸島市",
    "category": "community_day_service",
    "serviceType": "地域密着型通所介護",
    "capacity": 0,
    "openDays": [
      "平日",
      "土曜日",
      "祝日"
    ],
    "openDaysNote": "日曜日以外は、毎日利用提供を行っている.時間延長サービスも提供している。（改行）夜間、休日は留守番電話にて対応。"
  },
  {
    "id": "4093500199",
    "name": "笑顔の家　深江デイサービス",
    "kana": "エガオノイエ　フカエデイサービス",
    "address": "二丈深江1702-15",
    "lat": 33.5117611,
    "lng": 130.1460127,
    "tel": "092-330-3100",
    "url": "https://granrires.jp/",
    "pref": "福岡県",
    "city": "糸島市",
    "category": "community_day_service",
    "serviceType": "地域密着型通所介護",
    "capacity": 18,
    "openDays": [
      "平日",
      "土曜日",
      "祝日"
    ],
    "openDaysNote": ""
  },
  {
    "id": "4073500870",
    "name": "前原中央デイサービス",
    "kana": "マエバルチュウオウデイサービス",
    "address": "福岡県糸島市前原中央３丁目１７番１号",
    "lat": 33.5599341,
    "lng": 130.2019737,
    "tel": "092-332-8735",
    "url": "http://ameblo.jp/itocare/",
    "pref": "福岡県",
    "city": "糸島市",
    "category": "community_day_service",
    "serviceType": "地域密着型通所介護",
    "capacity": 0,
    "openDays": [
      "平日",
      "土曜日",
      "祝日"
    ],
    "openDaysNote": "８月１４日１５日　・１２月３１日　・１月１日～３日　は休み"
  },
  {
    "id": "4073900203",
    "name": "勢門デイサービス　れんげ荘",
    "kana": "セトデイサービス　レンゲソウ",
    "address": "福岡県粕屋郡篠栗町津波黒4丁目5番1号",
    "lat": 33.6302577,
    "lng": 130.51078,
    "tel": "092-405-9335",
    "url": "",
    "pref": "福岡県",
    "city": "篠栗町",
    "category": "community_day_service",
    "serviceType": "地域密着型通所介護",
    "capacity": 10,
    "openDays": [
      "平日",
      "土曜日",
      "祝日"
    ],
    "openDaysNote": ""
  },
  {
    "id": "4073300552",
    "name": "あいでい冨地原",
    "kana": "アイデイフヂワラ",
    "address": "宗像市冨地原神屋１３６１－９",
    "lat": 33.7961944,
    "lng": 130.6008833,
    "tel": "0940-33-9001",
    "url": "",
    "pref": "福岡県",
    "city": "宗像市",
    "category": "community_day_service",
    "serviceType": "地域密着型通所介護",
    "capacity": 10,
    "openDays": [
      "平日",
      "土曜日",
      "祝日"
    ],
    "openDaysNote": "土曜・祝祭日営業（改行）お盆、年末年始の営業は利用者状況、応相談にて変更有（改行）延長の対応あり"
  },
  {
    "id": "4073300776",
    "name": "グリーンケア・デイサービス宗像",
    "kana": "グリーンケア・デイサービスムナカタ",
    "address": "福岡県宗像市宮田1丁目1-23",
    "lat": 33.7985159,
    "lng": 130.5616111,
    "tel": "0940-32-6080",
    "url": "http;www.green-care.co.jp",
    "pref": "福岡県",
    "city": "宗像市",
    "category": "community_day_service",
    "serviceType": "地域密着型通所介護",
    "capacity": 16,
    "openDays": [
      "平日",
      "土曜日",
      "祝日"
    ],
    "openDaysNote": ""
  },
  {
    "id": "4093300194",
    "name": "デイサ－ビス悠里",
    "kana": "デイサ-ビスユウリ",
    "address": "福岡県宗像市石丸一丁目3番1号",
    "lat": 33.8045630988773,
    "lng": 130.594166292729,
    "tel": "0940－36-9352",
    "url": "http://www.sizukanoumi.org/",
    "pref": "福岡県",
    "city": "宗像市",
    "category": "community_day_service",
    "serviceType": "地域密着型通所介護",
    "capacity": 14,
    "openDays": [
      "平日",
      "土曜日",
      "祝日"
    ],
    "openDaysNote": ""
  },
  {
    "id": "4073301287",
    "name": "デイサービス　ゆいまーる",
    "kana": "デイサービス　ユイマール",
    "address": "福岡県宗像市池田２９８３番地",
    "lat": 33.8466865035445,
    "lng": 130.555430556761,
    "tel": "０９４０－６２－７２７２",
    "url": "",
    "pref": "福岡県",
    "city": "宗像市",
    "category": "community_day_service",
    "serviceType": "地域密着型通所介護",
    "capacity": 15,
    "openDays": [
      "平日",
      "祝日"
    ],
    "openDaysNote": "ただし、災害、悪天候等止むを得ない事情が生じた場合は利用者等に連絡の上変更する事がある。"
  },
  {
    "id": "4073300669",
    "name": "デイサービスセンター温々庵",
    "kana": "デイサービスセンターヌクヌクアン",
    "address": "福岡県宗像市自由ヶ丘6丁目12番12",
    "lat": 33.7970445053197,
    "lng": 130.569646226984,
    "tel": "0940-38-8017",
    "url": "http://www.kitatikuzen.net",
    "pref": "福岡県",
    "city": "宗像市",
    "category": "community_day_service",
    "serviceType": "地域密着型通所介護",
    "capacity": 3,
    "openDays": [
      "平日",
      "土曜日",
      "祝日"
    ],
    "openDaysNote": "災害や悪天候等止むを得ない事情が生じた場合は利用者と事業所に連絡の上変更することがある"
  },
  {
    "id": "4093300210",
    "name": "デイサービスなないろ",
    "kana": "デイサービスナナイロ",
    "address": "日の里9丁目2-9",
    "lat": 33.7928801145297,
    "lng": 130.527304238029,
    "tel": "0940-62-5222",
    "url": "",
    "pref": "福岡県",
    "city": "宗像市",
    "category": "community_day_service",
    "serviceType": "地域密着型通所介護",
    "capacity": 0,
    "openDays": [
      "平日",
      "土曜日",
      "日曜日",
      "祝日"
    ],
    "openDaysNote": ""
  },
  {
    "id": "4073300750",
    "name": "デイサービスぬくもり",
    "kana": "デイサービスヌクモリ",
    "address": "福岡県宗像市上八７９４番地",
    "lat": 33.8759440353445,
    "lng": 130.529608115205,
    "tel": "0940-62-1555",
    "url": "",
    "pref": "福岡県",
    "city": "宗像市",
    "category": "community_day_service",
    "serviceType": "地域密着型通所介護",
    "capacity": 14,
    "openDays": [
      "平日",
      "土曜日",
      "祝日"
    ],
    "openDaysNote": ""
  },
  {
    "id": "4073300867",
    "name": "自由ヶ丘デイサービスセンター",
    "kana": "ジユウガオカデイサービスセンター",
    "address": "福岡県宗像市自由ヶ丘11丁目22番地1号",
    "lat": 33.7847481,
    "lng": 130.581571,
    "tel": "0940-35-2570",
    "url": "http://www.kitatikuzen.net/",
    "pref": "福岡県",
    "city": "宗像市",
    "category": "community_day_service",
    "serviceType": "地域密着型通所介護",
    "capacity": 0,
    "openDays": [
      "平日",
      "土曜日",
      "祝日"
    ],
    "openDaysNote": "災害や悪天候等止むを得ない事情が生じた場合は利用者と各事業所に連絡の上変更することがある"
  },
  {
    "id": "4093300202",
    "name": "宗像デイサービス　かがやき",
    "kana": "ムナカタデイサービス　カガヤキ",
    "address": "福岡県宗像市自由ヶ丘２丁目１５番地",
    "lat": 33.7973414400779,
    "lng": 130.57637927635,
    "tel": "0940-55-3589",
    "url": "",
    "pref": "福岡県",
    "city": "宗像市",
    "category": "community_day_service",
    "serviceType": "地域密着型通所介護",
    "capacity": 4,
    "openDays": [
      "平日",
      "土曜日",
      "日曜日",
      "祝日"
    ],
    "openDaysNote": ""
  },
  {
    "id": "4073301121",
    "name": "宗像デイサービスセンターなごみ",
    "kana": "ムナカタデイサービスセンターナゴミ",
    "address": "宗像市大井３２４－１",
    "lat": 33.8060255,
    "lng": 130.5312162,
    "tel": "0940-37-8505",
    "url": "http://www.fukushi-greencoop.or.jp",
    "pref": "福岡県",
    "city": "宗像市",
    "category": "community_day_service",
    "serviceType": "地域密着型通所介護",
    "capacity": 0,
    "openDays": [
      "平日",
      "土曜日",
      "祝日"
    ],
    "openDaysNote": ""
  },
  {
    "id": "4093300228",
    "name": "福朗舎",
    "kana": "フクロウシャ",
    "address": "宗像市泉ヶ丘１丁目４番１０号",
    "lat": 33.8191627,
    "lng": 130.5713691,
    "tel": "0940-51-1987",
    "url": "",
    "pref": "福岡県",
    "city": "宗像市",
    "category": "community_day_service",
    "serviceType": "地域密着型通所介護",
    "capacity": 0,
    "openDays": [
      "平日",
      "土曜日",
      "祝日"
    ],
    "openDaysNote": ""
  },
  {
    "id": "4073301071",
    "name": "陽の枝デイサービスセンター",
    "kana": "ヒノエダデイサービスセンター",
    "address": "宗像市上八１９２８",
    "lat": 33.8666828,
    "lng": 130.528712,
    "tel": "0940-62-3087",
    "url": "",
    "pref": "福岡県",
    "city": "宗像市",
    "category": "community_day_service",
    "serviceType": "地域密着型通所介護",
    "capacity": 0,
    "openDays": [
      "平日",
      "土曜日"
    ],
    "openDaysNote": "祭日の営業については今後検討する"
  },
  {
    "id": "4093100214",
    "name": "Let'sリハ春日",
    "kana": "レッツリハカスガ",
    "address": "春日市下白水北３丁目15ラヴィーエヒナタ春日西1階1号室 ラヴィーエヒナタ春日西1階1号室",
    "lat": 33.5280941,
    "lng": 130.4443546,
    "tel": "092-558-2710",
    "url": "https://www.lets-reha.jp/shop/fukuoka-kasuga/",
    "pref": "福岡県",
    "city": "春日市",
    "category": "community_day_service",
    "serviceType": "地域密着型通所介護",
    "capacity": 125,
    "openDays": [
      "平日",
      "祝日"
    ],
    "openDaysNote": ""
  },
  {
    "id": "4093100180",
    "name": "Toquidoki　ときどき　春日",
    "kana": "トキドキ　カスガ",
    "address": "福岡県春日市原町1-83",
    "lat": 33.5248244,
    "lng": 130.4674064,
    "tel": "092-558-7500",
    "url": "https://toquidoki.com/",
    "pref": "福岡県",
    "city": "春日市",
    "category": "community_day_service",
    "serviceType": "地域密着型通所介護",
    "capacity": null,
    "openDays": [
      "平日",
      "土曜日"
    ],
    "openDaysNote": ""
  },
  {
    "id": "4073100655",
    "name": "エフコープデイサービスりんご庵光町第２",
    "kana": "エフコープデイサービスリンゴアンヒカリマチダイニ",
    "address": "福岡県春日市光町2丁目94　りんご庵光町第2",
    "lat": 33.5326452600706,
    "lng": 130.464078196295,
    "tel": "092-574-7830",
    "url": "http://www.fcoop.or.jp/",
    "pref": "福岡県",
    "city": "春日市",
    "category": "community_day_service",
    "serviceType": "地域密着型通所介護",
    "capacity": 18,
    "openDays": [
      "平日",
      "土曜日",
      "祝日"
    ],
    "openDaysNote": ""
  },
  {
    "id": "4073101208",
    "name": "さかいの樹　春日南",
    "kana": "サカイノキ　カスガミナミ",
    "address": "光町1丁目45サンコーポ光１ サンコーポ光１",
    "lat": 33.5140184,
    "lng": 130.463293,
    "tel": "092-558-2221",
    "url": "http://www.med-sakai.jp/sakainoki/",
    "pref": "福岡県",
    "city": "春日市",
    "category": "community_day_service",
    "serviceType": "地域密着型通所介護",
    "capacity": 0,
    "openDays": [
      "平日",
      "祝日"
    ],
    "openDaysNote": "お盆・年末年始・祝日（10月～翌年9月の祝日営業日を当9月に決定。その営業日と定めた日を除く全ての祝日は休みとする）"
  },
  {
    "id": "4073100564",
    "name": "デイサービス　　やよいの樹",
    "kana": "デイサービス　　ヤヨイノキ",
    "address": "福岡県春日市弥生2丁目62番地",
    "lat": 33.5355479,
    "lng": 130.4511101,
    "tel": "092-593-5328",
    "url": "",
    "pref": "福岡県",
    "city": "春日市",
    "category": "community_day_service",
    "serviceType": "地域密着型通所介護",
    "capacity": 18,
    "openDays": [
      "平日",
      "土曜日",
      "祝日"
    ],
    "openDaysNote": ""
  },
  {
    "id": "4073101307",
    "name": "デイサービス　うさぎとカメ",
    "kana": "デイサービス　ウサギトカメ",
    "address": "福岡県春日市白水池２丁目７３番地",
    "lat": 33.5134304,
    "lng": 130.4492269,
    "tel": "092-502-9224",
    "url": "",
    "pref": "福岡県",
    "city": "春日市",
    "category": "community_day_service",
    "serviceType": "地域密着型通所介護",
    "capacity": 7,
    "openDays": [
      "平日",
      "土曜日",
      "祝日"
    ],
    "openDaysNote": ""
  },
  {
    "id": "4073100762",
    "name": "デイサービス　春の杜",
    "kana": "デイサービス　ハルノモリ",
    "address": "福岡県春日市春日2丁目27番",
    "lat": 33.5233524,
    "lng": 130.4705528,
    "tel": "092-572-0008",
    "url": "www.yuyu-group.co.jp",
    "pref": "福岡県",
    "city": "春日市",
    "category": "community_day_service",
    "serviceType": "地域密着型通所介護",
    "capacity": 3,
    "openDays": [
      "平日",
      "土曜日",
      "祝日"
    ],
    "openDaysNote": "お盆・祝日は営業しております。"
  },
  {
    "id": "4073101299",
    "name": "デイサービス　歩～あゆみ～春日小倉館",
    "kana": "デイサービス　アユミ　カスガコクラカン",
    "address": "福岡県春日市小倉５丁目１５６宝コーポ１F 宝コーポ１F",
    "lat": 33.5328126,
    "lng": 130.4532642,
    "tel": "092-515-0766",
    "url": "",
    "pref": "福岡県",
    "city": "春日市",
    "category": "community_day_service",
    "serviceType": "地域密着型通所介護",
    "capacity": 18,
    "openDays": [
      "平日",
      "土曜日",
      "日曜日",
      "祝日"
    ],
    "openDaysNote": ""
  },
  {
    "id": "4073100879",
    "name": "デイサービス夏みかん",
    "kana": "デイサービスナツミカン",
    "address": "春日市須玖南2丁目103番地",
    "lat": 33.536956,
    "lng": 130.4456189,
    "tel": "092－558－6330",
    "url": "http://hp.kaipoke.biz/969/",
    "pref": "福岡県",
    "city": "春日市",
    "category": "community_day_service",
    "serviceType": "地域密着型通所介護",
    "capacity": 15,
    "openDays": [
      "平日",
      "土曜日",
      "祝日"
    ],
    "openDaysNote": "年末年始　12月30日～　1日3日　定休日"
  },
  {
    "id": "4073100994",
    "name": "笑顔満開はなことば春日",
    "kana": "エガオマンカイハナコトバカスガ",
    "address": "塚原台２丁目３５",
    "lat": 33.5069787,
    "lng": 130.4633034,
    "tel": "092-595-6021",
    "url": "",
    "pref": "福岡県",
    "city": "春日市",
    "category": "community_day_service",
    "serviceType": "地域密着型通所介護",
    "capacity": 10,
    "openDays": [
      "平日",
      "土曜日",
      "日曜日",
      "祝日"
    ],
    "openDaysNote": ""
  },
  {
    "id": "4071102562",
    "name": "宅老所お花さん",
    "kana": "タクロウショオハナサン",
    "address": "春日市白水ヶ丘3丁目125",
    "lat": 33.5143246,
    "lng": 130.4426136,
    "tel": "092-591-5167",
    "url": "",
    "pref": "福岡県",
    "city": "春日市",
    "category": "community_day_service",
    "serviceType": "地域密着型通所介護",
    "capacity": 9,
    "openDays": [
      "平日",
      "土曜日",
      "日曜日",
      "祝日"
    ],
    "openDaysNote": ""
  },
  {
    "id": "4072900535",
    "name": "けあらーず三国が丘指定通所介護事業所",
    "kana": "ケアラーズミクニガオカシテイツウショカイゴジギョウショ",
    "address": "福岡県小郡市三国が丘６丁目１０番地ライフステージ三国が丘 ライフステージ三国が丘",
    "lat": 33.4342592,
    "lng": 130.5690798,
    "tel": "0942-75-6761",
    "url": "http://www.seramu.com",
    "pref": "福岡県",
    "city": "小郡市",
    "category": "community_day_service",
    "serviceType": "地域密着型通所介護",
    "capacity": 70,
    "openDays": [
      "平日",
      "土曜日",
      "日曜日",
      "祝日"
    ],
    "openDaysNote": ""
  },
  {
    "id": "4072900444",
    "name": "デイサービスセンタートクダ",
    "kana": "デイサービスセンタートクダ",
    "address": "福岡県小郡市祇園２丁目２－８",
    "lat": 33.395325,
    "lng": 130.5496724,
    "tel": "0942-50-5775",
    "url": "http://www.tokuda-sd.com",
    "pref": "福岡県",
    "city": "小郡市",
    "category": "community_day_service",
    "serviceType": "地域密着型通所介護",
    "capacity": 110,
    "openDays": [
      "平日",
      "土曜日"
    ],
    "openDaysNote": "午前、午後の2単位制（改行）8：45～12：15と14：15～17：45です。（改行）定員はそれぞれ10名です。"
  },
  {
    "id": "4092900143",
    "name": "デイサービス陽なた",
    "kana": "デイサービスヒナタ",
    "address": "福岡県小郡市祇園1丁目2-22",
    "lat": 33.3951672,
    "lng": 130.5509966,
    "tel": "0942-64-9283",
    "url": "http://hp.kaipoke.biz/ffe/",
    "pref": "福岡県",
    "city": "小郡市",
    "category": "community_day_service",
    "serviceType": "地域密着型通所介護",
    "capacity": 0,
    "openDays": [
      "平日",
      "土曜日",
      "日曜日",
      "祝日"
    ],
    "openDaysNote": "年末年始は利用者の希望状況により、休日にする場合あり。"
  },
  {
    "id": "4072900451",
    "name": "福寿荘デイサービス",
    "kana": "フクジュソウデイサービス",
    "address": "福岡県小郡市津古４８８番地１２",
    "lat": 33.4410003,
    "lng": 130.5636355,
    "tel": "0942-75-7466",
    "url": "http://hukujuso-homepage.webnode.jp/",
    "pref": "福岡県",
    "city": "小郡市",
    "category": "community_day_service",
    "serviceType": "地域密着型通所介護",
    "capacity": 10,
    "openDays": [
      "平日",
      "祝日"
    ],
    "openDaysNote": "年末年始（12/30から1/3）休業"
  },
  {
    "id": "4072900279",
    "name": "仏坂内科すこやかデイサービス",
    "kana": "ホトケザカナイカ　スコヤカデイサービス",
    "address": "福岡県小郡市三沢4225-28",
    "lat": 33.426849,
    "lng": 130.5628333,
    "tel": "0942-75-5604",
    "url": "sukoyakaday.com",
    "pref": "福岡県",
    "city": "小郡市",
    "category": "community_day_service",
    "serviceType": "地域密着型通所介護",
    "capacity": 18,
    "openDays": [
      "平日",
      "土曜日",
      "祝日"
    ],
    "openDaysNote": ""
  },
  {
    "id": "4075300402",
    "name": "デイサービス　笑いの家",
    "kana": "デイサービス　ワライノイエ",
    "address": "福岡県鞍手郡小竹町大字勝野2895番地4",
    "lat": 33.6941702979616,
    "lng": 130.705858697176,
    "tel": "09496-2-7112",
    "url": "http://warainoie.com/",
    "pref": "福岡県",
    "city": "小竹町",
    "category": "community_day_service",
    "serviceType": "地域密着型通所介護",
    "capacity": 0,
    "openDays": [
      "平日",
      "土曜日",
      "日曜日",
      "祝日"
    ],
    "openDaysNote": ""
  },
  {
    "id": "4075300345",
    "name": "デイサービスセンター奥屋敷",
    "kana": "デイサービスセンターオクヤシキ",
    "address": "福岡県鞍手郡小竹町大字勝野3630番地の6",
    "lat": 33.6883972,
    "lng": 130.7110296,
    "tel": "0949-62-3555",
    "url": "",
    "pref": "福岡県",
    "city": "小竹町",
    "category": "community_day_service",
    "serviceType": "地域密着型通所介護",
    "capacity": 15,
    "openDays": [
      "平日",
      "祝日"
    ],
    "openDaysNote": ""
  },
  {
    "id": "4074200447",
    "name": "デイサービスしんぐう",
    "kana": "デイサービスシングウ",
    "address": "福岡県糟屋郡新宮町上府878-1",
    "lat": 33.711982,
    "lng": 130.4580073,
    "tel": "092-410-0882",
    "url": "http://page-shingu.com",
    "pref": "福岡県",
    "city": "新宮町",
    "category": "community_day_service",
    "serviceType": "地域密着型通所介護",
    "capacity": 14,
    "openDays": [
      "平日",
      "土曜日",
      "祝日"
    ],
    "openDaysNote": "災害・悪天候等止む得ない事情が生じた場合には、利用者等に連絡の上変更することがある。"
  },
  {
    "id": "4074100274",
    "name": "アルク　デイサービスセンター",
    "kana": "アルクデイサービスセンター",
    "address": "大字須恵１３２－１１",
    "lat": 33.5938255,
    "lng": 130.5098479,
    "tel": "092-933-2030",
    "url": "",
    "pref": "福岡県",
    "city": "須恵町",
    "category": "community_day_service",
    "serviceType": "地域密着型通所介護",
    "capacity": 0,
    "openDays": [
      "平日",
      "土曜日",
      "祝日"
    ],
    "openDaysNote": "①年末年始１月１日～１月３日まで"
  },
  {
    "id": "4074100308",
    "name": "そらりす",
    "kana": "ソラリス",
    "address": "上須恵中園590-4 590-4",
    "lat": 33.5919773743857,
    "lng": 130.514042630411,
    "tel": "092-932-4355",
    "url": "",
    "pref": "福岡県",
    "city": "須恵町",
    "category": "community_day_service",
    "serviceType": "地域密着型通所介護",
    "capacity": 15,
    "openDays": [
      "平日",
      "土曜日",
      "日曜日",
      "祝日"
    ],
    "openDaysNote": ""
  },
  {
    "id": "4074100217",
    "name": "デイサービス　憩いの森",
    "kana": "デイサービス　イコイノモリ",
    "address": "福岡県粕屋郡須恵町大字上須恵1185-5ヴェルデ須惠2Ｆ ヴェルデ須惠2Ｆ",
    "lat": 33.5860097,
    "lng": 130.5083095,
    "tel": "092-403-7412",
    "url": "",
    "pref": "福岡県",
    "city": "須恵町",
    "category": "community_day_service",
    "serviceType": "地域密着型通所介護",
    "capacity": 0,
    "openDays": [
      "平日",
      "土曜日"
    ],
    "openDaysNote": "（サービス利用に当たっての留意事項）（改行）第10条　利用者が事業所の提供するサービスを利用するに当たっての留意事項は次のとおりとする。（改行）(1)利用者又はその家族は、利用者の心身の状況等に変化が見られた場合は、速やかに事業所の従業者に連絡すること（改行）(2)事業所の設備・備品を利用する際には、事業所の従業者の指示に従うこと（改行）(3)他のサービス利用者の迷惑となる行動等を慎むこと"
  },
  {
    "id": "4074100290",
    "name": "デイサービスかすや果樹の森",
    "kana": "デイサービスカスヤカジュノモリ",
    "address": "福岡県糟屋郡須恵町植木825-3",
    "lat": 33.5996320358296,
    "lng": 130.4958133,
    "tel": "092-936-2710",
    "url": "https://kasuya-kajyunomori.com",
    "pref": "福岡県",
    "city": "須恵町",
    "category": "community_day_service",
    "serviceType": "地域密着型通所介護",
    "capacity": 10,
    "openDays": [
      "平日",
      "土曜日",
      "日曜日",
      "祝日"
    ],
    "openDaysNote": ""
  },
  {
    "id": "4075000531",
    "name": "デイサービス花福寿",
    "kana": "デイサービスハナフクジュ",
    "address": "福岡県遠賀郡水巻町下二西二丁目15番35号",
    "lat": 33.8470206,
    "lng": 130.6914831,
    "tel": "093-701-7237",
    "url": "",
    "pref": "福岡県",
    "city": "水巻町",
    "category": "community_day_service",
    "serviceType": "地域密着型通所介護",
    "capacity": 10,
    "openDays": [
      "平日",
      "土曜日",
      "祝日"
    ],
    "openDaysNote": "年末年始休業、盆休み"
  },
  {
    "id": "4097800025",
    "name": "デイサービス　にこにこ",
    "kana": "デイサービス　ニコニコ",
    "address": "福岡県田川郡赤村大字内田52番地",
    "lat": 33.617483,
    "lng": 130.87841,
    "tel": "0947-62-2208",
    "url": "",
    "pref": "福岡県",
    "city": "赤村",
    "category": "community_day_service",
    "serviceType": "地域密着型通所介護",
    "capacity": 0,
    "openDays": [
      "平日",
      "祝日"
    ],
    "openDaysNote": "年末１２月３１日～年始１月３日"
  },
  {
    "id": "4079600930",
    "name": "あったかデイサービスセンター",
    "kana": "アッタカデイサービスセンター",
    "address": "福岡県田川郡川崎町川崎340-9",
    "lat": 33.6010300843599,
    "lng": 130.831934219049,
    "tel": "0947-73-3003",
    "url": "",
    "pref": "福岡県",
    "city": "川崎町",
    "category": "community_day_service",
    "serviceType": "地域密着型通所介護",
    "capacity": 3,
    "openDays": [
      "平日",
      "土曜日",
      "祝日"
    ],
    "openDaysNote": "◆営業日（改行）月曜日〜土曜日とする。ただし、年末年始（１２月２９日から１月３日）とお盆（１３日から１５日）は除く。（改行）◆営業時間（改行）営業日の午前８時から午後５時"
  },
  {
    "id": "4079601029",
    "name": "デイサービスえん萬",
    "kana": "デイサービスエンマン",
    "address": "福岡県田川郡川崎町大字川崎４１番地の２",
    "lat": 33.5919491,
    "lng": 130.8319413,
    "tel": "0947-72-5888",
    "url": "",
    "pref": "福岡県",
    "city": "川崎町",
    "category": "community_day_service",
    "serviceType": "地域密着型通所介護",
    "capacity": 0,
    "openDays": [
      "平日",
      "土曜日",
      "祝日"
    ],
    "openDaysNote": "８月１３日～８月１５日（改行）１２月３１日～１月３日まで"
  },
  {
    "id": "4079600682",
    "name": "デイサービスセンター安心院",
    "kana": "デイサービスセンターアンシンイン",
    "address": "福岡県田川郡川崎町大字田原506番地",
    "lat": 33.6038117,
    "lng": 130.8199307,
    "tel": "0947-72-6102",
    "url": "",
    "pref": "福岡県",
    "city": "川崎町",
    "category": "community_day_service",
    "serviceType": "地域密着型通所介護",
    "capacity": 0,
    "openDays": [
      "平日",
      "土曜日",
      "祝日"
    ],
    "openDaysNote": "夏季（8月13日から8月15日）、年末年始（12月31日から1月3日）"
  },
  {
    "id": "4073401087",
    "name": "デイサービス　茶ばしら",
    "kana": "デイサービス　チャバシラ",
    "address": "福岡県太宰府市国分2丁目4番3号",
    "lat": 33.5204284,
    "lng": 130.5018555,
    "tel": "092－408－9800",
    "url": "http://like-innovation.co.jp/",
    "pref": "福岡県",
    "city": "太宰府市",
    "category": "community_day_service",
    "serviceType": "地域密着型通所介護",
    "capacity": 9,
    "openDays": [
      "平日",
      "土曜日",
      "祝日"
    ],
    "openDaysNote": "年末年始休暇（12月31日～1月3日まで）（改行）その他、台風や積雪、大雨等による災害のため当日休業する場合があります。"
  },
  {
    "id": "4073401038",
    "name": "デイサービスセンター　ゆずの木",
    "kana": "デイサービスセンター　ユズノキ",
    "address": "福岡県太宰府市大佐野３－１３－３０",
    "lat": 33.4987998,
    "lng": 130.4906565,
    "tel": "092-287-0346",
    "url": "http://www.dayservice-yuzunoki.com/",
    "pref": "福岡県",
    "city": "太宰府市",
    "category": "community_day_service",
    "serviceType": "地域密着型通所介護",
    "capacity": 10,
    "openDays": [
      "平日",
      "土曜日"
    ],
    "openDaysNote": "午前、午後も２部制となっており、午前の部は9:00～12:00　午後の部13:30～16:30（改行）土曜日は午前の部のみの営業となっております。"
  },
  {
    "id": "4073000814",
    "name": "デイサービスたから",
    "kana": "デイサービス　タカラ",
    "address": "福岡県太宰府市都府楼南4－32－8",
    "lat": 33.5015998731208,
    "lng": 130.508411172353,
    "tel": "092-928-5083",
    "url": "http://www.",
    "pref": "福岡県",
    "city": "太宰府市",
    "category": "community_day_service",
    "serviceType": "地域密着型通所介護",
    "capacity": 0,
    "openDays": [
      "平日",
      "土曜日",
      "祝日"
    ],
    "openDaysNote": "12/31～1/2は休業"
  },
  {
    "id": "4073401145",
    "name": "蔵音の介護　太宰府店",
    "kana": "クラネノカイゴ　ダザイフテン",
    "address": "福岡県太宰府市大佐野４丁目１７－７",
    "lat": 33.5005218,
    "lng": 130.4891622,
    "tel": "092-408-4772",
    "url": "http://cranenokaigo.hp.gogo.jp/pc/index.html",
    "pref": "福岡県",
    "city": "太宰府市",
    "category": "community_day_service",
    "serviceType": "地域密着型通所介護",
    "capacity": 10,
    "openDays": [
      "平日",
      "土曜日",
      "日曜日",
      "祝日"
    ],
    "openDaysNote": "毎年１２月３０日～１月３日"
  },
  {
    "id": "4092500133",
    "name": "デイサービスほっとあい季夢路",
    "kana": "デイサービスホットアイキムロ",
    "address": "大川市大字中八院1490番地1",
    "lat": 33.2119197,
    "lng": 130.4045386,
    "tel": "0944-87-5824",
    "url": "https://raiseseisaku.wixsite.com/website-18",
    "pref": "福岡県",
    "city": "大川市",
    "category": "community_day_service",
    "serviceType": "地域密着型通所介護",
    "capacity": 0,
    "openDays": [
      "平日",
      "土曜日",
      "日曜日",
      "祝日"
    ],
    "openDaysNote": ""
  },
  {
    "id": "4072500665",
    "name": "デイサービスもりた",
    "kana": "デイサービスモリタ",
    "address": "福岡県大川市大字向島1114番地",
    "lat": 33.6065756,
    "lng": 130.418297,
    "tel": "０９４４－８６－３２１８",
    "url": "daysa-bismorita@sea.plala.or.jp",
    "pref": "福岡県",
    "city": "大川市",
    "category": "community_day_service",
    "serviceType": "地域密着型通所介護",
    "capacity": 10,
    "openDays": [
      "平日"
    ],
    "openDaysNote": ""
  },
  {
    "id": "4077700252",
    "name": "シマリス大刀洗",
    "kana": "シマリスタチアライ",
    "address": "福岡県三井郡大刀洗町大字本郷4157番地1",
    "lat": 33.3896677,
    "lng": 130.6165357,
    "tel": "0942-77-0771",
    "url": "http://www.shimadahp.jp",
    "pref": "福岡県",
    "city": "大刀洗町",
    "category": "community_day_service",
    "serviceType": "地域密着型通所介護",
    "capacity": 18,
    "openDays": [
      "平日",
      "土曜日",
      "祝日"
    ],
    "openDaysNote": "祝日は営業。年末年始は12月30日～1月3日まで休業。"
  },
  {
    "id": "4077700245",
    "name": "デイサービスいまがわの里",
    "kana": "デイサービスイマガワノサト",
    "address": "福岡県三井郡大刀洗町大字栄田１９８７番地",
    "lat": 33.378319,
    "lng": 130.6380954,
    "tel": "0942-77-4136",
    "url": "",
    "pref": "福岡県",
    "city": "大刀洗町",
    "category": "community_day_service",
    "serviceType": "地域密着型通所介護",
    "capacity": 0,
    "openDays": [
      "平日",
      "土曜日",
      "祝日"
    ],
    "openDaysNote": "災害、悪天候とやむ得ない事情が生じた場合は、利用者等に連絡の上変更することがある"
  },
  {
    "id": "4079900322",
    "name": "えひこデイサービス",
    "kana": "エヒコデイサービス",
    "address": "福岡県田川郡大任町大行事1630",
    "lat": 33.6007956,
    "lng": 130.8578478,
    "tel": "0947－41－8000",
    "url": "",
    "pref": "福岡県",
    "city": "大任町",
    "category": "community_day_service",
    "serviceType": "地域密着型通所介護",
    "capacity": null,
    "openDays": [
      "平日",
      "土曜日",
      "祝日"
    ],
    "openDaysNote": ""
  },
  {
    "id": "4079900231",
    "name": "デイサービス　風乃音",
    "kana": "デイサービス　カゼノネ",
    "address": "福岡県田川郡大任町大字今任原１６００－１",
    "lat": 33.6182022,
    "lng": 130.8527282,
    "tel": "0947-41-2600",
    "url": "",
    "pref": "福岡県",
    "city": "大任町",
    "category": "community_day_service",
    "serviceType": "地域密着型通所介護",
    "capacity": 0,
    "openDays": [
      "平日",
      "土曜日",
      "祝日"
    ],
    "openDaysNote": "なし"
  },
  {
    "id": "4079900330",
    "name": "デイサービスセンター心",
    "kana": "デイサービスセンターココロ",
    "address": "田川郡大任町大字今任原291番地",
    "lat": 33.6124777,
    "lng": 130.8537144,
    "tel": "0947-63-4604",
    "url": "",
    "pref": "福岡県",
    "city": "大任町",
    "category": "community_day_service",
    "serviceType": "地域密着型通所介護",
    "capacity": 0,
    "openDays": [
      "平日",
      "祝日"
    ],
    "openDaysNote": "年末・年始は提供体制が変則になる場合があります"
  },
  {
    "id": "4091500696",
    "name": "Cafe　IKEDA",
    "kana": "カフェ　イケダ",
    "address": "福岡県大牟田市浜田町15-12",
    "lat": 33.0366736369615,
    "lng": 130.438993426408,
    "tel": "0944-85-9814",
    "url": "",
    "pref": "福岡県",
    "city": "大牟田市",
    "category": "community_day_service",
    "serviceType": "地域密着型通所介護",
    "capacity": 60,
    "openDays": [
      "平日",
      "土曜日",
      "祝日"
    ],
    "openDaysNote": ""
  },
  {
    "id": "4071502472",
    "name": "あいあいデイサービス",
    "kana": "アイアイデイサービス",
    "address": "福岡県大牟田市本町5丁目3番地9",
    "lat": 33.0251652,
    "lng": 130.439955,
    "tel": "0944-57-6020",
    "url": "",
    "pref": "福岡県",
    "city": "大牟田市",
    "category": "community_day_service",
    "serviceType": "地域密着型通所介護",
    "capacity": 0,
    "openDays": [
      "平日",
      "祝日"
    ],
    "openDaysNote": ""
  },
  {
    "id": "4071502803",
    "name": "シャルールコパン",
    "kana": "シャルールコパン",
    "address": "大牟田市城町1丁目7番地2",
    "lat": 33.0439370603747,
    "lng": 130.443561499931,
    "tel": "0944－53－1370",
    "url": "http://www.s-sorejyu.com/",
    "pref": "福岡県",
    "city": "大牟田市",
    "category": "community_day_service",
    "serviceType": "地域密着型通所介護",
    "capacity": 0,
    "openDays": [
      "平日",
      "土曜日",
      "日曜日",
      "祝日"
    ],
    "openDaysNote": ""
  },
  {
    "id": "4071502035",
    "name": "デイサービス　しらがね",
    "kana": "デイサービス　シラガネ",
    "address": "福岡県大牟田市白銀895番地5",
    "lat": 33.0723419,
    "lng": 130.4851223,
    "tel": "0944-50-0351",
    "url": "http://www.siragane-owl.jp/",
    "pref": "福岡県",
    "city": "大牟田市",
    "category": "community_day_service",
    "serviceType": "地域密着型通所介護",
    "capacity": 15,
    "openDays": [
      "平日",
      "土曜日",
      "日曜日",
      "祝日"
    ],
    "openDaysNote": "毎週水曜日・日曜日定休日（改行）サービス提供時間　9：50～16：00"
  },
  {
    "id": "4071502944",
    "name": "デイサービス　すわ",
    "kana": "デイサービス　スワ",
    "address": "大牟田市諏訪町二丁目120番地",
    "lat": 33.017949,
    "lng": 130.4320165,
    "tel": "0944-31-3063",
    "url": "n-m-c.info/wp_suwa/",
    "pref": "福岡県",
    "city": "大牟田市",
    "category": "community_day_service",
    "serviceType": "地域密着型通所介護",
    "capacity": 10,
    "openDays": [
      "平日"
    ],
    "openDaysNote": "年末年始（12月30日から1月3日）（改行）但し、月曜と国民の休日が重なる場合は営業する。"
  },
  {
    "id": "4071503413",
    "name": "デイサービス　とーとぅがなし",
    "kana": "デイサービス　トートゥガナシ",
    "address": "福岡県大牟田市三池919-17",
    "lat": 33.0488718,
    "lng": 130.48286,
    "tel": "0944-88-8625",
    "url": "http://rinseikan.link/",
    "pref": "福岡県",
    "city": "大牟田市",
    "category": "community_day_service",
    "serviceType": "地域密着型通所介護",
    "capacity": 35,
    "openDays": [
      "平日",
      "土曜日",
      "祝日"
    ],
    "openDaysNote": ""
  },
  {
    "id": "4091500597",
    "name": "デイサービス　とーとぅがなし　二番館",
    "kana": "デイサービス　トートゥガナシ　ニバンカン",
    "address": "福岡県大牟田市三池９１９番地２１",
    "lat": 33.0486885,
    "lng": 130.4831155,
    "tel": "0944-88-8625",
    "url": "https://rinseikan.link/",
    "pref": "福岡県",
    "city": "大牟田市",
    "category": "community_day_service",
    "serviceType": "地域密着型通所介護",
    "capacity": 30,
    "openDays": [
      "平日",
      "土曜日",
      "祝日"
    ],
    "openDaysNote": ""
  },
  {
    "id": "4071502522",
    "name": "デイサービス　なかま",
    "kana": "デイサービス　ナカマ",
    "address": "大牟田市青葉町23番地１０",
    "lat": 33.0186914,
    "lng": 130.4619814,
    "tel": "0944-55-5187",
    "url": "",
    "pref": "福岡県",
    "city": "大牟田市",
    "category": "community_day_service",
    "serviceType": "地域密着型通所介護",
    "capacity": 10,
    "openDays": [
      "平日",
      "土曜日",
      "祝日"
    ],
    "openDaysNote": ""
  },
  {
    "id": "4071503017",
    "name": "デイサービスセンター　りほーぷ",
    "kana": "デイサービスセンター　リホープ",
    "address": "今山１５２２－１",
    "lat": 33.0373618,
    "lng": 130.4894019,
    "tel": "0944-88-9868",
    "url": "",
    "pref": "福岡県",
    "city": "大牟田市",
    "category": "community_day_service",
    "serviceType": "地域密着型通所介護",
    "capacity": 15,
    "openDays": [
      "平日",
      "土曜日",
      "祝日"
    ],
    "openDaysNote": ""
  },
  {
    "id": "4071503223",
    "name": "デイサービスセンターときめき",
    "kana": "デイサービスセンタートキメキ",
    "address": "福岡県大牟田市上白川町1丁目246",
    "lat": 33.0479075445896,
    "lng": 130.462260217722,
    "tel": "0944-88-9787",
    "url": "",
    "pref": "福岡県",
    "city": "大牟田市",
    "category": "community_day_service",
    "serviceType": "地域密着型通所介護",
    "capacity": 15,
    "openDays": [
      "平日",
      "土曜日",
      "祝日"
    ],
    "openDaysNote": ""
  },
  {
    "id": "4091500720",
    "name": "デイサービスとーとぅがなし三番館",
    "kana": "デイサービストートゥガナシサンバンカン",
    "address": "三池919-25",
    "lat": null,
    "lng": null,
    "tel": "0944-88-8625",
    "url": "https://rinseikan.link/",
    "pref": "福岡県",
    "city": "大牟田市",
    "category": "community_day_service",
    "serviceType": "地域密着型通所介護",
    "capacity": null,
    "openDays": [
      "平日",
      "土曜日",
      "祝日"
    ],
    "openDaysNote": ""
  },
  {
    "id": "4071503249",
    "name": "ミック健康の森　日出町",
    "kana": "ミックケンコウノモリ　ヒノデマチ",
    "address": "福岡県大牟田市日出町2-2-19",
    "lat": 33.0393754,
    "lng": 130.4545178,
    "tel": "0944-85-8070",
    "url": "http://www.un-mik.co.jp/",
    "pref": "福岡県",
    "city": "大牟田市",
    "category": "community_day_service",
    "serviceType": "地域密着型通所介護",
    "capacity": 0,
    "openDays": [
      "平日",
      "祝日"
    ],
    "openDaysNote": ""
  },
  {
    "id": "4091500712",
    "name": "ミック健康の森　日出町",
    "kana": "ミックケンコウノモリ　ヒノデマチ",
    "address": "福岡県大牟田市日出町2-2-19",
    "lat": 33.0393766,
    "lng": 130.4545813,
    "tel": "0944-85-8070",
    "url": "http://www.un-mik.co.jp/",
    "pref": "福岡県",
    "city": "大牟田市",
    "category": "community_day_service",
    "serviceType": "地域密着型通所介護",
    "capacity": null,
    "openDays": [
      "平日",
      "祝日"
    ],
    "openDaysNote": ""
  },
  {
    "id": "4071501011",
    "name": "リハビリデイサービスもみの木",
    "kana": "リハビリデイサービスモミノキ",
    "address": "福岡県大牟田市大黒町４丁目１３ー１",
    "lat": 33.0458633,
    "lng": 130.4472984,
    "tel": "0944-57-0220",
    "url": "https://mominoki-recruit.net/",
    "pref": "福岡県",
    "city": "大牟田市",
    "category": "community_day_service",
    "serviceType": "地域密着型通所介護",
    "capacity": 10,
    "openDays": [
      "平日",
      "祝日"
    ],
    "openDaysNote": "通常の営業時間は平日・祝日ともに８時3０分～１７時3０分まで"
  },
  {
    "id": "4071501797",
    "name": "介適空間　アエル",
    "kana": "カイテキクウカン　アエル",
    "address": "福岡県大牟田市沖田町２１番地",
    "lat": 33.0090004,
    "lng": 130.4530708,
    "tel": "0944-51-1050",
    "url": "http://yamanamicare.net/",
    "pref": "福岡県",
    "city": "大牟田市",
    "category": "community_day_service",
    "serviceType": "地域密着型通所介護",
    "capacity": 0,
    "openDays": [
      "平日",
      "土曜日"
    ],
    "openDaysNote": ""
  },
  {
    "id": "4071502233",
    "name": "株式会社ディサービスよってかんね",
    "kana": "カブシキガイシャディサービスヨッテカンネ",
    "address": "福岡県大牟田市三川町三丁目３番地１",
    "lat": 33.0146186,
    "lng": 130.4271668,
    "tel": "0944-54-6699",
    "url": "",
    "pref": "福岡県",
    "city": "大牟田市",
    "category": "community_day_service",
    "serviceType": "地域密着型通所介護",
    "capacity": 0,
    "openDays": [
      "平日",
      "土曜日",
      "日曜日",
      "祝日"
    ],
    "openDaysNote": ""
  },
  {
    "id": "4091500704",
    "name": "今野病院デイサービス",
    "kana": "コンノビョウインデイサービス",
    "address": "福岡県大牟田市末広町5番地2今野病院2階 今野病院2階",
    "lat": 33.0187886,
    "lng": 130.45836,
    "tel": "0944-52-5580",
    "url": "konno-hp.jp",
    "pref": "福岡県",
    "city": "大牟田市",
    "category": "community_day_service",
    "serviceType": "地域密着型通所介護",
    "capacity": 0,
    "openDays": [
      "平日"
    ],
    "openDaysNote": ""
  },
  {
    "id": "4071502746",
    "name": "社協デイサービス　ふれあい処えいる",
    "kana": "シャキョウデイサービス　フレアイドコロエイル",
    "address": "福岡県大牟田市瓦町9-3大牟田市総合福祉センター　3階 大牟田市総合福祉センター　3階",
    "lat": 33.0355703,
    "lng": 130.4628091,
    "tel": "0944-57-2541",
    "url": "http://www.omshakyo-kizuna.com/",
    "pref": "福岡県",
    "city": "大牟田市",
    "category": "community_day_service",
    "serviceType": "地域密着型通所介護",
    "capacity": 10,
    "openDays": [
      "平日",
      "土曜日",
      "祝日"
    ],
    "openDaysNote": "１月１日から１月３日休み"
  },
  {
    "id": "4071503025",
    "name": "心介デイサービス",
    "kana": "シンカイデイサービス",
    "address": "福岡県大牟田市高砂町32番地10",
    "lat": 33.0127747536221,
    "lng": 130.4263396705,
    "tel": "0944-41-2230",
    "url": "",
    "pref": "福岡県",
    "city": "大牟田市",
    "category": "community_day_service",
    "serviceType": "地域密着型通所介護",
    "capacity": 18,
    "openDays": [
      "平日",
      "土曜日",
      "祝日"
    ],
    "openDaysNote": ""
  },
  {
    "id": "4073200794",
    "name": "Ｆ－communication",
    "kana": "エフコミュニケーション",
    "address": "福岡県大野城市山田3丁目３－１５シーラプラッツ1階 シーラプラッツ1階",
    "lat": 33.5503275,
    "lng": 130.4746913,
    "tel": "092-585-7780",
    "url": "",
    "pref": "福岡県",
    "city": "大野城市",
    "category": "community_day_service",
    "serviceType": "地域密着型通所介護",
    "capacity": 40,
    "openDays": [
      "平日",
      "土曜日"
    ],
    "openDaysNote": "天災その他の災害等により営業することが不可能な場合を除く。その場合は、（改行）管理者の決定により担当職員が利用者及びその家族へ速やかに連絡するものとする"
  },
  {
    "id": "4093200246",
    "name": "だんらんの家大野城",
    "kana": "ダンランノイエオオノジョウ",
    "address": "福岡県大野城市南ヶ丘4-5-6",
    "lat": 33.5036827,
    "lng": 130.477986,
    "tel": "092-596-1212",
    "url": "https://www.danrannoie.com/home/ohnojyou.html",
    "pref": "福岡県",
    "city": "大野城市",
    "category": "community_day_service",
    "serviceType": "地域密着型通所介護",
    "capacity": 11,
    "openDays": [
      "平日",
      "土曜日",
      "日曜日",
      "祝日"
    ],
    "openDaysNote": "7:00～9:00　17:00～20:00は時間延長サービス時間帯"
  },
  {
    "id": "4093200295",
    "name": "だんらんの家大野城",
    "kana": "ダンランノイエオオノジョウ",
    "address": "福岡県大野城市南ヶ丘4-5-6",
    "lat": 33.5036954,
    "lng": 130.4779998,
    "tel": "092-596-1212",
    "url": "https://danrannoie.com/archives/2402",
    "pref": "福岡県",
    "city": "大野城市",
    "category": "community_day_service",
    "serviceType": "地域密着型通所介護",
    "capacity": 10,
    "openDays": [
      "平日",
      "土曜日",
      "日曜日",
      "祝日"
    ],
    "openDaysNote": "天災害により自治体からの避難命令及びその状況に匹敵する危険が予測される場合は臨時休業となる。"
  },
  {
    "id": "4093200253",
    "name": "デイサービスアップルハート大野城",
    "kana": "デイサービスアップルハートオオノジョウ",
    "address": "下大利団地2-62号棟１階 2号棟１階",
    "lat": 33.5228473,
    "lng": 130.491481,
    "tel": "092-915-7550",
    "url": "http://www.aso-kaigo.jp/",
    "pref": "福岡県",
    "city": "大野城市",
    "category": "community_day_service",
    "serviceType": "地域密着型通所介護",
    "capacity": 10,
    "openDays": [
      "平日",
      "土曜日",
      "祝日"
    ],
    "openDaysNote": ""
  },
  {
    "id": "4093200212",
    "name": "デイサービスお喜楽",
    "kana": "デイサービスオキラク",
    "address": "福岡県大野城市南ヶ丘3丁目14番22号",
    "lat": 33.5010360762543,
    "lng": 130.47975318427,
    "tel": "092-985-1157",
    "url": "",
    "pref": "福岡県",
    "city": "大野城市",
    "category": "community_day_service",
    "serviceType": "地域密着型通所介護",
    "capacity": 0,
    "openDays": [
      "平日",
      "土曜日",
      "祝日"
    ],
    "openDaysNote": ""
  },
  {
    "id": "4073200828",
    "name": "デイサービス絆",
    "kana": "デイサービスキズナ",
    "address": "大野城市南ヶ丘２丁目２２－１",
    "lat": 33.5055904,
    "lng": 130.4814685,
    "tel": "092-595-7450",
    "url": "http://www.yushin-ltd.com",
    "pref": "福岡県",
    "city": "大野城市",
    "category": "community_day_service",
    "serviceType": "地域密着型通所介護",
    "capacity": 18,
    "openDays": [
      "平日",
      "土曜日",
      "祝日"
    ],
    "openDaysNote": "延長・夕食サービスあります。"
  },
  {
    "id": "4072400403",
    "name": "アップデイサービス",
    "kana": "アップデイサービス",
    "address": "筑後市熊野１８１９－４",
    "lat": 33.2201377,
    "lng": 130.5013232,
    "tel": "0942-53-4052",
    "url": "http://www.upday.jp/",
    "pref": "福岡県",
    "city": "筑後市",
    "category": "community_day_service",
    "serviceType": "地域密着型通所介護",
    "capacity": 10,
    "openDays": [
      "平日",
      "土曜日"
    ],
    "openDaysNote": "午前の部　８：３０～１２：００（改行）午後の部１３：３０～１７：００（改行）上記の二部制で行っています。"
  },
  {
    "id": "4072400718",
    "name": "デイサービスセンターちくご船小屋",
    "kana": "デイサービスセンターチクゴフナゴヤ",
    "address": "福岡県筑後市大字志121番2特別養護老人ホームちくご船小屋 特別養護老人ホームちくご船小屋",
    "lat": 33.185329676916,
    "lng": 130.498088016821,
    "tel": "0942-52-5505",
    "url": "https://youzankai.jp",
    "pref": "福岡県",
    "city": "筑後市",
    "category": "community_day_service",
    "serviceType": "地域密着型通所介護",
    "capacity": 10,
    "openDays": [
      "平日",
      "土曜日",
      "祝日"
    ],
    "openDaysNote": ""
  },
  {
    "id": "4072400239",
    "name": "デイサービスセンター福祉館おかざき",
    "kana": "デイサービスセンターフクシカンオカザキ",
    "address": "福岡県筑後市大字尾島545番地1",
    "lat": 33.1922076,
    "lng": 130.5015155,
    "tel": "0942-51-7822",
    "url": "",
    "pref": "福岡県",
    "city": "筑後市",
    "category": "community_day_service",
    "serviceType": "地域密着型通所介護",
    "capacity": 1,
    "openDays": [
      "平日",
      "土曜日",
      "日曜日",
      "祝日"
    ],
    "openDaysNote": "日曜日の利用定員は９人です。"
  },
  {
    "id": "4072400833",
    "name": "デイサービスぽれぽれ",
    "kana": "デイサービスポレポレ",
    "address": "福岡県筑後市西牟田３５７３－２",
    "lat": 33.2303055,
    "lng": 130.4796563,
    "tel": "０９４２－６５－５６１１",
    "url": "",
    "pref": "福岡県",
    "city": "筑後市",
    "category": "community_day_service",
    "serviceType": "地域密着型通所介護",
    "capacity": 12,
    "openDays": [
      "平日",
      "土曜日",
      "祝日"
    ],
    "openDaysNote": ""
  },
  {
    "id": "4072400635",
    "name": "デイサービス筑後",
    "kana": "デイサービス　チクゴ",
    "address": "福岡県筑後市大字熊野124番地23",
    "lat": 33.2306283,
    "lng": 130.5094305,
    "tel": "0942-48-1580",
    "url": "",
    "pref": "福岡県",
    "city": "筑後市",
    "category": "community_day_service",
    "serviceType": "地域密着型通所介護",
    "capacity": 0,
    "openDays": [
      "平日",
      "祝日"
    ],
    "openDaysNote": "延長時間　午後4時45分～午後6時まで"
  },
  {
    "id": "4092400136",
    "name": "リハビリ処筑後",
    "kana": "リハビリドコロチクゴ",
    "address": "福岡県筑後市新溝155-1",
    "lat": 33.2001070167867,
    "lng": 130.514881993774,
    "tel": "0942-80-4646",
    "url": "https://rehabili-chikugo.com",
    "pref": "福岡県",
    "city": "筑後市",
    "category": "community_day_service",
    "serviceType": "地域密着型通所介護",
    "capacity": 18,
    "openDays": [
      "平日",
      "祝日"
    ],
    "openDaysNote": ""
  },
  {
    "id": "4073001283",
    "name": "カフェデイサービス筑紫館",
    "kana": "カフェデイサービスチクシカン",
    "address": "福岡県筑紫野市大字筑紫508番地9",
    "lat": 33.4639749051616,
    "lng": 130.550132171189,
    "tel": "092-555-2704",
    "url": "htto://www.handh-fukuoka.com",
    "pref": "福岡県",
    "city": "筑紫野市",
    "category": "community_day_service",
    "serviceType": "地域密着型通所介護",
    "capacity": 0,
    "openDays": [
      "平日",
      "祝日"
    ],
    "openDaysNote": "土曜日日曜日以外の祝日およびお盆（１３日～１５日）は通常営業"
  },
  {
    "id": "4073001119",
    "name": "デイげんき塾",
    "kana": "デイゲンキジュク",
    "address": "筑紫野市原田５丁目３番４",
    "lat": 33.4481302,
    "lng": 130.5404764,
    "tel": "092-985-5386",
    "url": "https://hppagelink.wixsite.com/deigenkijuku",
    "pref": "福岡県",
    "city": "筑紫野市",
    "category": "community_day_service",
    "serviceType": "地域密着型通所介護",
    "capacity": 10,
    "openDays": [
      "平日",
      "土曜日"
    ],
    "openDaysNote": ""
  },
  {
    "id": "4073001267",
    "name": "デイサービスおむすび",
    "kana": "デイサービスオムスビ",
    "address": "上古賀三丁目9-11",
    "lat": 33.4840464,
    "lng": 130.5215876,
    "tel": "092-408-4731",
    "url": "http://www.omusubi.co.jp/",
    "pref": "福岡県",
    "city": "筑紫野市",
    "category": "community_day_service",
    "serviceType": "地域密着型通所介護",
    "capacity": 14,
    "openDays": [
      "平日",
      "土曜日",
      "祝日"
    ],
    "openDaysNote": ""
  },
  {
    "id": "4073000905",
    "name": "デイサービスセンター　クローバーリーフ",
    "kana": "デイサービスセンター　クローバーリーフ",
    "address": "福岡県筑紫野市永岡８３３－２",
    "lat": 33.4771942,
    "lng": 130.536112,
    "tel": "092-555-9230",
    "url": "ｈｔｔｐｓ：//c-cloverleaf.com",
    "pref": "福岡県",
    "city": "筑紫野市",
    "category": "community_day_service",
    "serviceType": "地域密着型通所介護",
    "capacity": 10,
    "openDays": [
      "平日",
      "土曜日"
    ],
    "openDaysNote": ""
  },