[
  {
    "id": "770403715",
    "name": "あいデイサービスセンター",
    "kana": "アイデイサービスセンター",
    "address": "福島県いわき市勿来町関田南町２８番地",
    "lat": 36.8803445,
    "lng": 140.7900117,
    "tel": "0246-65-2205",
    "url": "",
    "pref": "福島県",
    "city": "いわき市",
    "category": "community_day_service",
    "serviceType": "地域密着型通所介護",
    "capacity": 1,
    "openDays": [
      "平日",
      "土曜日",
      "祝日"
    ],
    "openDaysNote": "現在8/13～8/15のお盆中は営業しています。"
  },
  {
    "id": "790401061",
    "name": "あいりすデイサービスセンター金山",
    "kana": "アイリスデイサービスセンターカネヤマ",
    "address": "福島県いわき市金山町南台１６１番地の１",
    "lat": 36.9255122,
    "lng": 140.81845,
    "tel": "0246-62-6435",
    "url": "",
    "pref": "福島県",
    "city": "いわき市",
    "category": "community_day_service",
    "serviceType": "地域密着型通所介護",
    "capacity": 0,
    "openDays": [
      "平日",
      "土曜日",
      "祝日"
    ],
    "openDaysNote": ""
  },
  {
    "id": "770407740",
    "name": "アマユデイサービス",
    "kana": "アマユデイサービス",
    "address": "福島県いわき市佐糠町碇田67番地の1",
    "lat": 36.9161385853727,
    "lng": 140.803992194512,
    "tel": "0246-77-2230",
    "url": "",
    "pref": "福島県",
    "city": "いわき市",
    "category": "community_day_service",
    "serviceType": "地域密着型通所介護",
    "capacity": null,
    "openDays": [
      "平日"
    ],
    "openDaysNote": ""
  },
  {
    "id": "770400810",
    "name": "いわき市三和ふれあい館デイサービスセンター",
    "kana": "イワキシミワフレアイカンデイサービスセンター",
    "address": "福島県いわき市三和町下市萱字竹ノ内１１４－１",
    "lat": 37.1427013,
    "lng": 140.6878715,
    "tel": "0246-86-2588",
    "url": "http://www.ja-fsakura.or.jp",
    "pref": "福島県",
    "city": "いわき市",
    "category": "community_day_service",
    "serviceType": "地域密着型通所介護",
    "capacity": 15,
    "openDays": [
      "平日",
      "土曜日",
      "祝日"
    ],
    "openDaysNote": ""
  },
  {
    "id": "770406940",
    "name": "からだプラスデイサービス",
    "kana": "カラダプラスデイサービス",
    "address": "福島県いわき市平中平窪字杉内15－6",
    "lat": 37.0840863853057,
    "lng": 140.878319890809,
    "tel": "０２４６－８８－８８２７",
    "url": "",
    "pref": "福島県",
    "city": "いわき市",
    "category": "community_day_service",
    "serviceType": "地域密着型通所介護",
    "capacity": 0,
    "openDays": [
      "平日",
      "土曜日"
    ],
    "openDaysNote": ""
  },
  {
    "id": "790400881",
    "name": "からだプラスデイサービスゆもと",
    "kana": "カラダプラスデイサービスユモト",
    "address": "福島県いわき市常磐西郷町金山10",
    "lat": 36.9862901,
    "lng": 140.8559409,
    "tel": "0246-88-8305",
    "url": "",
    "pref": "福島県",
    "city": "いわき市",
    "category": "community_day_service",
    "serviceType": "地域密着型通所介護",
    "capacity": null,
    "openDays": [
      "平日",
      "土曜日"
    ],
    "openDaysNote": ""
  },
  {
    "id": "770407344",
    "name": "くすりのまるとりはびりすてーしょんなこそ",
    "kana": "クスリノマルトリハビリステーション勿来",
    "address": "福島県いわき市錦町重殿３０番地の５",
    "lat": 36.8927951,
    "lng": 140.7818279,
    "tel": "0246-65-1788",
    "url": "www.drug-maruto.co.jp/dayservice.html",
    "pref": "福島県",
    "city": "いわき市",
    "category": "community_day_service",
    "serviceType": "地域密着型通所介護",
    "capacity": 0,
    "openDays": [
      "平日",
      "祝日"
    ],
    "openDaysNote": ""
  },
  {
    "id": "790400980",
    "name": "くすりのマルトリハビリステーション小名浜",
    "kana": "クスリノマルトリハビリステーションオナハマ",
    "address": "福島県いわき市小名浜林城字辻前3番地2",
    "lat": 36.9599119,
    "lng": 140.898239,
    "tel": "0246-38-7701",
    "url": "http://www.drug-maruto.co.jp/",
    "pref": "福島県",
    "city": "いわき市",
    "category": "community_day_service",
    "serviceType": "地域密着型通所介護",
    "capacity": 180,
    "openDays": [
      "平日",
      "祝日"
    ],
    "openDaysNote": ""
  },
  {
    "id": "770407310",
    "name": "くすりのマルトリハビリステーション内郷",
    "kana": "クスリノマルトリハビリステーションウチゴウ",
    "address": "福島県いわき市内郷綴町七反田52番地の10",
    "lat": 37.0314840264708,
    "lng": 140.85184328282,
    "tel": "0246-45-1777",
    "url": "www.drug-maruto.co,jp",
    "pref": "福島県",
    "city": "いわき市",
    "category": "community_day_service",
    "serviceType": "地域密着型通所介護",
    "capacity": 3,
    "openDays": [
      "平日",
      "祝日"
    ],
    "openDaysNote": "祝日も営業しております"
  },
  {
    "id": "770402188",
    "name": "ケアセンターよろこび",
    "kana": "ケアセンターヨロコビ",
    "address": "福島県いわき市金山町朝日台１３２番地",
    "lat": 36.9289064,
    "lng": 140.8233136,
    "tel": "0246-62-0085",
    "url": "http://yorokobi-iwaki.com/",
    "pref": "福島県",
    "city": "いわき市",
    "category": "community_day_service",
    "serviceType": "地域密着型通所介護",
    "capacity": 18,
    "openDays": [
      "平日",
      "祝日"
    ],
    "openDaysNote": "祝日営業"
  },
  {
    "id": "770406668",
    "name": "さくら樹デイサービスセンター",
    "kana": "サクラギデイサービスセンター",
    "address": "福島県いわき市内郷綴町町之内42-11さくら樹デイサービスセンター さくら樹デイサービスセンター",
    "lat": 37.0343005,
    "lng": 140.8527656,
    "tel": "0246-84-6662",
    "url": "https://www.yamazaki1000.com/",
    "pref": "福島県",
    "city": "いわき市",
    "category": "community_day_service",
    "serviceType": "地域密着型通所介護",
    "capacity": 0,
    "openDays": [
      "平日",
      "土曜日"
    ],
    "openDaysNote": ""
  },
  {
    "id": "770407617",
    "name": "さくら樹デイサービスみまや",
    "kana": "サクラギデイサービスミマヤ",
    "address": "福島県いわき市内郷綴町高野作75",
    "lat": 37.0393164654434,
    "lng": 140.866349758638,
    "tel": "0246-38-5488",
    "url": "https://www.yamazaki1000.com/",
    "pref": "福島県",
    "city": "いわき市",
    "category": "community_day_service",
    "serviceType": "地域密着型通所介護",
    "capacity": 0,
    "openDays": [
      "平日",
      "土曜日"
    ],
    "openDaysNote": ""
  },
  {
    "id": "770404465",
    "name": "さざんか　高坂",
    "kana": "サザンカ　タカサカ",
    "address": "福島県いわき市内郷高坂町一丁目85-6",
    "lat": 37.0462129,
    "lng": 140.8539352,
    "tel": "0246-45-3230",
    "url": "",
    "pref": "福島県",
    "city": "いわき市",
    "category": "community_day_service",
    "serviceType": "地域密着型通所介護",
    "capacity": 13,
    "openDays": [
      "平日",
      "祝日"
    ],
    "openDaysNote": "利用者及び家族の要望によりサービスを行うことがある。"
  },
  {
    "id": "770407757",
    "name": "スパガーデン松ケ台",
    "kana": "スパガーデンマツガダイ",
    "address": "福島県いわき市常磐松が台１７４",
    "lat": 37.0048558,
    "lng": 140.8426797,
    "tel": "0246-51-5060",
    "url": "https://iwaki-careclub.com/",
    "pref": "福島県",
    "city": "いわき市",
    "category": "community_day_service",
    "serviceType": "地域密着型通所介護",
    "capacity": 15,
    "openDays": [
      "平日",
      "土曜日",
      "祝日"
    ],
    "openDaysNote": ""
  },
  {
    "id": "790401012",
    "name": "スマートエイジングサロンまごの手",
    "kana": "スマートエイジングサロンマゴノテ",
    "address": "福島県いわき市常磐湯本町宝海127-5",
    "lat": 37.0143296,
    "lng": 140.8386771,
    "tel": "0246-38-6936",
    "url": "http://sunvert-iwaki.com",
    "pref": "福島県",
    "city": "いわき市",
    "category": "community_day_service",
    "serviceType": "地域密着型通所介護",
    "capacity": 18,
    "openDays": [
      "平日",
      "土曜日",
      "祝日"
    ],
    "openDaysNote": ""
  },
  {
    "id": "770406502",
    "name": "スマイルデイサービス",
    "kana": "スマイルデイサービス",
    "address": "福島県いわき市内郷高野町番所１１３－３",
    "lat": 37.0482452,
    "lng": 140.7961447,
    "tel": "246451230",
    "url": "",
    "pref": "福島県",
    "city": "いわき市",
    "category": "community_day_service",
    "serviceType": "地域密着型通所介護",
    "capacity": 15,
    "openDays": [
      "平日",
      "土曜日",
      "祝日"
    ],
    "openDaysNote": "8月13日～8月15日および12月30日～1月3日は休業日"
  },
  {
    "id": "770402923",
    "name": "すみれデイサービス",
    "kana": "スミレデイサービス",
    "address": "福島県いわき市内郷御厩町４丁目１番地",
    "lat": 37.0514069692209,
    "lng": 140.872590286508,
    "tel": "0246-26-4566",
    "url": "http://www.tahara-sumire.com",
    "pref": "福島県",
    "city": "いわき市",
    "category": "community_day_service",
    "serviceType": "地域密着型通所介護",
    "capacity": 10,
    "openDays": [
      "平日",
      "土曜日"
    ],
    "openDaysNote": ""
  },
  {
    "id": "770406635",
    "name": "だいせんデイサービス小名浜",
    "kana": "ダイセンデイサービスオナハマ",
    "address": "福島県いわき市小名浜寺廻町13－14",
    "lat": 36.951758326138,
    "lng": 140.899116464418,
    "tel": "0246-84-6761",
    "url": "https://www.daisenkk.jp",
    "pref": "福島県",
    "city": "いわき市",
    "category": "community_day_service",
    "serviceType": "地域密着型通所介護",
    "capacity": 10,
    "openDays": [
      "平日",
      "土曜日",
      "日曜日",
      "祝日"
    ],
    "openDaysNote": ""
  },
  {
    "id": "770407427",
    "name": "だいせんデイサービス湯本",
    "kana": "ダイセンデイサービスユモト",
    "address": "福島県いわき市常磐下船尾町村山65",
    "lat": 36.9882432,
    "lng": 140.8727235,
    "tel": "0246-88-6845",
    "url": "https://www.daisenkk.jp",
    "pref": "福島県",
    "city": "いわき市",
    "category": "community_day_service",
    "serviceType": "地域密着型通所介護",
    "capacity": 10,
    "openDays": [
      "平日",
      "土曜日",
      "日曜日",
      "祝日"
    ],
    "openDaysNote": "なし"
  },
  {
    "id": "770406858",
    "name": "だいせんデイサービス平",
    "kana": "ダイセンデイサービスタイラ",
    "address": "福島県いわき市明治団地66-4",
    "lat": 37.0419737,
    "lng": 140.8907924,
    "tel": "0246-84-8761",
    "url": "https://www.daisenkk.jp",
    "pref": "福島県",
    "city": "いわき市",
    "category": "community_day_service",
    "serviceType": "地域密着型通所介護",
    "capacity": 10,
    "openDays": [
      "平日",
      "土曜日",
      "日曜日",
      "祝日"
    ],
    "openDaysNote": "なし"
  },
  {
    "id": "770407815",
    "name": "つるかめデイサービス",
    "kana": "ツルカメデイサービス",
    "address": "福島県いわき市平下神谷字仲田１-１",
    "lat": 37.0737132,
    "lng": 140.9501286,
    "tel": "0246-34-5350",
    "url": "",
    "pref": "福島県",
    "city": "いわき市",
    "category": "community_day_service",
    "serviceType": "地域密着型通所介護",
    "capacity": null,
    "openDays": [
      "平日"
    ],
    "openDaysNote": ""
  },
  {
    "id": "770406361",
    "name": "デイサ－ビスみどり高坂",
    "kana": "デイサービスミドリタカサカ",
    "address": "内郷高坂町高橋93-5",
    "lat": 37.0402146,
    "lng": 140.8571015,
    "tel": "0246-38-4882",
    "url": "",
    "pref": "福島県",
    "city": "いわき市",
    "category": "community_day_service",
    "serviceType": "地域密着型通所介護",
    "capacity": 0,
    "openDays": [
      "平日",
      "土曜日",
      "祝日"
    ],
    "openDaysNote": ""
  },
  {
    "id": "790401400",
    "name": "デイサービス　えんむすび",
    "kana": "デイサービス　エンムスビ",
    "address": "久之浜町久之浜字猫作14-2",
    "lat": 37.1392223,
    "lng": 140.9948873,
    "tel": "0246-84-9921",
    "url": "",
    "pref": "福島県",
    "city": "いわき市",
    "category": "community_day_service",
    "serviceType": "地域密着型通所介護",
    "capacity": null,
    "openDays": [
      "平日",
      "土曜日"
    ],
    "openDaysNote": "夏季休暇（8/13～8/15)（改行）年末年始（12/29～1/3）"
  },
  {
    "id": "790401137",
    "name": "デイサービス　オハナ",
    "kana": "デイサービス　オハナ",
    "address": "小名浜字道珍１０８番地",
    "lat": 36.9524782142424,
    "lng": 140.891198682803,
    "tel": "0246-60-8090",
    "url": "",
    "pref": "福島県",
    "city": "いわき市",
    "category": "community_day_service",
    "serviceType": "地域密着型通所介護",
    "capacity": 90,
    "openDays": [
      "平日",
      "土曜日",
      "祝日"
    ],
    "openDaysNote": ""
  },
  {
    "id": "770405553",
    "name": "デイサービス　たびと",
    "kana": "デイサービス　タビト",
    "address": "福島県いわき市田人町旅人字下平石110番地の2",
    "lat": 36.9508622,
    "lng": 140.7021982,
    "tel": "0246-69-2072",
    "url": "",
    "pref": "福島県",
    "city": "いわき市",
    "category": "community_day_service",
    "serviceType": "地域密着型通所介護",
    "capacity": 10,
    "openDays": [
      "平日"
    ],
    "openDaysNote": "※　利用者本人、あるいはご家族の希望があった場合に限り、休日の利用も対応可能。"
  },
  {
    "id": "770406965",
    "name": "デイサービス　はいっ喜んデイ",
    "kana": "デイサービス　ハイッヨロコンデイ",
    "address": "福島県いわき市平字愛谷町２丁目５番地の２",
    "lat": 37.0490064,
    "lng": 140.9069347,
    "tel": "０２４６－８４－８２１０",
    "url": "",
    "pref": "福島県",
    "city": "いわき市",
    "category": "community_day_service",
    "serviceType": "地域密着型通所介護",
    "capacity": 0,
    "openDays": [
      "平日",
      "祝日"
    ],
    "openDaysNote": "夏季休暇　8/13～8/16（改行）冬期休暇　12/30～1/3"
  },
  {
    "id": "790401145",
    "name": "デイサービス　プアラ",
    "kana": "デイサービス　プアラ",
    "address": "内郷御厩町1丁目199-2",
    "lat": 37.0455031,
    "lng": 140.8677563,
    "tel": "0246-85-5088",
    "url": "",
    "pref": "福島県",
    "city": "いわき市",
    "category": "community_day_service",
    "serviceType": "地域密着型通所介護",
    "capacity": 0,
    "openDays": [
      "平日",
      "祝日"
    ],
    "openDaysNote": ""
  },
  {
    "id": "770407294",
    "name": "デイサービス　まごころの家　小名浜",
    "kana": "デイサービス　マゴコロノイエ　オナハマ",
    "address": "福島県いわき市小名浜大原小滝町14-4",
    "lat": 36.9648604,
    "lng": 140.895196,
    "tel": "0246-88-8114",
    "url": "",
    "pref": "福島県",
    "city": "いわき市",
    "category": "community_day_service",
    "serviceType": "地域密着型通所介護",
    "capacity": 0,
    "openDays": [
      "平日",
      "土曜日",
      "日曜日",
      "祝日"
    ],
    "openDaysNote": ""
  },
  {
    "id": "790400865",
    "name": "デイサービス　まごころの家　泉",
    "kana": "デイサービス　マゴコロノイエ　イズミ",
    "address": "福島県いわき市泉町滝尻２－６－３",
    "lat": 36.9557217,
    "lng": 140.8596967,
    "tel": "0246-85-0211",
    "url": "",
    "pref": "福島県",
    "city": "いわき市",
    "category": "community_day_service",
    "serviceType": "地域密着型通所介護",
    "capacity": 0,
    "openDays": [
      "平日",
      "土曜日",
      "日曜日",
      "祝日"
    ],
    "openDaysNote": ""
  },
  {
    "id": "790401392",
    "name": "デイサービス　まごころの家　湯本",
    "kana": "デイサービス　マゴコロノイエ　ユモト",
    "address": "福島県いわき市常磐下湯長谷町３－２１",
    "lat": 36.9889896,
    "lng": 140.8552192,
    "tel": "0246-88-7751",
    "url": "",
    "pref": "福島県",
    "city": "いわき市",
    "category": "community_day_service",
    "serviceType": "地域密着型通所介護",
    "capacity": null,
    "openDays": [
      "平日",
      "土曜日",
      "日曜日",
      "祝日"
    ],
    "openDaysNote": ""
  },
  {
    "id": "790401442",
    "name": "デイサービス　るんるん",
    "kana": "デイサービス　ルンルン",
    "address": "福島県いわき市平字堂ノ前19-4",
    "lat": 37.0531274,
    "lng": 140.8857983,
    "tel": "0246-38-7843",
    "url": "",
    "pref": "福島県",
    "city": "いわき市",
    "category": "community_day_service",
    "serviceType": "地域密着型通所介護",
    "capacity": 0,
    "openDays": [
      "平日",
      "祝日"
    ],
    "openDaysNote": ""
  },
  {
    "id": "770405421",
    "name": "デイサービス　十和の里よつくら",
    "kana": "デイサービス　トワノサトヨツクラ",
    "address": "福島県いわき市四倉町字鬼越２４０番地の８１",
    "lat": 37.1033474,
    "lng": 140.9744452,
    "tel": "0246-32-8188",
    "url": "",
    "pref": "福島県",
    "city": "いわき市",
    "category": "community_day_service",
    "serviceType": "地域密着型通所介護",
    "capacity": 0,
    "openDays": [
      "平日"
    ],
    "openDaysNote": ""
  },
  {
    "id": "770405298",
    "name": "デイサービスあおば",
    "kana": "デイサービスアオバ",
    "address": "福島県いわき市四倉町字鬼越78-6",
    "lat": 37.1042687,
    "lng": 140.9773378,
    "tel": "0246-66-1230",
    "url": "",
    "pref": "福島県",
    "city": "いわき市",
    "category": "community_day_service",
    "serviceType": "地域密着型通所介護",
    "capacity": 0,
    "openDays": [
      "平日",
      "祝日"
    ],
    "openDaysNote": "祝日は営業しています。"
  },
  {
    "id": "790401301",
    "name": "デイサービスあさなぎ",
    "kana": "デイサービスアサナギ",
    "address": "福島県いわき市常磐関船町一丁目3-10",
    "lat": 37.0004834,
    "lng": 140.8553875,
    "tel": "0246-72-2250",
    "url": "",
    "pref": "福島県",
    "city": "いわき市",
    "category": "community_day_service",
    "serviceType": "地域密着型通所介護",
    "capacity": null,
    "openDays": [
      "平日",
      "祝日"
    ],
    "openDaysNote": ""
  },
  {
    "id": "790401152",
    "name": "デイサービスこたつ",
    "kana": "デイサービスコタツ",
    "address": "福島県いわき市大久町小久字菖蒲作50",
    "lat": 37.1430734,
    "lng": 140.9696337,
    "tel": "0246-88-1963",
    "url": "",
    "pref": "福島県",
    "city": "いわき市",
    "category": "community_day_service",
    "serviceType": "地域密着型通所介護",
    "capacity": null,
    "openDays": [
      "平日",
      "土曜日",
      "日曜日",
      "祝日"
    ],
    "openDaysNote": "12月31日〜1月3日　休みです。"
  },
  {
    "id": "770407799",
    "name": "デイサービスセンターあかえんば",
    "kana": "デイサービスセンターアカエンバ",
    "address": "福島県いわき市小名浜諏訪町25番地1",
    "lat": 36.9544396744352,
    "lng": 140.909318166718,
    "tel": "0246-38-7005",
    "url": "",
    "pref": "福島県",
    "city": "いわき市",
    "category": "community_day_service",
    "serviceType": "地域密着型通所介護",
    "capacity": 10,
    "openDays": [
      "平日",
      "土曜日"
    ],
    "openDaysNote": "機能訓練特化型の短時間デイサービスであり、午前・午後との2単位制。"
  },
  {
    "id": "790401335",
    "name": "デイサービスセンターいちごいち笑",
    "kana": "デイサービスセンターイチゴイチエ",
    "address": "いわき市平中神谷字南鳥沼27",
    "lat": 37.0633103,
    "lng": 140.9346427,
    "tel": "0246-38-4839",
    "url": "https://www.gurutto-iwaki.com/detail/2664/index.html",
    "pref": "福島県",
    "city": "いわき市",
    "category": "community_day_service",
    "serviceType": "地域密着型通所介護",
    "capacity": 0,
    "openDays": [
      "平日",
      "祝日"
    ],
    "openDaysNote": ""
  },
  {
    "id": "770402196",
    "name": "デイサービスセンターしおさいの丘",
    "kana": "デイサービスセンターシオサイノオカ",
    "address": "福島県いわき市平沼ノ内諏訪原二丁目５－７",
    "lat": 37.0163097,
    "lng": 140.9698943,
    "tel": "0246-39-4303",
    "url": "",
    "pref": "福島県",
    "city": "いわき市",
    "category": "community_day_service",
    "serviceType": "地域密着型通所介護",
    "capacity": 0,
    "openDays": [
      "平日",
      "祝日"
    ],
    "openDaysNote": ""
  },
  {
    "id": "770403863",
    "name": "デイサービスセンターひだまり２",
    "kana": "デイサービスセンターヒダマリ２",
    "address": "福島県いわき市泉もえぎ台二丁目２３番地の６",
    "lat": 36.9492108,
    "lng": 140.8446211,
    "tel": "0246-75-2670",
    "url": "",
    "pref": "福島県",
    "city": "いわき市",
    "category": "community_day_service",
    "serviceType": "地域密着型通所介護",
    "capacity": 0,
    "openDays": [
      "平日",
      "祝日"
    ],
    "openDaysNote": ""
  },
  {
    "id": "770403871",
    "name": "デイサービスセンターひだまり３",
    "kana": "デイサービスセンターヒダマリ３",
    "address": "福島県いわき市泉もえぎ台二丁目２３番地の６",
    "lat": 36.9492108,
    "lng": 140.8446211,
    "tel": "0246-75-2670",
    "url": "",
    "pref": "福島県",
    "city": "いわき市",
    "category": "community_day_service",
    "serviceType": "地域密着型通所介護",
    "capacity": 0,
    "openDays": [
      "平日",
      "土曜日",
      "日曜日",
      "祝日"
    ],
    "openDaysNote": ""
  },
  {
    "id": "770405025",
    "name": "デイサービスセンターひとと樹",
    "kana": "デイサービスセンターヒトトキ",
    "address": "福島県いわき市平下荒川字諏訪下４３番地",
    "lat": 37.0258292,
    "lng": 140.9066716,
    "tel": "0246-85-0420",
    "url": "",
    "pref": "福島県",
    "city": "いわき市",
    "category": "community_day_service",
    "serviceType": "地域密着型通所介護",
    "capacity": 1,
    "openDays": [
      "平日",
      "土曜日",
      "祝日"
    ],
    "openDaysNote": ""
  },
  {
    "id": "790401186",
    "name": "デイサービスセンターふくださんち。",
    "kana": "デイサービスセンターフクダサンチ。",
    "address": "内郷内町四方北115番地の2",
    "lat": 37.0395385,
    "lng": 140.8566083,
    "tel": "0246-88-8087",
    "url": "http://hp.kaipoke.biz/xe4/142971/index_0004.html",
    "pref": "福島県",
    "city": "いわき市",
    "category": "community_day_service",
    "serviceType": "地域密着型通所介護",
    "capacity": 0,
    "openDays": [
      "平日",
      "土曜日",
      "祝日"
    ],
    "openDaysNote": ""
  },
  {
    "id": "770403335",
    "name": "デイサービスセンターもみじ",
    "kana": "デイサービスセンターモミジ",
    "address": "福島県いわき市小名浜寺廻町５－１",
    "lat": 36.9529184,
    "lng": 140.9014836,
    "tel": "0246-92-2611",
    "url": "",
    "pref": "福島県",
    "city": "いわき市",
    "category": "community_day_service",
    "serviceType": "地域密着型通所介護",
    "capacity": 15,
    "openDays": [
      "平日",
      "土曜日",
      "日曜日",
      "祝日"
    ],
    "openDaysNote": ""
  },
  {
    "id": "770401529",
    "name": "デイサービスセンター聖徳荘",
    "kana": "デイサービスセンターセイトクソウ",
    "address": "福島県いわき市内郷宮町金坂１８４番地の３",
    "lat": 37.0439655,
    "lng": 140.8462473,
    "tel": "0246-26-8100",
    "url": "http://seitokuso.jp/",
    "pref": "福島県",
    "city": "いわき市",
    "category": "community_day_service",
    "serviceType": "地域密着型通所介護",
    "capacity": 20,
    "openDays": [
      "平日",
      "祝日"
    ],
    "openDaysNote": "なし"
  },
  {
    "id": "770406601",
    "name": "デイサービスたいよう",
    "kana": "デイサービスタイヨウ",
    "address": "福島県いわき市後田町町田４３番地",
    "lat": 36.9198813,
    "lng": 140.7923367,
    "tel": "0246-38-3683",
    "url": "",
    "pref": "福島県",
    "city": "いわき市",
    "category": "community_day_service",
    "serviceType": "地域密着型通所介護",
    "capacity": 0,
    "openDays": [
      "平日",
      "祝日"
    ],
    "openDaysNote": ""
  },
  {
    "id": "770406510",
    "name": "デイサービス憩の郷",
    "kana": "デイサービスイコイノサト",
    "address": "福島県いわき市平中神谷字六本榎17-1",
    "lat": 37.0629840509368,
    "lng": 140.925720450648,
    "tel": "0246-84-5284",
    "url": "",
    "pref": "福島県",
    "city": "いわき市",
    "category": "community_day_service",
    "serviceType": "地域密着型通所介護",
    "capacity": 0,
    "openDays": [
      "平日",
      "祝日"
    ],
    "openDaysNote": "但し、８月１３日～１６日　１２月３０日～１月3日は休業とさせていただきます。"
  },
  {
    "id": "790401269",
    "name": "デイサービス結",
    "kana": "デイサービスユイ",
    "address": "福島県いわき市常磐関船町迎77-1",
    "lat": 37.0016385,
    "lng": 140.8516205,
    "tel": "0246-68-6714",
    "url": "",
    "pref": "福島県",
    "city": "いわき市",
    "category": "community_day_service",
    "serviceType": "地域密着型通所介護",
    "capacity": 100,
    "openDays": [
      "平日",
      "祝日"
    ],
    "openDaysNote": ""
  },
  {
    "id": "770406411",
    "name": "デイサービス処あしび",
    "kana": "デイサービスドコロアシビ",
    "address": "福島県いわき市小名浜諏訪町26番地の1",
    "lat": 36.9544074,
    "lng": 140.9078355,
    "tel": "0246-38-4656",
    "url": "https://deiasibi.jp/",
    "pref": "福島県",
    "city": "いわき市",
    "category": "community_day_service",
    "serviceType": "地域密着型通所介護",
    "capacity": 18,
    "openDays": [
      "平日",
      "祝日"
    ],
    "openDaysNote": ""
  },
  {
    "id": "790401178",
    "name": "デイサービス笑福",
    "kana": "デイサービスエフ",
    "address": "福島県いわき市植田町横町１０７－２",
    "lat": 36.9173083,
    "lng": 140.7948281,
    "tel": "0246-88-1300",
    "url": "",
    "pref": "福島県",
    "city": "いわき市",
    "category": "community_day_service",
    "serviceType": "地域密着型通所介護",
    "capacity": 0,
    "openDays": [
      "平日",
      "祝日"
    ],
    "openDaysNote": "お盆（8/13～15）、年末年始（12/30～1/3）"
  },
  {
    "id": "790401418",
    "name": "デイサービス心",
    "kana": "デイサービスココロ",
    "address": "福島県いわき市鹿島町久保一丁目８番地の４",
    "lat": 36.9909436,
    "lng": 140.904796,
    "tel": "0246-41-9279",
    "url": "https://leaf-kokoro.jp/",
    "pref": "福島県",
    "city": "いわき市",
    "category": "community_day_service",
    "serviceType": "地域密着型通所介護",
    "capacity": null,
    "openDays": [
      "平日",
      "土曜日",
      "祝日"
    ],
    "openDaysNote": ""
  },
  {
    "id": "790401004",
    "name": "デイサービス心の郷",
    "kana": "デイサービスココロノサト",
    "address": "福島県いわき市錦町江栗3丁目63-3",
    "lat": 36.913304315128,
    "lng": 140.774932452203,
    "tel": "0246-84-6240",
    "url": "",
    "pref": "福島県",
    "city": "いわき市",
    "category": "community_day_service",
    "serviceType": "地域密着型通所介護",
    "capacity": 15,
    "openDays": [
      "平日",
      "祝日"
    ],
    "openDaysNote": "年末年始12/31.1/1休み"
  },
  {
    "id": "770406726",
    "name": "デイサービス福老",
    "kana": "デイサービスフクロウ",
    "address": "福島県いわき市明治団地64番地の1",
    "lat": 37.0407181,
    "lng": 140.8858653,
    "tel": "0246-84-7513",
    "url": "http://long-r.jp",
    "pref": "福島県",
    "city": "いわき市",
    "category": "community_day_service",
    "serviceType": "地域密着型通所介護",
    "capacity": 15,
    "openDays": [
      "平日",
      "祝日"
    ],
    "openDaysNote": ""
  },
  {
    "id": "790401293",
    "name": "デイサービス福老BLGいわき",
    "kana": "デイサービスフクロウビイエルジイイワキ",
    "address": "福島県いわき市内郷御厩町２丁目８７にぎらないおにぎりカフェふくろう２F にぎらないおにぎりカフェふくろう２F",
    "lat": 37.047302,
    "lng": 140.870328,
    "tel": "0246-85-5902",
    "url": "",
    "pref": "福島県",
    "city": "いわき市",
    "category": "community_day_service",
    "serviceType": "地域密着型通所介護",
    "capacity": 0,
    "openDays": [
      "平日",
      "祝日"
    ],
    "openDaysNote": ""
  },
  {
    "id": "790400923",
    "name": "デイサービス和奏",
    "kana": "デイサービスワカナ",
    "address": "福島県いわき市好間町中好間字寺台108番地の1",
    "lat": 37.0580033,
    "lng": 140.857748,
    "tel": "0246-38-3568",
    "url": "",
    "pref": "福島県",
    "city": "いわき市",
    "category": "community_day_service",
    "serviceType": "地域密着型通所介護",
    "capacity": 0,
    "openDays": [
      "平日",
      "祝日"
    ],
    "openDaysNote": ""
  },
  {
    "id": "770406387",
    "name": "デイスパゆもと",
    "kana": "デイスパユモト",
    "address": "福島県いわき市常磐湯本町吹谷８０－３８",
    "lat": 37.0074722,
    "lng": 140.8466125,
    "tel": "0246-38-5098",
    "url": "http://www.ca-village.com",
    "pref": "福島県",
    "city": "いわき市",
    "category": "community_day_service",
    "serviceType": "地域密着型通所介護",
    "capacity": 0,
    "openDays": [
      "平日",
      "祝日"
    ],
    "openDaysNote": ""
  },
  {
    "id": "790400998",
    "name": "ときわ会　デイサービスセンター　ルピナス",
    "kana": "トキワカイ　デイサービスセンター　ルピナス",
    "address": "福島県いわき市小名浜金成字若宮50-1サービス付き高齢者向け住宅Well サービス付き高齢者向け住宅Well",
    "lat": 36.9881393,
    "lng": 140.8959849,
    "tel": "0246-58-1155",
    "url": "http://www.tokiwa.or.jp",
    "pref": "福島県",
    "city": "いわき市",
    "category": "community_day_service",
    "serviceType": "地域密着型通所介護",
    "capacity": 18,
    "openDays": [
      "平日",
      "土曜日",
      "祝日"
    ],
    "openDaysNote": "悪天候、感染症などの緊急な対応が必要となった場合、休業又は営業時間を変更することあり"
  },
  {
    "id": "770406791",
    "name": "にこにこリハビリクラブ",
    "kana": "ニコニコリハビリクラブ",
    "address": "勿来町窪田万谷41－5",
    "lat": 36.8953315133355,
    "lng": 140.75883148525,
    "tel": "0246－84－8085",
    "url": "",
    "pref": "福島県",
    "city": "いわき市",
    "category": "community_day_service",
    "serviceType": "地域密着型通所介護",
    "capacity": 0,
    "openDays": [
      "平日",
      "祝日"
    ],
    "openDaysNote": ""
  },
  {
    "id": "790401384",
    "name": "ののいデイサービス",
    "kana": "ノノイ　デイサービス",
    "address": "福島県いわき市泉町二丁目２－１０",
    "lat": 36.9535524,
    "lng": 140.8506142,
    "tel": "246518578",
    "url": "",
    "pref": "福島県",
    "city": "いわき市",
    "category": "community_day_service",
    "serviceType": "地域密着型通所介護",
    "capacity": null,
    "openDays": [
      "平日",
      "土曜日",
      "祝日"
    ],
    "openDaysNote": ""
  },
  {
    "id": "770404499",
    "name": "ヒロコーポレーション(株)",
    "kana": "ヒロコーポレーションカブシキガイシャ",
    "address": "福島県いわき市平下高久字八幡１１－１",
    "lat": 37.0240174,
    "lng": 140.9605334,
    "tel": "246392283",
    "url": "",
    "pref": "福島県",
    "city": "いわき市",
    "category": "community_day_service",
    "serviceType": "地域密着型通所介護",
    "capacity": null,
    "openDays": [
      "平日"
    ],
    "openDaysNote": ""
  },
  {
    "id": "770406593",
    "name": "ひろむ整骨院リハビリデイサービス",
    "kana": "ヒロムセイコツインリハビリデイサービス",
    "address": "福島県いわき市小名浜字定西58-1",
    "lat": 36.9502325030516,
    "lng": 140.899809650926,
    "tel": "0246-84-6405",
    "url": "",
    "pref": "福島県",
    "city": "いわき市",
    "category": "community_day_service",
    "serviceType": "地域密着型通所介護",
    "capacity": 0,
    "openDays": [
      "平日"
    ],
    "openDaysNote": "電話対応可能時間は、9時～16時までとなります。（改行）（土曜日・日曜日・祝日・その他法人が定めた日を除く）（改行）365日24時間留守番電話になっておりますので、上記以外の時間は留守番電話にメッセージをお話し下さい。"
  },
  {
    "id": "770405439",
    "name": "ヘルパーステーション小川　ひまわり",
    "kana": "ヘルパーステーションオガワ　ヒマワリ",
    "address": "福島県いわき市小川町福岡字飯森３７－１",
    "lat": 37.1399776,
    "lng": 140.8514559,
    "tel": "0246-83-1901",
    "url": "https://ogawa185.stars.ne.jp/",
    "pref": "福島県",
    "city": "いわき市",
    "category": "community_day_service",
    "serviceType": "地域密着型通所介護",
    "capacity": 14,
    "openDays": [
      "平日",
      "土曜日"
    ],
    "openDaysNote": "ご利用者のご要望がある場合は、定休日も対応いたします。"
  },
  {
    "id": "770406403",
    "name": "ホームケアセンター喜寿の里",
    "kana": "ホームケアセンターキジュノサト",
    "address": "いわき市佐糠町東二丁目6-11",
    "lat": 36.9180708,
    "lng": 140.8092991,
    "tel": "0246-38-5217",
    "url": "http://www.ymmd-hcc.jp/location/喜寿の里/",
    "pref": "福島県",
    "city": "いわき市",
    "category": "community_day_service",
    "serviceType": "地域密着型通所介護",
    "capacity": 10,
    "openDays": [
      "平日",
      "土曜日",
      "祝日"
    ],
    "openDaysNote": ""
  },
  {
    "id": "770406734",
    "name": "ホームケアセンター平新川町",
    "kana": "ホームケアセンタータイラニイカワマチ",
    "address": "福島県いわき市平字新川町17番地",
    "lat": 37.054448481145,
    "lng": 140.896583399336,
    "tel": "0246-84-6212",
    "url": "http://www.ymmd-hcc.jp/location/平新川町/",
    "pref": "福島県",
    "city": "いわき市",
    "category": "community_day_service",
    "serviceType": "地域密着型通所介護",
    "capacity": 13,
    "openDays": [
      "平日",
      "土曜日",
      "祝日"
    ],
    "openDaysNote": ""
  },
  {
    "id": "790401285",
    "name": "ほねつぎデイサービス御台境町店",
    "kana": "ホネツギデイサービスミダイサカイマチテン",
    "address": "内郷御台境町鶴巻2",
    "lat": 37.0528293,
    "lng": 140.8702467,
    "tel": "0246-26-1020",
    "url": "",
    "pref": "福島県",
    "city": "いわき市",
    "category": "community_day_service",
    "serviceType": "地域密着型通所介護",
    "capacity": 10,
    "openDays": [
      "平日"
    ],
    "openDaysNote": ""
  },
  {
    "id": "790401277",
    "name": "ほねつぎデイサービス泉町",
    "kana": "ホネツギデイサービスイズミマチ",
    "address": "福島県いわき市泉玉露3丁目12番地の1",
    "lat": 36.9583827,
    "lng": 140.8527859,
    "tel": "0246-38-6007",
    "url": "",
    "pref": "福島県",
    "city": "いわき市",
    "category": "community_day_service",
    "serviceType": "地域密着型通所介護",
    "capacity": null,
    "openDays": [
      "平日",
      "土曜日",
      "祝日"
    ],
    "openDaysNote": ""
  },
  {
    "id": "790401368",
    "name": "ほねつぎデイサービス平",
    "kana": "ホネツギデイサービスタイラ",
    "address": "平新川町36-1松﨑ビル１階",
    "lat": 37.0554668327304,
    "lng": 140.897363825795,
    "tel": "0246-84-6533",
    "url": "",
    "pref": "福島県",
    "city": "いわき市",
    "category": "community_day_service",
    "serviceType": "地域密着型通所介護",
    "capacity": null,
    "openDays": [
      "平日",
      "祝日"
    ],
    "openDaysNote": "年末年始12月29日～1月3日"
  },
  {
    "id": "790401483",
    "name": "ホワイトクローバー",
    "kana": "ホワイトクローバー",
    "address": "内郷御厩町久世原87番地の7",
    "lat": 37.0412478,
    "lng": 140.865911,
    "tel": "0246-88-8263",
    "url": "https://morninng-glory.my.canva.site/hp",
    "pref": "福島県",
    "city": "いわき市",
    "category": "community_day_service",
    "serviceType": "地域密着型通所介護",
    "capacity": 20,
    "openDays": [
      "平日",
      "祝日"
    ],
    "openDaysNote": ""
  },
  {
    "id": "770403491",
    "name": "みなとの家",
    "kana": "ミナトノイエ",
    "address": "福島県いわき市江名字北町１２２－１",
    "lat": 36.9712723291675,
    "lng": 140.957723843903,
    "tel": "0246-59-0370",
    "url": "",
    "pref": "福島県",
    "city": "いわき市",
    "category": "community_day_service",
    "serviceType": "地域密着型通所介護",
    "capacity": 3,
    "openDays": [
      "平日",
      "土曜日",
      "祝日"
    ],
    "openDaysNote": ""
  },
  {
    "id": "770405611",
    "name": "みなと整骨院デイサービス内郷",
    "kana": "ミナトセイコツインデイサービスウチゴウ",
    "address": "福島県いわき市内郷綴町金谷１９－１３",
    "lat": 37.0378034,
    "lng": 140.8641289,
    "tel": "0246-45-1707",
    "url": "",
    "pref": "福島県",
    "city": "いわき市",
    "category": "community_day_service",
    "serviceType": "地域密着型通所介護",
    "capacity": 0,
    "openDays": [
      "平日",
      "土曜日"
    ],
    "openDaysNote": ""
  },
  {
    "id": "770406148",
    "name": "みやびデイサービス",
    "kana": "ミヤビデイサービス",
    "address": "福島県いわき市四倉町上仁井田字南浜37-7",
    "lat": 37.0933444,
    "lng": 140.9790915,
    "tel": "0246-66-1632",
    "url": "http://123.sub.jp/miyabi/ds/index.html",
    "pref": "福島県",
    "city": "いわき市",
    "category": "community_day_service",
    "serviceType": "地域密着型通所介護",
    "capacity": 10,
    "openDays": [
      "平日",
      "土曜日",
      "祝日"
    ],
    "openDaysNote": "職員外出時および定休日は留守番電話設定になっています。"
  },
  {
    "id": "770404416",
    "name": "もみじの苑デイサービスセンター",
    "kana": "モミジノソノデイサービスセンター",
    "address": "福島県いわき市平字紅葉町４０番地の９",
    "lat": 37.0645474165543,
    "lng": 140.892098542328,
    "tel": "0246-23-3911",
    "url": "https://iwaki-careforest.com",
    "pref": "福島県",
    "city": "いわき市",
    "category": "community_day_service",
    "serviceType": "地域密着型通所介護",
    "capacity": 0,
    "openDays": [
      "平日",
      "祝日"
    ],
    "openDaysNote": "営業日は、月曜日から金曜日及び祝日とする。ただし８月１３日から８月１５日までの３日間、１２月３０日から１月３日までの５日間を除く。"
  },
  {
    "id": "790401319",
    "name": "リフレ＆スパ　さはこ",
    "kana": "リフレアンドスパ　サハコ",
    "address": "福島県いわき市常磐湯本町三函91番地の1",
    "lat": 37.0125254791694,
    "lng": 140.845785457286,
    "tel": "0246-84-6414",
    "url": "http://sahako-care.co.jp/",
    "pref": "福島県",
    "city": "いわき市",
    "category": "community_day_service",
    "serviceType": "地域密着型通所介護",
    "capacity": 0,
    "openDays": [
      "平日",
      "土曜日",
      "祝日"
    ],
    "openDaysNote": ""
  },
  {
    "id": "770407781",
    "name": "レッツ倶楽部いわき　湯本",
    "kana": "レッツクラブイワキ　ユモト",
    "address": "福島県いわき市常磐上湯長谷町五反田85-3",
    "lat": 36.9983073,
    "lng": 140.8410804,
    "tel": "0246-38-7064",
    "url": "https://www.lets-club.jp/shop/iwakiyumoto/",
    "pref": "福島県",
    "city": "いわき市",
    "category": "community_day_service",
    "serviceType": "地域密着型通所介護",
    "capacity": 18,
    "openDays": [
      "平日",
      "祝日"
    ],
    "openDaysNote": ""
  },
  {
    "id": "770407146",
    "name": "レッツ倶楽部いわき　平窪",
    "kana": "レッツクラブイワキ　ヒラクボ",
    "address": "福島県いわき市平下平窪２丁目１−９",
    "lat": 37.0752023,
    "lng": 140.8820796,
    "tel": "0246-22-4976",
    "url": "https://www.lets-club.jp/shop/iwakihirakubo/",
    "pref": "福島県",
    "city": "いわき市",
    "category": "community_day_service",
    "serviceType": "地域密着型通所介護",
    "capacity": 18,
    "openDays": [
      "平日",
      "祝日"
    ],
    "openDaysNote": ""
  },
  {
    "id": "790400857",
    "name": "レッツ倶楽部いわき郷ヶ丘",
    "kana": "レッツクラブイワキサトガオカ",
    "address": "福島県いわき市郷ヶ丘2丁目11-1",
    "lat": 37.0277402,
    "lng": 140.9058877,
    "tel": "0246-84-7064",
    "url": "https://www.lets-club.jp/shop/iwakisatogaoka/",
    "pref": "福島県",
    "city": "いわき市",
    "category": "community_day_service",
    "serviceType": "地域密着型通所介護",
    "capacity": 18,
    "openDays": [
      "平日",
      "祝日"
    ],
    "openDaysNote": ""
  },
  {
    "id": "790400931",
    "name": "レッツ倶楽部いわき泉",
    "kana": "レッツクラブイワキイズミ",
    "address": "福島県いわき市泉町本谷字大田20-1",
    "lat": 36.9680625,
    "lng": 140.8713851,
    "tel": "0246-58-7064",
    "url": "https://www.lets-club.jp/shop/iwakiizumi/",
    "pref": "福島県",
    "city": "いわき市",
    "category": "community_day_service",
    "serviceType": "地域密着型通所介護",
    "capacity": 18,
    "openDays": [
      "平日",
      "祝日"
    ],
    "openDaysNote": ""
  },
  {
    "id": "770404671",
    "name": "安泰デイサービス湯本",
    "kana": "アンタイデイサービスユモト",
    "address": "福島県いわき市常磐関船町一丁目8番地の４",
    "lat": 37.0012674,
    "lng": 140.8535841,
    "tel": "0246-42-2880",
    "url": "https://www.antai.jp",
    "pref": "福島県",
    "city": "いわき市",
    "category": "community_day_service",
    "serviceType": "地域密着型通所介護",
    "capacity": 0,
    "openDays": [
      "平日",
      "祝日"
    ],
    "openDaysNote": "１２月３０日～１月３日年末年始休業"
  },
  {
    "id": "790401350",
    "name": "医和生会やがわせデイサービス",
    "kana": "イワキカイヤガワセデイサービス",
    "address": "福島県いわき市平谷川瀬一丁目16-5",
    "lat": 37.0481485775236,
    "lng": 140.891710912828,
    "tel": "0246-25-8187",
    "url": "",
    "pref": "福島県",
    "city": "いわき市",
    "category": "community_day_service",
    "serviceType": "地域密着型通所介護",
    "capacity": 0,
    "openDays": [
      "平日",
      "土曜日",
      "祝日"
    ],
    "openDaysNote": "8/13～8/15　お盆休業（改行）12/30～1/3　年末年始休業"
  },
  {
    "id": "770407369",
    "name": "吉田家具店デイサービス未来中岡",
    "kana": "ヨシダカグテンデイサービスミライナカオカ",
    "address": "福島県いわき市中岡町5-7-28",
    "lat": 36.9180808,
    "lng": 140.7826701,
    "tel": "0246-85-0260",
    "url": "https://www.miraigroupyoshida.com/",
    "pref": "福島県",
    "city": "いわき市",
    "category": "community_day_service",
    "serviceType": "地域密着型通所介護",
    "capacity": 0,
    "openDays": [
      "平日",
      "祝日"
    ],
    "openDaysNote": ""
  },
  {
    "id": "770406205",
    "name": "月のうさぎデイサービス",
    "kana": "ツキノウサギデイサービス",
    "address": "福島県いわき市郷ケ丘2-17-10",
    "lat": 37.0273706,
    "lng": 140.9054911,
    "tel": "0246-46-2288",
    "url": "http://care-net.biz/07/k-dobashi/",
    "pref": "福島県",
    "city": "いわき市",
    "category": "community_day_service",
    "serviceType": "地域密着型通所介護",
    "capacity": 0,
    "openDays": [
      "平日"
    ],
    "openDaysNote": "なし"
  },
  {
    "id": "790401426",
    "name": "元氣ジムいわき小島町",
    "kana": "ゲンキジムイワキオジママチ",
    "address": "福島県いわき市小島町1-2-2",
    "lat": 37.0488911,
    "lng": 140.8804267,
    "tel": "0246-38-5215",
    "url": "",
    "pref": "福島県",
    "city": "いわき市",
    "category": "community_day_service",
    "serviceType": "地域密着型通所介護",
    "capacity": 0,
    "openDays": [
      "平日",
      "祝日"
    ],
    "openDaysNote": ""
  },
  {
    "id": "770402774",
    "name": "江名の家",
    "kana": "エナノイエ",
    "address": "福島県いわき市江名字荻ノ作１４６",
    "lat": 36.9730868,
    "lng": 140.9571136,
    "tel": "0246-59-0028",
    "url": "",
    "pref": "福島県",
    "city": "いわき市",
    "category": "community_day_service",
    "serviceType": "地域密着型通所介護",
    "capacity": 2,
    "openDays": [
      "平日",
      "土曜日",
      "日曜日",
      "祝日"
    ],
    "openDaysNote": ""
  },
  {
    "id": "793250028",
    "name": "社会福祉法人双葉町社会福祉協議会指定地域密着型通所介護事業所",
    "kana": "シャカイフクシホウジンフタバマチシャカイフクシキョウギカイシテイチイキミッチャクガタツウショカイゴジギョウショ",
    "address": "福島県いわき市勿来町酒井青柳14-5双葉町サポートセンターひだまり 双葉町サポートセンターひだまり",
    "lat": 36.8903662773759,
    "lng": 140.755743558197,
    "tel": "0246-84-6725",
    "url": "futaba-shakyo.com",
    "pref": "福島県",
    "city": "いわき市",
    "category": "community_day_service",
    "serviceType": "地域密着型通所介護",
    "capacity": null,
    "openDays": [
      "平日"
    ],
    "openDaysNote": "なし"
  },
  {
    "id": "790401103",
    "name": "樹楽　団らんの家　いわき泉",
    "kana": "キラク　ダンランノイエ　イワキイズミ",
    "address": "福島県いわき市泉町下川字須賀蛭27－728",
    "lat": 36.9215486,
    "lng": 140.8495139,
    "tel": "0246－88－7561",
    "url": "https://www.kiraku-iwaki.com",
    "pref": "福島県",
    "city": "いわき市",
    "category": "community_day_service",
    "serviceType": "地域密着型通所介護",
    "capacity": 0,
    "openDays": [
      "平日",
      "土曜日",
      "日曜日",
      "祝日"
    ],
    "openDaysNote": ""
  },
  {
    "id": "770400588",
    "name": "翠祥園デイサービスセンター",
    "kana": "スイショウエンデイサービスセンター",
    "address": "福島県いわき市久之浜町末続字深谷３３－１",
    "lat": 37.1667593,
    "lng": 140.9995147,
    "tel": "0246-82-2877",
    "url": "http://suisyoen.jp/",
    "pref": "福島県",
    "city": "いわき市",
    "category": "community_day_service",
    "serviceType": "地域密着型通所介護",
    "capacity": null,
    "openDays": [
      "平日",
      "祝日"
    ],
    "openDaysNote": ""
  },
  {
    "id": "770406973",
    "name": "杉本整骨院デイサービス　トレさーじ",
    "kana": "スギモトセイコツインデイサービス　トレサージ",
    "address": "福島県いわき市小名浜花畑町36番地の15",
    "lat": 36.9569209,
    "lng": 140.905419,
    "tel": "0246-886200",
    "url": "",
    "pref": "福島県",
    "city": "いわき市",
    "category": "community_day_service",
    "serviceType": "地域密着型通所介護",
    "capacity": 0,
    "openDays": [
      "平日",
      "土曜日"
    ],
    "openDaysNote": ""
  },
  {
    "id": "770406080",
    "name": "八千代デイサ－ビス",
    "kana": "ヤチヨデイサ－ビス",
    "address": "福島県いわき市中央台高久二丁目８番地の３",
    "lat": 37.0064598,
    "lng": 140.9272743,
    "tel": "0246-28-2700",
    "url": "",
    "pref": "福島県",
    "city": "いわき市",
    "category": "community_day_service",
    "serviceType": "地域密着型通所介護",
    "capacity": 15,
    "openDays": [
      "平日",
      "祝日"
    ],
    "openDaysNote": "営業時間外は留守番電話受付、翌営業日対応。"
  },
  {
    "id": "770402162",
    "name": "有限会社　タロサ　デイサービスタロー",
    "kana": "ユウゲンガイシャ　タロサ　デイサービスタロー",
    "address": "福島県いわき市平下神谷字仲田82番地",
    "lat": 37.0748548,
    "lng": 140.9519812,
    "tel": "0246-34-2828",
    "url": "http://homepage2.nifty.com/taropha",
    "pref": "福島県",
    "city": "いわき市",
    "category": "community_day_service",
    "serviceType": "地域密着型通所介護",
    "capacity": 0,
    "openDays": [
      "平日",
      "土曜日",
      "祝日"
    ],
    "openDaysNote": "特になし"
  },
  {
    "id": "770401354",
    "name": "有限会社泉町三丁目ヘルパーステーション",
    "kana": "ユウゲンカイシャイズミマチサンチョウメヘルパーステーション",
    "address": "福島県いわき市泉町三丁目６番地の６",
    "lat": 36.9504917,
    "lng": 140.8559309,
    "tel": "0246-56-4451",
    "url": "https://izumimachi3chome.wixsite.com/mysite",
    "pref": "福島県",
    "city": "いわき市",
    "category": "community_day_service",
    "serviceType": "地域密着型通所介護",
    "capacity": 0,
    "openDays": [
      "平日",
      "土曜日",
      "祝日"
    ],
    "openDaysNote": "上記定休日であっても利用者の希望によっては、営業を実施します。"
  },
  {
    "id": "791300320",
    "name": "デイサービスセンター　はるか",
    "kana": "デイサービスセンター　ハルカ",
    "address": "福島県伊達市梁川町字北本町17-3",
    "lat": 37.856521,
    "lng": 140.603523,
    "tel": "024-563-3771",
    "url": "",
    "pref": "福島県",
    "city": "伊達市",
    "category": "community_day_service",
    "serviceType": "地域密着型通所介護",
    "capacity": null,
    "openDays": [
      "平日",
      "土曜日",
      "祝日"
    ],
    "openDaysNote": ""
  },
  {
    "id": "771300613",
    "name": "まるわデイサービスセンター",
    "kana": "マルワデイサービスセンター",
    "address": "福島県伊達市保原町字宮下82-1",
    "lat": 37.8183826,
    "lng": 140.5560589,
    "tel": "024-574-3330",
    "url": "https://maruwa-taxi.com/",
    "pref": "福島県",
    "city": "伊達市",
    "category": "community_day_service",
    "serviceType": "地域密着型通所介護",
    "capacity": 0,
    "openDays": [
      "平日",
      "祝日"
    ],
    "openDaysNote": ""
  },
  {
    "id": "771300688",
    "name": "リハビリデイサービス「ここリハ　みよだ」",
    "kana": "リハビリデイサービス　ココリハ　ミヨダ",
    "address": "福島県伊達市月舘町御代田字扶桑畑42番地1",
    "lat": 37.7598005547326,
    "lng": 140.608425594968,
    "tel": "024-529-7741",
    "url": "http://hp.kaipoke.biz/67g/",
    "pref": "福島県",
    "city": "伊達市",
    "category": "community_day_service",
    "serviceType": "地域密着型通所介護",
    "capacity": 15,
    "openDays": [
      "平日",
      "祝日"
    ],
    "openDaysNote": "１月１日～１月２日の期間はお休みとなります。"
  },
  {
    "id": "771300662",
    "name": "リハプライド・梁川町",
    "kana": "リハプライド・ヤナガワマチ",
    "address": "福島県伊達市梁川町幸町79",
    "lat": 37.8512363,
    "lng": 140.6003289,
    "tel": "024-527-2076",
    "url": "yanagawamachi@lets-club.com",
    "pref": "福島県",
    "city": "伊達市",
    "category": "community_day_service",
    "serviceType": "地域密着型通所介護",
    "capacity": 0,
    "openDays": [
      "平日"
    ],
    "openDaysNote": "半日型　　（午前）　８時４５分～１２時００分　（午後）　１３時３０分～１６時４５分（改行）　　　　　　※３時間１５分"
  },
  {
    "id": "791300296",
    "name": "介護予防センター掛田",
    "kana": "カイゴヨボウセンターカケダ",
    "address": "福島県伊達市霊山町掛田字西裏20-1　2F",
    "lat": 37.7840658003468,
    "lng": 140.593374635196,
    "tel": "024-563-4664",
    "url": "https://youi-kai.org",
    "pref": "福島県",
    "city": "伊達市",
    "category": "community_day_service",
    "serviceType": "地域密着型通所介護",
    "capacity": 0,
    "openDays": [
      "平日",
      "土曜日",
      "祝日"
    ],
    "openDaysNote": ""
  },
  {
    "id": "772300729",
    "name": "デイサービスセンターふじの郷",
    "kana": "デイサービスセンターフジノサト",
    "address": "福島県南会津郡下郷町大字塩生字前原502-1",
    "lat": 37.2527575154062,
    "lng": 139.867511247072,
    "tel": "0241-69-1239",
    "url": "",
    "pref": "福島県",
    "city": "下郷町",
    "category": "community_day_service",
    "serviceType": "地域密着型通所介護",
    "capacity": null,
    "openDays": [
      "平日",
      "祝日"
    ],
    "openDaysNote": "冬季休業日：12月30日～1月3日"
  },
  {
    "id": "772300208",
    "name": "下郷町社会福祉協議会指定居宅サービス事業所",
    "kana": "シモゴウマチシャカイフクシキョウギカイシテイキョタクサービスジギョウショ",
    "address": "福島県南会津郡下郷町大字湯野上字杉ノ内乙５４８番地",
    "lat": 37.2955212,
    "lng": 139.8992356,
    "tel": "0241-69-5111",
    "url": "hppts://simogo-shakyo.or.jp/",
    "pref": "福島県",
    "city": "下郷町",
    "category": "community_day_service",
    "serviceType": "地域密着型通所介護",
    "capacity": 0,
    "openDays": [
      "平日",
      "土曜日",
      "祝日"
    ],
    "openDaysNote": ""
  },
  {
    "id": "772600474",
    "name": "特定非営利活動法人　きらめき　デイサービスセンターあそびりステーション",
    "kana": "トクテイヒエイリカツドウホウジン　キラメキ　デイサービスセンターアソビリステーション",
    "address": "福島県河沼郡会津坂下町大字束原字東１５２２番地",
    "lat": 37.5394798,
    "lng": 139.8609358,
    "tel": "０２４２－８５－８１５４",
    "url": "",
    "pref": "福島県",
    "city": "会津坂下町",
    "category": "community_day_service",
    "serviceType": "地域密着型通所介護",
    "capacity": 0,
    "openDays": [
      "平日",
      "土曜日",
      "日曜日",
      "祝日"
    ],
    "openDaysNote": ""
  },
  {
    "id": "770200715",
    "name": "こころのさとデイサービスセンター",
    "kana": "ココロノサトデイサービスセンター",
    "address": "福島県会津若松市石堂町6番30号",
    "lat": 37.5112593,
    "lng": 139.9262871,
    "tel": "0242-37-1331",
    "url": "http://www.aizu-jp.net/cocoronosato",
    "pref": "福島県",
    "city": "会津若松市",
    "category": "community_day_service",
    "serviceType": "地域密着型通所介護",
    "capacity": 18,
    "openDays": [
      "平日",
      "土曜日",
      "祝日"
    ],
    "openDaysNote": "‐"
  },
  {
    "id": "770202034",
    "name": "こだわりデイサービス　早稲田イーライフ会津若松・門田",
    "kana": "コダワリデイサービス　ワセダイーライフアイヅワカマツ・モンデン",
    "address": "福島県会津若松市古川町３－１",
    "lat": 37.4780975,
    "lng": 139.9270401,
    "tel": "0242-36-7311",
    "url": "",
    "pref": "福島県",
    "city": "会津若松市",
    "category": "community_day_service",
    "serviceType": "地域密着型通所介護",
    "capacity": 10,
    "openDays": [
      "平日",
      "祝日"
    ],
    "openDaysNote": "祝日は通常営業日。"
  },
  {
    "id": "770201804",
    "name": "デイサービス　おともだち会津",
    "kana": "デイサービス　オトモダチアイヅ",
    "address": "福島県会津若松市門田町一ノ堰字村西386-1",
    "lat": 37.4584406680859,
    "lng": 139.912800823279,
    "tel": "0242-23-8927",
    "url": "http://yumeweb21.web.fc2.com/index.htm",
    "pref": "福島県",
    "city": "会津若松市",
    "category": "community_day_service",
    "serviceType": "地域密着型通所介護",
    "capacity": 5,
    "openDays": [
      "平日",
      "土曜日",
      "日曜日",
      "祝日"
    ],
    "openDaysNote": "365日休み無し"
  },
  {
    "id": "790200430",
    "name": "デイサービス　おら家",
    "kana": "デイサービス　オライ",
    "address": "福島県会津若松市一箕町大字八角字中村東66-1",
    "lat": 37.504423951746,
    "lng": 139.946737713908,
    "tel": "0242-32-5160",
    "url": "",
    "pref": "福島県",
    "city": "会津若松市",
    "category": "community_day_service",
    "serviceType": "地域密着型通所介護",
    "capacity": 0,
    "openDays": [
      "平日",
      "土曜日",
      "日曜日",
      "祝日"
    ],
    "openDaysNote": ""
  },
  {
    "id": "790200489",
    "name": "デイサービスおら家",
    "kana": "デイサービスオライ",
    "address": "福島県会津若松市一箕町大字八角字中村東66-1",
    "lat": 37.5043897,
    "lng": 139.9466821,
    "tel": "0242-32-5160",
    "url": "",
    "pref": "福島県",
    "city": "会津若松市",
    "category": "community_day_service",
    "serviceType": "地域密着型通所介護",
    "capacity": 17,
    "openDays": [
      "平日"
    ],
    "openDaysNote": ""
  },
  {
    "id": "770201341",
    "name": "デイサービスセンター　みらい　東千石",
    "kana": "デイサービスセンター　ミライ　ヒガシセンゴク",
    "address": "福島県会津若松市東千石町3-4-67",
    "lat": 37.4985181230417,
    "lng": 139.946633954384,
    "tel": "0242-26-8349",
    "url": "",
    "pref": "福島県",
    "city": "会津若松市",
    "category": "community_day_service",
    "serviceType": "地域密着型通所介護",
    "capacity": 12,
    "openDays": [
      "平日",
      "祝日"
    ],
    "openDaysNote": ""
  },
  {
    "id": "770201960",
    "name": "デイサービスセンターぽっかぽか",
    "kana": "デイサービスセンターポッカポカ",
    "address": "北会津町中荒井７２７番地",
    "lat": 37.4932734,
    "lng": 139.8740598,
    "tel": "242582573",
    "url": "",
    "pref": "福島県",
    "city": "会津若松市",
    "category": "community_day_service",
    "serviceType": "地域密着型通所介護",
    "capacity": 0,
    "openDays": [
      "平日",
      "土曜日",
      "祝日"
    ],
    "openDaysNote": ""
  },
  {
    "id": "790200406",
    "name": "デイサービスセンター縁",
    "kana": "デイサービスセンター　エニシ",
    "address": "福島県会津若松市門田町大字御山字村中３４１番地の２",
    "lat": 37.4665322,
    "lng": 139.9239632,
    "tel": "0242-77-6243",
    "url": "",
    "pref": "福島県",
    "city": "会津若松市",
    "category": "community_day_service",
    "serviceType": "地域密着型通所介護",
    "capacity": 0,
    "openDays": [
      "平日",
      "土曜日",
      "祝日"
    ],
    "openDaysNote": ""
  },
  {
    "id": "770201986",
    "name": "デイサービスセンター湊",
    "kana": "デイサービスセンターミナト",
    "address": "福島県会津若松市湊町大字赤井字屋敷108-1",
    "lat": 37.501778,
    "lng": 140.017842042328,
    "tel": "0242-94-2381",
    "url": "",
    "pref": "福島県",
    "city": "会津若松市",
    "category": "community_day_service",
    "serviceType": "地域密着型通所介護",
    "capacity": null,
    "openDays": [
      "平日",
      "祝日"
    ],
    "openDaysNote": ""
  },
  {
    "id": "770200988",
    "name": "デイサービスセンター明日向",
    "kana": "デイサービスセンターアスカ",
    "address": "福島県会津若松市東年貢一丁目８番８号",
    "lat": 37.4759407,
    "lng": 139.9282159,
    "tel": "0242-29-3111",
    "url": "",
    "pref": "福島県",
    "city": "会津若松市",
    "category": "community_day_service",
    "serviceType": "地域密着型通所介護",
    "capacity": 0,
    "openDays": [
      "平日",
      "土曜日",
      "祝日"
    ],
    "openDaysNote": "年末年始休暇：１２／３１～１／３"
  },
  {
    "id": "770201994",
    "name": "デイサービス温っ家（ぽっか）",
    "kana": "デイサービスポッカ",
    "address": "福島県会津若松市門田町大字飯寺字村東577番73",
    "lat": 37.4731939179507,
    "lng": 139.90906797129,
    "tel": "0242‐85‐7860",
    "url": "",
    "pref": "福島県",
    "city": "会津若松市",
    "category": "community_day_service",
    "serviceType": "地域密着型通所介護",
    "capacity": 0,
    "openDays": [
      "平日",
      "祝日"
    ],
    "openDaysNote": ""
  },
  {
    "id": "770201853",
    "name": "デイサービス楽楽すみよし",
    "kana": "デイサービスララスミヨシ",
    "address": "福島県会津若松市住吉町2番3号",
    "lat": 37.486417,
    "lng": 139.9081038,
    "tel": "0242-23-9901",
    "url": "",
    "pref": "福島県",
    "city": "会津若松市",
    "category": "community_day_service",
    "serviceType": "地域密着型通所介護",
    "capacity": null,
    "openDays": [
      "平日",
      "土曜日",
      "日曜日",
      "祝日"
    ],
    "openDaysNote": "12月31日～1月1日は休業"
  },
  {
    "id": "790200422",
    "name": "メディカルガーデン笑-しょう",
    "kana": "メディカルガーデン-ショウ",
    "address": "福島県会津若松市山見町二丁目9番地の9",
    "lat": 37.5097569,
    "lng": 139.9414807,
    "tel": "0242-36-7201",
    "url": "",
    "pref": "福島県",
    "city": "会津若松市",
    "category": "community_day_service",
    "serviceType": "地域密着型通所介護",
    "capacity": 0,
    "openDays": [
      "平日",
      "祝日"
    ],
    "openDaysNote": ""
  },
  {
    "id": "770201770",
    "name": "よってくなんしょ。暖らんの家",
    "kana": "ヨッテクナンショ。ダンランノイエ",
    "address": "福島県会津若松市町北町大字藤室字横道162番地5",
    "lat": 37.5185251,
    "lng": 139.9477627,
    "tel": "０２４２－９３－５０９２",
    "url": "",
    "pref": "福島県",
    "city": "会津若松市",
    "category": "community_day_service",
    "serviceType": "地域密着型通所介護",
    "capacity": 16,
    "openDays": [
      "平日",
      "祝日"
    ],
    "openDaysNote": ""
  },
  {
    "id": "790200307",
    "name": "菜の花",
    "kana": "ナノハナ",
    "address": "福島県会津若松市藤原22番地の2",
    "lat": 37.5148614816446,
    "lng": 139.940418602898,
    "tel": "0242-23-4363",
    "url": "http://tachiaoi.or.jp",
    "pref": "福島県",
    "city": "会津若松市",
    "category": "community_day_service",
    "serviceType": "地域密着型通所介護",
    "capacity": 0,
    "openDays": [
      "平日",
      "祝日"
    ],
    "openDaysNote": ""
  },
  {
    "id": "792730053",
    "name": "リハビリセンター藤川",
    "kana": "リハビリセンターフジカワ",
    "address": "福島県大沼郡会津美里町冨川字上中川316",
    "lat": 37.4432778,
    "lng": 139.8354705,
    "tel": "0242-85-8222",
    "url": "aizu-riha.com",
    "pref": "福島県",
    "city": "会津美里町",
    "category": "community_day_service",
    "serviceType": "地域密着型通所介護",
    "capacity": 0,
    "openDays": [
      "平日",
      "土曜日",
      "祝日"
    ],
    "openDaysNote": ""
  },
  {
    "id": "773200282",
    "name": "葛尾村社会福祉協議会",
    "kana": "カツラオムラシャカイフクシキョウギカイ",
    "address": "福島県双葉郡葛尾村落合字菅ノ又６－１",
    "lat": 37.4997259,
    "lng": 140.7592797,
    "tel": "0240-29-2020",
    "url": "http://katsurao-shakyo.or.jp/",
    "pref": "福島県",
    "city": "葛尾村",
    "category": "community_day_service",
    "serviceType": "地域密着型通所介護",
    "capacity": 0,
    "openDays": [
      "平日"
    ],
    "openDaysNote": "-"
  },
  {
    "id": "790800163",
    "name": "ケアテルデイサービスセンター　ハーブの園きたかた",
    "kana": "ケアテルデイサービスセンター　ハーブノソノキタカタ",
    "address": "福島県喜多方市豊川町一井字間々上580-4",
    "lat": 37.6315289531037,
    "lng": 139.875252622229,
    "tel": "0241-23-5330",
    "url": "https://caretel.jp/",
    "pref": "福島県",
    "city": "喜多方市",
    "category": "community_day_service",
    "serviceType": "地域密着型通所介護",
    "capacity": 18,
    "openDays": [
      "平日",
      "土曜日",
      "祝日"
    ],
    "openDaysNote": "台風や大雪等で利用者様に危険が生じると判断した場合、お休みや当日、早帰りする場合があります。"
  },
  {
    "id": "770800779",
    "name": "デイサービス　楽蔵",
    "kana": "デイサービス　ラクラ",
    "address": "福島県喜多方市豊川町米室字二条川原1878-6",
    "lat": 37.6420195,
    "lng": 139.8562246,
    "tel": "0241-23-2772",
    "url": "http://www.seikirari.com/",
    "pref": "福島県",
    "city": "喜多方市",
    "category": "community_day_service",
    "serviceType": "地域密着型通所介護",
    "capacity": 0,
    "openDays": [
      "平日",
      "祝日"
    ],
    "openDaysNote": ""
  },
  {
    "id": "770800480",
    "name": "医療生協デイサービスセンターすわ",
    "kana": "イリョウセイキョウデイサービスセンタースワ",
    "address": "福島県喜多方市諏訪３６－１",
    "lat": 37.6541157,
    "lng": 139.8704424,
    "tel": "0241-21-2688",
    "url": "aizu-health.coop",
    "pref": "福島県",
    "city": "喜多方市",
    "category": "community_day_service",
    "serviceType": "地域密着型通所介護",
    "capacity": 18,
    "openDays": [
      "平日",
      "土曜日",
      "祝日"
    ],
    "openDaysNote": "なし"
  },
  {
    "id": "770800910",
    "name": "通所介護事業所　ぴーす",
    "kana": "ツウショカイゴジギョウショ　ピース",
    "address": "福島県喜多方市岩月町宮津字下新田５９９３－１",
    "lat": 37.6711197,
    "lng": 139.8881875,
    "tel": "0241-21-8831",
    "url": "",
    "pref": "福島県",
    "city": "喜多方市",
    "category": "community_day_service",
    "serviceType": "地域密着型通所介護",
    "capacity": null,
    "openDays": [
      "平日",
      "祝日"
    ],
    "openDaysNote": ""
  },
  {
    "id": "770800365",
    "name": "特定非営利活動法人　民営通所介護ひなたぼっこ",
    "kana": "トクテイヒエイリカツドウホウジンミンエイツウショカイゴ",
    "address": "福島県喜多方市塩川町新江木字谷地田４",
    "lat": 37.6098807,
    "lng": 139.8917418,
    "tel": "0241-27-8348",
    "url": "",
    "pref": "福島県",
    "city": "喜多方市",
    "category": "community_day_service",
    "serviceType": "地域密着型通所介護",
    "capacity": 0,
    "openDays": [
      "平日",
      "祝日"
    ],
    "openDaysNote": ""
  },
  {
    "id": "792200024",
    "name": "せいふうケア　リハビリ・ホームかがみいし",
    "kana": "セイフウケア　リハビリ・ホームカガミイシ",
    "address": "福島県岩瀬郡鏡石町本町181",
    "lat": 37.254834,
    "lng": 140.3467176,
    "tel": "0248-94-5659",
    "url": "http:www.sh-care.com",
    "pref": "福島県",
    "city": "鏡石町",
    "category": "community_day_service",
    "serviceType": "地域密着型通所介護",
    "capacity": null,
    "openDays": [
      "平日",
      "祝日"
    ],
    "openDaysNote": ""
  },
  {
    "id": "792200032",
    "name": "デイサービスくおん",
    "kana": "デイサービスクオン",
    "address": "福島県岩瀬郡鏡石町本町1－1",
    "lat": 37.2609734,
    "lng": 140.3518281,
    "tel": "0248-94-2690",
    "url": "http://hp.kaipoke.biz/68f/",
    "pref": "福島県",
    "city": "鏡石町",
    "category": "community_day_service",
    "serviceType": "地域密着型通所介護",
    "capacity": null,
    "openDays": [
      "平日",
      "土曜日",
      "日曜日",
      "祝日"
    ],
    "openDaysNote": ""
  },
  {
    "id": "772700357",
    "name": "よこたデイサービスセンター",
    "kana": "ヨコタデイサービスセンター",
    "address": "福島県大沼郡金山町大字横田字古町685-1番地",
    "lat": 37.3953201,
    "lng": 139.4455767,
    "tel": "0241-58-5575",
    "url": "https://www.kaneyama-f.or.jp/pages/32/",
    "pref": "福島県",
    "city": "金山町",
    "category": "community_day_service",
    "serviceType": "地域密着型通所介護",
    "capacity": 0,
    "openDays": [
      "平日",
      "祝日"
    ],
    "openDaysNote": ""
  },
  {
    "id": "792000069",
    "name": "そらいろデイ",
    "kana": "ソライロデイ",
    "address": "福島県伊達郡桑折町大字伊達崎字吉沼19番地",
    "lat": 37.8488931,
    "lng": 140.5421718,
    "tel": "024-582-3558",
    "url": "https://sorairo-omoche.life",
    "pref": "福島県",
    "city": "桑折町",
    "category": "community_day_service",
    "serviceType": "地域密着型通所介護",
    "capacity": 0,
    "openDays": [
      "平日",
      "土曜日",
      "祝日"
    ],
    "openDaysNote": ""
  },
  {
    "id": "772000766",
    "name": "大かや園デイサービスセンター",
    "kana": "オオカヤエンデイサービスセンター",
    "address": "福島県桑折町大字万正寺字大榧１６番地の1",
    "lat": 37.8519726,
    "lng": 140.5109357,
    "tel": "024-582-1250",
    "url": "https://www.koori-shakyo.or.jp",
    "pref": "福島県",
    "city": "桑折町",
    "category": "community_day_service",
    "serviceType": "地域密着型通所介護",
    "capacity": 0,
    "openDays": [
      "平日",
      "土曜日",
      "祝日"
    ],
    "openDaysNote": "なし"
  },
  {
    "id": "790300859",
    "name": "いちかわデイサービスセンター",
    "kana": "イチカワデイサービスセンター",
    "address": "福島県郡山市小原田2丁目5番2",
    "lat": 37.382501,
    "lng": 140.383957,
    "tel": "024-953-3522",
    "url": "care-itikawa.com/company/",
    "pref": "福島県",
    "city": "郡山市",
    "category": "community_day_service",
    "serviceType": "地域密着型通所介護",
    "capacity": null,
    "openDays": [
      "平日",
      "土曜日",
      "祝日"
    ],
    "openDaysNote": ""
  },
  {
    "id": "770303840",
    "name": "うねめの里デイサービスえみふる",
    "kana": "ウネメノサトデイサービスエミフル",
    "address": "福島県郡山市片平町字妙見舘１番地２",
    "lat": 37.4347796309661,
    "lng": 140.317176088291,
    "tel": "024-962-7820",
    "url": "http://www.koriyama-fukushikai.jp",
    "pref": "福島県",
    "city": "郡山市",
    "category": "community_day_service",
    "serviceType": "地域密着型通所介護",
    "capacity": 18,
    "openDays": [
      "平日",
      "土曜日",
      "祝日"
    ],
    "openDaysNote": ""
  },
  {
    "id": "770302495",
    "name": "ケアセンターきらきら",
    "kana": "ケアセンターキラキラ",
    "address": "福島県郡山市安積町日出山三丁目２６７番地",
    "lat": 37.3665801,
    "lng": 140.3778665,
    "tel": "024-944-0250",
    "url": "",
    "pref": "福島県",
    "city": "郡山市",
    "category": "community_day_service",
    "serviceType": "地域密着型通所介護",
    "capacity": 18,
    "openDays": [
      "平日",
      "祝日"
    ],
    "openDaysNote": ""
  },
  {
    "id": "790301246",
    "name": "コンパスウォークお花畑",
    "kana": "コンパスウォークオハナバタケ",
    "address": "福島県郡山市熱海町熱海１丁目２００",
    "lat": 37.4831309,
    "lng": 140.2727493,
    "tel": "070-3276-6102",
    "url": "https://ohana-batake.net/",
    "pref": "福島県",
    "city": "郡山市",
    "category": "community_day_service",
    "serviceType": "地域密着型通所介護",
    "capacity": 10,
    "openDays": [
      "平日",
      "祝日"
    ],
    "openDaysNote": ""
  },
  {
    "id": "770304848",
    "name": "すまいるケア",
    "kana": "スマイルケア",
    "address": "福島県郡山市中野2丁目161",
    "lat": 37.3892171,
    "lng": 140.3297291,
    "tel": "024-953-3158",
    "url": "",
    "pref": "福島県",
    "city": "郡山市",
    "category": "community_day_service",
    "serviceType": "地域密着型通所介護",
    "capacity": 0,
    "openDays": [
      "平日",
      "土曜日",
      "祝日"
    ],
    "openDaysNote": ""
  },
  {
    "id": "790300669",
    "name": "すまいるケア安積",
    "kana": "スマイルケアアサカ",
    "address": "郡山市安積町南長久保1丁目１４－２",
    "lat": 37.3551548,
    "lng": 140.3543327,
    "tel": "024-973-7546",
    "url": "",
    "pref": "福島県",
    "city": "郡山市",
    "category": "community_day_service",
    "serviceType": "地域密着型通所介護",
    "capacity": 10,
    "openDays": [
      "平日",
      "土曜日",
      "日曜日",
      "祝日"
    ],
    "openDaysNote": ""
  },
  {
    "id": "790301030",
    "name": "すまいるケア大成",
    "kana": "スマイルケアタイセイ",
    "address": "郡山市静町19-24",
    "lat": 37.3917275,
    "lng": 140.3371275,
    "tel": "024-983-7824",
    "url": "https://www.gurutto-koriyama.com/detail/516/photo.html?preview",
    "pref": "福島県",
    "city": "郡山市",
    "category": "community_day_service",
    "serviceType": "地域密着型通所介護",
    "capacity": null,
    "openDays": [
      "平日",
      "土曜日",
      "日曜日",
      "祝日"
    ],
    "openDaysNote": ""
  },
  {
    "id": "790300958",
    "name": "だいせんデイサービス緑ヶ丘",
    "kana": "ダイセンデイサービスミドリガオカ",
    "address": "福島県郡山市緑ヶ丘東4丁目29番14",
    "lat": 37.3804802,
    "lng": 140.4365316,
    "tel": "024-953-4155",
    "url": "https://www.daisenkk.jp",
    "pref": "福島県",
    "city": "郡山市",
    "category": "community_day_service",
    "serviceType": "地域密着型通所介護",
    "capacity": null,
    "openDays": [
      "平日",
      "土曜日",
      "日曜日",
      "祝日"
    ],
    "openDaysNote": ""
  },
  {
    "id": "770303196",
    "name": "デイサービス　かりん",
    "kana": "デイサービス　カリン",
    "address": "福島県郡山市大槻町字花輪３－２",
    "lat": 37.3843191,
    "lng": 140.3364172,
    "tel": "024-951-3286",
    "url": "",
    "pref": "福島県",
    "city": "郡山市",
    "category": "community_day_service",
    "serviceType": "地域密着型通所介護",
    "capacity": 15,
    "openDays": [
      "平日",
      "土曜日",
      "祝日"
    ],
    "openDaysNote": "お盆休暇（８月１４日～１６日）と年末年始休暇（１２月３０日～１月４日）がございます。ただしこれらの期間前後に定休日が重なり、休日が長引くような場合などには、これらの期間内に営業することもあります。"
  },
  {
    "id": "770301836",
    "name": "デイサービス　ぶなの森",
    "kana": "デイサービス　ブナノモリ",
    "address": "福島県郡山市富久山町久保田字久保田１１２",
    "lat": 37.4076485,
    "lng": 140.3903919,
    "tel": "024-934-7008",
    "url": "https://www.jyoshinkai.net",
    "pref": "福島県",
    "city": "郡山市",
    "category": "community_day_service",
    "serviceType": "地域密着型通所介護",
    "capacity": 0,
    "openDays": [
      "平日",
      "土曜日",
      "祝日"
    ],
    "openDaysNote": "特にありません。"
  },
  {
    "id": "790301154",
    "name": "デイサービスあおぞら",
    "kana": "デイサービス　アオゾラ",
    "address": "福島県郡山市咲田一丁目　17-4",
    "lat": 37.4058066,
    "lng": 140.3751226,
    "tel": "024-953-5881",
    "url": "",
    "pref": "福島県",
    "city": "郡山市",
    "category": "community_day_service",
    "serviceType": "地域密着型通所介護",
    "capacity": null,
    "openDays": [
      "平日",
      "土曜日",
      "日曜日",
      "祝日"
    ],
    "openDaysNote": ""
  },
  {
    "id": "790300826",
    "name": "デイサービスセンター　カーサ・ミッレ",
    "kana": "デイサービスセンター　カーサ・ミッレ",
    "address": "福島県郡山市安積町笹川字西宿77",
    "lat": 37.3496265577421,
    "lng": 140.363640830689,
    "tel": "024-946-8117",
    "url": "http://asaka.or.jp/mille/",
    "pref": "福島県",
    "city": "郡山市",
    "category": "community_day_service",
    "serviceType": "地域密着型通所介護",
    "capacity": 5,
    "openDays": [
      "平日",
      "土曜日",
      "祝日"
    ],
    "openDaysNote": ""
  },
  {
    "id": "770304525",
    "name": "デイサービスセンター「Carelinks開成Take1」",
    "kana": "デイサービスセンターケアリンクスカイセイテイクワン",
    "address": "福島県郡山市開成2丁目39-14クリヤマビル1F（102・103） クリヤマビル1F（102・103）",
    "lat": 37.3939324,
    "lng": 140.3551205,
    "tel": "024-954-4880",
    "url": "",
    "pref": "福島県",
    "city": "郡山市",
    "category": "community_day_service",
    "serviceType": "地域密着型通所介護",
    "capacity": 10,
    "openDays": [
      "平日",
      "祝日"
    ],
    "openDaysNote": "平日の祝祭日は営業。"
  },
  {
    "id": "770305019",
    "name": "デイサービスセンター「Carelinks荒井Take2」",
    "kana": "デイサービスセンターケアリンクスアライテイクツー",
    "address": "福島県郡山市安積町荒井字大久保14-123",
    "lat": 37.3765397,
    "lng": 140.3431418,
    "tel": "024-954-5225",
    "url": "",
    "pref": "福島県",
    "city": "郡山市",
    "category": "community_day_service",
    "serviceType": "地域密着型通所介護",
    "capacity": 10,
    "openDays": [
      "平日",
      "祝日"
    ],
    "openDaysNote": ""
  },
  {
    "id": "790301139",
    "name": "デイサービスセンターいろは",
    "kana": "デイサービスセンターイロハ",
    "address": "福島県郡山市喜久田町堀之内字南椚内19-16",
    "lat": 37.4503497,
    "lng": 140.3419945,
    "tel": "024-954-4132",
    "url": "s-mamoru.com",
    "pref": "福島県",
    "city": "郡山市",
    "category": "community_day_service",
    "serviceType": "地域密着型通所介護",
    "capacity": 10,
    "openDays": [
      "平日"
    ],
    "openDaysNote": "祝日は営業日となっております。"
  },
  {
    "id": "770304517",
    "name": "デイサービスセンターはなうた",
    "kana": "デイサービスセンターハナウタ",
    "address": "福島県郡山市安積町日出山二丁目167番地",
    "lat": 37.3714068617471,
    "lng": 140.383549233066,
    "tel": "024-953-8902",
    "url": "",
    "pref": "福島県",
    "city": "郡山市",
    "category": "community_day_service",
    "serviceType": "地域密着型通所介護",
    "capacity": 14,
    "openDays": [
      "平日",
      "土曜日"
    ],
    "openDaysNote": ""
  },
  {
    "id": "770304459",
    "name": "デイサービスセンターポエム",
    "kana": "デイサービスセンターポエム",
    "address": "福島県郡山市巳六段173",
    "lat": 37.3730182,
    "lng": 140.3531824,
    "tel": "024-953-6517",
    "url": "https://www.hana-hiro.com/",
    "pref": "福島県",
    "city": "郡山市",
    "category": "community_day_service",
    "serviceType": "地域密着型通所介護",
    "capacity": 10,
    "openDays": [
      "平日",
      "土曜日",
      "祝日"
    ],
    "openDaysNote": "12月31日～1月3日までは休み"
  },
  {
    "id": "770305233",
    "name": "デイサービスセンターポエム郡山賀庄",
    "kana": "デイサービスセンターポエムコオリヤマガショウ",
    "address": "郡山市字賀庄153-5",
    "lat": 37.3702109,
    "lng": 140.3678531,
    "tel": "024-973-8701",
    "url": "https://www.hana-hiro.com/",
    "pref": "福島県",
    "city": "郡山市",
    "category": "community_day_service",
    "serviceType": "地域密着型通所介護",
    "capacity": 0,
    "openDays": [
      "平日",
      "土曜日",
      "祝日"
    ],
    "openDaysNote": ""
  },
  {
    "id": "770302164",
    "name": "デイサービスセンターみほた",
    "kana": "デイサービスセンターミホタ",
    "address": "福島県郡山市三穂田町鍋山字前原250番地の2",
    "lat": 37.3384887,
    "lng": 140.281364,
    "tel": "024-964-0123",
    "url": "https://tarukawa-f.jp",
    "pref": "福島県",
    "city": "郡山市",
    "category": "community_day_service",
    "serviceType": "地域密着型通所介護",
    "capacity": 18,
    "openDays": [
      "平日",
      "土曜日"
    ],
    "openDaysNote": ""
  },
  {
    "id": "790301048",
    "name": "デイサービスセンター夏の香",
    "kana": "デイサービスセンターナツノコウ",
    "address": "福島県郡山市喜久田町字松ヶ作１７番地５４",
    "lat": 37.4389242,
    "lng": 140.3380436,
    "tel": "024-983-0755",
    "url": "",
    "pref": "福島県",
    "city": "郡山市",
    "category": "community_day_service",
    "serviceType": "地域密着型通所介護",
    "capacity": 10,
    "openDays": [
      "平日",
      "土曜日",
      "祝日"
    ],
    "openDaysNote": ""
  },
  {
    "id": "770305126",
    "name": "デイサービスセンター春の音",
    "kana": "デイサービスセンターハルノオト",
    "address": "福島県郡山市希望ヶ丘14-3市営希望ヶ丘住宅1-5棟店舗 市営希望ヶ丘住宅1-5棟店舗",
    "lat": 37.4096025,
    "lng": 140.3399186,
    "tel": "024-983-0193",
    "url": "",
    "pref": "福島県",
    "city": "郡山市",
    "category": "community_day_service",
    "serviceType": "地域密着型通所介護",
    "capacity": 10,
    "openDays": [
      "平日",
      "土曜日",
      "祝日"
    ],
    "openDaysNote": "8/13～8/15、12/31～1/3は定休日となります。"
  },
  {
    "id": "790301055",
    "name": "デイサービスセンター桃の花",
    "kana": "デイサービスセンターモモノハナ",
    "address": "福島県郡山市愛宕町7-11",
    "lat": 37.3869876,
    "lng": 140.3743615,
    "tel": "024-953-7565",
    "url": "",
    "pref": "福島県",
    "city": "郡山市",
    "category": "community_day_service",
    "serviceType": "地域密着型通所介護",
    "capacity": 0,
    "openDays": [
      "平日",
      "土曜日",
      "祝日"
    ],
    "openDaysNote": ""
  },
  {
    "id": "790300990",
    "name": "デイサービスはなみずき大槻",
    "kana": "ハナミズキオオツキ",
    "address": "福島県郡山市大槻町水門東2-1ケアセンターはなみずき大槻 ケアセンターはなみずき大槻",
    "lat": 37.38219,
    "lng": 140.3397514,
    "tel": "024-954-3935",
    "url": "https://hanamizu-ki.com",
    "pref": "福島県",
    "city": "郡山市",
    "category": "community_day_service",
    "serviceType": "地域密着型通所介護",
    "capacity": 115,
    "openDays": [
      "平日",
      "土曜日",
      "日曜日",
      "祝日"
    ],
    "openDaysNote": ""
  },
  {
    "id": "770303709",
    "name": "デイサービスほたるの里",
    "kana": "デイサービスホタルノサト",
    "address": "福島県郡山市鳴神3丁目187ＢＥＥハウス77-1Ｆ ＢＥＥハウス77-1Ｆ",
    "lat": 37.3924987,
    "lng": 140.3355947,
    "tel": "024-973-6787",
    "url": "http://www.day-hotarunosato.co.jp/",
    "pref": "福島県",
    "city": "郡山市",
    "category": "community_day_service",
    "serviceType": "地域密着型通所介護",
    "capacity": 7,
    "openDays": [
      "平日",
      "土曜日",
      "祝日"
    ],
    "openDaysNote": ""
  },
  {
    "id": "790301089",
    "name": "デイサービスマイファミリー",
    "kana": "デイサービスマイファミリー",
    "address": "福島県郡山市堂前町11-8高橋ビル102 高橋ビル102",
    "lat": 37.3942047239124,
    "lng": 140.381259506746,
    "tel": "024-905-1891",
    "url": "",
    "pref": "福島県",
    "city": "郡山市",
    "category": "community_day_service",
    "serviceType": "地域密着型通所介護",
    "capacity": 10,
    "openDays": [
      "平日",
      "祝日"
    ],
    "openDaysNote": ""
  },
  {
    "id": "770305027",
    "name": "デイサービス五色",
    "kana": "デイサービスゴシキ",
    "address": "福島県郡山市富田町日吉ヶ丘180",
    "lat": 37.4257625,
    "lng": 140.3511532,
    "tel": "024-973-8873",
    "url": "",
    "pref": "福島県",
    "city": "郡山市",
    "category": "community_day_service",
    "serviceType": "地域密着型通所介護",
    "capacity": 0,
    "openDays": [
      "平日",
      "土曜日",
      "日曜日",
      "祝日"
    ],
    "openDaysNote": ""
  },
  {
    "id": "790301105",
    "name": "デイサービス図景",
    "kana": "デイサービスズケイ",
    "address": "福島県郡山市図景１丁目2番地27",
    "lat": 37.3857384,
    "lng": 140.3787954,
    "tel": "024-983-7606",
    "url": "",
    "pref": "福島県",
    "city": "郡山市",
    "category": "community_day_service",
    "serviceType": "地域密着型通所介護",
    "capacity": 0,
    "openDays": [
      "平日"
    ],
    "openDaysNote": ""
  },
  {
    "id": "770304392",
    "name": "デイセンター悠",
    "kana": "デイセンターハルカ",
    "address": "福島県郡山市堤2丁目132番地",
    "lat": 37.3977473319075,
    "lng": 140.337215823279,
    "tel": "024-954-6970",
    "url": "",
    "pref": "福島県",
    "city": "郡山市",
    "category": "community_day_service",
    "serviceType": "地域密着型通所介護",
    "capacity": 18,
    "openDays": [
      "平日",
      "祝日"
    ],
    "openDaysNote": ""
  },
  {
    "id": "790301212",
    "name": "デイセンター悠",
    "kana": "デイセンターハルカ",
    "address": "堤二丁目132番地",
    "lat": 37.3977199,
    "lng": 140.3374792,
    "tel": "024-954-6970",
    "url": "",
    "pref": "福島県",
    "city": "郡山市",
    "category": "community_day_service",
    "serviceType": "地域密着型通所介護",
    "capacity": 18,
    "openDays": [
      "平日",
      "祝日"
    ],
    "openDaysNote": ""
  },
  {
    "id": "770304806",
    "name": "なべちゃんデイサービス",
    "kana": "ナベチャンデイサービス",
    "address": "福島県郡山市安積町荒井字柴宮山43-6",
    "lat": 37.3762785,
    "lng": 140.3380257,
    "tel": "024-954-6090",
    "url": "http://nabe-chan.jimdo.com/",
    "pref": "福島県",
    "city": "郡山市",
    "category": "community_day_service",
    "serviceType": "地域密着型通所介護",
    "capacity": 10,
    "openDays": [
      "平日",
      "祝日"
    ],
    "openDaysNote": ""
  },
  {
    "id": "770304509",
    "name": "ひでのやま機能訓練リハビリデイサービス",
    "kana": "ヒデノヤマキノウクンレンリハビリデイサービス",
    "address": "福島県郡山市安積町日出山字神明下41-1ジュネスビクトリア100号 ジュネスビクトリア100号",
    "lat": 37.3659535,
    "lng": 140.38661,
    "tel": "024-953-8775",
    "url": "",
    "pref": "福島県",
    "city": "郡山市",
    "category": "community_day_service",
    "serviceType": "地域密着型通所介護",
    "capacity": 83,
    "openDays": [
      "平日",
      "土曜日"
    ],
    "openDaysNote": ""
  },
  {
    "id": "770304236",
    "name": "ホームデイサービス大槻",
    "kana": "ホームデイサービスオオツキ",
    "address": "郡山市大槻町字北中野30-2",
    "lat": 37.3928492538364,
    "lng": 140.329235412861,
    "tel": "024-953-5591",
    "url": "http://day-ootuki.foractivelife.com/",
    "pref": "福島県",
    "city": "郡山市",
    "category": "community_day_service",
    "serviceType": "地域密着型通所介護",
    "capacity": 0,
    "openDays": [
      "平日",
      "土曜日",
      "祝日"
    ],
    "openDaysNote": "夏期休業（8月14日～16日）、年末年始休業（12月29日～1月3日）あり。"
  },
  {
    "id": "790300800",
    "name": "ポラリスデイサービスセンター富田",
    "kana": "ポラリスデイサービスセンタートミタ",
    "address": "福島県郡山市新屋敷2-54-2",
    "lat": 37.4182655,
    "lng": 140.3533649,
    "tel": "024-953-7920",
    "url": "https://www.polaris.care/",
    "pref": "福島県",
    "city": "郡山市",
    "category": "community_day_service",
    "serviceType": "地域密着型通所介護",
    "capacity": 18,
    "openDays": [
      "平日",
      "土曜日",
      "祝日"
    ],
    "openDaysNote": ""
  },
  {
    "id": "790300909",
    "name": "リハ＆スパ郡山デイサービス",
    "kana": "リハアンドスパコオリヤマデイサービス",
    "address": "福島県郡山市小原田5丁目21-18",
    "lat": 37.3764279,
    "lng": 140.3820497,
    "tel": "024-953-5911",
    "url": "",
    "pref": "福島県",
    "city": "郡山市",
    "category": "community_day_service",
    "serviceType": "地域密着型通所介護",
    "capacity": 53,
    "openDays": [
      "平日",
      "土曜日"
    ],
    "openDaysNote": ""
  },
  {
    "id": "790300982",
    "name": "リハ＆スパ郡山デイサービス２号館",
    "kana": "リハアンドスパコオリヤマデイサービスニゴウカン",
    "address": "福島県郡山市安積町日出山４丁目１１６番地",
    "lat": 37.3687891,
    "lng": 140.3810335,
    "tel": "024-954-8240",
    "url": "",
    "pref": "福島県",
    "city": "郡山市",
    "category": "community_day_service",
    "serviceType": "地域密着型通所介護",
    "capacity": 0,
    "openDays": [
      "平日",
      "土曜日"
    ],
    "openDaysNote": ""
  },
  {
    "id": "790301196",
    "name": "リハ＆スパ郡山デイサービス3号館",
    "kana": "リハアンドスパコオリヤマデイサービス3ゴウカン",
    "address": "福島県郡山市八山田1丁目2-2ロイヤル八山田1F ロイヤル八山田1F",
    "lat": 37.4241308,
    "lng": 140.373015,
    "tel": "024-983-3620",
    "url": "https://zenyodo-medicalcare.com",
    "pref": "福島県",
    "city": "郡山市",
    "category": "community_day_service",
    "serviceType": "地域密着型通所介護",
    "capacity": null,
    "openDays": [
      "平日",
      "土曜日"
    ],
    "openDaysNote": ""
  },
  {
    "id": "790300834",
    "name": "リハビリ専門デイサービス　ポエム開成",
    "kana": "リハビリセンモンデイサービス　ポエムカイセイ",
    "address": "福島県郡山市台新1丁目31-3ｻﾝﾊﾟﾚｽ國分1-東号室 ｻﾝﾊﾟﾚｽ國分1-東号室",
    "lat": 37.3915240849995,
    "lng": 140.342162645132,
    "tel": "024-983-5951",
    "url": "https://www.fukuhiroba.com/shisetsu/839/",
    "pref": "福島県",
    "city": "郡山市",
    "category": "community_day_service",
    "serviceType": "地域密着型通所介護",
    "capacity": 0,
    "openDays": [
      "平日",
      "土曜日"
    ],
    "openDaysNote": "サービス提供時間は、半日型(2単位)となります。別途、サービス提供所要時間の留意事項を参照下さい。"
  },
  {
    "id": "770305472",
    "name": "レコードブック郡山さくら通り",
    "kana": "レコードブックコオリヤマサクラドオリ",
    "address": "福島県郡山市朝日一丁目22-18朝日YMビル1階 朝日YMビル1階",
    "lat": 37.4013484,
    "lng": 140.3606114,
    "tel": "024-973-8858",
    "url": "http://www.recordbook.jp/facility/kooriyamasakuradoori/",
    "pref": "福島県",
    "city": "郡山市",
    "category": "community_day_service",
    "serviceType": "地域密着型通所介護",
    "capacity": 150,
    "openDays": [
      "平日",
      "祝日"
    ],
    "openDaysNote": "土日はお休みですが、祝祭日は営業しています。"
  },
  {
    "id": "770303428",
    "name": "医療生協ひまわりの家デイサービスセンター",
    "kana": "イリョウセイキョウヒマワリノイエデイサービスセンター",
    "address": "福島県郡山市芳賀三丁目７番２４号",
    "lat": 37.387223,
    "lng": 140.3995557,
    "tel": "024-943-1061",
    "url": "http://www.koriyama-h-coop.or.jp/care/day/himawari.html",
    "pref": "福島県",
    "city": "郡山市",
    "category": "community_day_service",
    "serviceType": "地域密着型通所介護",
    "capacity": 36,
    "openDays": [
      "平日",
      "土曜日"
    ],
    "openDaysNote": ""
  },
  {
    "id": "770304962",
    "name": "花風デイサービスセンター",
    "kana": "ハナカゼデイサービスセンター",
    "address": "福島県郡山市東原1-258",
    "lat": 37.4306508074144,
    "lng": 140.351214636491,
    "tel": "024-953-3858",
    "url": "http://syoufuukai.or.jp/",
    "pref": "福島県",
    "city": "郡山市",
    "category": "community_day_service",
    "serviceType": "地域密着型通所介護",
    "capacity": 10,
    "openDays": [
      "平日",
      "土曜日",
      "祝日"
    ],
    "openDaysNote": ""
  },
  {
    "id": "790301097",
    "name": "介護センターお花畑おおつき",
    "kana": "カイゴセンターオハナバタケオオツキ",
    "address": "福島県郡山市大槻町北中野22-3",
    "lat": 37.3917669,
    "lng": 140.329131,
    "tel": "024-983-3184",
    "url": "",
    "pref": "福島県",
    "city": "郡山市",
    "category": "community_day_service",
    "serviceType": "地域密着型通所介護",
    "capacity": 0,
    "openDays": [
      "平日",
      "祝日"
    ],
    "openDaysNote": "年末年始　　１２月３０日～１月３日休み"
  },
  {
    "id": "770303584",
    "name": "介護センター風想苑",
    "kana": "カイゴセンターフウソウエン",
    "address": "福島県郡山市堤二丁目１３２番地",
    "lat": 37.3977659,
    "lng": 140.3372864,
    "tel": "024-953-6850",
    "url": "",
    "pref": "福島県",
    "city": "郡山市",
    "category": "community_day_service",
    "serviceType": "地域密着型通所介護",
    "capacity": 10,
    "openDays": [
      "平日",
      "土曜日",
      "祝日"
    ],
    "openDaysNote": ""
  },
  {
    "id": "770303881",
    "name": "今泉デイサービス",
    "kana": "イマイズミデイサービス",
    "address": "福島県郡山市静西1丁目288サービス付き高齢者向け住宅遊間亭 サービス付き高齢者向け住宅遊間亭",
    "lat": 37.3877269,
    "lng": 140.3299205,
    "tel": "024-973-7200",
    "url": "https://imaizumikaigo.jp/",
    "pref": "福島県",
    "city": "郡山市",
    "category": "community_day_service",
    "serviceType": "地域密着型通所介護",
    "capacity": 0,
    "openDays": [
      "平日",
      "土曜日",
      "祝日"
    ],
    "openDaysNote": ""
  },
  {
    "id": "770304475",
    "name": "樹楽団らんの家　郡山大槻",
    "kana": "キラクダンランノイエ　コオリヤマオオツキ",
    "address": "福島県郡山市大槻町字針生前田117-3",
    "lat": 37.3837812,
    "lng": 140.3497838,
    "tel": "024-953-4985",
    "url": "",
    "pref": "福島県",
    "city": "郡山市",
    "category": "community_day_service",
    "serviceType": "地域密着型通所介護",
    "capacity": null,
    "openDays": [
      "平日"
    ],
    "openDaysNote": ""
  },
  {
    "id": "790300917",
    "name": "樹楽団らんの家郡山結",
    "kana": "キラクダンランノイエコオリヤマムスビ",
    "address": "福島県郡山市亀田1丁目24番10号",
    "lat": 37.4014125582698,
    "lng": 140.346552747885,
    "tel": "024-954-3157",
    "url": "",
    "pref": "福島県",
    "city": "郡山市",
    "category": "community_day_service",
    "serviceType": "地域密着型通所介護",
    "capacity": 0,
    "openDays": [
      "平日",
      "土曜日",
      "日曜日",
      "祝日"
    ],
    "openDaysNote": ""
  },
  {
    "id": "770304889",
    "name": "樹楽団らんの家郡山歩",
    "kana": "キラクダンランノイエコオリヤマアユミ",
    "address": "福島県郡山市亀田一丁目24番19号",
    "lat": 37.4014293,
    "lng": 140.3466818,
    "tel": "024-954-8957",
    "url": "",
    "pref": "福島県",
    "city": "郡山市",
    "category": "community_day_service",
    "serviceType": "地域密着型通所介護",
    "capacity": 0,
    "openDays": [
      "平日",
      "土曜日",
      "日曜日",
      "祝日"
    ],
    "openDaysNote": ""
  },
  {
    "id": "770303980",
    "name": "樹楽団らんの家郡山萌",
    "kana": "キラクダンランノイエコオリヤマキザシ",
    "address": "福島県郡山市亀田1丁目15番1号",
    "lat": 37.4025058,
    "lng": 140.3481845,
    "tel": "024-983-1357",
    "url": "",
    "pref": "福島県",
    "city": "郡山市",
    "category": "community_day_service",
    "serviceType": "地域密着型通所介護",
    "capacity": 0,
    "openDays": [
      "平日",
      "土曜日",
      "日曜日",
      "祝日"
    ],
    "openDaysNote": ""
  },
  {
    "id": "770301315",
    "name": "太田小磯デイサービスセンター",
    "kana": "オオタオイソデイサービスセンター",
    "address": "福島県郡山市湖南町舟津字小磯5112番地1",
    "lat": 37.4126407,
    "lng": 140.1163425,
    "tel": "024-992-0290",
    "url": "http://www.ohta-fukushi.or.jp",
    "pref": "福島県",
    "city": "郡山市",
    "category": "community_day_service",
    "serviceType": "地域密着型通所介護",
    "capacity": 18,
    "openDays": [
      "平日",
      "祝日"
    ],
    "openDaysNote": "営業日：月曜～金曜（国民の祝日・休日を含む）"
  },
  {
    "id": "790300891",
    "name": "通所介護　うさぎ庵東亭",
    "kana": "ツウショカイゴ　ウサギアンヒガシテイ",
    "address": "福島県郡山市鶴見坦１丁目２－２０",
    "lat": 37.3940591,
    "lng": 140.367359,
    "tel": "024-953-7651",
    "url": "",
    "pref": "福島県",
    "city": "郡山市",
    "category": "community_day_service",
    "serviceType": "地域密着型通所介護",
    "capacity": null,
    "openDays": [
      "平日",
      "土曜日",
      "祝日"
    ],
    "openDaysNote": ""
  },
  {
    "id": "790300768",
    "name": "通所介護　うさぎ庵南亭",
    "kana": "ツウショカイゴ　ウサギアンミナミテイ",
    "address": "福島県郡山市台新2丁目14-7",
    "lat": 37.3880247966591,
    "lng": 140.34592524201,
    "tel": "024-954-8302",
    "url": "",
    "pref": "福島県",
    "city": "郡山市",
    "category": "community_day_service",
    "serviceType": "地域密着型通所介護",
    "capacity": 0,
    "openDays": [
      "平日",
      "土曜日",
      "祝日"
    ],
    "openDaysNote": ""
  },
  {
    "id": "770303485",
    "name": "通所介護うさぎ庵",
    "kana": "ツウショカイゴウサギアン",
    "address": "郡山市台新2丁目1番6号",
    "lat": 37.3917087484213,
    "lng": 140.347543769533,
    "tel": "024-934-6888",
    "url": "",
    "pref": "福島県",
    "city": "郡山市",
    "category": "community_day_service",
    "serviceType": "地域密着型通所介護",
    "capacity": 0,
    "openDays": [
      "平日",
      "土曜日",
      "祝日"
    ],
    "openDaysNote": "運営規定で日曜営業としているが、実質年１～２日の稼働"
  },
  {
    "id": "790301162",
    "name": "半日型デイサービスいろどり若葉店",
    "kana": "ハンニチガタデイサービスイロドリワカバテン",
    "address": "福島県郡山市若葉町15-5　若葉ビル1F",
    "lat": 37.4054275,
    "lng": 140.3815378,
    "tel": "024-973-8616",
    "url": "https://www.irodori-ds.jp",
    "pref": "福島県",
    "city": "郡山市",
    "category": "community_day_service",
    "serviceType": "地域密着型通所介護",
    "capacity": 0,
    "openDays": [
      "平日",
      "土曜日",
      "日曜日",
      "祝日"
    ],
    "openDaysNote": "年末年始　12/31～1/2は休業日になります。"
  },
  {
    "id": "790301121",
    "name": "福寿リハビリ介護ステーション",
    "kana": "フクジュリハビリカイゴステーション",
    "address": "郡山市並木3丁目３番地２６",
    "lat": 37.409458,
    "lng": 140.3592785,
    "tel": "024-954-7884",
    "url": "f-iryo.net",
    "pref": "福島県",
    "city": "郡山市",
    "category": "community_day_service",
    "serviceType": "地域密着型通所介護",
    "capacity": 180,
    "openDays": [
      "平日"
    ],
    "openDaysNote": ""
  },
  {
    "id": "770304418",
    "name": "福島県郡山三穂田温泉デイサービスセンター",
    "kana": "コオリヤマミホタオンセンデイサービス",
    "address": "福島県郡山市三穂田町富岡字本郷62-1",
    "lat": 37.3509038,
    "lng": 140.2746667,
    "tel": "024-973-7190",
    "url": "amuritaweb.jp",
    "pref": "福島県",
    "city": "郡山市",
    "category": "community_day_service",
    "serviceType": "地域密着型通所介護",
    "capacity": 10,
    "openDays": [
      "平日",
      "土曜日",
      "祝日"
    ],
    "openDaysNote": "8/13～8/15および12/29～1/3は休日"
  },
  {
    "id": "770304699",
    "name": "明徳館リハビリデイセンター",
    "kana": "メイトクカンリハビリデイセンター",
    "address": "福島県郡山市鶴見担1丁目12-4",
    "lat": 37.3943567,
    "lng": 140.3628015,
    "tel": "024-973-6760",
    "url": "",
    "pref": "福島県",
    "city": "郡山市",
    "category": "community_day_service",
    "serviceType": "地域密着型通所介護",
    "capacity": 0,
    "openDays": [
      "平日",
      "土曜日"
    ],
    "openDaysNote": "平日は午前、午後の二単位で行っています。お盆、年末年始はおおよその期日になる事がある。"
  },
  {
    "id": "770305316",
    "name": "明徳館リハビリデイセンターおおつき",
    "kana": "メイトクカンリハビリデイセンターオオツキ",
    "address": "福島県郡山市大槻町字原ノ町1-2",
    "lat": 37.3933731,
    "lng": 140.3196268,
    "tel": "024-953-6555",
    "url": "",
    "pref": "福島県",
    "city": "郡山市",
    "category": "community_day_service",
    "serviceType": "地域密着型通所介護",
    "capacity": 0,
    "openDays": [
      "平日",
      "土曜日"
    ],
    "openDaysNote": ""
  },
  {
    "id": "790300974",
    "name": "有限会社クリアランスすずのねデイサービス",
    "kana": "ユウゲンガイシャクリアランススズノネデイサービス",
    "address": "福島県郡山市安積町笹川字経蔵43",
    "lat": 37.3460153232038,
    "lng": 140.3701421,
    "tel": "024-983-7292",
    "url": "",
    "pref": "福島県",
    "city": "郡山市",
    "category": "community_day_service",
    "serviceType": "地域密着型通所介護",
    "capacity": 10,
    "openDays": [
      "平日",
      "土曜日",
      "祝日"
    ],
    "openDaysNote": ""
  },
  {
    "id": "792000051",
    "name": "国見町デイサービスセンター",
    "kana": "クニミマチデイサービスセンター",
    "address": "福島県伊達郡国見町大字山崎字舘東12番地１",
    "lat": 37.8799124483544,
    "lng": 140.541366671164,
    "tel": "024-585-2524",
    "url": "",
    "pref": "福島県",
    "city": "国見町",
    "category": "community_day_service",
    "serviceType": "地域密着型通所介護",
    "capacity": 0,
    "openDays": [
      "平日",
      "土曜日",
      "祝日"
    ],
    "openDaysNote": "特になし"
  },
  {
    "id": "773100656",
    "name": "小規模通所介護事業所　もうぎ",
    "kana": "ショウキボツウショカイゴジギョウショ　モウギ",
    "address": "福島県田村郡三春町大字下舞木字上ノ内９９番地の７",
    "lat": 37.4209516,
    "lng": 140.4352793,
    "tel": "024-956-5071",
    "url": "",
    "pref": "福島県",
    "city": "三春町",
    "category": "community_day_service",
    "serviceType": "地域密着型通所介護",
    "capacity": 0,
    "openDays": [
      "平日",
      "土曜日"
    ],
    "openDaysNote": ""
  },
  {
    "id": "792700015",
    "name": "デイサービス西輝",
    "kana": "デイサービスニシキ",
    "address": "福島県大沼郡三島町大字西方字居平77番地",
    "lat": 37.4928611,
    "lng": 139.6617996,
    "tel": "0241-42-7113",
    "url": "",
    "pref": "福島県",
    "city": "三島町",
    "category": "community_day_service",
    "serviceType": "地域密着型通所介護",
    "capacity": 0,
    "openDays": [
      "平日",
      "土曜日",
      "祝日"
    ],
    "openDaysNote": ""
  },
  {
    "id": "773300264",
    "name": "こもれびの里",
    "kana": "コモレビノサト",
    "address": "福島県相馬郡新地町駒ヶ嶺字大作48-9",
    "lat": 37.854526766007,
    "lng": 140.899460525812,
    "tel": "0244-26-4667",
    "url": "",
    "pref": "福島県",
    "city": "新地町",
    "category": "community_day_service",
    "serviceType": "地域密着型通所介護",
    "capacity": 15,
    "openDays": [
      "平日",
      "祝日"
    ],
    "openDaysNote": "年末　１２月２９日・３０日・３１日（改行）年始　　１月　１日～　３日"
  },
  {
    "id": "773300306",
    "name": "デイサービス自遊楽校",
    "kana": "デイサービスジユウガッコウ",
    "address": "福島県相馬郡新地町谷地小屋字新地51-2",
    "lat": 37.87518,
    "lng": 140.9139553,
    "tel": "0244-26-7984",
    "url": "",
    "pref": "福島県",
    "city": "新地町",
    "category": "community_day_service",
    "serviceType": "地域密着型通所介護",
    "capacity": 5,
    "openDays": [
      "平日",
      "祝日"
    ],
    "openDaysNote": ""
  },
  {
    "id": "770700854",
    "name": "いにしえデイサービス",
    "kana": "イニシエデイサービス",
    "address": "福島県須賀川市下宿町９８番地",
    "lat": 37.307989,
    "lng": 140.3753536,
    "tel": "0248-63-7432",
    "url": "http://www.sia.co.jp/~souken/",
    "pref": "福島県",
    "city": "須賀川市",
    "category": "community_day_service",
    "serviceType": "地域密着型通所介護",
    "capacity": 0,
    "openDays": [
      "平日",
      "祝日"
    ],
    "openDaysNote": "年末年始12月30日から1月3日までと　　お盆8月13日から8月15日まで"
  },
  {
    "id": "770700409",
    "name": "エルピスデイサービスセンター",
    "kana": "エルピスデイサービスセンター",
    "address": "福島県須賀川市和田字沓掛４８番１",
    "lat": 37.2673157,
    "lng": 140.3793998,
    "tel": "0248-76-6660",
    "url": "http://www.tokushinkai.care/",
    "pref": "福島県",
    "city": "須賀川市",
    "category": "community_day_service",
    "serviceType": "地域密着型通所介護",
    "capacity": 0,
    "openDays": [
      "平日",
      "土曜日",
      "日曜日",
      "祝日"
    ],
    "openDaysNote": "その他の休み：年末年始（12月30日～1月3日まで）"
  },
  {
    "id": "770700995",
    "name": "しあわせ本舗",
    "kana": "シアワセ本舗",
    "address": "福島県須賀川市浜尾字前田115番1",
    "lat": 37.2870859,
    "lng": 140.411489,
    "tel": "0248-94-8130",
    "url": "",
    "pref": "福島県",
    "city": "須賀川市",
    "category": "community_day_service",
    "serviceType": "地域密着型通所介護",
    "capacity": 0,
    "openDays": [
      "平日",
      "土曜日",
      "祝日"
    ],
    "openDaysNote": ""
  },
  {
    "id": "790700132",
    "name": "シオンの園",
    "kana": "シオンノソノ",
    "address": "福島県須賀川市下小山田字月夜田206",
    "lat": 37.2789568368923,
    "lng": 140.438263084131,
    "tel": "0248-79-4646",
    "url": "www.fukuinkai.net",
    "pref": "福島県",
    "city": "須賀川市",
    "category": "community_day_service",
    "serviceType": "地域密着型通所介護",
    "capacity": 0,
    "openDays": [
      "平日",
      "土曜日",
      "祝日"
    ],
    "openDaysNote": ""
  },
  {
    "id": "790700140",
    "name": "せいふうケア　リハビリ・ホーム須賀川",
    "kana": "セイフウケア　リハビリ・ホームスカガワ",
    "address": "福島県須賀川市館取町82-2スズキビル105号室 スズキビル105号室",
    "lat": 37.2923579,
    "lng": 140.3663025,
    "tel": "0248-63-7345",
    "url": "http://www.sh-care.com",
    "pref": "福島県",
    "city": "須賀川市",
    "category": "community_day_service",
    "serviceType": "地域密着型通所介護",
    "capacity": 0,
    "openDays": [
      "平日",
      "祝日"
    ],
    "openDaysNote": ""
  },
  {
    "id": "770701092",
    "name": "だんらん",
    "kana": "ダンラン",
    "address": "福島県須賀川市弘法坦２４－１",
    "lat": 37.291874,
    "lng": 140.3694716,
    "tel": "０２４８－９４－４６５０",
    "url": "www.lasiq.co.jp",
    "pref": "福島県",
    "city": "須賀川市",
    "category": "community_day_service",
    "serviceType": "地域密着型通所介護",
    "capacity": 10,
    "openDays": [
      "平日",
      "土曜日"
    ],
    "openDaysNote": "８月１３日～１５日、１２月３１日～１月３日迄の期間は定休"
  },
  {
    "id": "770701068",
    "name": "つくしデイサービス紡",
    "kana": "ツクシデイサービスツムギ",
    "address": "福島県須賀川市小作田字荒町台17",
    "lat": 37.2702570457306,
    "lng": 140.410069166048,
    "tel": "0248-94-2327",
    "url": "http://houshinkai.jp",
    "pref": "福島県",
    "city": "須賀川市",
    "category": "community_day_service",
    "serviceType": "地域密着型通所介護",
    "capacity": 18,
    "openDays": [
      "平日",
      "土曜日",
      "祝日"
    ],
    "openDaysNote": ""
  },
  {
    "id": "770701175",
    "name": "デイサービス　ｸﾛｰﾊﾞｰ",
    "kana": "デイサービス　クローバー",
    "address": "福島県須賀川市坂の上町１－１",
    "lat": 37.2985400000006,
    "lng": 140.362296790105,
    "tel": "0248－94－4383",
    "url": "",
    "pref": "福島県",
    "city": "須賀川市",
    "category": "community_day_service",
    "serviceType": "地域密着型通所介護",
    "capacity": 0,
    "openDays": [
      "平日",
      "祝日"
    ],
    "openDaysNote": ""
  },
  {
    "id": "790700108",
    "name": "やすらぎの里デイサービスセンタ－",
    "kana": "ヤスラギノサトデイサ-ビスセンター",
    "address": "福島県須賀川市長沼字北延命寺3番地6",
    "lat": 37.290703121496,
    "lng": 140.219857421951,
    "tel": "0248-94-2963",
    "url": "",
    "pref": "福島県",
    "city": "須賀川市",
    "category": "community_day_service",
    "serviceType": "地域密着型通所介護",
    "capacity": 18,
    "openDays": [
      "平日",
      "土曜日",
      "祝日"
    ],
    "openDaysNote": "シフト制にて、週1日休みとします。"
  },
  {
    "id": "770700557",
    "name": "やまだデイサービスセンター",
    "kana": "ヤマダデイサービスセンター",
    "address": "福島県須賀川市越久字三斗内７５－４",
    "lat": 37.3085884,
    "lng": 140.338718,
    "tel": "0248-63-1256",
    "url": "",
    "pref": "福島県",
    "city": "須賀川市",
    "category": "community_day_service",
    "serviceType": "地域密着型通所介護",
    "capacity": 0,
    "openDays": [
      "平日",
      "土曜日"
    ],
    "openDaysNote": "なし"
  },
  {
    "id": "790700157",
    "name": "リハ＆スパ須賀川デイサービス",
    "kana": "リハアンドスカガワデイサービス",
    "address": "福島県須賀川市西川町43-2",
    "lat": 37.2959324,
    "lng": 140.3603011,
    "tel": "0248-94-5988",
    "url": "",
    "pref": "福島県",
    "city": "須賀川市",
    "category": "community_day_service",
    "serviceType": "地域密着型通所介護",
    "capacity": null,
    "openDays": [
      "平日",
      "土曜日"
    ],
    "openDaysNote": ""
  },
  {
    "id": "790700082",
    "name": "株式会社　住専ノザキ　介護事業部　デイサービスセンターえがお",
    "kana": "カブシキガイシャジュウセンノザキ　カイゴジギョウブ　デイサービスセンターエガオ",
    "address": "福島県須賀川市前田川字宮の前166-145",
    "lat": 37.2646401085743,
    "lng": 140.388743889935,
    "tel": "0248-94-6330",
    "url": "",
    "pref": "福島県",
    "city": "須賀川市",
    "category": "community_day_service",
    "serviceType": "地域密着型通所介護",
    "capacity": null,
    "openDays": [
      "平日",
      "祝日"
    ],
    "openDaysNote": "但しお盆8/13～16及び年末年始12/30～1/3は休日"
  },
  {
    "id": "770700235",
    "name": "社会福祉法人三愛福祉会　愛寿園デイサービスセンター",
    "kana": "シャカイフクシホウジンサンアイフクシカイ　アイジュエンデイサービスセンター",
    "address": "福島県須賀川市吉美根字土橋121番地",
    "lat": 37.3033114,
    "lng": 140.3436095,
    "tel": "0248-75-3378",
    "url": "https://sanaifukushikai.com",
    "pref": "福島県",
    "city": "須賀川市",
    "category": "community_day_service",
    "serviceType": "地域密着型通所介護",
    "capacity": 0,
    "openDays": [
      "平日",
      "祝日"
    ],
    "openDaysNote": "１月１日～３日、５月３日～５日、８月１３日～１５日、１２月３０日～３１日は休み"
  },
  {
    "id": "770701225",
    "name": "茶話本舗デイサービス須賀川",
    "kana": "サワホンポデイサービススカガワ",
    "address": "福島県須賀川市森宿字鍛治山8-5",
    "lat": 37.305106,
    "lng": 140.3711042,
    "tel": "0248-94-7555",
    "url": "",
    "pref": "福島県",
    "city": "須賀川市",
    "category": "community_day_service",
    "serviceType": "地域密着型通所介護",
    "capacity": 0,
    "openDays": [
      "平日",
      "土曜日",
      "日曜日",
      "祝日"
    ],
    "openDaysNote": ""
  },
  {
    "id": "792800153",
    "name": "湯ったりデイサービス追原の森",
    "kana": "ユッタリデイサービスオイハラノモリ",
    "address": "福島県西白河郡西郷村大字鶴生字由井ヶ原39",
    "lat": 37.176881,
    "lng": 140.066833,
    "tel": "0248-21-6974",
    "url": "",
    "pref": "福島県",
    "city": "西郷村",
    "category": "community_day_service",
    "serviceType": "地域密着型通所介護",
    "capacity": 0,
    "openDays": [
      "平日",
      "土曜日",
      "祝日"
    ],
    "openDaysNote": ""
  },
  {
    "id": "773000526",
    "name": "デイサービスセンターまつたや",
    "kana": "デイサービスセンターマツタヤ",
    "address": "福島県石川郡石川町字長久保92-1",
    "lat": 37.1576192,
    "lng": 140.4479038,
    "tel": "0247-26-1885",
    "url": "www.matsutaya-kaigo.com",
    "pref": "福島県",
    "city": "石川町",
    "category": "community_day_service",
    "serviceType": "地域密着型通所介護",
    "capacity": 0,
    "openDays": [
      "平日",
      "土曜日",
      "祝日"
    ],
    "openDaysNote": ""
  },
  {
    "id": "773000260",
    "name": "石川町老人デイサービスセンター長生園",
    "kana": "イシカワマチロウジンデイサービスセンターチョウセイエン",
    "address": "福島県石川郡石川町字塩ノ平201の1",
    "lat": 37.1637649,
    "lng": 140.4314912,
    "tel": "0247-26-8769",
    "url": "http:：//isikawafukusikai.jp/",
    "pref": "福島県",
    "city": "石川町",
    "category": "community_day_service",
    "serviceType": "地域密着型通所介護",
    "capacity": 0,
    "openDays": [
      "平日",
      "祝日"
    ],
    "openDaysNote": ""
  },
  {
    "id": "772000790",
    "name": "川俣ホームデイサービスセンター",
    "kana": "カワマタホームデイサービスセンター",
    "address": "福島県伊達郡川俣町大字鶴沢字川端2-1",
    "lat": 37.6635529,
    "lng": 140.5958456,
    "tel": "024-565-2881",
    "url": "http://www.shintatsu.jp",
    "pref": "福島県",
    "city": "川俣町",
    "category": "community_day_service",
    "serviceType": "地域密着型通所介護",
    "capacity": null,
    "openDays": [
      "平日",
      "土曜日",
      "祝日"
    ],
    "openDaysNote": ""
  },
  {
    "id": "772800942",
    "name": "デイサービス　ひだまり",
    "kana": "デイサービス　ヒダマリ",
    "address": "福島県西白河郡泉崎村踏瀬字町尻10-1",
    "lat": 37.1846041,
    "lng": 140.2916147,
    "tel": "0248-21-7720",
    "url": "kokorobito.izumizaki@iaa.itkeeper.ne.jp",
    "pref": "福島県",
    "city": "泉崎村",
    "category": "community_day_service",
    "serviceType": "地域密着型通所介護",
    "capacity": 0,
    "openDays": [
      "平日",
      "土曜日",
      "祝日"
    ],
    "openDaysNote": ""
  },
  {
    "id": "773000104",
    "name": "浅川町デイサービスセンター　さぎそう",
    "kana": "アサカワマチデイサービスセンターサギソウ",
    "address": "福島県石川郡浅川町大字浅川字背戸谷地１７７－６",
    "lat": 37.0797502,
    "lng": 140.4053575,
    "tel": "0247-36-1165",
    "url": "",
    "pref": "福島県",
    "city": "浅川町",
    "category": "community_day_service",
    "serviceType": "地域密着型通所介護",
    "capacity": 0,
    "openDays": [
      "平日",
      "土曜日",
      "祝日"
    ],
    "openDaysNote": "特になし。"
  },
  {
    "id": "790900070",
    "name": "デイサービスセンター　あじさい",
    "kana": "デイサービスセンター　アジサイ",
    "address": "福島県相馬市沖の内三丁目7番地の6",
    "lat": 37.8052578267064,
    "lng": 140.93367494523,
    "tel": "0246－26－6420",
    "url": "azisai@wind.ocn.ne.jp",
    "pref": "福島県",
    "city": "相馬市",
    "category": "community_day_service",
    "serviceType": "地域密着型通所介護",
    "capacity": 18,
    "openDays": [
      "平日",
      "祝日"
    ],
    "openDaysNote": ""
  },
  {
    "id": "770900504",
    "name": "デイサービス友遊",
    "kana": "デイサービスユウユウ",
    "address": "福島県相馬市南飯渕字木関無９３",
    "lat": 37.8017441,
    "lng": 140.9455811,
    "tel": "0244‐36‐3582",
    "url": "",
    "pref": "福島県",
    "city": "相馬市",
    "category": "community_day_service",
    "serviceType": "地域密着型通所介護",
    "capacity": null,
    "openDays": [
      "平日"
    ],
    "openDaysNote": ""
  },
  {
    "id": "770900561",
    "name": "デイサービス友遊Ⅱ",
    "kana": "デイサービスユウユウ",
    "address": "福島県相馬市中村字北町１－８",
    "lat": 37.8001513,
    "lng": 140.9130507,
    "tel": "0244-26-5424",
    "url": "",
    "pref": "福島県",
    "city": "相馬市",
    "category": "community_day_service",
    "serviceType": "地域密着型通所介護",
    "capacity": null,
    "openDays": [
      "平日"
    ],
    "openDaysNote": ""
  },
  {
    "id": "790900088",
    "name": "リハプライド相馬",
    "kana": "リハプライドソウマ",
    "address": "福島県相馬市沖ノ内1丁目18-1",
    "lat": 37.8041725,
    "lng": 140.9284769,
    "tel": "0244-32-1706",
    "url": "http://www.rehapride.co.jp/soma/",
    "pref": "福島県",
    "city": "相馬市",
    "category": "community_day_service",
    "serviceType": "地域密着型通所介護",
    "capacity": 0,
    "openDays": [
      "平日",
      "祝日"
    ],
    "openDaysNote": "お盆休業8月13・14・15日（改行）年末年始休業12月30日～1月3日"
  },
  {
    "id": "790900062",
    "name": "自立支援・リハビリ重視型デイサービスさんぽ",
    "kana": "ジリツシエン・リハビリジュウシガタデイサービスサンポ",
    "address": "福島県相馬市中村字砂子田８番地",
    "lat": 37.7982752,
    "lng": 140.9255062,
    "tel": "0244-36-0935",
    "url": "https://daysanpo.hp.gogo.jp/pc/",
    "pref": "福島県",
    "city": "相馬市",
    "category": "community_day_service",
    "serviceType": "地域密着型通所介護",
    "capacity": 0,
    "openDays": [
      "平日",
      "祝日"
    ],
    "openDaysNote": ""
  },
  {
    "id": "772300620",
    "name": "桜の丘みらい",
    "kana": "サクラノオカミライ",
    "address": "福島県南会津郡只見町大字只見字原707番地の1",
    "lat": 37.3446316,
    "lng": 139.3133995,
    "tel": "0241-82-5006",
    "url": "http://cosmo-m-s.co.jp/",
    "pref": "福島県",
    "city": "只見町",
    "category": "community_day_service",
    "serviceType": "地域密着型通所介護",
    "capacity": 0,
    "openDays": [
      "平日",
      "祝日"
    ],
    "openDaysNote": "祝日も営業。"
  },
  {
    "id": "772300232",
    "name": "只見デイサービスセンター　あさひケ丘",
    "kana": "タダミデイサービスセンター　アサヒガオカ",
    "address": "福島県南会津郡只見町大字長浜字久保田３１番地",
    "lat": 37.304731856695,
    "lng": 139.37491058214,
    "tel": "0241-84-7005",
    "url": "http://minamiaidukai.or.jp/publics/index/91/",
    "pref": "福島県",
    "city": "只見町",
    "category": "community_day_service",
    "serviceType": "地域密着型通所介護",
    "capacity": 18,
    "openDays": [
      "平日",
      "祝日"
    ],
    "openDaysNote": ""
  },
  {
    "id": "792900045",
    "name": "デイサービス　サティ",
    "kana": "デイサービス　サティ",
    "address": "福島県東白川郡棚倉町関口一本松164-3",
    "lat": 37.0350656,
    "lng": 140.389042,
    "tel": "0247-57-9101",
    "url": "https://kujikai.or.jp",
    "pref": "福島県",
    "city": "棚倉町",
    "category": "community_day_service",
    "serviceType": "地域密着型通所介護",
    "capacity": null,
    "openDays": [
      "平日",
      "土曜日"
    ],
    "openDaysNote": ""
  },
  {
    "id": "772900403",
    "name": "デイサービスセンターほたるの里",
    "kana": "デイサービスセンターホタルノサト",
    "address": "福島県東白川郡棚倉町大字関口字豊郷103",
    "lat": 37.0239389654186,
    "lng": 140.393779304179,
    "tel": "0247-33-6050",
    "url": "http://www.utsumine.jp/",
    "pref": "福島県",
    "city": "棚倉町",
    "category": "community_day_service",
    "serviceType": "地域密着型通所介護",
    "capacity": 18,
    "openDays": [
      "平日",
      "祝日"
    ],
    "openDaysNote": ""
  },
  {
    "id": "772900437",
    "name": "通所介護なごみ",
    "kana": "ツウショカイゴナゴミ",
    "address": "福島県東白川郡棚倉町大字棚倉字南町195-1",
    "lat": 37.0230096415928,
    "lng": 140.389928559173,
    "tel": "0247-57-6457",
    "url": "https://www.ideapocket.net/",
    "pref": "福島県",
    "city": "棚倉町",
    "category": "community_day_service",
    "serviceType": "地域密着型通所介護",
    "capacity": 10,
    "openDays": [
      "平日",
      "土曜日",
      "祝日"
    ],
    "openDaysNote": "お盆休み（８月１４日～８月１６日）年末年始休み（１２月３１日～１月３日）"
  },
  {
    "id": "772500195",
    "name": "いなわしろホームデイサービスセンター指定地域密着型通所介護事業所",
    "kana": "イナワシロホームデイサービスセンターシテイチイキミッチャクガタツウショカイゴジギョウショ",
    "address": "福島県耶麻郡猪苗代町大字三郷字寺南7962-1",
    "lat": 37.5634066,
    "lng": 140.1388308,
    "tel": "0242-66-4124",
    "url": "http://www.inawashiro-home.org/",
    "pref": "福島県",
    "city": "猪苗代町",
    "category": "community_day_service",
    "serviceType": "地域密着型通所介護",
    "capacity": null,
    "openDays": [
      "平日",
      "土曜日",
      "祝日"
    ],
    "openDaysNote": ""
  },
  {
    "id": "772500443",
    "name": "デイサービスセンター　咲楽の里",
    "kana": "デイサービスセンター　サクラノサト",
    "address": "福島県耶麻郡猪苗代町字程塚2789番",
    "lat": 37.5714449,
    "lng": 140.1173448,
    "tel": "0242-72-0557",
    "url": "www17.plala.or.jp/sakuranosato/",
    "pref": "福島県",
    "city": "猪苗代町",
    "category": "community_day_service",
    "serviceType": "地域密着型通所介護",
    "capacity": 0,
    "openDays": [
      "平日",
      "祝日"
    ],
    "openDaysNote": ""
  },
  {
    "id": "772500559",
    "name": "デイサービスゆうき",
    "kana": "デイサービスユウキ",
    "address": "福島県耶麻郡猪苗代町川桁字長町３４８３番地１",
    "lat": 37.5376246,
    "lng": 140.1403488,
    "tel": "0242-85-8786",
    "url": "",
    "pref": "福島県",
    "city": "猪苗代町",
    "category": "community_day_service",
    "serviceType": "地域密着型通所介護",
    "capacity": 0,
    "openDays": [
      "平日",
      "土曜日",
      "祝日"
    ],
    "openDaysNote": ""
  },
  {
    "id": "772200267",
    "name": "ニューワーク情報サービス有限会社デイサービスみんなの家",
    "kana": "ニューワークジョウホウサービスユウゲンガイシャデイサービスミンナノイエ",
    "address": "福島県天栄村大字白子字西ノ内15",
    "lat": 37.2533176,
    "lng": 140.2567592,
    "tel": "0248-94-4720",
    "url": "http://www.nw-joho.co.jp/kaigo.html",
    "pref": "福島県",
    "city": "天栄村",
    "category": "community_day_service",
    "serviceType": "地域密着型通所介護",
    "capacity": 0,
    "openDays": [
      "平日",
      "祝日"
    ],
    "openDaysNote": "営業日　月曜～金曜日。平日の祝日は、営業をしています。"
  },
  {
    "id": "792210023",
    "name": "湯本デイサービスセンター",
    "kana": "ユモトデイサービスセンター",
    "address": "福島県岩瀬郡天栄村大字湯本字下原９５番地",
    "lat": 37.2810999,
    "lng": 139.9894171,
    "tel": "0248-84-2460",
    "url": "http://www.sw.iwasefukushi.jp/",
    "pref": "福島県",
    "city": "天栄村",
    "category": "community_day_service",
    "serviceType": "地域密着型通所介護",
    "capacity": 0,
    "openDays": [
      "平日"
    ],
    "openDaysNote": ""
  },
  {
    "id": "792610032",
    "name": "デイサービスセンターみるく",
    "kana": "デイサービスセンターミルク",
    "address": "福島県河沼郡湯川村勝常字代舞1782",
    "lat": 37.5609435,
    "lng": 139.8692937,
    "tel": "0241-23-5311",
    "url": "",
    "pref": "福島県",
    "city": "湯川村",
    "category": "community_day_service",
    "serviceType": "地域密着型通所介護",
    "capacity": 10,
    "openDays": [
      "平日",
      "土曜日",
      "祝日"
    ],
    "openDaysNote": ""
  },
  {
    "id": "792300048",
    "name": "あたご共同作業所",
    "kana": "アタゴキョウドウサギョウジョ",
    "address": "福島県南会津郡南会津町中荒井字西原４７番地",
    "lat": 37.17444,
    "lng": 139.749605,
    "tel": "0241-62-6211",
    "url": "https://www.npo-atago.com",
    "pref": "福島県",
    "city": "南会津町",
    "category": "community_day_service",
    "serviceType": "地域密着型通所介護",
    "capacity": 0,
    "openDays": [
      "平日",
      "土曜日",
      "祝日"
    ],
    "openDaysNote": ""
  },
  {
    "id": "772300588",
    "name": "デイサービス・メープルフェロー",
    "kana": "デイサービス　メープルフェロー",
    "address": "福島県南会津郡南会津町青柳字居平１１５番地１",
    "lat": 37.1929069,
    "lng": 139.5260621,
    "tel": "0241-76-3101",
    "url": "",
    "pref": "福島県",
    "city": "南会津町",
    "category": "community_day_service",
    "serviceType": "地域密着型通所介護",
    "capacity": 10,
    "openDays": [
      "平日",
      "土曜日",
      "日曜日",
      "祝日"
    ],
    "openDaysNote": "8月13日～16日、12月29日～1月3日の間は休みます。"
  },
  {
    "id": "772300638",
    "name": "デイサービス・メープルフェロー田島",
    "kana": "デイサービス・メープルフェロータジマ",
    "address": "福島県南会津郡南会津町田島字田部原１２５番地１３",
    "lat": 37.2121087,
    "lng": 139.8005076,
    "tel": "0241-62-0890",
    "url": "",
    "pref": "福島県",
    "city": "南会津町",
    "category": "community_day_service",
    "serviceType": "地域密着型通所介護",
    "capacity": null,
    "openDays": [
      "平日",
      "土曜日",
      "祝日"
    ],
    "openDaysNote": "8/13～16、12/29～1/3は休みます。（変更有）"
  },
  {
    "id": "772300760",
    "name": "運動型デイサービスアイテール聖光",
    "kana": "ウンドウガタデイサービスアイテールセイコウ",
    "address": "福島県南会津郡南会津町田部字狐穴68",
    "lat": 37.189976,
    "lng": 139.8071931,
    "tel": "0241-64-6300",
    "url": "",
    "pref": "福島県",
    "city": "南会津町",
    "category": "community_day_service",
    "serviceType": "地域密着型通所介護",
    "capacity": null,
    "openDays": [
      "平日"
    ],
    "openDaysNote": ""
  },
  {
    "id": "772300521",
    "name": "舘岩デイサービスセンター高夕",
    "kana": "タテイワデイサービスセンタータカユウ",
    "address": "福島県南会津郡南会津町湯ノ花６４７番地南会津町舘岩高齢者生活福祉センター高夕 南会津町舘岩高齢者生活福祉センター高夕",
    "lat": 37.0679284,
    "lng": 139.522875,
    "tel": "0241-78-5201",
    "url": "http://minamiaidukai.or.jp/publics/index/98/",
    "pref": "福島県",
    "city": "南会津町",
    "category": "community_day_service",
    "serviceType": "地域密着型通所介護",
    "capacity": null,
    "openDays": [
      "平日",
      "祝日"
    ],
    "openDaysNote": "祝日が土・日に当たる場合は定休日です。"
  },
  {
    "id": "772300646",
    "name": "聖光デイサービスセンター",
    "kana": "セイコウデイサービスセンター",
    "address": "福島県南会津郡南会津町田島字大坪15",
    "lat": 37.2050566,
    "lng": 139.7731545,
    "tel": "0241-63-3433",
    "url": "https://www.seikou-aizu.jp/",
    "pref": "福島県",
    "city": "南会津町",
    "category": "community_day_service",
    "serviceType": "地域密着型通所介護",
    "capacity": 0,
    "openDays": [
      "平日",
      "土曜日",
      "祝日"
    ],
    "openDaysNote": ""
  },
  {
    "id": "772300372",
    "name": "田島デイサービスセンター愛宕",
    "kana": "タジマデイサービスセンターアタゴ",
    "address": "福島県南会津郡南会津町永田字風下3-1",
    "lat": 37.2046494,
    "lng": 139.7599974,
    "tel": "0241-63-1112",
    "url": "http://minamiaidukai.or.jp/",
    "pref": "福島県",
    "city": "南会津町",
    "category": "community_day_service",
    "serviceType": "地域密着型通所介護",
    "capacity": 18,
    "openDays": [
      "平日",
      "祝日"
    ],
    "openDaysNote": ""
  },
  {
    "id": "772300216",
    "name": "田島デイサービスセンター七峰",
    "kana": "タジマデイサービスセンターナナミネ",
    "address": "福島県南会津郡南会津町関本字百一560-8",
    "lat": 37.1524587,
    "lng": 139.7350686,
    "tel": "0241-66-3111",
    "url": "http://minamiaidukai.or.jp/",
    "pref": "福島県",
    "city": "南会津町",
    "category": "community_day_service",
    "serviceType": "地域密着型通所介護",
    "capacity": 12,
    "openDays": [
      "平日"
    ],
    "openDaysNote": "‐"
  },
  {
    "id": "772300224",
    "name": "南会津町伊南デイサービスセンター尾白荘",
    "kana": "ミナミアイヅマチイナデイサービスセンターオジラソウ",
    "address": "福島県南会津郡南会津町古町字太子堂205",
    "lat": 37.1861920415259,
    "lng": 139.527292031213,
    "tel": "0241-76-2212",
    "url": "",
    "pref": "福島県",
    "city": "南会津町",
    "category": "community_day_service",
    "serviceType": "地域密着型通所介護",
    "capacity": 0,
    "openDays": [
      "平日"
    ],
    "openDaysNote": "特に無し"
  },
  {
    "id": "772300414",
    "name": "南郷デイサービスセンターみさわ荘",
    "kana": "ナンゴウデイサービスセンターミサワソウ",
    "address": "福島県南会津郡南会津町片貝字根木屋向1番地1",
    "lat": 37.2732583,
    "lng": 139.5312042,
    "tel": "0241-73-2093",
    "url": "",
    "pref": "福島県",
    "city": "南会津町",
    "category": "community_day_service",
    "serviceType": "地域密着型通所介護",
    "capacity": 0,
    "openDays": [
      "平日"
    ],
    "openDaysNote": "なし"
  },
  {
    "id": "771200292",
    "name": "デイサービス　赤い風船",
    "kana": "デイサービス　アカイフウセン",
    "address": "福島県南相馬市原町区深野字台畑２１－１",
    "lat": 37.6606325,
    "lng": 140.9259224,
    "tel": "0244-24-5037",
    "url": "",
    "pref": "福島県",
    "city": "南相馬市",
    "category": "community_day_service",
    "serviceType": "地域密着型通所介護",
    "capacity": 0,
    "openDays": [
      "平日",
      "土曜日",
      "日曜日",
      "祝日"
    ],
    "openDaysNote": ""
  },
  {
    "id": "771200425",
    "name": "デイサービス　白い風船",
    "kana": "デイサービス　シロイフウセン",
    "address": "福島県南相馬市原町区陣ケ崎281-1",
    "lat": 37.6112186,
    "lng": 140.9396116,
    "tel": "0244-26-7828",
    "url": "",
    "pref": "福島県",
    "city": "南相馬市",
    "category": "community_day_service",
    "serviceType": "地域密着型通所介護",
    "capacity": 0,
    "openDays": [
      "平日",
      "土曜日",
      "日曜日",
      "祝日"
    ],
    "openDaysNote": ""
  },
  {
    "id": "791200132",
    "name": "デイサービスいろは",
    "kana": "デイサービスイロハ",
    "address": "福島県南相馬市小高区大富字東畑32-1",
    "lat": 37.5633319,
    "lng": 140.926438,
    "tel": "0244-32-1010",
    "url": "http://iroha-odaka.com",
    "pref": "福島県",
    "city": "南相馬市",
    "category": "community_day_service",
    "serviceType": "地域密着型通所介護",
    "capacity": 0,
    "openDays": [
      "平日",
      "土曜日",
      "日曜日",
      "祝日"
    ],
    "openDaysNote": ""
  },
  {
    "id": "771200219",
    "name": "デイズくにみの郷",
    "kana": "デイズクニミノサト",
    "address": "福島県南相馬市原町区国見町二丁目１３番地１",
    "lat": 37.628109,
    "lng": 140.951866,
    "tel": "0244-24-1700",
    "url": "https://kuniminosato.co.jp/",
    "pref": "福島県",
    "city": "南相馬市",
    "category": "community_day_service",
    "serviceType": "地域密着型通所介護",
    "capacity": 14,
    "openDays": [
      "平日"
    ],
    "openDaysNote": "定休日以外の休業日：国民の祝日、１月２から３日、１２月３０から３１日"
  },
  {
    "id": "791200116",
    "name": "ほほえみおだかデイサービスセンター",
    "kana": "ホホエミオダカデイサービスセンター",
    "address": "福島県南相馬市小高区耳谷字小泉２３番地",
    "lat": 37.5257324,
    "lng": 140.9914317,
    "tel": "0244-26-6814",
    "url": "https://r.goope.jp/hohoemiodaka/info",
    "pref": "福島県",
    "city": "南相馬市",
    "category": "community_day_service",
    "serviceType": "地域密着型通所介護",
    "capacity": 15,
    "openDays": [
      "平日",
      "祝日"
    ],
    "openDaysNote": "お盆休みの日付けは変更があります。"
  },
  {
    "id": "791200108",
    "name": "まごころデイサービス",
    "kana": "マゴコロデイサービス",
    "address": "福島県南相馬市鹿島区鹿島字北畑57まごころ接骨鹿島院デイサービス まごころ接骨鹿島院デイサービス",
    "lat": 37.7043544,
    "lng": 140.9675756,
    "tel": "0244-46-1311",
    "url": "",
    "pref": "福島県",
    "city": "南相馬市",
    "category": "community_day_service",
    "serviceType": "地域密着型通所介護",
    "capacity": 0,
    "openDays": [
      "平日",
      "祝日"
    ],
    "openDaysNote": "その他＝5月3日～5月5日、8月13日～8月15日、12月30日～1月3日"
  },
  {
    "id": "791200157",
    "name": "みどりの杜デイサービスセンターヨークタウン原町",
    "kana": "ミドリノモリデイサービスセンターヨークタウンハラマチ",
    "address": "福島県南相馬市原町区旭町3丁目58-1",
    "lat": 37.6353094413278,
    "lng": 140.971439933096,
    "tel": "0244-26-8922",
    "url": "",
    "pref": "福島県",
    "city": "南相馬市",
    "category": "community_day_service",
    "serviceType": "地域密着型通所介護",
    "capacity": null,
    "openDays": [
      "平日"
    ],
    "openDaysNote": "祝日営業しております。"
  },
  {
    "id": "791200090",
    "name": "リハプライド南相馬",
    "kana": "リハプライド　ミナミソウマ",
    "address": "福島県南相馬市原町区西町1丁目４６－１",
    "lat": 37.6378859,
    "lng": 140.9507875,
    "tel": "０２４４－３２－１７６６",
    "url": "http://www.rehapride.co.jp/minamisoma/",
    "pref": "福島県",
    "city": "南相馬市",
    "category": "community_day_service",
    "serviceType": "地域密着型通所介護",
    "capacity": 0,
    "openDays": [
      "平日",
      "祝日"
    ],
    "openDaysNote": "お盆休業　8月13・14・15日（改行）年末年始休業　12月30～1月3日"
  },
  {
    "id": "791200165",
    "name": "福島県南相馬市原町区小川町425番地",
    "kana": "ケヤキデイサービスセンター",
    "address": "福島県南相馬市原町区小川町425番地",
    "lat": 37.6489142,
    "lng": 140.9601936,
    "tel": "0244-23-0818",
    "url": "",
    "pref": "福島県",
    "city": "南相馬市",
    "category": "community_day_service",
    "serviceType": "地域密着型通所介護",
    "capacity": 18,
    "openDays": [
      "平日",
      "祝日"
    ],
    "openDaysNote": "年末年始の休業12/30～1/3"
  },
  {
    "id": "791000177",
    "name": "JWS陽だまりの郷　機能訓練　たんぽぽ",
    "kana": "ジェイダブルエスヒダマリノサト　キノウクンレン　タンポポ",
    "address": "福島県二本松市表2丁目775番地",
    "lat": 37.6071737,
    "lng": 140.434692,
    "tel": "0243－24－6071",
    "url": "http://jws⁻ｃ.jp/",
    "pref": "福島県",
    "city": "二本松市",
    "category": "community_day_service",
    "serviceType": "地域密着型通所介護",
    "capacity": 0,
    "openDays": [
      "平日",
      "土曜日",
      "日曜日",
      "祝日"
    ],
    "openDaysNote": "・短時間デイサービスの為午前8:30～11：35午後1：30～16：35の各約3時間となっております。"
  },
  {
    "id": "771000056",
    "name": "安達ヶ原あだたら荘デイサービスセンター",
    "kana": "アダチガハラアダタラソウデイサービスセンター",
    "address": "福島県二本松市安達ヶ原一丁目291番地１",
    "lat": 37.5852918,
    "lng": 140.4593709,
    "tel": "0243-22-2500",
    "url": "http://www.adachifukushi.jp/",
    "pref": "福島県",
    "city": "二本松市",
    "category": "community_day_service",
    "serviceType": "地域密着型通所介護",
    "capacity": 5,
    "openDays": [
      "平日",
      "土曜日",
      "祝日"
    ],
    "openDaysNote": ""
  },
  {
    "id": "772100103",
    "name": "羽山荘デイサービスセンター",
    "kana": "ハヤマソウデイサービスセンター",
    "address": "福島県二本松市太田字荻ノ田３５番地１",
    "lat": 37.5896285,
    "lng": 140.5294525,
    "tel": "0243-47-3301",
    "url": "http://www.adachifukushi.jp/hayama/",
    "pref": "福島県",
    "city": "二本松市",
    "category": "community_day_service",
    "serviceType": "地域密着型通所介護",
    "capacity": 0,
    "openDays": [
      "平日",
      "土曜日",
      "祝日"
    ],
    "openDaysNote": ""
  },
  {
    "id": "771000429",
    "name": "特定非営利活動法人まごころケアサービス二本松センター",
    "kana": "トクテイヒエイリカツドウホウジンマゴコロケアサービスニホンマツセンター",
    "address": "福島県二本松市根崎一丁目９番地",
    "lat": 37.5994902,
    "lng": 140.4472078,
    "tel": "0243-22-0112",
    "url": "",
    "pref": "福島県",
    "city": "二本松市",
    "category": "community_day_service",
    "serviceType": "地域密着型通所介護",
    "capacity": 10,
    "openDays": [
      "平日",
      "土曜日",
      "祝日"
    ],
    "openDaysNote": ""
  },
  {
    "id": "771000387",
    "name": "二本松市社会福祉区協議会　デイサービスセンターにほんまつ",
    "kana": "ニホンマツシシャカイフクシキョウギカイ　デイサ－ビスセンタ-",
    "address": "福島県二本松市中江116番地",
    "lat": 37.5612237,
    "lng": 140.4172573,
    "tel": "0243-22-7890",
    "url": "http://nihonmatsushisyakyo.or.jp",
    "pref": "福島県",
    "city": "二本松市",
    "category": "community_day_service",
    "serviceType": "地域密着型通所介護",
    "capacity": 0,
    "openDays": [
      "平日",
      "土曜日",
      "祝日"
    ],
    "openDaysNote": ""
  },
  {
    "id": "790500243",
    "name": "F.C.C.リハビリdayココロの家白河",
    "kana": "エフシーシーリハビリデイココロノイエシラカワ",
    "address": "郭内12",
    "lat": 37.128514368628,
    "lng": 140.216956083467,
    "tel": "248215730",
    "url": "",
    "pref": "福島県",
    "city": "白河市",
    "category": "community_day_service",
    "serviceType": "地域密着型通所介護",
    "capacity": 0,
    "openDays": [
      "平日",
      "祝日"
    ],
    "openDaysNote": ""
  },
  {
    "id": "770501047",
    "name": "いこいの広場デイサービス",
    "kana": "イコイノヒロバデイサービス",
    "address": "福島県白河市外薄葉17-1",
    "lat": 37.1426599756476,
    "lng": 140.221084077246,
    "tel": "0248-21-7533",
    "url": "https://www.houseikoi.com/",
    "pref": "福島県",
    "city": "白河市",
    "category": "community_day_service",
    "serviceType": "地域密着型通所介護",
    "capacity": 15,
    "openDays": [
      "平日",
      "土曜日",
      "祝日"
    ],
    "openDaysNote": "定休日以外の土曜日、祝日は営業しております。"
  },
  {
    "id": "770500932",
    "name": "スナグルホームこづえ",
    "kana": "スナグルホームコヅエ",
    "address": "福島県白河市昭和町60-5",
    "lat": 37.1307362,
    "lng": 140.2023517,
    "tel": "0248-21-9913",
    "url": "http://www.snugglehome-kodue.com",
    "pref": "福島県",
    "city": "白河市",
    "category": "community_day_service",
    "serviceType": "地域密着型通所介護",
    "capacity": 0,
    "openDays": [
      "平日",
      "土曜日"
    ],
    "openDaysNote": "12月30日～1月3日お休み"
  },
  {
    "id": "770500916",
    "name": "せいふうケアリハビリ・ホーム新白河",
    "kana": "セイフウケアリハビリ・ホームシンシラカワ",
    "address": "福島県白河市新白河一丁目34番地2号",
    "lat": 37.1243422,
    "lng": 140.1921778,
    "tel": "0248-22-8863",
    "url": "shinshirakawa@sh-care.com",
    "pref": "福島県",
    "city": "白河市",
    "category": "community_day_service",
    "serviceType": "地域密着型通所介護",
    "capacity": 15,
    "openDays": [
      "平日",
      "祝日"
    ],
    "openDaysNote": "サービス提供時間午前９：００～１２：００（改行）　　　　　　　　午後１３：００～１６：３０までの各3時間となります。"
  },
  {
    "id": "790500284",
    "name": "だんらんの家　みさか",
    "kana": "ダンランノイエ　ミサカ",
    "address": "福島県白河市みさか1丁目18番地2",
    "lat": 37.1062367,
    "lng": 140.1915158,
    "tel": "0248-21-6215",
    "url": "https://danrannoie.com/",
    "pref": "福島県",
    "city": "白河市",
    "category": "community_day_service",
    "serviceType": "地域密着型通所介護",
    "capacity": 10,
    "openDays": [
      "平日",
      "土曜日",
      "日曜日",
      "祝日"
    ],
    "openDaysNote": "原則、24時間365日営業しております。"
  },
  {
    "id": "790500144",
    "name": "だんらんの家　白河",
    "kana": "ダンランノイエ　シラカワ",
    "address": "福島県白河市栄町25番地5",
    "lat": 37.1191395,
    "lng": 140.216818,
    "tel": "0248-21-7905",
    "url": "https://danrannoie.com/archives/2404",
    "pref": "福島県",
    "city": "白河市",
    "category": "community_day_service",
    "serviceType": "地域密着型通所介護",
    "capacity": 10,
    "openDays": [
      "平日",
      "土曜日",
      "日曜日",
      "祝日"
    ],
    "openDaysNote": "原則、24時間365日営業しております。"
  },
  {
    "id": "790500151",
    "name": "デイサービス　さくら",
    "kana": "デイサービスサクラ",
    "address": "白河市鍛治町66番地2",
    "lat": 37.1233139,
    "lng": 140.2217747,
    "tel": "0248-21-6658",
    "url": "http://hp.kaipoke.biz/4kr/",
    "pref": "福島県",
    "city": "白河市",
    "category": "community_day_service",
    "serviceType": "地域密着型通所介護",
    "capacity": 0,
    "openDays": [
      "平日",
      "土曜日",
      "日曜日",
      "祝日"
    ],
    "openDaysNote": ""
  },
  {
    "id": "790500193",
    "name": "デイサービス　リハビリいっぽ",
    "kana": "デイサービス　リハビリイッポ",
    "address": "福島県白河市旭町一丁目244-1",
    "lat": 37.122801,
    "lng": 140.2252941,
    "tel": "0248-21-7673",
    "url": "",
    "pref": "福島県",
    "city": "白河市",
    "category": "community_day_service",
    "serviceType": "地域密着型通所介護",
    "capacity": 0,
    "openDays": [
      "平日",
      "土曜日"
    ],
    "openDaysNote": "8/13〜8/16、12/30〜1/3はお休みとなります。（改行）但し、お盆休みに関して変更する場合は事前に連絡させていただきます。"
  },
  {
    "id": "790500102",
    "name": "デイサービス　城南",
    "kana": "デイサービス　ジョウナン",
    "address": "福島県白河市道場小路91番地8",
    "lat": 37.1290422,
    "lng": 140.2101038,
    "tel": "0248-22-3541",
    "url": "http://www.jyonan-will.co.jp/",
    "pref": "福島県",
    "city": "白河市",
    "category": "community_day_service",
    "serviceType": "地域密着型通所介護",
    "capacity": 0,
    "openDays": [
      "平日",
      "土曜日",
      "祝日"
    ],
    "openDaysNote": ""
  },
  {
    "id": "790500219",
    "name": "デイサービスさんくす",
    "kana": "デイサービスサンクス",
    "address": "福島県白河市田島薊田１３番地3",
    "lat": 37.112823,
    "lng": 140.2960949,
    "tel": "0248-21-7918",
    "url": "",
    "pref": "福島県",
    "city": "白河市",
    "category": "community_day_service",
    "serviceType": "地域密着型通所介護",
    "capacity": null,
    "openDays": [
      "平日",
      "土曜日",
      "祝日"
    ],
    "openDaysNote": ""
  },
  {
    "id": "770500668",
    "name": "デイサービスセンター　せせらぎ通り",
    "kana": "デイサービスセンター　セセラギドオリ",
    "address": "福島県白河市巡り矢５番地１",
    "lat": 37.1244148,
    "lng": 140.2058015,
    "tel": "0248-24-1122",
    "url": "http://seseragidouri.web.fc2.com/index.html",
    "pref": "福島県",
    "city": "白河市",
    "category": "community_day_service",
    "serviceType": "地域密着型通所介護",
    "capacity": 0,
    "openDays": [
      "平日",
      "土曜日",
      "祝日"
    ],
    "openDaysNote": ""
  },
  {
    "id": "770501039",
    "name": "デイサービスセンターひとつ屋根の下",
    "kana": "デイサービスセンターヒトツヤネノシタ",
    "address": "福島県白河市立石169番地2",
    "lat": 37.126181,
    "lng": 140.1964162,
    "tel": "0248-23-5770",
    "url": "",
    "pref": "福島県",
    "city": "白河市",
    "category": "community_day_service",
    "serviceType": "地域密着型通所介護",
    "capacity": 0,
    "openDays": [
      "平日",
      "土曜日",
      "祝日"
    ],
    "openDaysNote": "・営業時間は8時00分～17時00分となっていますが、サービス提供時間は9時00分～16時15分になります。（改行）・施設内設備点検、清掃等、職員研修にてお休みをいただく場合あります。"
  },
  {
    "id": "770501096",
    "name": "デイサービスセンター八福神壱番館",
    "kana": "デイサービスセンターハチフクジンイチバンカン",
    "address": "福島県白河市久田野田中39-4デイサービスセンター八福神壱番館 デイサービスセンター八福神壱番館",
    "lat": 37.1369653360907,
    "lng": 140.261634326459,
    "tel": "0248-21-5705",
    "url": "http://taro-rlcs.com/",
    "pref": "福島県",
    "city": "白河市",
    "category": "community_day_service",
    "serviceType": "地域密着型通所介護",
    "capacity": 15,
    "openDays": [
      "平日",
      "日曜日",
      "祝日"
    ],
    "openDaysNote": ""
  },
  {
    "id": "790500276",
    "name": "デイサービス笑来歩",
    "kana": "デイサービスエクボ",
    "address": "福島県白河市栄町30-2",
    "lat": 37.1188325,
    "lng": 140.2162004,
    "tel": "0248-21-9450",
    "url": "",
    "pref": "福島県",
    "city": "白河市",
    "category": "community_day_service",
    "serviceType": "地域密着型通所介護",
    "capacity": null,
    "openDays": [
      "平日",
      "祝日"
    ],
    "openDaysNote": ""
  },
  {
    "id": "790500201",
    "name": "茶話本舗デイサービス南湖絆亭",
    "kana": "サワホンポデイサービスナンコキズナテイ",
    "address": "福島県白河市白坂石阿弥陀10－3",
    "lat": 37.0997185,
    "lng": 140.2124326,
    "tel": "0248－29－8860",
    "url": "",
    "pref": "福島県",
    "city": "白河市",
    "category": "community_day_service",
    "serviceType": "地域密着型通所介護",
    "capacity": 0,
    "openDays": [
      "平日",
      "土曜日",
      "日曜日",
      "祝日"
    ],
    "openDaysNote": ""
  },
  {
    "id": "790500169",
    "name": "天神町デイサービスセンター",
    "kana": "テンジンマチデイサービスセンター",
    "address": "福島県白河市勘定町22",
    "lat": 37.1285811,
    "lng": 140.2065834,
    "tel": "0248-31-2540",
    "url": "http://kuwano-fukushikai.jp/tenjin/",
    "pref": "福島県",
    "city": "白河市",
    "category": "community_day_service",
    "serviceType": "地域密着型通所介護",
    "capacity": 0,
    "openDays": [
      "平日",
      "土曜日",
      "祝日"
    ],
    "openDaysNote": ""
  },
  {
    "id": "792920027",
    "name": "通所介護　のどか",
    "kana": "ツウショカイゴ　ノドカ",
    "address": "福島県東白川郡塙町大字塙字末広町132-1",
    "lat": 36.9619005,
    "lng": 140.4060732,
    "tel": "0247-57‐5188",
    "url": "",
    "pref": "福島県",
    "city": "塙町",
    "category": "community_day_service",
    "serviceType": "地域密着型通所介護",
    "capacity": 8,
    "openDays": [
      "平日",
      "祝日"
    ],
    "openDaysNote": ""
  },
  {
    "id": "793200031",
    "name": "デイサービスセンターもとまち",
    "kana": "デイサービスセンター　モトマチ",
    "address": "福島県双葉郡富岡町本町一丁目1番地",
    "lat": 37.3411257,
    "lng": 141.0053988,
    "tel": "0240-21-1516",
    "url": "https://futaba-fukunosato.com",
    "pref": "福島県",
    "city": "富岡町",
    "category": "community_day_service",
    "serviceType": "地域密着型通所介護",
    "capacity": 0,
    "openDays": [
      "平日",
      "祝日"
    ],
    "openDaysNote": ""
  },
  {
    "id": "770102168",
    "name": "NPO法人まごころケアホーム高湯の里",
    "kana": "エヌピーオーホウジンマゴコロケアホームタカユノサト",
    "address": "福島県福島市在庭坂字南林60-2",
    "lat": 37.7550348,
    "lng": 140.3597539,
    "tel": "024-591-1950",
    "url": "",
    "pref": "福島県",
    "city": "福島市",
    "category": "community_day_service",
    "serviceType": "地域密着型通所介護",
    "capacity": 0,
    "openDays": [
      "平日",
      "土曜日"
    ],
    "openDaysNote": ""
  },
  {
    "id": "790100952",
    "name": "ケアセンターつどいしのぶ台",
    "kana": "ケアセンターツドイシノブダイ",
    "address": "上鳥渡字向山25-8",
    "lat": 37.723792,
    "lng": 140.404987,
    "tel": "024-594-0056",
    "url": "https://mcp-net.jp",
    "pref": "福島県",
    "city": "福島市",
    "category": "community_day_service",
    "serviceType": "地域密着型通所介護",
    "capacity": 0,
    "openDays": [
      "平日",
      "土曜日",
      "祝日"
    ],
    "openDaysNote": ""
  },
  {
    "id": "770104057",
    "name": "せいふうケア　リハビリ・ホーム飯坂",
    "kana": "セイフウケア　リハビリ・ホームイイザカ",
    "address": "福島県福島市飯坂町中野字御荷越37-1",
    "lat": 37.8286036,
    "lng": 140.4444696,
    "tel": "024-542-6367",
    "url": "http://sh-care.com/",
    "pref": "福島県",
    "city": "福島市",
    "category": "community_day_service",
    "serviceType": "地域密着型通所介護",
    "capacity": 11,
    "openDays": [
      "平日",
      "祝日"
    ],
    "openDaysNote": "１２月３０日から１月３日は休業"
  },
  {
    "id": "770103653",
    "name": "せいふうケア　リハビリ・ホーム方木田",
    "kana": "セイフウケア　リハビリ・ホームホウキダ",
    "address": "福島県福島市方木田字本方木田４８－１サザンピアⅢ サザンピアⅢ",
    "lat": 37.7398247,
    "lng": 140.4545138,
    "tel": "024-544-0041",
    "url": "http://sh-care.com/",
    "pref": "福島県",
    "city": "福島市",
    "category": "community_day_service",
    "serviceType": "地域密着型通所介護",
    "capacity": 18,
    "openDays": [
      "平日",
      "祝日"
    ],
    "openDaysNote": "午前・午後の2単制（改行）午前9：00～12：00（改行）午後13：40～16：40の提供時間。"
  },
  {
    "id": "770103919",
    "name": "デイサービス　リブレ松川",
    "kana": "デイサービス　リブレマツカワ",
    "address": "福島県福島市松川町美郷4丁目13-8",
    "lat": 37.6657277,
    "lng": 140.4728719,
    "tel": "024-573-6522",
    "url": "http://www.libre-lifesupport.jp/",
    "pref": "福島県",
    "city": "福島市",
    "category": "community_day_service",
    "serviceType": "地域密着型通所介護",
    "capacity": 2,
    "openDays": [
      "平日",
      "祝日"
    ],
    "openDaysNote": ""
  },
  {
    "id": "770103596",
    "name": "デイサービス　悠久の郷",
    "kana": "デイサービス　ユウキュウノサト",
    "address": "福島県福島市土船字谷地頭３３番地１",
    "lat": 37.7427468114786,
    "lng": 140.373560057722,
    "tel": "024-573-7480",
    "url": "",
    "pref": "福島県",
    "city": "福島市",
    "category": "community_day_service",
    "serviceType": "地域密着型通所介護",
    "capacity": null,
    "openDays": [
      "平日",
      "土曜日",
      "日曜日",
      "祝日"
    ],
    "openDaysNote": ""
  },
  {
    "id": "770104198",
    "name": "デイサービスおともだち",
    "kana": "デイサービスオトモダチ",
    "address": "福島県福島市森合字台ノ前7-1いにしえの郷 いにしえの郷",
    "lat": 37.765891,
    "lng": 140.4552518,
    "tel": "024-558-5503",
    "url": "http://yumeweb21.web.fc2..com",
    "pref": "福島県",
    "city": "福島市",
    "category": "community_day_service",
    "serviceType": "地域密着型通所介護",
    "capacity": 8,
    "openDays": [
      "平日",
      "土曜日",
      "日曜日",
      "祝日"
    ],
    "openDaysNote": "1、事業所は、利用者の症状の進行緩和に質するよう、その目的を設定し、計画的に行う（改行）2、事業所は、自らその提供する指定予防通所介護、指定通所介護の質の評価を行い、常にその改善を図らなければならない。（改行）3、事業所は、利用者が住み慣れた地域での生活を継続ではるよう、地域住民との交流や地域活動への参加を図りつつ、利用者の心身の状況をふ（改行）まえ、妥当、適切に行うものとする。（改行）4、事業者は、利用者一人一人の人格を尊重し、利用者がそれぞれの役割をもって日常生活を送ることができるよう配慮して行うものとする。"
  },
  {
    "id": "770103851",
    "name": "デイサービスかえで",
    "kana": "デイサービスカエデ",
    "address": "福島県福島市野田町4丁目2-15",
    "lat": 37.7607126,
    "lng": 140.4516494,
    "tel": "024-573-7866",
    "url": "http://www.maru-kita.co.jp/",
    "pref": "福島県",
    "city": "福島市",
    "category": "community_day_service",
    "serviceType": "地域密着型通所介護",
    "capacity": 0,
    "openDays": [
      "平日",
      "土曜日"
    ],
    "openDaysNote": ""
  },
  {
    "id": "770104594",
    "name": "デイサービスすみれ",
    "kana": "デイサービススミレ",
    "address": "福島県福島市南沢又字柳清水５－８",
    "lat": 37.7782061,
    "lng": 140.4422415,
    "tel": "024-597-8600",
    "url": "",
    "pref": "福島県",
    "city": "福島市",
    "category": "community_day_service",
    "serviceType": "地域密着型通所介護",
    "capacity": 0,
    "openDays": [
      "平日",
      "日曜日",
      "祝日"
    ],
    "openDaysNote": ""
  },
  {
    "id": "790101042",
    "name": "デイサービスセンタ―桜",
    "kana": "デイサービスセンターサクラ",
    "address": "福島県福島市飯坂町湯野字湯ノ上18-1",
    "lat": 37.8309862,
    "lng": 140.4557118,
    "tel": "024-563-3908",
    "url": "",
    "pref": "福島県",
    "city": "福島市",
    "category": "community_day_service",
    "serviceType": "地域密着型通所介護",
    "capacity": 0,
    "openDays": [
      "平日",
      "土曜日",
      "祝日"
    ],
    "openDaysNote": ""
  },
  {
    "id": "770104339",
    "name": "デイサービスセンター　シニアガーデン",
    "kana": "デイサービスセンター　シニアガーデン",
    "address": "福島県福島市伏拝字田中21-1",
    "lat": 37.7256139386871,
    "lng": 140.457266153967,
    "tel": "024-563-4671・",
    "url": "http://www.yurlife.co.jp",
    "pref": "福島県",
    "city": "福島市",
    "category": "community_day_service",
    "serviceType": "地域密着型通所介護",
    "capacity": 18,
    "openDays": [
      "平日",
      "土曜日",
      "日曜日",
      "祝日"
    ],
    "openDaysNote": "２４時間電話受付は可"
  },
  {
    "id": "790100796",
    "name": "デイサービスセンター　シニアパーク",
    "kana": "デイサービスセンター　シニアパーク",
    "address": "福島県福島市伏拝字田中19-7",
    "lat": 37.7252209,
    "lng": 140.4577338,
    "tel": "024-563-4671",
    "url": "http://www.yurlife.co.jp",
    "pref": "福島県",
    "city": "福島市",
    "category": "community_day_service",
    "serviceType": "地域密着型通所介護",
    "capacity": 10,
    "openDays": [
      "平日",
      "祝日"
    ],
    "openDaysNote": ""
  },
  {
    "id": "770104669",
    "name": "デイサービスセンター　シニアハウス",
    "kana": "デイサービスセンター　シニアハウス",
    "address": "福島県福島市伏拝字田中16-8",
    "lat": 37.7252888,
    "lng": 140.4583657,
    "tel": "024-573-8859",
    "url": "http://www.yurlife.co.jp/",
    "pref": "福島県",
    "city": "福島市",
    "category": "community_day_service",
    "serviceType": "地域密着型通所介護",
    "capacity": 10,
    "openDays": [
      "平日",
      "土曜日",
      "日曜日",
      "祝日"
    ],
    "openDaysNote": ""
  },
  {
    "id": "770102457",
    "name": "デイサービスセンター　愛の里",
    "kana": "デイサービスセンター　アイノサト",
    "address": "福島県福島市大森字街道下５３－１",
    "lat": 37.7361861,
    "lng": 140.4493034,
    "tel": "024-544-1558",
    "url": "http://www.cosmo-ph.co.jp/group/support/",
    "pref": "福島県",
    "city": "福島市",
    "category": "community_day_service",
    "serviceType": "地域密着型通所介護",
    "capacity": 16,
    "openDays": [
      "平日",
      "祝日"
    ],
    "openDaysNote": "祝日は営業致します。"
  },
  {
    "id": "770104412",
    "name": "デイサービスセンターあずま",
    "kana": "デイサービスセンターアズマ",
    "address": "福島県福島市栄町1-28松ヶ丘ビル　2F 松ヶ丘ビル　2F",
    "lat": 37.7566771216928,
    "lng": 140.460227258203,
    "tel": "024-563-5872",
    "url": "",
    "pref": "福島県",
    "city": "福島市",
    "category": "community_day_service",
    "serviceType": "地域密着型通所介護",
    "capacity": 18,
    "openDays": [
      "平日"
    ],
    "openDaysNote": "特にありません。"
  },
  {
    "id": "770105930",
    "name": "デイサービスセンターエルタの庭",
    "kana": "デイサービスセンターエルタノニワ",
    "address": "福島県福島市八島田字樋ノ口８０",
    "lat": 37.76900601825,
    "lng": 140.433970958861,
    "tel": "024-563-6832",
    "url": "https://f-elta.net/",
    "pref": "福島県",
    "city": "福島市",
    "category": "community_day_service",
    "serviceType": "地域密着型通所介護",
    "capacity": 0,
    "openDays": [
      "平日",
      "祝日"
    ],
    "openDaysNote": "月曜日～金曜日にあたる祝日は通常稼働　※年末年始は除く"
  },
  {
    "id": "770102986",
    "name": "デイサービスセンターさくら館",
    "kana": "デイサービスセンターサクラカン",
    "address": "福島県福島市飯坂町笠松２－７",
    "lat": 37.8338786,
    "lng": 140.4498263,
    "tel": "024-542-1572",
    "url": "www.cosmo-m-s.co.jp/office/347.html",
    "pref": "福島県",
    "city": "福島市",
    "category": "community_day_service",
    "serviceType": "地域密着型通所介護",
    "capacity": 0,
    "openDays": [
      "平日"
    ],
    "openDaysNote": "平日の祝日は営業します。"
  },
  {
    "id": "770104503",
    "name": "デイサービスセンターやすらぎのとき",
    "kana": "デイサービスセンターヤスラギノトキ",
    "address": "福島県福島市瀬上町字荒町74番地",
    "lat": 37.8064049,
    "lng": 140.492314,
    "tel": "024-553-8160",
    "url": "",
    "pref": "福島県",
    "city": "福島市",
    "category": "community_day_service",
    "serviceType": "地域密着型通所介護",
    "capacity": 1,
    "openDays": [
      "平日",
      "祝日"
    ],
    "openDaysNote": "年末年始　１２月３０日から１月２日まで休み"
  },
  {
    "id": "770105179",
    "name": "デイサービスもものさと",
    "kana": "デイサービスモモノサト",
    "address": "福島県福島市小倉寺字美濃輪下1-3",
    "lat": 37.7292095,
    "lng": 140.4743484,
    "tel": "024-572-5601",
    "url": "http://ai-nosato.jp",
    "pref": "福島県",
    "city": "福島市",
    "category": "community_day_service",
    "serviceType": "地域密着型通所介護",
    "capacity": 0,
    "openDays": [
      "平日",
      "祝日"
    ],
    "openDaysNote": ""
  },
  {
    "id": "770104420",
    "name": "ハッピー愛ランドやのめデイサービス",
    "kana": "ハッピーアイランドヤノメデイサービス",
    "address": "福島県福島市南矢野目字上戸ノ内１３－１",
    "lat": 37.7902283,
    "lng": 140.4793628,
    "tel": "０２４－５６３－３７８１",
    "url": "http://www.happyisland.org/",
    "pref": "福島県",
    "city": "福島市",
    "category": "community_day_service",
    "serviceType": "地域密着型通所介護",
    "capacity": 18,
    "openDays": [
      "平日",
      "祝日"
    ],
    "openDaysNote": ""
  },
  {
    "id": "770103745",
    "name": "フクチャンち　通所介護事業所",
    "kana": "フクチャンチ　ツウショカイゴジギョウショ",
    "address": "福島県福島市伏拝字清水内２５番地",
    "lat": 37.7218907,
    "lng": 140.4608476,
    "tel": "024-546-0722",
    "url": "http://www.life-time-fukushima.jp",
    "pref": "福島県",
    "city": "福島市",
    "category": "community_day_service",
    "serviceType": "地域密着型通所介護",
    "capacity": 12,
    "openDays": [
      "平日",
      "祝日"
    ],
    "openDaysNote": ""
  },
  {
    "id": "770102721",
    "name": "まちなか宝生園",
    "kana": "マチナカホウショウエン",
    "address": "福島県福島市本町4番23号",
    "lat": 37.7523114,
    "lng": 140.4652355,
    "tel": "024-521-1122",
    "url": "http://www.tahokai.jp",
    "pref": "福島県",
    "city": "福島市",
    "category": "community_day_service",
    "serviceType": "地域密着型通所介護",
    "capacity": 18,
    "openDays": [
      "平日",
      "祝日"
    ],
    "openDaysNote": "土日、及び、8月13日～8月15日、12月30日～1月3日"
  },
  {
    "id": "790101125",
    "name": "ミック健康の森　福島駅前",
    "kana": "ミックケンコウノモリ　フクシマエキマエ",
    "address": "陣場町6-14陣場河内ビル１F 陣場河内ビル１F",
    "lat": 37.7575163,
    "lng": 140.4629142,
    "tel": "024-573-4450",
    "url": "https://mik-kenkonomori.com/facility/touhoku/fukushimaekimae/",
    "pref": "福島県",
    "city": "福島市",
    "category": "community_day_service",
    "serviceType": "地域密着型通所介護",
    "capacity": 0,
    "openDays": [
      "平日",
      "祝日"
    ],
    "openDaysNote": ""
  },
  {
    "id": "790100721",
    "name": "むつみクリニック附属デイサービス　ケアカフェ　鈴と小鳥",
    "kana": "ムツミクリニックフゾクデイサービス　ケアカフェ　スズトコトリ",
    "address": "福島県福島市渡利字鳥谷下町２１-２",
    "lat": 37.7428217,
    "lng": 140.482848,
    "tel": "０２４-５２１－８２７１",
    "url": "",
    "pref": "福島県",
    "city": "福島市",
    "category": "community_day_service",
    "serviceType": "地域密着型通所介護",
    "capacity": 7,
    "openDays": [
      "平日",
      "土曜日"
    ],
    "openDaysNote": "８月１３日～８月１５日、１２月３０日～翌年１月３日は休みます"
  },
  {
    "id": "770103950",
    "name": "よりそうデイサービス春日の家",
    "kana": "ヨリソウデイサービスカスガノイエ",
    "address": "福島県福島市春日町１３－１１",
    "lat": 37.7669637,
    "lng": 140.4762305,
    "tel": "024-573-1290",
    "url": "www.shiawasekaigo.com",
    "pref": "福島県",
    "city": "福島市",
    "category": "community_day_service",
    "serviceType": "地域密着型通所介護",
    "capacity": 0,
    "openDays": [
      "平日",
      "土曜日",
      "日曜日",
      "祝日"
    ],
    "openDaysNote": ""
  },
  {
    "id": "770104800",
    "name": "リハビリデイサービスnagomi福島笹谷店",
    "kana": "リハビリデイサービスナゴミ　フクシマササヤテン",
    "address": "福島県福島市笹谷字南田1-21",
    "lat": 37.7893799,
    "lng": 140.436214,
    "tel": "024-572-6747",
    "url": "http://www.my-nagomi.com",
    "pref": "福島県",
    "city": "福島市",
    "category": "community_day_service",
    "serviceType": "地域密着型通所介護",
    "capacity": 0,
    "openDays": [
      "平日",
      "祝日"
    ],
    "openDaysNote": "ＧＷ、お盆休み、年末年始の休暇が別途あり"
  },
  {
    "id": "770104206",
    "name": "リハビリデイサービスnagomi福島大森店",
    "kana": "リハビリデイサービスナゴミフクシマオオモリテン",
    "address": "福島市大森字本町17",
    "lat": 37.7286366,
    "lng": 140.4381273,
    "tel": "024-573-9792",
    "url": "https://www.my-nagomi.com/",
    "pref": "福島県",
    "city": "福島市",
    "category": "community_day_service",
    "serviceType": "地域密着型通所介護",
    "capacity": 120,
    "openDays": [
      "平日",
      "祝日"
    ],
    "openDaysNote": "ＧＷ、お盆期間、年末年始はお休み（改行）月曜日から金曜日にかかる祝祭日は営業している"
  },
  {
    "id": "790100879",
    "name": "リハプライド郷野目",
    "kana": "リハプライドゴウノメ",
    "address": "福島県福島市郷野目字東1-46舟山ビル 舟山ビル",
    "lat": 37.7340385,
    "lng": 140.4606242,
    "tel": "024-544-0177",
    "url": "gonome@rehapride.co.jp",
    "pref": "福島県",
    "city": "福島市",
    "category": "community_day_service",
    "serviceType": "地域密着型通所介護",
    "capacity": 18,
    "openDays": [
      "平日",
      "土曜日",
      "祝日"
    ],
    "openDaysNote": "年末年始に1週間程度の休業有"
  },
  {
    "id": "770105021",
    "name": "敬愛セントラルデイ",
    "kana": "ケイアイセントラルデイ",
    "address": "福島県福島市中町3-20",
    "lat": 37.7497836,
    "lng": 140.4641702,
    "tel": "024-563-1160",
    "url": "https://www.keiai-kai.or.jp",
    "pref": "福島県",
    "city": "福島市",
    "category": "community_day_service",
    "serviceType": "地域密着型通所介護",
    "capacity": 18,
    "openDays": [
      "平日",
      "土曜日",
      "祝日"
    ],
    "openDaysNote": ""
  },
  {
    "id": "770104651",
    "name": "地域密着型デイサービス生きがい工房ゆーあいらいふ福籠",
    "kana": "チイキミッチャクガタデイサービスイキガイコウボウユーアイライフフクロウ",
    "address": "福島県福島市御山字検田65-4",
    "lat": 37.7771013,
    "lng": 140.4662811,
    "tel": "024-533-1234",
    "url": "",
    "pref": "福島県",
    "city": "福島市",
    "category": "community_day_service",
    "serviceType": "地域密着型通所介護",
    "capacity": 10,
    "openDays": [
      "平日",
      "土曜日",
      "日曜日",
      "祝日"
    ],
    "openDaysNote": "営業日：月曜日～日曜日（１月１日～１月３日を除く）"
  },
  {
    "id": "770103547",
    "name": "地域密着型通所介護よらんしょ",
    "kana": "チイキミッチャクガタツウショカイゴ　ヨランショ",
    "address": "福島県福島市清明町１番１０号",
    "lat": 37.7470183,
    "lng": 140.4612492,
    "tel": "024-521-9225",
    "url": "http://care-net.biz/07/puipui/",
    "pref": "福島県",
    "city": "福島市",
    "category": "community_day_service",
    "serviceType": "地域密着型通所介護",
    "capacity": 0,
    "openDays": [
      "平日",
      "土曜日",
      "祝日"
    ],
    "openDaysNote": "なし"
  },
  {
    "id": "770102291",
    "name": "通所介護（老人）デイサービスセンターせせらぎ",
    "kana": "ツウショカイゴ（ロウジン）デイサービスセンターセセラギ",
    "address": "福島県福島市町庭坂字松ノ下９－１",
    "lat": 37.7690939909423,
    "lng": 140.39371636627,
    "tel": "024-591-5519",
    "url": "",
    "pref": "福島県",
    "city": "福島市",
    "category": "community_day_service",
    "serviceType": "地域密着型通所介護",
    "capacity": 0,
    "openDays": [
      "平日",
      "土曜日",
      "祝日"
    ],
    "openDaysNote": "月曜日～土曜日及び祝日は営業"
  },
  {
    "id": "770100808",
    "name": "福島恵風園デイサービスセンター",
    "kana": "フクシマケイフウエン　デイサービスセンター",
    "address": "福島県福島市仁井田字龍神前２番地１",
    "lat": 37.7522001,
    "lng": 140.4273524,
    "tel": "024-545-4781",
    "url": "http://ffsk.jp/kaigo/",
    "pref": "福島県",
    "city": "福島市",
    "category": "community_day_service",
    "serviceType": "地域密着型通所介護",
    "capacity": 7,
    "openDays": [
      "平日",
      "祝日"
    ],
    "openDaysNote": "12/29は土日でなければ、営業日となります。"
  },
  {
    "id": "791400062",
    "name": "しらさわ有寿園デイサービスセンター",
    "kana": "シラサワユウジュエンデイサービスセンター",
    "address": "福島県本宮市和田字戸ノ内158番地3",
    "lat": 37.5178008,
    "lng": 140.4257195,
    "tel": "0243-64-2727",
    "url": "http://asaka.or.jp/fukusikai",
    "pref": "福島県",
    "city": "本宮市",
    "category": "community_day_service",
    "serviceType": "地域密着型通所介護",
    "capacity": 0,
    "openDays": [
      "平日",
      "土曜日",
      "祝日"
    ],
    "openDaysNote": ""
  },
  {
    "id": "791400054",
    "name": "デイサービス・かなや",
    "kana": "デイサービス・カナヤ",
    "address": "福島県本宮市糠沢字呑田１１番地",
    "lat": 37.4882207,
    "lng": 140.4449032,
    "tel": "0243-24-1068",
    "url": "",
    "pref": "福島県",
    "city": "本宮市",
    "category": "community_day_service",
    "serviceType": "地域密着型通所介護",
    "capacity": 13,
    "openDays": [
      "平日",
      "土曜日",
      "祝日"
    ],
    "openDaysNote": ""
  },
  {
    "id": "791400070",
    "name": "デイサービスセンター　アルク",
    "kana": "デイサービスセンター　アルク",
    "address": "福島県本宮市本宮字南山神42-1",
    "lat": 37.5101898873367,
    "lng": 140.393054017791,
    "tel": "0243-24-1885",
    "url": "https://www.meiryou2012.co.jp/aruku",
    "pref": "福島県",
    "city": "本宮市",
    "category": "community_day_service",
    "serviceType": "地域密着型通所介護",
    "capacity": null,
    "openDays": [
      "平日"
    ],
    "openDaysNote": ""
  },
  {
    "id": "771400173",
    "name": "デイサービスセンターよろこび",
    "kana": "デイサービスセンターヨロコビ",
    "address": "福島県本宮市本宮字塩田入162",
    "lat": 37.5110838,
    "lng": 140.3923304,
    "tel": "0243-24-5455",
    "url": "http://hp.kaipoke.biz/wu3/",
    "pref": "福島県",
    "city": "本宮市",
    "category": "community_day_service",
    "serviceType": "地域密着型通所介護",
    "capacity": null,
    "openDays": [
      "平日",
      "土曜日"
    ],
    "openDaysNote": "木曜日～8時00分～13時00分"
  },
  {
    "id": "772100426",
    "name": "ぼたん荘デイサービスセンター",
    "kana": "ボタンソウデイサービスセンター",
    "address": "福島県本宮市本宮字上千束3番地",
    "lat": 37.5181612,
    "lng": 140.3923822,
    "tel": "0243-63-2600",
    "url": "http://www.adachifukushi.jp",
    "pref": "福島県",
    "city": "本宮市",
    "category": "community_day_service",
    "serviceType": "地域密着型通所介護",
    "capacity": 15,
    "openDays": [
      "平日",
      "土曜日",
      "祝日"
    ],
    "openDaysNote": ""
  },
  {
    "id": "792900037",
    "name": "矢祭町デイサービスセンター舘山荘",
    "kana": "ヤマツリマチデイサービスセンタータテヤマソウ",
    "address": "福島県東白川郡矢祭町大字東舘字舘3-1",
    "lat": 36.8740945,
    "lng": 140.4270626,
    "tel": "0247-46-3186",
    "url": "http://www.yu-ai.org/",
    "pref": "福島県",
    "city": "矢祭町",
    "category": "community_day_service",
    "serviceType": "地域密着型通所介護",
    "capacity": 18,
    "openDays": [
      "平日",
      "祝日"
    ],
    "openDaysNote": "年末年始１２月３０日から１月３日（改行）お盆休み８月１４日１５日１６日"
  },
  {
    "id": "792900060",
    "name": "矢祭町デイサービスセンター舘山荘",
    "kana": "ヤマツリマチデイサービスセンタータテヤマソウ",
    "address": "福島県東白川郡矢祭町大字東舘字舘3−1",
    "lat": 36.8740945,
    "lng": 140.4270626,
    "tel": "0247−46−3186",
    "url": "",
    "pref": "福島県",
    "city": "矢祭町",
    "category": "community_day_service",
    "serviceType": "地域密着型通所介護",
    "capacity": null,
    "openDays": [
      "平日",
      "祝日"
    ],
    "openDaysNote": ""
  },
  {
    "id": "772600490",
    "name": "デイサービスセンター咲顔",
    "kana": "デイサービスセンターエガオ",
    "address": "福島県河沼郡柳津町郷戸字石神浦甲２２７９",
    "lat": 37.5046918,
    "lng": 139.7132012,
    "tel": "0241-42-7272",
    "url": "https://egao-yanaizu.com/",
    "pref": "福島県",
    "city": "柳津町",
    "category": "community_day_service",
    "serviceType": "地域密着型通所介護",
    "capacity": 11,
    "openDays": [
      "平日",
      "土曜日",
      "祝日"
    ],
    "openDaysNote": ""
  },
  {
    "id": "793200049",
    "name": "浪江町社会福祉協議会　ふれあいデイサービス",
    "kana": "ナミエマチシャカイフクシキョウギカイ　フレアイデイサービス",
    "address": "福島県双葉郡浪江町大字権現堂字矢沢町6番地の1",
    "lat": 37.491353,
    "lng": 140.9871475,
    "tel": "0240-23-5314",
    "url": "https://schit.net/namieshakyo/",
    "pref": "福島県",
    "city": "浪江町",
    "category": "community_day_service",
    "serviceType": "地域密着型通所介護",
    "capacity": 0,
    "openDays": [
      "平日"
    ],
    "openDaysNote": "＊大雪、路面凍結、台風など、安全な状態での送迎ができないと予測される状況の場合や、感染症のまん延が確認された際には、事業所の判断により、お休みすることがあります。"
  }
]