[
  {
    "id": "591300090",
    "name": "デイサービス　クローバーにかほ",
    "kana": "デイサービス　クローバーニカホ",
    "address": "秋田県にかほ市芹田字六坊68",
    "lat": 39.2807653177759,
    "lng": 139.935804465221,
    "tel": "0184-74-7333",
    "url": "https://clover-akita.com",
    "pref": "秋田県",
    "city": "にかほ市",
    "category": "community_day_service",
    "serviceType": "地域密着型通所介護",
    "capacity": null,
    "openDays": [
      "平日",
      "祝日"
    ],
    "openDaysNote": ""
  },
  {
    "id": "571321470",
    "name": "デイサービス　午の浜",
    "kana": "デイサービイス　ゴノハマ",
    "address": "秋田県にかほ市三森字午の浜100番地1",
    "lat": 39.2852454,
    "lng": 139.9435588,
    "tel": "0184-74-5654",
    "url": "",
    "pref": "秋田県",
    "city": "にかほ市",
    "category": "community_day_service",
    "serviceType": "地域密着型通所介護",
    "capacity": 10,
    "openDays": [
      "平日",
      "祝日"
    ],
    "openDaysNote": ""
  },
  {
    "id": "591300074",
    "name": "デイサービスセンターたから指定地域密着型通所介護事業所",
    "kana": "デイサービスセンタータカラシテイチイキミッチャクガタツウショカイゴジギョウショ",
    "address": "秋田県にかほ市平沢字宝田32",
    "lat": 39.2834126,
    "lng": 139.9621685,
    "tel": "0184-32-3711",
    "url": "",
    "pref": "秋田県",
    "city": "にかほ市",
    "category": "community_day_service",
    "serviceType": "地域密着型通所介護",
    "capacity": 0,
    "openDays": [
      "平日",
      "土曜日",
      "祝日"
    ],
    "openDaysNote": ""
  },
  {
    "id": "571313691",
    "name": "デイサービスセンター合歓",
    "kana": "デイサービスセンターネブ",
    "address": "秋田県にかほ市象潟町字後田７７－１",
    "lat": 39.2065915,
    "lng": 139.9006076,
    "tel": "0184-74-7220",
    "url": "http://kisakata-kenseikai.or.jp/",
    "pref": "秋田県",
    "city": "にかほ市",
    "category": "community_day_service",
    "serviceType": "地域密着型通所介護",
    "capacity": 0,
    "openDays": [
      "平日",
      "土曜日",
      "日曜日",
      "祝日"
    ],
    "openDaysNote": ""
  },
  {
    "id": "571324284",
    "name": "デイサービスふきのとう",
    "kana": "デイサービスフキノトウ",
    "address": "秋田県にかほ市中三地字堀ノ内1番地",
    "lat": 39.2448386,
    "lng": 139.959048000306,
    "tel": "0184-74-3651",
    "url": "",
    "pref": "秋田県",
    "city": "にかほ市",
    "category": "community_day_service",
    "serviceType": "地域密着型通所介護",
    "capacity": 0,
    "openDays": [
      "平日",
      "土曜日",
      "祝日"
    ],
    "openDaysNote": "お盆　8/13～15　　　年末年始　12/31～1/2"
  },
  {
    "id": "572512481",
    "name": "小規模デイサービス　こすもす",
    "kana": "ショウキボデイサービス　コスモス",
    "address": "秋田県にかほ市平沢字堺田26-1",
    "lat": 39.2818793,
    "lng": 139.9599048,
    "tel": "0184-37-3777",
    "url": "http://nikaho-attaccante.jp/",
    "pref": "秋田県",
    "city": "にかほ市",
    "category": "community_day_service",
    "serviceType": "地域密着型通所介護",
    "capacity": 10,
    "openDays": [
      "平日",
      "土曜日",
      "日曜日",
      "祝日"
    ],
    "openDaysNote": "基本的な利用時間は9：30～16：30です。上記時間は延長に対応した営業時間となっております。"
  },
  {
    "id": "571351584",
    "name": "通所介護事業所　ハルモニア・にかほ",
    "kana": "ツウショカイゴジギョウショ　ハルモニア・ニカホ",
    "address": "秋田県にかほ市院内字嶋田４２番地１",
    "lat": 39.2822331382238,
    "lng": 139.963693198811,
    "tel": "０１８４－７４－６６２２",
    "url": "http://harmonia-nikaho.com/",
    "pref": "秋田県",
    "city": "にかほ市",
    "category": "community_day_service",
    "serviceType": "地域密着型通所介護",
    "capacity": 0,
    "openDays": [
      "平日",
      "土曜日"
    ],
    "openDaysNote": ""
  },
  {
    "id": "594000127",
    "name": "高瀬デイサービスセンター",
    "kana": "タカセデイサービスセンター",
    "address": "秋田県雄勝郡羽後町下仙道字風平97番地１",
    "lat": 39.168979,
    "lng": 140.319976,
    "tel": "0183-58-7620",
    "url": "",
    "pref": "秋田県",
    "city": "羽後町",
    "category": "community_day_service",
    "serviceType": "地域密着型通所介護",
    "capacity": 0,
    "openDays": [
      "平日",
      "土曜日",
      "祝日"
    ],
    "openDaysNote": ""
  },
  {
    "id": "590300414",
    "name": "AKITAトレーニングセンター",
    "kana": "アキタトレーニングセンター",
    "address": "秋田県横手市婦気大堤字婦気前269-1",
    "lat": 39.3020627,
    "lng": 140.5494292,
    "tel": "0182-23-7966",
    "url": "http://www.flh1.net",
    "pref": "秋田県",
    "city": "横手市",
    "category": "community_day_service",
    "serviceType": "地域密着型通所介護",
    "capacity": 0,
    "openDays": [
      "平日",
      "祝日"
    ],
    "openDaysNote": "祝日が日曜日の場合は休み。"
  },
  {
    "id": "590300398",
    "name": "GENKINEXT秋田横手",
    "kana": "ゲンキネクストアキタヨコテ",
    "address": "秋田県横手市赤坂字舘ノ下105-6",
    "lat": 39.2972603,
    "lng": 140.5494605,
    "tel": "0182-23-5338",
    "url": "",
    "pref": "秋田県",
    "city": "横手市",
    "category": "community_day_service",
    "serviceType": "地域密着型通所介護",
    "capacity": 0,
    "openDays": [
      "平日",
      "祝日"
    ],
    "openDaysNote": "月曜日～金曜日（祝日含む）　営業（改行）（改行）午前9：00～12：05　午後13：25～16：30　　3時間5分の２部制でサービス提供"
  },
  {
    "id": "590300471",
    "name": "ＪＡふるさとデイサービスセンターだいごの里",
    "kana": "ジェーエーフルサトデイサービスセンターダイゴノサト",
    "address": "秋田県横手市平鹿町醍醐字道中後28番地1",
    "lat": 39.2508373,
    "lng": 140.5390212,
    "tel": "0182-56-0296",
    "url": "https://furusato-fukusi.jp/",
    "pref": "秋田県",
    "city": "横手市",
    "category": "community_day_service",
    "serviceType": "地域密着型通所介護",
    "capacity": 0,
    "openDays": [
      "平日",
      "祝日"
    ],
    "openDaysNote": ""
  },
  {
    "id": "570323675",
    "name": "デイサービス　アクティブ",
    "kana": "デイサービス　アクティブ",
    "address": "秋田県横手市十文字町十五野新田字十文字下タ6-6",
    "lat": 39.226772596673,
    "lng": 140.517132462861,
    "tel": "0182-23-8501",
    "url": "",
    "pref": "秋田県",
    "city": "横手市",
    "category": "community_day_service",
    "serviceType": "地域密着型通所介護",
    "capacity": 10,
    "openDays": [
      "平日",
      "祝日"
    ],
    "openDaysNote": "サービス提供時間は、午前・午後に分けられる。（改行）午前（9：00～12：05）・午後（13：35～16：35）"
  },
  {
    "id": "590300281",
    "name": "デイサービス　いきいき横手",
    "kana": "デイサービス　イキイキヨコテ",
    "address": "秋田県横手市雄物川町沼館字昼飯塚１１",
    "lat": 39.2942191,
    "lng": 140.4318202,
    "tel": "０１８２－２３－７６６６",
    "url": "http://ikiiki-akita.com/",
    "pref": "秋田県",
    "city": "横手市",
    "category": "community_day_service",
    "serviceType": "地域密着型通所介護",
    "capacity": 18,
    "openDays": [
      "平日"
    ],
    "openDaysNote": "サービス提供時間（改行）午前の部9:00~12:05（改行）午後の部1:25~4:30"
  },
  {
    "id": "590300349",
    "name": "デイサービス　ウエスト・リバー",
    "kana": "デイサービス　ウエスト・リバー",
    "address": "秋田県横手市大森町袴形字西神成7-2",
    "lat": 39.3729041,
    "lng": 140.4463591,
    "tel": "0182-23-7027",
    "url": "",
    "pref": "秋田県",
    "city": "横手市",
    "category": "community_day_service",
    "serviceType": "地域密着型通所介護",
    "capacity": 18,
    "openDays": [
      "平日",
      "土曜日"
    ],
    "openDaysNote": ""
  },
  {
    "id": "590300356",
    "name": "デイサービスごやさん",
    "kana": "デイサービスゴヤサン",
    "address": "秋田県横手市杉沢字鶴谷地106-2",
    "lat": 39.3413237949495,
    "lng": 140.564887978806,
    "tel": "0182-32-9372",
    "url": "",
    "pref": "秋田県",
    "city": "横手市",
    "category": "community_day_service",
    "serviceType": "地域密着型通所介護",
    "capacity": 0,
    "openDays": [
      "平日",
      "祝日"
    ],
    "openDaysNote": "火曜日から金曜日であれば、祝祭日でも営業いたします。"
  },
  {
    "id": "570321679",
    "name": "デイサービスセンター　　　よつ葉",
    "kana": "デイサービスセンター　ヨツバ",
    "address": "秋田県横手市梅の木町4-16コーポラス三葉03　103号 コーポラス三葉03　103号",
    "lat": 39.3164550764775,
    "lng": 140.557829276686,
    "tel": "0182-36-1410",
    "url": "",
    "pref": "秋田県",
    "city": "横手市",
    "category": "community_day_service",
    "serviceType": "地域密着型通所介護",
    "capacity": 7,
    "openDays": [
      "平日",
      "土曜日",
      "日曜日",
      "祝日"
    ],
    "openDaysNote": "8/13・14・15及び12/31～1/3　休日"
  },
  {
    "id": "570321620",
    "name": "デイサービスセンター　きゅあ",
    "kana": "デイサービスセンター　キュア",
    "address": "秋田県横手市前郷二番町11-15RBビル1階 RBビル1階",
    "lat": 39.3061257641149,
    "lng": 140.564018145506,
    "tel": "0182－23－7781",
    "url": "https://so-medical.jp/",
    "pref": "秋田県",
    "city": "横手市",
    "category": "community_day_service",
    "serviceType": "地域密着型通所介護",
    "capacity": 18,
    "openDays": [
      "平日",
      "土曜日",
      "祝日"
    ],
    "openDaysNote": "サービス提供時間（改行）午前　9：00～12：00（改行）午後　13：15～16：15"
  },
  {
    "id": "570318378",
    "name": "デイサービスセンター　さくら",
    "kana": "デイサービスセンター　サクラ",
    "address": "秋田県横手市駅前町１４番９号",
    "lat": 39.3059715,
    "lng": 140.5621501,
    "tel": "0182-38-8033",
    "url": "http://www.yokotefukushikai.or.jp",
    "pref": "秋田県",
    "city": "横手市",
    "category": "community_day_service",
    "serviceType": "地域密着型通所介護",
    "capacity": 14,
    "openDays": [
      "平日",
      "土曜日",
      "祝日"
    ],
    "openDaysNote": ""
  },
  {
    "id": "570318691",
    "name": "デイサービスセンター　なごむ",
    "kana": "デイサービスセンターナゴム",
    "address": "秋田県横手市山内南郷字大払川139-1",
    "lat": 39.2530805,
    "lng": 140.6722401,
    "tel": "0182-53-2226",
    "url": "",
    "pref": "秋田県",
    "city": "横手市",
    "category": "community_day_service",
    "serviceType": "地域密着型通所介護",
    "capacity": 0,
    "openDays": [
      "平日",
      "祝日"
    ],
    "openDaysNote": ""
  },
  {
    "id": "590300430",
    "name": "デイサービスセンターきゅあおおもり",
    "kana": "デイサービスセンターキュアオオモリ",
    "address": "秋田県横手市大森町菅生田245-68",
    "lat": 39.3470599,
    "lng": 140.4168205,
    "tel": "0182-23-7025",
    "url": "https://so-medical.jp/",
    "pref": "秋田県",
    "city": "横手市",
    "category": "community_day_service",
    "serviceType": "地域密着型通所介護",
    "capacity": 0,
    "openDays": [
      "平日",
      "土曜日",
      "祝日"
    ],
    "openDaysNote": ""
  },
  {
    "id": "590300448",
    "name": "デイサービスセンターすこやか横手",
    "kana": "デイサービスセンタースコヤカヨコテ",
    "address": "秋田県横手市横山町1-1",
    "lat": 39.304565,
    "lng": 140.5635803,
    "tel": "0182-33-7777",
    "url": "http://family-care-service.com/yokote/",
    "pref": "秋田県",
    "city": "横手市",
    "category": "community_day_service",
    "serviceType": "地域密着型通所介護",
    "capacity": null,
    "openDays": [
      "平日",
      "土曜日",
      "祝日"
    ],
    "openDaysNote": "感染症が発生した場合は、感染対策委員会を開催して営業の有無を検討。営業に支障が発生すると判断になった場合は臨時休業とする。"
  },
  {
    "id": "590300372",
    "name": "デイサービスみなみ",
    "kana": "デイサービスミナミ",
    "address": "秋田県横手市横手町三ノ口12－2",
    "lat": 39.3182593,
    "lng": 140.5513775,
    "tel": "0182－38－8797",
    "url": "https://www.minaminokazeyokote.jp/",
    "pref": "秋田県",
    "city": "横手市",
    "category": "community_day_service",
    "serviceType": "地域密着型通所介護",
    "capacity": 18,
    "openDays": [
      "平日",
      "祝日"
    ],
    "openDaysNote": ""
  },
  {
    "id": "590300455",
    "name": "デイサービス凪(なぎ)",
    "kana": "デイサービスナギ",
    "address": "秋田県横手市十文字町上鍋倉字東坊田野13－1",
    "lat": 39.221168937541,
    "lng": 140.521662149657,
    "tel": "0182-23-7756",
    "url": "http://k-etcs.com/",
    "pref": "秋田県",
    "city": "横手市",
    "category": "community_day_service",
    "serviceType": "地域密着型通所介護",
    "capacity": 10,
    "openDays": [
      "平日",
      "土曜日",
      "祝日"
    ],
    "openDaysNote": "年末年始は12月31日～1月2日まで（改行）お盆休みは8月13日"
  },
  {
    "id": "590300463",
    "name": "デイサロン　まかな",
    "kana": "デイサロン　マカナ",
    "address": "秋田県横手市十文字町梨木字沖野10番地2",
    "lat": 39.2306799,
    "lng": 140.5243007,
    "tel": "0182-38-8809",
    "url": "https://www.makanayokote.com/",
    "pref": "秋田県",
    "city": "横手市",
    "category": "community_day_service",
    "serviceType": "地域密着型通所介護",
    "capacity": null,
    "openDays": [
      "平日",
      "祝日"
    ],
    "openDaysNote": ""
  },
  {
    "id": "590300422",
    "name": "ヘルシーアップル　アイリスデイサービスセンター",
    "kana": "ヘルシーアップル　アイリスデイサービスセンター",
    "address": "秋田県横手市平鹿町中吉田字竹原100-3",
    "lat": 39.2692789,
    "lng": 140.4961749,
    "tel": "0182-23-6704",
    "url": "http://healthyapple.jp",
    "pref": "秋田県",
    "city": "横手市",
    "category": "community_day_service",
    "serviceType": "地域密着型通所介護",
    "capacity": null,
    "openDays": [
      "平日",
      "祝日"
    ],
    "openDaysNote": ""
  },
  {
    "id": "570321836",
    "name": "菜康苑デイサービスセンター",
    "kana": "サイコウエンデイサービスセンター",
    "address": "秋田県横手市平鹿町醍醐字道中56-2シャイニータウン菜康苑　ケアステーション シャイニータウン菜康苑　ケアステーション",
    "lat": 39.2496256296471,
    "lng": 140.542757193918,
    "tel": "0182-25-4575",
    "url": "http://gl-saikouen.jp/",
    "pref": "秋田県",
    "city": "横手市",
    "category": "community_day_service",
    "serviceType": "地域密着型通所介護",
    "capacity": 18,
    "openDays": [
      "平日",
      "土曜日",
      "日曜日",
      "祝日"
    ],
    "openDaysNote": ""
  },
  {
    "id": "570317107",
    "name": "社会福祉法人ファミリーケアサービス　横手市デイサービスセンター　シルバードームいきいきの郷",
    "kana": "シャカイフクシホウジンファミリーケアサービス　ヨコテシデイサービスセンター　シルバードームイキイキノサト",
    "address": "横手市増田町増田字七日町177",
    "lat": 39.2033187,
    "lng": 140.5492265,
    "tel": "0182-45-4411",
    "url": "http://family-care-service.com/",
    "pref": "秋田県",
    "city": "横手市",
    "category": "community_day_service",
    "serviceType": "地域密着型通所介護",
    "capacity": 18,
    "openDays": [
      "平日",
      "土曜日",
      "祝日"
    ],
    "openDaysNote": ""
  },
  {
    "id": "570317131",
    "name": "社会福祉法人相和会　横手市特別養護老人ホーム鶴寿苑老人デイサービスセンター",
    "kana": "シャカイフクシホウジンソウワカイ　ヨコテシトクベツヨウゴロウジンホームカクジュエンロウジンデイサービスセンター",
    "address": "秋田県横手市山内土渕字鶴ヶ池３１－３",
    "lat": 39.2824601691891,
    "lng": 140.621358160713,
    "tel": "0182-53-2308",
    "url": "http://sowakai.jp",
    "pref": "秋田県",
    "city": "横手市",
    "category": "community_day_service",
    "serviceType": "地域密着型通所介護",
    "capacity": 18,
    "openDays": [
      "平日",
      "祝日"
    ],
    "openDaysNote": "天災その他やむを得ず業務を遂行できない日を除く。"
  },
  {
    "id": "570322586",
    "name": "炭酸の湯　ほっとデイ　花むつみ",
    "kana": "タンサンノユ　ホットデイ　ハナムツミ",
    "address": "秋田県横手市十文字町睦合字宿屋布14番地8",
    "lat": 39.2305401,
    "lng": 140.4486087,
    "tel": "0182-23-5678",
    "url": "http://isshin-group.net/",
    "pref": "秋田県",
    "city": "横手市",
    "category": "community_day_service",
    "serviceType": "地域密着型通所介護",
    "capacity": 0,
    "openDays": [
      "平日",
      "祝日"
    ],
    "openDaysNote": ""
  },
  {
    "id": "570314989",
    "name": "炭酸浴デイサービスセンター霞桜の湯",
    "kana": "タンサンヨクデイサービスセンターカスミザクラノユ",
    "address": "秋田県横手市増田町熊渕字飯館218番地",
    "lat": 39.1950307,
    "lng": 140.5629553,
    "tel": "0182-55-1151",
    "url": "http://www.wako-group.net",
    "pref": "秋田県",
    "city": "横手市",
    "category": "community_day_service",
    "serviceType": "地域密着型通所介護",
    "capacity": 18,
    "openDays": [
      "平日",
      "祝日"
    ],
    "openDaysNote": ""
  },
  {
    "id": "570322974",
    "name": "茶話本舗デイサービス　横手ボヌール",
    "kana": "サワホンポデイサービス　ヨコテボヌール",
    "address": "秋田県横手市平鹿町中吉田字清水の上105",
    "lat": 39.2756901,
    "lng": 140.5032598,
    "tel": "0182-23-5757",
    "url": "http://k-etcs.com/",
    "pref": "秋田県",
    "city": "横手市",
    "category": "community_day_service",
    "serviceType": "地域密着型通所介護",
    "capacity": 10,
    "openDays": [
      "平日",
      "土曜日",
      "祝日"
    ],
    "openDaysNote": ""
  },
  {
    "id": "570321497",
    "name": "茶話本舗デイサービス　横手マハロ亭",
    "kana": "サワホンポデイサービス　ヨコテマハロテイ",
    "address": "横手市梅の木町５番３８号",
    "lat": 39.3170502003827,
    "lng": 140.557785393254,
    "tel": "0182-23-5745",
    "url": "https://k-etcs.com/",
    "pref": "秋田県",
    "city": "横手市",
    "category": "community_day_service",
    "serviceType": "地域密着型通所介護",
    "capacity": 10,
    "openDays": [
      "平日",
      "土曜日",
      "祝日"
    ],
    "openDaysNote": "年末年始の休業は12月31日～1月2日まで（改行）お盆の休業は8月13日のみとする"
  },
  {
    "id": "590300380",
    "name": "歩行と言葉のリハビリ空間なごみ横手",
    "kana": "ホコウトコトバノリハビリクウカンナゴミヨコテ",
    "address": "秋田県横手市八幡字石町165番1号",
    "lat": 39.3267934,
    "lng": 140.555158,
    "tel": "0182－23－5315",
    "url": "http://nagomi-a.jp/",
    "pref": "秋田県",
    "city": "横手市",
    "category": "community_day_service",
    "serviceType": "地域密着型通所介護",
    "capacity": 0,
    "openDays": [
      "平日",
      "祝日"
    ],
    "openDaysNote": ""
  },
  {
    "id": "572322790",
    "name": "デイサービス真心",
    "kana": "デイサービスマコ",
    "address": "秋田県潟上市天王字追分西2－115",
    "lat": 39.8088054,
    "lng": 140.0544938,
    "tel": "018-893-6888",
    "url": "",
    "pref": "秋田県",
    "city": "潟上市",
    "category": "community_day_service",
    "serviceType": "地域密着型通所介護",
    "capacity": 0,
    "openDays": [
      "平日",
      "祝日"
    ],
    "openDaysNote": "サービス提供時間　午前9時30分～午後3時30分"
  },
  {
    "id": "591000112",
    "name": "潟上地域リハビリステーション",
    "kana": "カタガミチイキリハビリステーション",
    "address": "秋田県潟上市飯田川下虻川字井戸沢41",
    "lat": 39.8827443,
    "lng": 140.0740895,
    "tel": "018-853-0236",
    "url": "http://www.seiwakai-net.com/rihabiri",
    "pref": "秋田県",
    "city": "潟上市",
    "category": "community_day_service",
    "serviceType": "地域密着型通所介護",
    "capacity": 0,
    "openDays": [
      "平日",
      "土曜日",
      "祝日"
    ],
    "openDaysNote": "祝日の月曜日は運営し、翌日の火曜日が定休日となります。その週におきましては、火曜日通所予定の利用者様が月曜日利用に振り替えとなります。"
  },
  {
    "id": "572314813",
    "name": "デイサービスセンター福寿荘",
    "kana": "デイサービスセンターフクジュソウ",
    "address": "秋田県南秋田郡五城目町字鵜ノ木９０番地１",
    "lat": 39.9438754,
    "lng": 140.1163999,
    "tel": "018-879-8577",
    "url": "",
    "pref": "秋田県",
    "city": "五城目町",
    "category": "community_day_service",
    "serviceType": "地域密着型通所介護",
    "capacity": 0,
    "openDays": [
      "平日",
      "祝日"
    ],
    "openDaysNote": ""
  },
  {
    "id": "572217198",
    "name": "デイサービスセンターもりたけ",
    "kana": "デイサービスセンターモリタケ",
    "address": "秋田県山本郡三種町森岳字木戸沢１００－４７",
    "lat": 40.0837976,
    "lng": 140.088824,
    "tel": "0185-72-4555",
    "url": "http://www.moritake-onsen.com/",
    "pref": "秋田県",
    "city": "三種町",
    "category": "community_day_service",
    "serviceType": "地域密着型通所介護",
    "capacity": 0,
    "openDays": [
      "平日",
      "土曜日",
      "祝日"
    ],
    "openDaysNote": "12/31,1/1～1/3　休業日"
  },
  {
    "id": "572214203",
    "name": "三種町社会福祉協議会琴丘デイサービスセンター",
    "kana": "ミタネチョウシャカイフクシキョウギカイコトオカデイサービスセンター",
    "address": "秋田県山本郡三種町鹿渡字町後２６３",
    "lat": 40.0397084,
    "lng": 140.0768582,
    "tel": "0185-87-4511",
    "url": "https://www.mitane-shakyo.jp",
    "pref": "秋田県",
    "city": "三種町",
    "category": "community_day_service",
    "serviceType": "地域密着型通所介護",
    "capacity": 0,
    "openDays": [
      "平日"
    ],
    "openDaysNote": ""
  },
  {
    "id": "570922674",
    "name": "デイサービスセンターゆぜ温泉",
    "kana": "デイサービスセンターユゼオンセン",
    "address": "秋田県鹿角市八幡平字湯瀬30-2",
    "lat": 40.1228785,
    "lng": 140.838245,
    "tel": "0186-25-8633",
    "url": "",
    "pref": "秋田県",
    "city": "鹿角市",
    "category": "community_day_service",
    "serviceType": "地域密着型通所介護",
    "capacity": 0,
    "openDays": [
      "平日",
      "祝日"
    ],
    "openDaysNote": ""
  },
  {
    "id": "590900171",
    "name": "デイサービスみしょうえん",
    "kana": "デイサービスミショウエン",
    "address": "秋田県鹿角市十和田大湯字屋布ノ下タ２０番地",
    "lat": 40.2730125,
    "lng": 140.7910166,
    "tel": "0186-35-5556",
    "url": "https://jyukoukai.jp",
    "pref": "秋田県",
    "city": "鹿角市",
    "category": "community_day_service",
    "serviceType": "地域密着型通所介護",
    "capacity": 0,
    "openDays": [
      "平日",
      "土曜日",
      "祝日"
    ],
    "openDaysNote": "年末年始、お盆期間は営業日を振り替えることがあります。"
  },
  {
    "id": "590900130",
    "name": "地域密着型すえひろデイサービスセンター",
    "kana": "チイキミッチャクガタ　スエヒロデイサービスセンター",
    "address": "秋田県鹿角市十和田末広字家の下7番地",
    "lat": 40.2357099,
    "lng": 140.7361423,
    "tel": "0186-35-3996",
    "url": "https://www.yui-kazuno.jp",
    "pref": "秋田県",
    "city": "鹿角市",
    "category": "community_day_service",
    "serviceType": "地域密着型通所介護",
    "capacity": 6,
    "openDays": [
      "平日",
      "祝日"
    ],
    "openDaysNote": ""
  },
  {
    "id": "570123323",
    "name": "GENKINEXT秋田駅東口",
    "kana": "ゲンキネクストアキタエキヒガシグチ",
    "address": "秋田県秋田市手形字西谷地416番地1アジマックス駅東口ビル１階 アジマックス駅東口ビル１階",
    "lat": 39.7173677,
    "lng": 140.1340004,
    "tel": "018-827-5622",
    "url": "",
    "pref": "秋田県",
    "city": "秋田市",
    "category": "community_day_service",
    "serviceType": "地域密着型通所介護",
    "capacity": 120,
    "openDays": [
      "平日",
      "土曜日",
      "祝日"
    ],
    "openDaysNote": "お盆休み　8月13日　14日　15日　16日（改行）お正月休み　12月30日　31日　1月1日　2日　3日"
  },
  {
    "id": "570110163",
    "name": "ア・ラ・ヤでデイ",
    "kana": "アラヤデデイ",
    "address": "秋田市新屋比内町13-1",
    "lat": 39.6787428,
    "lng": 140.0845378,
    "tel": "018-828-8170",
    "url": "https://arayadeday.exblog.jp/",
    "pref": "秋田県",
    "city": "秋田市",
    "category": "community_day_service",
    "serviceType": "地域密着型通所介護",
    "capacity": 0,
    "openDays": [
      "平日",
      "土曜日",
      "祝日"
    ],
    "openDaysNote": ""
  },
  {
    "id": "570118034",
    "name": "あおぞらデイサービス御野場",
    "kana": "アオゾラデイサービスオノバ",
    "address": "秋田県秋田市御野場新町一丁目１８－１",
    "lat": 39.6736247054335,
    "lng": 140.117299784656,
    "tel": "018-874-9049",
    "url": "http://www.aozoragroup.jp/",
    "pref": "秋田県",
    "city": "秋田市",
    "category": "community_day_service",
    "serviceType": "地域密着型通所介護",
    "capacity": 0,
    "openDays": [
      "平日",
      "土曜日",
      "日曜日",
      "祝日"
    ],
    "openDaysNote": ""
  },
  {
    "id": "590100913",
    "name": "あおぞらデイサービス桜",
    "kana": "アオゾラデイサービスサクラ",
    "address": "秋田県秋田市桜二丁目6番2号",
    "lat": 39.7063889,
    "lng": 140.1482748,
    "tel": "018-853-5517",
    "url": "https://aozoragroup.jp",
    "pref": "秋田県",
    "city": "秋田市",
    "category": "community_day_service",
    "serviceType": "地域密着型通所介護",
    "capacity": 0,
    "openDays": [
      "平日",
      "土曜日",
      "日曜日",
      "祝日"
    ],
    "openDaysNote": ""
  },
  {
    "id": "570117721",
    "name": "あおぞらデイサービス新屋",
    "kana": "アオゾラデイサービスアラヤ",
    "address": "秋田県秋田市新屋南浜町2-5",
    "lat": 39.6972111664709,
    "lng": 140.074591448093,
    "tel": "018-874-8569",
    "url": "http://www.aozoragroup.jp/",
    "pref": "秋田県",
    "city": "秋田市",
    "category": "community_day_service",
    "serviceType": "地域密着型通所介護",
    "capacity": 0,
    "openDays": [
      "平日",
      "土曜日",
      "日曜日",
      "祝日"
    ],
    "openDaysNote": ""
  },
  {
    "id": "590101259",
    "name": "あおぞらデイサービス千秋",
    "kana": "アオゾラデイサービスセンシュウ",
    "address": "秋田県秋田市千秋矢留町11－17",
    "lat": 39.725096,
    "lng": 140.120764,
    "tel": "018-838-0768",
    "url": "https://aozoragroup.jp/company/",
    "pref": "秋田県",
    "city": "秋田市",
    "category": "community_day_service",
    "serviceType": "地域密着型通所介護",
    "capacity": 0,
    "openDays": [
      "平日",
      "土曜日",
      "日曜日",
      "祝日"
    ],
    "openDaysNote": ""
  },
  {
    "id": "570119305",
    "name": "あおぞらデイサービス大住",
    "kana": "アオゾラデイサービスオオスミ",
    "address": "秋田市大住南3丁目16-9",
    "lat": 39.6898447,
    "lng": 140.1017187,
    "tel": "018-874-7901",
    "url": "https://aozoragroup.jp/",
    "pref": "秋田県",
    "city": "秋田市",
    "category": "community_day_service",
    "serviceType": "地域密着型通所介護",
    "capacity": 0,
    "openDays": [
      "平日",
      "土曜日",
      "日曜日",
      "祝日"
    ],
    "openDaysNote": "いつでも安心してサービスを受けられるよう年中無休体制を取っています。（改行）通所介護サービス時間も長めに設定しております。"
  },
  {
    "id": "570122838",
    "name": "あおぞらデイサービス南通り",
    "kana": "アオゾラデイサービスミナミドオリ",
    "address": "秋田県秋田市南通亀の町4-7あおぞらデイサービス南通り あおぞらデイサービス南通り",
    "lat": 39.711815,
    "lng": 140.1178467,
    "tel": "018-893-3639",
    "url": "https://aozoragroup.jp/",
    "pref": "秋田県",
    "city": "秋田市",
    "category": "community_day_service",
    "serviceType": "地域密着型通所介護",
    "capacity": 10,
    "openDays": [
      "平日",
      "土曜日",
      "日曜日",
      "祝日"
    ],
    "openDaysNote": "なし"
  },
  {
    "id": "590101275",
    "name": "エールデイサービス秋田店",
    "kana": "エールデイサービスアキタテン",
    "address": "秋田県秋田市下北手松崎字家ノ前４－４",
    "lat": 39.7243755,
    "lng": 140.1595369,
    "tel": "018-893-6881",
    "url": "",
    "pref": "秋田県",
    "city": "秋田市",
    "category": "community_day_service",
    "serviceType": "地域密着型通所介護",
    "capacity": null,
    "openDays": [
      "平日",
      "土曜日",
      "日曜日",
      "祝日"
    ],
    "openDaysNote": ""
  },
  {
    "id": "590101325",
    "name": "さくらデイサービス",
    "kana": "サクラデイサービス",
    "address": "秋田県秋田市横森四丁目９番３６号",
    "lat": 39.7060661,
    "lng": 140.1477796,
    "tel": "018-893-6085",
    "url": "",
    "pref": "秋田県",
    "city": "秋田市",
    "category": "community_day_service",
    "serviceType": "地域密着型通所介護",
    "capacity": 0,
    "openDays": [
      "平日",
      "土曜日",
      "祝日"
    ],
    "openDaysNote": ""
  },
  {
    "id": "570106989",
    "name": "だまこ亭",
    "kana": "ダマコテイ",
    "address": "秋田県秋田市土崎港南一丁目9番28号",
    "lat": 39.7468233,
    "lng": 140.0680158,
    "tel": "018-880-2236",
    "url": "http://damakot.blog.fc2.com/",
    "pref": "秋田県",
    "city": "秋田市",
    "category": "community_day_service",
    "serviceType": "地域密着型通所介護",
    "capacity": 10,
    "openDays": [
      "平日",
      "祝日"
    ],
    "openDaysNote": ""
  },
  {
    "id": "590100954",
    "name": "デイ・リハスポット　ワンズライフ中央",
    "kana": "デイリハスポット　ワンズライフチュウオウ",
    "address": "秋田県秋田市千秋矢留町10番12号",
    "lat": 39.7244395309538,
    "lng": 140.120993415987,
    "tel": "018-838-5350",
    "url": "http://oneslife-akita.jp/",
    "pref": "秋田県",
    "city": "秋田市",
    "category": "community_day_service",
    "serviceType": "地域密着型通所介護",
    "capacity": 0,
    "openDays": [
      "平日",
      "祝日"
    ],
    "openDaysNote": ""
  },
  {
    "id": "570122168",
    "name": "デイ・リハスポット　西部ワンズライフ",
    "kana": "デイ・リハスポット　セイブワンズライフ",
    "address": "秋田県秋田市新屋大川町19-85",
    "lat": 39.6859704002883,
    "lng": 140.088689013894,
    "tel": "018-827-3557",
    "url": "http://oneslife-akita.jp/",
    "pref": "秋田県",
    "city": "秋田市",
    "category": "community_day_service",
    "serviceType": "地域密着型通所介護",
    "capacity": 18,
    "openDays": [
      "平日",
      "土曜日",
      "祝日"
    ],
    "openDaysNote": ""
  },
  {
    "id": "590101077",
    "name": "デイ・リハホーム　ワンズライフ牛島",
    "kana": "デイ・リハホーム　ワンズライフウシジマ",
    "address": "秋田県秋田市牛島西一丁目４－４３",
    "lat": 39.6967607,
    "lng": 140.1150426,
    "tel": "０１８－８３８－５３１７",
    "url": "http://oneslife-akita.jp/",
    "pref": "秋田県",
    "city": "秋田市",
    "category": "community_day_service",
    "serviceType": "地域密着型通所介護",
    "capacity": 10,
    "openDays": [
      "平日",
      "祝日"
    ],
    "openDaysNote": ""
  },
  {
    "id": "570122127",
    "name": "デイサービス　り・あくと",
    "kana": "デイサービス　リ・アクト",
    "address": "秋田市手形字西谷地188－1西村ビル　東棟 西村ビル　東棟",
    "lat": 39.7180505311902,
    "lng": 140.133264416878,
    "tel": "018-874-8297",
    "url": "http://www.rehapot.com/",
    "pref": "秋田県",
    "city": "秋田市",
    "category": "community_day_service",
    "serviceType": "地域密着型通所介護",
    "capacity": 5,
    "openDays": [
      "平日",
      "祝日"
    ],
    "openDaysNote": "お盆休暇：8/13　　年末年始休暇：12/30～1/3"
  },
  {
    "id": "590101143",
    "name": "デイサービスえん",
    "kana": "デイサービスエン",
    "address": "秋田県秋田市泉中央2丁目14-6ノーベル泉105号 ノーベル泉105号",
    "lat": 39.7341926,
    "lng": 140.1065972,
    "tel": "018‐838‐7066",
    "url": "",
    "pref": "秋田県",
    "city": "秋田市",
    "category": "community_day_service",
    "serviceType": "地域密着型通所介護",
    "capacity": null,
    "openDays": [
      "平日",
      "祝日"
    ],
    "openDaysNote": ""
  },
  {
    "id": "570115501",
    "name": "デイサービスさくら家",
    "kana": "デイサービス　サクラヤ",
    "address": "秋田市仁井田福島一丁目１８－２９",
    "lat": 39.6908291,
    "lng": 140.130277,
    "tel": "018-839-3031",
    "url": "",
    "pref": "秋田県",
    "city": "秋田市",
    "category": "community_day_service",
    "serviceType": "地域密着型通所介護",
    "capacity": 15,
    "openDays": [
      "平日",
      "土曜日",
      "祝日"
    ],
    "openDaysNote": "営業時間外であっても電話等により24時間連絡が可能な体制になっています。"
  },
  {
    "id": "590101119",
    "name": "デイサービスセンターのぞみ翔裕館",
    "kana": "デイサービスセンターノゾミショウユウカン",
    "address": "秋田県秋田市上北手荒巻字堺切48ケアホテルのぞみ翔裕館 ケアホテルのぞみ翔裕館",
    "lat": 39.6890294,
    "lng": 140.1500792,
    "tel": "018-839-8503",
    "url": "https://sanga-kaigo.co.jp",
    "pref": "秋田県",
    "city": "秋田市",
    "category": "community_day_service",
    "serviceType": "地域密着型通所介護",
    "capacity": 0,
    "openDays": [
      "平日",
      "土曜日",
      "祝日"
    ],
    "openDaysNote": ""
  },
  {
    "id": "590100723",
    "name": "デイサービスセンターひなた",
    "kana": "デイサービスセンターヒナタ",
    "address": "秋田県秋田市土崎港中央三丁目４－３９在宅福祉複合施設ひなた１Ｆ 在宅福祉複合施設ひなた１Ｆ",
    "lat": 39.7546851252314,
    "lng": 140.068054030688,
    "tel": "018-880-5670",
    "url": "http://shinshukai.site",
    "pref": "秋田県",
    "city": "秋田市",
    "category": "community_day_service",
    "serviceType": "地域密着型通所介護",
    "capacity": 18,
    "openDays": [
      "平日",
      "祝日"
    ],
    "openDaysNote": ""
  },
  {
    "id": "570116483",
    "name": "デイサービスセンターふきのとう",
    "kana": "デイサービスセンターフキノトウ",
    "address": "秋田県秋田市金足小泉字潟向86番地1",
    "lat": 39.8166365618588,
    "lng": 140.059176324057,
    "tel": "018-827-5619",
    "url": "https://fukinotou-akita.jp/",
    "pref": "秋田県",
    "city": "秋田市",
    "category": "community_day_service",
    "serviceType": "地域密着型通所介護",
    "capacity": 9,
    "openDays": [
      "平日",
      "土曜日"
    ],
    "openDaysNote": "例外的に祝日を営業日とすることがある。"
  },
  {
    "id": "590100731",
    "name": "デイサービスつなぎの湯",
    "kana": "デイサービスツナギノユ",
    "address": "秋田県秋田市寺内字イサノ119-2",
    "lat": 39.7378446,
    "lng": 140.0936862,
    "tel": "018-893-3305",
    "url": "https://towa-pool.com/tsunagino-yu/",
    "pref": "秋田県",
    "city": "秋田市",
    "category": "community_day_service",
    "serviceType": "地域密着型通所介護",
    "capacity": 0,
    "openDays": [
      "平日",
      "土曜日",
      "祝日"
    ],
    "openDaysNote": ""
  },
  {
    "id": "590100798",
    "name": "デイサービスぬくもり山王",
    "kana": "デイサービスヌクモリサンノウ",
    "address": "秋田県秋田市川尻町字大川反233番地の59",
    "lat": 39.7136883,
    "lng": 140.0855522,
    "tel": "018-824-7000",
    "url": "http://www.akita-hamanasukai.jp/",
    "pref": "秋田県",
    "city": "秋田市",
    "category": "community_day_service",
    "serviceType": "地域密着型通所介護",
    "capacity": null,
    "openDays": [
      "平日",
      "土曜日",
      "祝日"
    ],
    "openDaysNote": ""
  },
  {
    "id": "570106724",
    "name": "デイサービスほくと",
    "kana": "デイサービスホクト",
    "address": "秋田県秋田市下新城中野字街道端西１１－１",
    "lat": 39.7943626,
    "lng": 140.059611,
    "tel": "018-873-7803",
    "url": "",
    "pref": "秋田県",
    "city": "秋田市",
    "category": "community_day_service",
    "serviceType": "地域密着型通所介護",
    "capacity": 0,
    "openDays": [
      "平日",
      "祝日"
    ],
    "openDaysNote": "１２月３１日～１月３日は、お休みとさせていただきます。"
  },
  {
    "id": "570115709",
    "name": "デイサービスもみの樹",
    "kana": "デイサービスモミノキ",
    "address": "秋田県秋田市茨島二丁目15－70",
    "lat": 39.6974133,
    "lng": 140.1053847,
    "tel": "018-866-1061",
    "url": "",
    "pref": "秋田県",
    "city": "秋田市",
    "category": "community_day_service",
    "serviceType": "地域密着型通所介護",
    "capacity": 0,
    "openDays": [
      "平日",
      "土曜日",
      "祝日"
    ],
    "openDaysNote": ""
  },
  {
    "id": "572408490",
    "name": "デイサービスゆうわの里",
    "kana": "デイサービスユウワノサト",
    "address": "秋田市雄和芝野新田字寺沢2-1",
    "lat": 39.6349479,
    "lng": 140.1608547,
    "tel": "018-881-0880",
    "url": "",
    "pref": "秋田県",
    "city": "秋田市",
    "category": "community_day_service",
    "serviceType": "地域密着型通所介護",
    "capacity": 10,
    "openDays": [
      "平日",
      "土曜日",
      "祝日"
    ],
    "openDaysNote": "年末年始として12/31、1/1は休業"
  },
  {
    "id": "590101192",
    "name": "デイサービスわかば",
    "kana": "デイサービスワカバ",
    "address": "秋田市中通3丁目2-38スカイパーク102 スカイパーク102",
    "lat": 39.7149786143271,
    "lng": 140.117447964783,
    "tel": "018-838-4587",
    "url": "",
    "pref": "秋田県",
    "city": "秋田市",
    "category": "community_day_service",
    "serviceType": "地域密着型通所介護",
    "capacity": 18,
    "openDays": [
      "平日",
      "土曜日",
      "日曜日",
      "祝日"
    ],
    "openDaysNote": ""
  },
  {
    "id": "590101234",
    "name": "デイサービス福多朗",
    "kana": "デイサービスフクタロウ",
    "address": "秋田県秋田市土崎港北１丁目１３番３７号住宅型有料老人ホーム・デイサービス福多朗 住宅型有料老人ホーム・デイサービス福多朗",
    "lat": 39.7619928,
    "lng": 140.0790756,
    "tel": "018-880-6510",
    "url": "https://www.relife-akita.com/",
    "pref": "秋田県",
    "city": "秋田市",
    "category": "community_day_service",
    "serviceType": "地域密着型通所介護",
    "capacity": 10,
    "openDays": [
      "平日",
      "土曜日",
      "祝日"
    ],
    "openDaysNote": "1/1～1/3まで休業。"
  },
  {
    "id": "570123265",
    "name": "デイサロン　リ・ライフ",
    "kana": "デイサロン　リ・ライフ",
    "address": "秋田県秋田市将軍野南1丁目14-32",
    "lat": 39.7461579949484,
    "lng": 140.083354342328,
    "tel": "018-827-5014",
    "url": "https://ameblo.jp/kds-riraxx/",
    "pref": "秋田県",
    "city": "秋田市",
    "category": "community_day_service",
    "serviceType": "地域密着型通所介護",
    "capacity": 0,
    "openDays": [
      "平日",
      "土曜日",
      "日曜日",
      "祝日"
    ],
    "openDaysNote": ""
  },
  {
    "id": "590101127",
    "name": "デイズアクティブ",
    "kana": "デイズアクティブ",
    "address": "秋田県秋田市広面字樋ノ下６番地2",
    "lat": 39.7229895,
    "lng": 140.1495292,
    "tel": "018-838-1530",
    "url": "",
    "pref": "秋田県",
    "city": "秋田市",
    "category": "community_day_service",
    "serviceType": "地域密着型通所介護",
    "capacity": null,
    "openDays": [
      "平日",
      "土曜日",
      "祝日"
    ],
    "openDaysNote": ""
  },
  {
    "id": "570122101",
    "name": "にこにこリハビリデイサービス　茨島る～む",
    "kana": "ニコニコリハビリデイサービス　バラジマル～ム",
    "address": "秋田県秋田市茨島７丁目4-26",
    "lat": 39.6906807,
    "lng": 140.1020714,
    "tel": "018-874-7113",
    "url": "http://2ko2.com/",
    "pref": "秋田県",
    "city": "秋田市",
    "category": "community_day_service",
    "serviceType": "地域密着型通所介護",
    "capacity": 100,
    "openDays": [
      "平日",
      "祝日"
    ],
    "openDaysNote": "12月31日・1月1日・2日・3日（改行）5月GW(暦通り5/3・5/4・5/5）（改行）お盆の8月13日・14日・15日は休みです。"
  },
  {
    "id": "570116913",
    "name": "バイタルケア秋田南　デイサービスセンターさふらんの家",
    "kana": "バイタルケアアキタミナミ　デイサービスセンターサフランノイエ",
    "address": "秋田県秋田市新屋松美ガ丘東町２－２０",
    "lat": 39.7055868,
    "lng": 140.0843168,
    "tel": "018-853-4576",
    "url": "http://www.vitalcare.co.jp/",
    "pref": "秋田県",
    "city": "秋田市",
    "category": "community_day_service",
    "serviceType": "地域密着型通所介護",
    "capacity": 18,
    "openDays": [
      "平日",
      "土曜日",
      "祝日"
    ],
    "openDaysNote": ""
  },
  {
    "id": "570123752",
    "name": "リハプライド中通",
    "kana": "リハプライドナカドオリ",
    "address": "秋田県秋田市中通6丁目1-65PPビル１F　リハプライド中通 PPビル１F　リハプライド中通",
    "lat": 39.7142559352672,
    "lng": 140.122060458554,
    "tel": "018-874-8186",
    "url": "http://www.rehapride.co.jp/oroshimachi/",
    "pref": "秋田県",
    "city": "秋田市",
    "category": "community_day_service",
    "serviceType": "地域密着型通所介護",
    "capacity": 0,
    "openDays": [
      "平日",
      "祝日"
    ],
    "openDaysNote": ""
  },
  {
    "id": "590100905",
    "name": "リハプライド土崎",
    "kana": "リハプライドツチザキ",
    "address": "秋田県秋田市土崎港中央３－５－３６",
    "lat": 39.7561389,
    "lng": 140.0685765,
    "tel": "018-853-9420",
    "url": "http://www.rehapride.co.jp/tsuchizaki/",
    "pref": "秋田県",
    "city": "秋田市",
    "category": "community_day_service",
    "serviceType": "地域密着型通所介護",
    "capacity": 120,
    "openDays": [
      "平日",
      "祝日"
    ],
    "openDaysNote": "１２月３０日から１月３日、７月２０、２１日、８月１３、１４日は休業"
  },
  {
    "id": "570112243",
    "name": "リフレッシュコア茨島",
    "kana": "リフレッシュコアバラジマ",
    "address": "秋田県秋田市茨島４丁目12-43",
    "lat": 39.6937747,
    "lng": 140.1015769,
    "tel": "018-867-7211",
    "url": "http://www.syahuku-hokuto.org/",
    "pref": "秋田県",
    "city": "秋田市",
    "category": "community_day_service",
    "serviceType": "地域密着型通所介護",
    "capacity": 18,
    "openDays": [
      "平日",
      "祝日"
    ],
    "openDaysNote": "年末、年始のお休み（１２月３１日～１月３日）"
  },
  {
    "id": "590101200",
    "name": "レッツ倶楽部　秋田八橋",
    "kana": "レッツクラブ　アキタヤバセ",
    "address": "秋田県秋田市八橋本町6-9-10",
    "lat": 39.7249951,
    "lng": 140.0929245,
    "tel": "018-883-0507",
    "url": "http://www.lets-club.jp/shop/akitayabase/",
    "pref": "秋田県",
    "city": "秋田市",
    "category": "community_day_service",
    "serviceType": "地域密着型通所介護",
    "capacity": 18,
    "openDays": [
      "平日",
      "祝日"
    ],
    "openDaysNote": ""
  },
  {
    "id": "570104729",
    "name": "魁聖園デイサービスセンター",
    "kana": "カイセイエンデイサービスセンター",
    "address": "秋田県秋田市新藤田字治郎沢52-6",
    "lat": 39.7432258,
    "lng": 140.1380596,
    "tel": "018-884-1071",
    "url": "http://www.kaiseien.jp/",
    "pref": "秋田県",
    "city": "秋田市",
    "category": "community_day_service",
    "serviceType": "地域密着型通所介護",
    "capacity": 12,
    "openDays": [
      "平日",
      "祝日"
    ],
    "openDaysNote": ""
  },
  {
    "id": "570123216",
    "name": "楽土デイサービス広面",
    "kana": "ラクトデイサービスヒロオモテ",
    "address": "秋田県秋田市広面字小沼古川端97-2",
    "lat": 39.7147045,
    "lng": 140.1444635,
    "tel": "018-838-0221",
    "url": "https://yamata-create.com",
    "pref": "秋田県",
    "city": "秋田市",
    "category": "community_day_service",
    "serviceType": "地域密着型通所介護",
    "capacity": 14,
    "openDays": [
      "平日",
      "祝日"
    ],
    "openDaysNote": "お盆休業：8月13日～15日（改行）年末年始休業：12月31日～1月3日"
  },
  {
    "id": "590100764",
    "name": "機能維持特化型デイサービスケアライフゆり",
    "kana": "キノウイジトッカガタデイサービスケアライフユリ",
    "address": "秋田県秋田市牛島東５丁目1-13",
    "lat": 39.6958226,
    "lng": 140.1199,
    "tel": "018-827-5090",
    "url": "",
    "pref": "秋田県",
    "city": "秋田市",
    "category": "community_day_service",
    "serviceType": "地域密着型通所介護",
    "capacity": 18,
    "openDays": [
      "平日",
      "祝日"
    ],
    "openDaysNote": "月曜～金曜の祭日は営業"
  },
  {
    "id": "590101267",
    "name": "元氣ジム秋田山王",
    "kana": "ゲンキジムアキタサンノウ",
    "address": "秋田県秋田市旭北栄町3-11",
    "lat": 39.7207953,
    "lng": 140.1096104,
    "tel": "018-827-5386",
    "url": "",
    "pref": "秋田県",
    "city": "秋田市",
    "category": "community_day_service",
    "serviceType": "地域密着型通所介護",
    "capacity": 0,
    "openDays": [
      "平日",
      "祝日"
    ],
    "openDaysNote": ""
  },
  {
    "id": "590101341",
    "name": "仁井田デイサービスセンターふきむすめ",
    "kana": "ニイダデイサービスセンターフキムスメ",
    "address": "秋田県秋田市仁井田字仲谷地282番地",
    "lat": 39.6830741,
    "lng": 140.1325826,
    "tel": "018-892-6333",
    "url": "",
    "pref": "秋田県",
    "city": "秋田市",
    "category": "community_day_service",
    "serviceType": "地域密着型通所介護",
    "capacity": null,
    "openDays": [
      "平日",
      "土曜日",
      "祝日"
    ],
    "openDaysNote": ""
  },
  {
    "id": "570115865",
    "name": "仁井田福祉センター",
    "kana": "ニイダフクシセンター",
    "address": "秋田県秋田市仁井田字切上240番地1",
    "lat": 39.6834689,
    "lng": 140.1288162,
    "tel": "018-829-5891",
    "url": "http://www.apwell.co.jp/",
    "pref": "秋田県",
    "city": "秋田市",
    "category": "community_day_service",
    "serviceType": "地域密着型通所介護",
    "capacity": 0,
    "openDays": [
      "平日",
      "祝日"
    ],
    "openDaysNote": ""
  },
  {
    "id": "570119636",
    "name": "大学病院前デイサービス（地域密着型）",
    "kana": "ダイガクビョウインマエデイサービス（チイキミッチャクガタ）",
    "address": "秋田市広面字二階堤２０－１",
    "lat": 39.7321024,
    "lng": 140.1465679,
    "tel": "018-893-5422",
    "url": "http://www.fukinotou-akita.jp",
    "pref": "秋田県",
    "city": "秋田市",
    "category": "community_day_service",
    "serviceType": "地域密着型通所介護",
    "capacity": 10,
    "openDays": [
      "平日",
      "土曜日",
      "祝日"
    ],
    "openDaysNote": "年末・年始　1/1～1/4休業（改行）お盆期間中　通常営業"
  },
  {
    "id": "590101069",
    "name": "地域密着型通所介護・第一号通所介護事業　デイサロンえにしあ",
    "kana": "チイキミッチャクガタツウショカイゴ・ダイイチゴウツウショカイゴジギョウ　デイサロンエニシア",
    "address": "秋田県秋田市広面字蓮沼21－1K＆Y蓮沼1F K＆Y蓮沼1F",
    "lat": 39.7255296224403,
    "lng": 140.148871037434,
    "tel": "018－802－8866",
    "url": "https://www.enishia-akita.co.jp",
    "pref": "秋田県",
    "city": "秋田市",
    "category": "community_day_service",
    "serviceType": "地域密着型通所介護",
    "capacity": 15,
    "openDays": [
      "平日",
      "祝日"
    ],
    "openDaysNote": ""
  },
  {
    "id": "570109926",
    "name": "特定非営利活動法人　希望の家",
    "kana": "トクテイヒエイリカツドウホウジン　キボウノイエ",
    "address": "秋田県秋田市土崎港相染町字浜ナシ山２－２８２",
    "lat": 39.7629018,
    "lng": 140.0620766,
    "tel": "018-816-0380",
    "url": "",
    "pref": "秋田県",
    "city": "秋田市",
    "category": "community_day_service",
    "serviceType": "地域密着型通所介護",
    "capacity": null,
    "openDays": [
      "平日",
      "土曜日",
      "日曜日",
      "祝日"
    ],
    "openDaysNote": ""
  },
  {
    "id": "590101333",
    "name": "本道の街デイサービスセンター",
    "kana": "ホンドウノマチデイサービスセンター",
    "address": "秋田県秋田市柳田字川崎138",
    "lat": 39.7317627,
    "lng": 140.1579982,
    "tel": "018-884-7726",
    "url": "http://www.kouwakai-akita.org/",
    "pref": "秋田県",
    "city": "秋田市",
    "category": "community_day_service",
    "serviceType": "地域密着型通所介護",
    "capacity": null,
    "openDays": [
      "平日",
      "土曜日",
      "祝日"
    ],
    "openDaysNote": ""
  },
  {
    "id": "572010403",
    "name": "デイサービスあかしあの郷",
    "kana": "デイサービスアカシアノサト",
    "address": "秋田県鹿角郡小坂町小坂鉱山字栗平25番地2",
    "lat": 40.3319058,
    "lng": 140.7398498,
    "tel": "0186-29-2900",
    "url": "http://www.kosaka-wel.or.jp",
    "pref": "秋田県",
    "city": "小坂町",
    "category": "community_day_service",
    "serviceType": "地域密着型通所介護",
    "capacity": 0,
    "openDays": [
      "平日",
      "日曜日",
      "祝日"
    ],
    "openDaysNote": ""
  },
  {
    "id": "572103190",
    "name": "上小阿仁村社会福祉協議会指定通所介護事業所",
    "kana": "カミコアニムラシャカイフクシキョウギカイシテイツウショカイゴジギョウショ",
    "address": "秋田県北秋田郡上小阿仁村小沢田字向川原８０",
    "lat": 40.0647833,
    "lng": 140.2971247,
    "tel": "0186-77-3057",
    "url": "https://www.kamikoani-shakyo.com",
    "pref": "秋田県",
    "city": "上小阿仁村",
    "category": "community_day_service",
    "serviceType": "地域密着型通所介護",
    "capacity": null,
    "openDays": [
      "平日",
      "祝日"
    ],
    "openDaysNote": ""
  },
  {
    "id": "591200092",
    "name": "デイサービスセンター花笑の庭",
    "kana": "デイサービスセンターハナエミノニワ",
    "address": "秋田県仙北市角館町雲然山崎142-69",
    "lat": 39.5966318,
    "lng": 140.5393014,
    "tel": "0187-49-6227",
    "url": "",
    "pref": "秋田県",
    "city": "仙北市",
    "category": "community_day_service",
    "serviceType": "地域密着型通所介護",
    "capacity": 18,
    "openDays": [
      "平日",
      "祝日"
    ],
    "openDaysNote": "祝祭日は営業致します。"
  },
  {
    "id": "571223205",
    "name": "デイサービスセンター木のした",
    "kana": "デイサービスセンターキノシタ",
    "address": "秋田県仙北市角館町川原町後11-1",
    "lat": 39.6017983824871,
    "lng": 140.558543688326,
    "tel": "0187-42-8630",
    "url": "",
    "pref": "秋田県",
    "city": "仙北市",
    "category": "community_day_service",
    "serviceType": "地域密着型通所介護",
    "capacity": 10,
    "openDays": [
      "平日",
      "日曜日",
      "祝日"
    ],
    "openDaysNote": "日曜日は第４日曜のみ営業"
  },
  {
    "id": "571223700",
    "name": "デイサービスまごの手",
    "kana": "デイサービスマゴノテ",
    "address": "秋田県仙北市田沢湖卒田字北竹原96番地1",
    "lat": 39.6198869617546,
    "lng": 140.613070102945,
    "tel": "0187-49-6252",
    "url": "",
    "pref": "秋田県",
    "city": "仙北市",
    "category": "community_day_service",
    "serviceType": "地域密着型通所介護",
    "capacity": 50,
    "openDays": [
      "平日",
      "祝日"
    ],
    "openDaysNote": ""
  },
  {
    "id": "571219385",
    "name": "デイサービスもとまち",
    "kana": "デイサービスモトマチ",
    "address": "秋田県仙北市田沢湖小松字本町１００番地１",
    "lat": 39.61045,
    "lng": 140.570234,
    "tel": "0187-52-4611",
    "url": "",
    "pref": "秋田県",
    "city": "仙北市",
    "category": "community_day_service",
    "serviceType": "地域密着型通所介護",
    "capacity": 20,
    "openDays": [
      "平日",
      "祝日"
    ],
    "openDaysNote": ""
  },
  {
    "id": "571214022",
    "name": "デイサービス若杉",
    "kana": "デイサービス　ワカスギ",
    "address": "秋田県仙北市角館町上菅沢2番地18",
    "lat": 39.5924138,
    "lng": 140.5772925,
    "tel": "0187-52-2600",
    "url": "",
    "pref": "秋田県",
    "city": "仙北市",
    "category": "community_day_service",
    "serviceType": "地域密着型通所介護",
    "capacity": 10,
    "openDays": [
      "平日",
      "祝日"
    ],
    "openDaysNote": ""
  },
  {
    "id": "571223858",
    "name": "にこにこリハビリデイサービス　角館る～む",
    "kana": "ニコニコリハビリデイサービス　カクノダテル～ム",
    "address": "秋田県仙北市角館町岩瀬174-1",
    "lat": 39.5856479975547,
    "lng": 140.56394754418,
    "tel": "0187-42-8127",
    "url": "https://2ko2-dayservice.com/about/",
    "pref": "秋田県",
    "city": "仙北市",
    "category": "community_day_service",
    "serviceType": "地域密着型通所介護",
    "capacity": 10,
    "openDays": [
      "平日",
      "祝日"
    ],
    "openDaysNote": "年末年始（12/31～1/3)GW（5/3～5/5)盆休み（8/13～8/15)"
  },
  {
    "id": "572306512",
    "name": "大潟村デイサービスセンター",
    "kana": "オオガタムラデイサービスセンター",
    "address": "秋田県南秋田郡大潟村字西3丁目3番地",
    "lat": 40.0252685,
    "lng": 139.955833,
    "tel": "0185-22-4311",
    "url": "http://www.seiwakai-net.com/swc/ogata/",
    "pref": "秋田県",
    "city": "大潟村",
    "category": "community_day_service",
    "serviceType": "地域密着型通所介護",
    "capacity": null,
    "openDays": [
      "平日",
      "祝日"
    ],
    "openDaysNote": ""
  },
  {
    "id": "590400347",
    "name": "でいさぁびす　いと",
    "kana": "デイサァビス　イト",
    "address": "秋田県大館市新町86番地",
    "lat": 40.2677167,
    "lng": 140.5589554,
    "tel": "0186-99-0438",
    "url": "",
    "pref": "秋田県",
    "city": "大館市",
    "category": "community_day_service",
    "serviceType": "地域密着型通所介護",
    "capacity": 0,
    "openDays": [
      "平日",
      "土曜日",
      "祝日"
    ],
    "openDaysNote": "利用希望等の相談に対して、ご利用者様やご家族様の都合に合わせて柔軟に対応しております。"
  },
  {
    "id": "570417352",
    "name": "デイサービスセンターあおぞら",
    "kana": "デイサービスセンターアオゾラ",
    "address": "秋田県大館市釈迦内字台野下22番地2",
    "lat": 40.3035457,
    "lng": 140.5665222,
    "tel": "0186-48-4646",
    "url": "http://www.hcs-akita.com/",
    "pref": "秋田県",
    "city": "大館市",
    "category": "community_day_service",
    "serviceType": "地域密着型通所介護",
    "capacity": 0,
    "openDays": [
      "平日",
      "土曜日",
      "祝日"
    ],
    "openDaysNote": ""
  },
  {
    "id": "570421180",
    "name": "デイサービスセンターおおとり",
    "kana": "デイサービスセンター　オオトリ",
    "address": "秋田県大館市赤館町1番地13号",
    "lat": 40.2714413,
    "lng": 140.5696572,
    "tel": "0186-49-1166",
    "url": "",
    "pref": "秋田県",
    "city": "大館市",
    "category": "community_day_service",
    "serviceType": "地域密着型通所介護",
    "capacity": 0,
    "openDays": [
      "平日"
    ],
    "openDaysNote": ""
  },
  {
    "id": "570420844",
    "name": "デイサービスセンターおひさま",
    "kana": "デイサービスセンターオヒサマ",
    "address": "大館市早口字小比立内51番地5",
    "lat": 40.2930122,
    "lng": 140.4433248,
    "tel": "0186-54-0186",
    "url": "",
    "pref": "秋田県",
    "city": "大館市",
    "category": "community_day_service",
    "serviceType": "地域密着型通所介護",
    "capacity": 0,
    "openDays": [
      "平日",
      "祝日"
    ],
    "openDaysNote": ""
  },
  {
    "id": "570416461",
    "name": "デイサービスセンターさくら",
    "kana": "デイサービスセンターサクラ",
    "address": "秋田県大館市根下戸新町5-18",
    "lat": 40.2713041,
    "lng": 140.5325772,
    "tel": "0186-59-8162",
    "url": "https://sakura10.sakura.ne.jp/",
    "pref": "秋田県",
    "city": "大館市",
    "category": "community_day_service",
    "serviceType": "地域密着型通所介護",
    "capacity": 16,
    "openDays": [
      "平日",
      "祝日"
    ],
    "openDaysNote": "定休日及び緊急時の連絡先は0186-44-4101（ショートステイさくら）までご連絡願います。"
  },
  {
    "id": "590400297",
    "name": "デイサービス花",
    "kana": "デイサービス　ハナ",
    "address": "秋田県大館市長走字陣場23番地",
    "lat": 40.4047760367201,
    "lng": 140.60836520423,
    "tel": "0186-47-2012",
    "url": "",
    "pref": "秋田県",
    "city": "大館市",
    "category": "community_day_service",
    "serviceType": "地域密着型通所介護",
    "capacity": 0,
    "openDays": [
      "平日",
      "土曜日",
      "日曜日",
      "祝日"
    ],
    "openDaysNote": ""
  },
  {
    "id": "590400289",
    "name": "大滝温泉　サロン千歳",
    "kana": "オオタキオンセン　サロンチトセ",
    "address": "秋田県大館市十二所字町頭49番地千歳ホテル内 千歳ホテル内",
    "lat": 40.2134384071966,
    "lng": 140.642861007969,
    "tel": "0186-52-3872",
    "url": "",
    "pref": "秋田県",
    "city": "大館市",
    "category": "community_day_service",
    "serviceType": "地域密着型通所介護",
    "capacity": 0,
    "openDays": [
      "平日",
      "土曜日",
      "祝日"
    ],
    "openDaysNote": ""
  },
  {
    "id": "570809814",
    "name": "グリーンステージ有限会社　デイサービスだいせんおおまがり",
    "kana": "グリーンステージユウゲンガイシャ　　デイサービスダイセンオオマガリ",
    "address": "大仙市大曲福辺内2番地１",
    "lat": 39.4534648737409,
    "lng": 140.491709900664,
    "tel": "0187-62-1180",
    "url": "",
    "pref": "秋田県",
    "city": "大仙市",
    "category": "community_day_service",
    "serviceType": "地域密着型通所介護",
    "capacity": 0,
    "openDays": [
      "平日",
      "土曜日",
      "祝日"
    ],
    "openDaysNote": "年末年始と8月（大曲花火大会開催日）休み"
  },
  {
    "id": "590800371",
    "name": "デイサービスあしたば",
    "kana": "デイサービスアシタバ",
    "address": "秋田県大仙市戸地谷字勧農地１１３番地３",
    "lat": 39.4730615,
    "lng": 140.4940951,
    "tel": "0187-62-2500",
    "url": "",
    "pref": "秋田県",
    "city": "大仙市",
    "category": "community_day_service",
    "serviceType": "地域密着型通所介護",
    "capacity": 18,
    "openDays": [
      "平日",
      "土曜日",
      "祝日"
    ],
    "openDaysNote": "令和6年11月より日曜日の営業を休業となります。"
  },
  {
    "id": "590800504",
    "name": "デイサービスセンター鷹揚館",
    "kana": "デイサービスセンターオウヨウカン",
    "address": "秋田県大仙市佐野町3番41号",
    "lat": 39.4704491,
    "lng": 140.4738364,
    "tel": "0187-62-1203",
    "url": "https://ohyokan.jp/",
    "pref": "秋田県",
    "city": "大仙市",
    "category": "community_day_service",
    "serviceType": "地域密着型通所介護",
    "capacity": 5,
    "openDays": [
      "平日",
      "祝日"
    ],
    "openDaysNote": ""
  },
  {
    "id": "572606077",
    "name": "デイサービスホーム仙寿園",
    "kana": "デイサービスホーム　センジュエン",
    "address": "秋田県大仙市花館字間倉250番地8",
    "lat": 39.4880893,
    "lng": 140.4498744,
    "tel": "0187-66-8815",
    "url": "",
    "pref": "秋田県",
    "city": "大仙市",
    "category": "community_day_service",
    "serviceType": "地域密着型通所介護",
    "capacity": 17,
    "openDays": [
      "平日",
      "祝日"
    ],
    "openDaysNote": ""
  },
  {
    "id": "590800454",
    "name": "デイサービス森こしの丘",
    "kana": "デイサービスモリコシノオカ",
    "address": "秋田県大仙市協和船岡字森越１１番地１４",
    "lat": 39.6287336,
    "lng": 140.3200098,
    "tel": "018-892-3555",
    "url": "https://morikoshi-no-oka.com/",
    "pref": "秋田県",
    "city": "大仙市",
    "category": "community_day_service",
    "serviceType": "地域密着型通所介護",
    "capacity": 0,
    "openDays": [
      "平日",
      "祝日"
    ],
    "openDaysNote": "定休日以外の月～金の祝日は営業日。"
  },
  {
    "id": "570820241",
    "name": "まんさく",
    "kana": "マンサク",
    "address": "秋田県大仙市土川字辰ノ口40番地",
    "lat": 39.5391945,
    "lng": 140.4324103,
    "tel": "0187-88-8900",
    "url": "https://day-akitamansaku.webnode.jp/",
    "pref": "秋田県",
    "city": "大仙市",
    "category": "community_day_service",
    "serviceType": "地域密着型通所介護",
    "capacity": 6,
    "openDays": [
      "平日",
      "土曜日",
      "祝日"
    ],
    "openDaysNote": ""
  },
  {
    "id": "590800439",
    "name": "元気でねットデイサービスセンター",
    "kana": "ゲンキデネットデイサービスセンター",
    "address": "秋田県大仙市横堀字杉下114-1",
    "lat": 39.4945236754939,
    "lng": 140.545582331799,
    "tel": "0187-69-3933",
    "url": "https://www.genkidenet.co.jp/",
    "pref": "秋田県",
    "city": "大仙市",
    "category": "community_day_service",
    "serviceType": "地域密着型通所介護",
    "capacity": 18,
    "openDays": [
      "平日",
      "土曜日",
      "祝日"
    ],
    "openDaysNote": ""
  },
  {
    "id": "590800462",
    "name": "社会福祉法人柏仁会　ありすの街デイサービスセンター",
    "kana": "シャカイフクシホウジンハクジンカイ　アリスノマチデイサービスセンター",
    "address": "秋田県大仙市強首字上野台23番地18特別養護老人ホーム　ありすの街 特別養護老人ホーム　ありすの街",
    "lat": 39.5337949,
    "lng": 140.3176229,
    "tel": "0187-87-7310",
    "url": "http://hakuzinkai.jp",
    "pref": "秋田県",
    "city": "大仙市",
    "category": "community_day_service",
    "serviceType": "地域密着型通所介護",
    "capacity": null,
    "openDays": [
      "平日",
      "土曜日",
      "祝日"
    ],
    "openDaysNote": ""
  },
  {
    "id": "570823419",
    "name": "早稲田イーライフ秋田",
    "kana": "ワセダイーライフアキタ",
    "address": "秋田県大仙市戸地谷字大和田132-14早稲田イーライフ秋田 早稲田イーライフ秋田",
    "lat": 39.4674794542166,
    "lng": 140.491611157811,
    "tel": "0187-73-5023",
    "url": "http://www.waseda-e-life.co.jp",
    "pref": "秋田県",
    "city": "大仙市",
    "category": "community_day_service",
    "serviceType": "地域密着型通所介護",
    "capacity": 100,
    "openDays": [
      "平日",
      "祝日"
    ],
    "openDaysNote": "毎週月曜日～金曜日は特別休を除き祝日も営業しています。"
  },
  {
    "id": "590800330",
    "name": "地域密着型通所介護　　「払田の街」",
    "kana": "チイキミッチャクガタツウショカイゴ　「ホッタノマチ」",
    "address": "秋田県大仙市払田字下払田95-1",
    "lat": 39.4605435,
    "lng": 140.5340575,
    "tel": "0187-88-8180",
    "url": "",
    "pref": "秋田県",
    "city": "大仙市",
    "category": "community_day_service",
    "serviceType": "地域密着型通所介護",
    "capacity": 0,
    "openDays": [
      "平日",
      "土曜日",
      "祝日"
    ],
    "openDaysNote": "お盆8/13休み（改行）（改行）正月12/31から1/3まで休み"
  },
  {
    "id": "570823054",
    "name": "歩行と言葉のリハビリ空間なごみ",
    "kana": "ホコウトコトバノリハビリクウカンナゴミ",
    "address": "秋田県大仙市大曲栄町13番38号",
    "lat": 39.4554824,
    "lng": 140.4804891,
    "tel": "0187-88-8116",
    "url": "http://nagomi-a.jp/",
    "pref": "秋田県",
    "city": "大仙市",
    "category": "community_day_service",
    "serviceType": "地域密着型通所介護",
    "capacity": 0,
    "openDays": [
      "平日",
      "祝日"
    ],
    "openDaysNote": ""
  },
  {
    "id": "570823476",
    "name": "峰山荘デイサービスセンター",
    "kana": "ホウザンソウデイサービスセンター",
    "address": "秋田県大仙市協和中淀川字中村１２－２",
    "lat": 39.576869,
    "lng": 140.2625066,
    "tel": "018-893-5520",
    "url": "http://www.daisen-f.com",
    "pref": "秋田県",
    "city": "大仙市",
    "category": "community_day_service",
    "serviceType": "地域密着型通所介護",
    "capacity": 0,
    "openDays": [
      "平日"
    ],
    "openDaysNote": ""
  },
  {
    "id": "570613943",
    "name": "デイサービス　ひまわり",
    "kana": "デイサービス　ヒマワリ",
    "address": "秋田県男鹿市脇本富永字野田４０番地１２",
    "lat": 39.9156579,
    "lng": 139.9059868,
    "tel": "0185-22-2311",
    "url": "",
    "pref": "秋田県",
    "city": "男鹿市",
    "category": "community_day_service",
    "serviceType": "地域密着型通所介護",
    "capacity": 0,
    "openDays": [
      "平日",
      "祝日"
    ],
    "openDaysNote": ""
  },
  {
    "id": "590600128",
    "name": "デイハウスさといしゃ",
    "kana": "デイハウスサトイシャ",
    "address": "秋田県男鹿市払戸字中樋146番地1",
    "lat": 39.9300463337737,
    "lng": 139.936880805557,
    "tel": "0185-46-2131",
    "url": "",
    "pref": "秋田県",
    "city": "男鹿市",
    "category": "community_day_service",
    "serviceType": "地域密着型通所介護",
    "capacity": null,
    "openDays": [
      "平日",
      "土曜日",
      "祝日"
    ],
    "openDaysNote": "休業日：お盆期間（8月13日～15日）・年末年始（12月31日～1月3日）"
  },
  {
    "id": "590600110",
    "name": "男鹿地域リハビリステーション",
    "kana": "オガチイキリハビリステーション",
    "address": "秋田県男鹿市船川港比詰字大沢田304男鹿市総合体育館内 男鹿市総合体育館内",
    "lat": 39.9113894,
    "lng": 139.8540182,
    "tel": "0185-47-8307",
    "url": "https://wel.akita-seiwakai.jp/ogariha/",
    "pref": "秋田県",
    "city": "男鹿市",
    "category": "community_day_service",
    "serviceType": "地域密着型通所介護",
    "capacity": 0,
    "openDays": [
      "平日",
      "土曜日",
      "祝日"
    ],
    "openDaysNote": ""
  },
  {
    "id": "572817617",
    "name": "デイサービスセンター　なるせ",
    "kana": "デイサービスセンター　ナルセ",
    "address": "雄勝郡東成瀬村岩井川字東村72番地",
    "lat": 39.1766486,
    "lng": 140.7007275,
    "tel": "0182-47-3512",
    "url": "http://ogachi-nagomi.net",
    "pref": "秋田県",
    "city": "東成瀬村",
    "category": "community_day_service",
    "serviceType": "地域密着型通所介護",
    "capacity": 15,
    "openDays": [
      "平日",
      "土曜日",
      "祝日"
    ],
    "openDaysNote": "令和5年より定休日が一部変更になり、火曜日から水曜日に変更になっています。（改行）タオル、バスタオルは当事業所で貸し出しするため、不要です。"
  },
  {
    "id": "572817534",
    "name": "デイサービスセンター　風鈴",
    "kana": "デイサービスセンター　フウリン",
    "address": "秋田県雄勝郡東成瀬村田子内字長瀞５０番",
    "lat": 39.1795082999999,
    "lng": 140.6638463,
    "tel": "0182-47-3522",
    "url": "http://www.higashinaruse.jp",
    "pref": "秋田県",
    "city": "東成瀬村",
    "category": "community_day_service",
    "serviceType": "地域密着型通所介護",
    "capacity": 15,
    "openDays": [
      "平日",
      "祝日"
    ],
    "openDaysNote": ""
  },
  {
    "id": "570723486",
    "name": "デイサービスいきいき湯沢",
    "kana": "デイサービスイキイキユザワ",
    "address": "秋田県湯沢市字両神150-3",
    "lat": 39.1739358,
    "lng": 140.4754312,
    "tel": "0183-56-5061",
    "url": "http://ikiiki-akita.com",
    "pref": "秋田県",
    "city": "湯沢市",
    "category": "community_day_service",
    "serviceType": "地域密着型通所介護",
    "capacity": 18,
    "openDays": [
      "平日"
    ],
    "openDaysNote": ""
  },
  {
    "id": "590700266",
    "name": "デイサービスクローバーゆざわ",
    "kana": "デイサービスクローバーユザワ",
    "address": "秋田県湯沢市杉沢字戸石崎３７－３",
    "lat": 39.1846015,
    "lng": 140.4993047,
    "tel": "0183‐56‐7013",
    "url": "https://clover-akita.com/",
    "pref": "秋田県",
    "city": "湯沢市",
    "category": "community_day_service",
    "serviceType": "地域密着型通所介護",
    "capacity": null,
    "openDays": [
      "平日",
      "祝日"
    ],
    "openDaysNote": ""
  },
  {
    "id": "590700175",
    "name": "デイサービスセンターいさみが岡",
    "kana": "デイサービスセンターイサミガオカ",
    "address": "秋田県湯沢市山田字勇ヶ岡５０番地",
    "lat": 39.1449773,
    "lng": 140.4529388,
    "tel": "0183-79-5753",
    "url": "https://www.ogachi-nagomi.net/isamigaoka/",
    "pref": "秋田県",
    "city": "湯沢市",
    "category": "community_day_service",
    "serviceType": "地域密着型通所介護",
    "capacity": 0,
    "openDays": [
      "平日",
      "土曜日",
      "祝日"
    ],
    "openDaysNote": ""
  },
  {
    "id": "590700209",
    "name": "デイサービスセンター花もも",
    "kana": "デイサービスセンターハナモモ",
    "address": "秋田県湯沢市字鉦打沢102-2",
    "lat": 39.1617248,
    "lng": 140.5282598,
    "tel": "0183-56-6500",
    "url": "http://www.itokenyu.com",
    "pref": "秋田県",
    "city": "湯沢市",
    "category": "community_day_service",
    "serviceType": "地域密着型通所介護",
    "capacity": 0,
    "openDays": [
      "平日",
      "土曜日",
      "祝日"
    ],
    "openDaysNote": "ただし8/13～8/15、12/31～1/3は休業"
  },
  {
    "id": "590700258",
    "name": "デイサービスセンター平成園",
    "kana": "デイサービスセンターヘイセイエン",
    "address": "秋田県湯沢市小野字大沢田221番地",
    "lat": 39.0604279,
    "lng": 140.4602692,
    "tel": "0183-52-5210",
    "url": "http://ogachi-nagomi.net/",
    "pref": "秋田県",
    "city": "湯沢市",
    "category": "community_day_service",
    "serviceType": "地域密着型通所介護",
    "capacity": 0,
    "openDays": [
      "平日",
      "土曜日",
      "祝日"
    ],
    "openDaysNote": ""
  },
  {
    "id": "590700191",
    "name": "みなせ指定通所介護事業所",
    "kana": "ミナセシテイツウショカイゴジギョウショ",
    "address": "秋田県湯沢市皆瀬字小野188-1",
    "lat": 39.074401,
    "lng": 140.5895706,
    "tel": "0183-58-4004",
    "url": "http://www.shinetopia.com",
    "pref": "秋田県",
    "city": "湯沢市",
    "category": "community_day_service",
    "serviceType": "地域密着型通所介護",
    "capacity": 0,
    "openDays": [
      "平日",
      "日曜日",
      "祝日"
    ],
    "openDaysNote": ""
  },
  {
    "id": "572205912",
    "name": "特別養護老人ホーム「藤里」デイサービス",
    "kana": "トクベツヨウゴロウジンホームフジサトデイサービス",
    "address": "秋田県山本郡藤里町矢坂字上野蟹子沢92番地",
    "lat": 40.255212,
    "lng": 140.2482199,
    "tel": "0185-79-1200",
    "url": "http://www.shirakami.or.jp/~toku-fuji/",
    "pref": "秋田県",
    "city": "藤里町",
    "category": "community_day_service",
    "serviceType": "地域密着型通所介護",
    "capacity": null,
    "openDays": [
      "平日"
    ],
    "openDaysNote": ""
  },
  {
    "id": "570210708",
    "name": "あかしあデイサービス",
    "kana": "アカシアデイサービス",
    "address": "秋田県能代市花園町23番5号",
    "lat": 40.2003549,
    "lng": 140.0239988,
    "tel": "0185-52-6999",
    "url": "https://acacia-dayservice.jp/",
    "pref": "秋田県",
    "city": "能代市",
    "category": "community_day_service",
    "serviceType": "地域密着型通所介護",
    "capacity": 0,
    "openDays": [
      "平日",
      "土曜日",
      "祝日"
    ],
    "openDaysNote": ""
  },
  {
    "id": "570210591",
    "name": "かもめデイサービス",
    "kana": "カモメデイサービス",
    "address": "秋田県能代市落合字亀谷地１－２９",
    "lat": 40.2309455,
    "lng": 140.0109577,
    "tel": "0185-52-1026",
    "url": "",
    "pref": "秋田県",
    "city": "能代市",
    "category": "community_day_service",
    "serviceType": "地域密着型通所介護",
    "capacity": 10,
    "openDays": [
      "平日",
      "祝日"
    ],
    "openDaysNote": "なし"
  },
  {
    "id": "570223990",
    "name": "こもれびデイサービス",
    "kana": "コモレビデイサービス",
    "address": "秋田県能代市通町8-3",
    "lat": 40.2041461,
    "lng": 140.0221522,
    "tel": "0185-74-7407",
    "url": "",
    "pref": "秋田県",
    "city": "能代市",
    "category": "community_day_service",
    "serviceType": "地域密着型通所介護",
    "capacity": 0,
    "openDays": [
      "平日",
      "土曜日",
      "祝日"
    ],
    "openDaysNote": "日曜日以外の祝祭日は営業"
  },
  {
    "id": "570217406",
    "name": "デイサービスだんらん",
    "kana": "デイサービスダンラン",
    "address": "秋田県能代市落合字古悪土１－２１７",
    "lat": 40.2264627,
    "lng": 140.0100802,
    "tel": "0185-74-5301",
    "url": "http://www.shirakami.or.jp/~s-soyokaze/index.html",
    "pref": "秋田県",
    "city": "能代市",
    "category": "community_day_service",
    "serviceType": "地域密着型通所介護",
    "capacity": 0,
    "openDays": [
      "平日",
      "土曜日",
      "祝日"
    ],
    "openDaysNote": ""
  },
  {
    "id": "570209023",
    "name": "やさしい風上町デイサービスセンター",
    "kana": "ヤサシイカゼカンマチデイサービスセンター",
    "address": "秋田県能代市上町６番６号",
    "lat": 40.2126146,
    "lng": 140.0276626,
    "tel": "0185-74-6214",
    "url": "",
    "pref": "秋田県",
    "city": "能代市",
    "category": "community_day_service",
    "serviceType": "地域密着型通所介護",
    "capacity": 4,
    "openDays": [
      "平日",
      "土曜日",
      "祝日"
    ],
    "openDaysNote": ""
  },
  {
    "id": "570221002",
    "name": "ワンダフルデイサービス",
    "kana": "ワンダフルデイサービス",
    "address": "秋田県能代市落合字落合84-3",
    "lat": 40.2309068,
    "lng": 140.0250012,
    "tel": "0185-74-7011",
    "url": "",
    "pref": "秋田県",
    "city": "能代市",
    "category": "community_day_service",
    "serviceType": "地域密着型通所介護",
    "capacity": 0,
    "openDays": [
      "平日",
      "土曜日",
      "祝日"
    ],
    "openDaysNote": "営業日は月曜日から土曜日までの6日間です。"
  },
  {
    "id": "570219832",
    "name": "能代親孝の里デイサービスセンター",
    "kana": "ノシロシンコウノサトデイサービスセンター",
    "address": "秋田県能代市南元町4-69能代親孝の里 能代親孝の里",
    "lat": 40.2023164781552,
    "lng": 140.032345585607,
    "tel": "0185-55-3073",
    "url": "",
    "pref": "秋田県",
    "city": "能代市",
    "category": "community_day_service",
    "serviceType": "地域密着型通所介護",
    "capacity": 18,
    "openDays": [
      "平日",
      "土曜日",
      "祝日"
    ],
    "openDaysNote": ""
  },
  {
    "id": "572322774",
    "name": "デイサービスセンター　リハ・あしらく",
    "kana": "デイサービスセンター　リハ・アシラク",
    "address": "秋田県南秋田郡八郎潟町字一日市２９番地",
    "lat": 39.9405722,
    "lng": 140.0750686,
    "tel": "018-838-0404",
    "url": "",
    "pref": "秋田県",
    "city": "八郎潟町",
    "category": "community_day_service",
    "serviceType": "地域密着型通所介護",
    "capacity": 10,
    "openDays": [
      "平日",
      "祝日"
    ],
    "openDaysNote": ""
  },
  {
    "id": "592300107",
    "name": "自立機能訓練型施設はっち",
    "kana": "ジリツキノウクンレンガタシセツハッチ",
    "address": "秋田県南秋田郡八郎潟町夜叉袋字沖谷地189番地２",
    "lat": 39.9517783,
    "lng": 140.0818197,
    "tel": "018-853-8825",
    "url": "",
    "pref": "秋田県",
    "city": "八郎潟町",
    "category": "community_day_service",
    "serviceType": "地域密着型通所介護",
    "capacity": 0,
    "openDays": [
      "平日",
      "祝日"
    ],
    "openDaysNote": ""
  },
  {
    "id": "572303709",
    "name": "八郎潟町デイサービスセンター",
    "kana": "ハチロウガタマチデイサービスセンター",
    "address": "秋田県南秋田郡八郎潟町字家ノ後23番地の3八郎潟町老人福祉センター 八郎潟町老人福祉センター",
    "lat": 39.9425372,
    "lng": 140.0795377,
    "tel": "188753100",
    "url": "https://www.hachi-shakyo.jp",
    "pref": "秋田県",
    "city": "八郎潟町",
    "category": "community_day_service",
    "serviceType": "地域密着型通所介護",
    "capacity": 0,
    "openDays": [
      "平日",
      "土曜日"
    ],
    "openDaysNote": ""
  },
  {
    "id": "593900129",
    "name": "にこにこリハビリデイサービス美郷る～む",
    "kana": "ニコニコリハビリデイサービス　ミサトル～ム",
    "address": "秋田県仙北郡美郷町六郷字安楽寺306-3",
    "lat": 39.4242286272159,
    "lng": 140.5518291,
    "tel": "0187-73-7890",
    "url": "https://2ko2-dayservice.com/",
    "pref": "秋田県",
    "city": "美郷町",
    "category": "community_day_service",
    "serviceType": "地域密着型通所介護",
    "capacity": 10,
    "openDays": [
      "平日",
      "祝日"
    ],
    "openDaysNote": "GWカレンダー通り・年末年始（12/31～1/3）お盆休み（8/13～8/16）"
  },
  {
    "id": "571115336",
    "name": "デイサービス　もりの郷",
    "kana": "デイサービス　モリノサト",
    "address": "秋田県北秋田市小又字平里63番地",
    "lat": 40.0555786,
    "lng": 140.4133515,
    "tel": "0186-75-3300",
    "url": "http://www.akita-kouraku.jp/",
    "pref": "秋田県",
    "city": "北秋田市",
    "category": "community_day_service",
    "serviceType": "地域密着型通所介護",
    "capacity": 0,
    "openDays": [
      "平日",
      "土曜日",
      "日曜日",
      "祝日"
    ],
    "openDaysNote": ""
  },
  {
    "id": "572108934",
    "name": "デイサービスセンター　まつば",
    "kana": "デイサービスセンター　マツバ",
    "address": "秋田県北秋田市綴子字胡桃館３－４２",
    "lat": 40.2358411,
    "lng": 140.3580089,
    "tel": "0186-62-5561",
    "url": "",
    "pref": "秋田県",
    "city": "北秋田市",
    "category": "community_day_service",
    "serviceType": "地域密着型通所介護",
    "capacity": 0,
    "openDays": [
      "平日",
      "土曜日",
      "祝日"
    ],
    "openDaysNote": ""
  },
  {
    "id": "571114487",
    "name": "もろび苑指定通所介護事業所",
    "kana": "モロビエンシテイツウショカイゴジギョウショ",
    "address": "秋田県北秋田市阿仁幸屋渡字前野７番地３",
    "lat": 39.9044154797852,
    "lng": 140.456652854747,
    "tel": "0186-84-2855",
    "url": "http://kitaakita-shakyo.or.jp/morobi/index.html",
    "pref": "秋田県",
    "city": "北秋田市",
    "category": "community_day_service",
    "serviceType": "地域密着型通所介護",
    "capacity": 10,
    "openDays": [
      "平日",
      "土曜日",
      "日曜日",
      "祝日"
    ],
    "openDaysNote": ""
  },
  {
    "id": "572106136",
    "name": "一番星きらら",
    "kana": "イチバンボシキララ",
    "address": "秋田県北秋田市脇神字高村岱131番地",
    "lat": 40.2116505,
    "lng": 140.3828693,
    "tel": "0186-60-0262",
    "url": "",
    "pref": "秋田県",
    "city": "北秋田市",
    "category": "community_day_service",
    "serviceType": "地域密着型通所介護",
    "capacity": 10,
    "openDays": [
      "平日"
    ],
    "openDaysNote": "土・日・祝日の利用は相談に応じます。"
  },
  {
    "id": "570520072",
    "name": "アルメリアの里",
    "kana": "アルメリアノサト",
    "address": "由利本荘市浜三川字西大台137-18",
    "lat": 39.4278241,
    "lng": 140.0321364,
    "tel": "0184-44-8970",
    "url": "http://armerianosato.com/top.htm",
    "pref": "秋田県",
    "city": "由利本荘市",
    "category": "community_day_service",
    "serviceType": "地域密着型通所介護",
    "capacity": 10,
    "openDays": [
      "平日",
      "土曜日",
      "祝日"
    ],
    "openDaysNote": ""
  },
  {
    "id": "590500385",
    "name": "デイサービスおてんとさん",
    "kana": "デイサービスオテントサン",
    "address": "秋田県由利本荘市東梵天97-2",
    "lat": 39.3829934,
    "lng": 140.0617628,
    "tel": "0184-22-1526",
    "url": "https://yoroduya.co.jp/",
    "pref": "秋田県",
    "city": "由利本荘市",
    "category": "community_day_service",
    "serviceType": "地域密着型通所介護",
    "capacity": 0,
    "openDays": [
      "平日",
      "土曜日",
      "日曜日",
      "祝日"
    ],
    "openDaysNote": "8/13～14及び12/31～1/3は休業"
  },
  {
    "id": "570519421",
    "name": "デイサービスセンターふたば",
    "kana": "デイサービスセンターフタバ",
    "address": "秋田県由利本荘市大門13番地",
    "lat": 39.3885235,
    "lng": 140.0442605,
    "tel": "0184-74-7807",
    "url": "http://www.honjohutabakai.jp/futaba/index.html",
    "pref": "秋田県",
    "city": "由利本荘市",
    "category": "community_day_service",
    "serviceType": "地域密着型通所介護",
    "capacity": 0,
    "openDays": [
      "平日",
      "土曜日"
    ],
    "openDaysNote": ""
  },
  {
    "id": "572507721",
    "name": "デイサービスセンター和",
    "kana": "デイサービスセンターナゴミ",
    "address": "秋田県由利本荘市東鮎川字立井地24-1",
    "lat": 39.3328933,
    "lng": 140.0749289,
    "tel": "0184-53-2423",
    "url": "",
    "pref": "秋田県",
    "city": "由利本荘市",
    "category": "community_day_service",
    "serviceType": "地域密着型通所介護",
    "capacity": 13,
    "openDays": [
      "平日",
      "土曜日",
      "祝日"
    ],
    "openDaysNote": "お盆休み：8月13日～8月15日（改行）年末年始の休み：12月31日～1月3日"
  },
  {
    "id": "590500393",
    "name": "にじのまちデイサービス本荘",
    "kana": "ニジノマチデイサービスホンジョウ",
    "address": "秋田県由利本荘市川口字下野173-1",
    "lat": 39.4020688,
    "lng": 140.0595652,
    "tel": "0184-74-6333",
    "url": "https://www.saint-care.com/niji/",
    "pref": "秋田県",
    "city": "由利本荘市",
    "category": "community_day_service",
    "serviceType": "地域密着型通所介護",
    "capacity": 0,
    "openDays": [
      "平日",
      "土曜日",
      "祝日"
    ],
    "openDaysNote": ""
  },
  {
    "id": "590500351",
    "name": "メディカルハウスゆう通所介護事業所",
    "kana": "メディカルハウスユウツウショカイゴジギョウショ",
    "address": "秋田県由利本荘市鳥海町伏見字久保19-4",
    "lat": 39.1917801,
    "lng": 140.1926624,
    "tel": "0184-27-6541",
    "url": "",
    "pref": "秋田県",
    "city": "由利本荘市",
    "category": "community_day_service",
    "serviceType": "地域密着型通所介護",
    "capacity": 3,
    "openDays": [
      "平日",
      "土曜日",
      "祝日"
    ],
    "openDaysNote": ""
  },
  {
    "id": "570522516",
    "name": "ライフケアつむぎ",
    "kana": "ライフケアツムギ",
    "address": "秋田県由利本荘市舘前字天神坂ノ下35番地",
    "lat": 39.3698241764769,
    "lng": 140.090827896815,
    "tel": "０１８４－７４－５４６７",
    "url": "",
    "pref": "秋田県",
    "city": "由利本荘市",
    "category": "community_day_service",
    "serviceType": "地域密着型通所介護",
    "capacity": 0,
    "openDays": [
      "平日",
      "土曜日",
      "日曜日",
      "祝日"
    ],
    "openDaysNote": "３６５日年中無休"
  },
  {
    "id": "590500286",
    "name": "リハマルシェ",
    "kana": "リハマルシェ",
    "address": "由利本荘市中竪町26-1",
    "lat": 39.3886651792664,
    "lng": 140.047519871793,
    "tel": "0184-74-7260",
    "url": "",
    "pref": "秋田県",
    "city": "由利本荘市",
    "category": "community_day_service",
    "serviceType": "地域密着型通所介護",
    "capacity": 0,
    "openDays": [
      "平日"
    ],
    "openDaysNote": "送迎等諸事情により17:00以降のご対応はできかねる場合がございます。"
  },
  {
    "id": "590500278",
    "name": "運動機能向上専門デイサービス　クローバー",
    "kana": "ウンドウキノウコウジョウセンモンデイサービス　クローバー",
    "address": "秋田県由利本荘市石脇字山ノ神11番地424",
    "lat": 39.4106042487725,
    "lng": 140.031047547083,
    "tel": "0184-74-7477",
    "url": "https://clover-akita.com/",
    "pref": "秋田県",
    "city": "由利本荘市",
    "category": "community_day_service",
    "serviceType": "地域密着型通所介護",
    "capacity": 0,
    "openDays": [
      "平日",
      "祝日"
    ],
    "openDaysNote": ""
  },
  {
    "id": "590500336",
    "name": "秋田歩行機能トレーニングデイサービスさくらクオーレプラス由利本荘",
    "kana": "アキタホコウキノウトレーニングデイサービスサクラクオーレプラスユリホンジョウ",
    "address": "秋田県由利本荘市水林317-1",
    "lat": 39.3865882,
    "lng": 140.0379605,
    "tel": "0184-74-4198",
    "url": "https://sakuracuore-yurihonjo.amebaownd.com",
    "pref": "秋田県",
    "city": "由利本荘市",
    "category": "community_day_service",
    "serviceType": "地域密着型通所介護",
    "capacity": 120,
    "openDays": [
      "平日",
      "祝日"
    ],
    "openDaysNote": ""
  },
  {
    "id": "570506790",
    "name": "通所介護事業所　あした天気になあれ",
    "kana": "ツウショカイゴジギョウショ　アシタテンキニナアレ",
    "address": "由利本荘市石脇字田尻野36-101",
    "lat": 39.3974058,
    "lng": 140.0260233,
    "tel": "0184-28-0550",
    "url": "",
    "pref": "秋田県",
    "city": "由利本荘市",
    "category": "community_day_service",
    "serviceType": "地域密着型通所介護",
    "capacity": 0,
    "openDays": [
      "平日",
      "土曜日",
      "祝日"
    ],
    "openDaysNote": ""
  },
  {
    "id": "570522938",
    "name": "通所介護事業所　千寿苑",
    "kana": "ツウショカイゴジギョウショ　センジュエン",
    "address": "秋田県由利本荘市川口字八幡前52-4",
    "lat": 39.3983955,
    "lng": 140.0614479,
    "tel": "0184-74-5482",
    "url": "http://akita-mw-inc.jp/",
    "pref": "秋田県",
    "city": "由利本荘市",
    "category": "community_day_service",
    "serviceType": "地域密着型通所介護",
    "capacity": 10,
    "openDays": [
      "平日",
      "土曜日",
      "祝日"
    ],
    "openDaysNote": "現在金曜日を臨時に定休しております。"
  }
]