[
  {
    "id": "1071200354",
    "name": "デイサービス　笑々",
    "kana": "デイサービス　クスクス",
    "address": "群馬県みどり市笠懸町西鹿田７８９－１２",
    "lat": 36.4025289,
    "lng": 139.257534,
    "tel": "0277-46-8285",
    "url": "https://challenge-k.co.jp/",
    "pref": "群馬県",
    "city": "みどり市",
    "category": "community_day_service",
    "serviceType": "地域密着型通所介護",
    "capacity": 0,
    "openDays": [
      "平日",
      "土曜日",
      "祝日"
    ],
    "openDaysNote": ""
  },
  {
    "id": "1071200503",
    "name": "デイサービスドリーム",
    "kana": "デイサービスドリーム",
    "address": "群馬県みどり市笠懸町阿左美2105番地16",
    "lat": 36.4034348,
    "lng": 139.3002853,
    "tel": "0277-47-6355",
    "url": "http//:www.dreamcare.co.jp/",
    "pref": "群馬県",
    "city": "みどり市",
    "category": "community_day_service",
    "serviceType": "地域密着型通所介護",
    "capacity": 180,
    "openDays": [
      "平日"
    ],
    "openDaysNote": ""
  },
  {
    "id": "1091200095",
    "name": "デイサービス花",
    "kana": "デイサービスハナ",
    "address": "群馬県みどり市大間々町大間々887-2",
    "lat": 36.4289668,
    "lng": 139.2743411,
    "tel": "0277-32-3584",
    "url": "",
    "pref": "群馬県",
    "city": "みどり市",
    "category": "community_day_service",
    "serviceType": "地域密着型通所介護",
    "capacity": 0,
    "openDays": [
      "平日",
      "祝日"
    ],
    "openDaysNote": ""
  },
  {
    "id": "1071200800",
    "name": "デイサロン　心音",
    "kana": "デイサロン　コロネ",
    "address": "群馬県みどり市大間々町桐原970-2",
    "lat": 36.445193,
    "lng": 139.2744506,
    "tel": "0277-46-7324",
    "url": "",
    "pref": "群馬県",
    "city": "みどり市",
    "category": "community_day_service",
    "serviceType": "地域密着型通所介護",
    "capacity": 0,
    "openDays": [
      "平日",
      "土曜日",
      "祝日"
    ],
    "openDaysNote": ""
  },
  {
    "id": "1091200103",
    "name": "のんびり農園日和",
    "kana": "ノンビリノウエンビヨリ",
    "address": "群馬県みどり市笠懸町鹿3663-1",
    "lat": 36.3916696,
    "lng": 139.27248,
    "tel": "0277-47-9606",
    "url": "https://nonbiri-nouen-biyori.com/",
    "pref": "群馬県",
    "city": "みどり市",
    "category": "community_day_service",
    "serviceType": "地域密着型通所介護",
    "capacity": 10,
    "openDays": [
      "平日",
      "祝日"
    ],
    "openDaysNote": ""
  },
  {
    "id": "1091200111",
    "name": "みどり市社会福祉協議会　デイサービスセンター東",
    "kana": "ミドリシシャカイフクシキョウギカイ　デイサービスセンターアズマ",
    "address": "群馬県みどり市東町花輪114-3みどり市高齢者福祉センター内 みどり市高齢者福祉センター内",
    "lat": 36.5195602,
    "lng": 139.3062708,
    "tel": "0277-97-2828",
    "url": "",
    "pref": "群馬県",
    "city": "みどり市",
    "category": "community_day_service",
    "serviceType": "地域密着型通所介護",
    "capacity": null,
    "openDays": [
      "平日",
      "土曜日"
    ],
    "openDaysNote": ""
  },
  {
    "id": "1071200495",
    "name": "観覧車",
    "kana": "カンランシャ",
    "address": "群馬県みどり市笠懸町鹿７７番地８",
    "lat": 36.3880057,
    "lng": 139.2904365,
    "tel": "0277-46-9460",
    "url": "http://take-i.com",
    "pref": "群馬県",
    "city": "みどり市",
    "category": "community_day_service",
    "serviceType": "地域密着型通所介護",
    "capacity": 17,
    "openDays": [
      "平日",
      "土曜日",
      "祝日"
    ],
    "openDaysNote": ""
  },
  {
    "id": "1072900697",
    "name": "有限会社　プフレーゲ　すずらん",
    "kana": "ユウゲンガイシャ　プフレーゲ　スズラン",
    "address": "群馬県みどり市笠懸町西鹿田182-1",
    "lat": 36.3973848,
    "lng": 139.2599782,
    "tel": "0277-76-0600",
    "url": "",
    "pref": "群馬県",
    "city": "みどり市",
    "category": "community_day_service",
    "serviceType": "地域密着型通所介護",
    "capacity": 15,
    "openDays": [
      "平日",
      "土曜日",
      "祝日"
    ],
    "openDaysNote": "年末年始5日間休み(12/30～1/3)"
  },
  {
    "id": "1072700741",
    "name": "そよかぜデイサービス",
    "kana": "ソヨカゼデイサービス",
    "address": "群馬県利根郡みなかみ町下牧405",
    "lat": 36.6901678,
    "lng": 138.9909337,
    "tel": "0278-25-3967",
    "url": "",
    "pref": "群馬県",
    "city": "みなかみ町",
    "category": "community_day_service",
    "serviceType": "地域密着型通所介護",
    "capacity": 0,
    "openDays": [
      "平日",
      "日曜日",
      "祝日"
    ],
    "openDaysNote": "年末年始はお休みさせていただきます。"
  },
  {
    "id": "1072700790",
    "name": "デイサービスセンター福寿草",
    "kana": "デイサービスセンターフクジュソウ",
    "address": "群馬県利根郡みなかみ町下津3194番地",
    "lat": 36.6671228,
    "lng": 138.9873653,
    "tel": "0278-62-6621",
    "url": "http://akanekai-f.com/",
    "pref": "群馬県",
    "city": "みなかみ町",
    "category": "community_day_service",
    "serviceType": "地域密着型通所介護",
    "capacity": 50,
    "openDays": [
      "平日",
      "土曜日",
      "祝日"
    ],
    "openDaysNote": ""
  },
  {
    "id": "1072700824",
    "name": "デイホーム2910",
    "kana": "デイホームニーキューイチゼロ",
    "address": "群馬県利根郡みなかみ町下津3194",
    "lat": 36.6671228,
    "lng": 138.9873653,
    "tel": "0278-25-8708",
    "url": "http://www.dyahome2910.jp",
    "pref": "群馬県",
    "city": "みなかみ町",
    "category": "community_day_service",
    "serviceType": "地域密着型通所介護",
    "capacity": 108,
    "openDays": [
      "平日",
      "土曜日",
      "祝日"
    ],
    "openDaysNote": "※お気軽にお問い合わせください。"
  },
  {
    "id": "1072700733",
    "name": "通所介護おりづる",
    "kana": "ツウショカイゴオリヅル",
    "address": "群馬県利根郡みなかみ町上牧１８９３－１",
    "lat": 36.7339971,
    "lng": 138.983272,
    "tel": "０２７８－５０－７００１",
    "url": "yu-jin-sya.com",
    "pref": "群馬県",
    "city": "みなかみ町",
    "category": "community_day_service",
    "serviceType": "地域密着型通所介護",
    "capacity": 10,
    "openDays": [
      "平日",
      "土曜日",
      "日曜日",
      "祝日"
    ],
    "openDaysNote": "臨時休業及び短縮営業．（年末年始、台風、豪雪、地震、災害等）"
  },
  {
    "id": "1071100828",
    "name": "GENKINEXT安中",
    "kana": "ゲンキネクストアンナカ",
    "address": "群馬県安中市安中1-16-7",
    "lat": 36.3223902,
    "lng": 138.8863548,
    "tel": "027-381-5656",
    "url": "http://www.samuesu.jp/",
    "pref": "群馬県",
    "city": "安中市",
    "category": "community_day_service",
    "serviceType": "地域密着型通所介護",
    "capacity": 0,
    "openDays": [
      "平日",
      "祝日"
    ],
    "openDaysNote": ""
  },
  {
    "id": "1071100612",
    "name": "さわやかデイサービス",
    "kana": "サワヤカディサービス",
    "address": "群馬県安中市下磯部12-1",
    "lat": 36.3078646,
    "lng": 138.8686583,
    "tel": "027-385-8409",
    "url": "",
    "pref": "群馬県",
    "city": "安中市",
    "category": "community_day_service",
    "serviceType": "地域密着型通所介護",
    "capacity": 15,
    "openDays": [
      "平日",
      "土曜日",
      "日曜日",
      "祝日"
    ],
    "openDaysNote": ""
  },
  {
    "id": "1072500182",
    "name": "デイサービス　たきみ",
    "kana": "デイサービスタキミ",
    "address": "群馬県安中市松井田町横川1076-155",
    "lat": 36.3395838,
    "lng": 138.7353396,
    "tel": "027-395-3375",
    "url": "https://www.taiken.ac.jp./takimi",
    "pref": "群馬県",
    "city": "安中市",
    "category": "community_day_service",
    "serviceType": "地域密着型通所介護",
    "capacity": 5,
    "openDays": [
      "平日",
      "土曜日",
      "祝日"
    ],
    "openDaysNote": ""
  },
  {
    "id": "1091100253",
    "name": "デイサービス　沙羅林　ヤナセ",
    "kana": "デイサービス　サラリン　ヤナセ",
    "address": "群馬県安中市簗瀬227番地4",
    "lat": 36.305651,
    "lng": 138.8522192,
    "tel": "027-388-8383",
    "url": "",
    "pref": "群馬県",
    "city": "安中市",
    "category": "community_day_service",
    "serviceType": "地域密着型通所介護",
    "capacity": 10,
    "openDays": [
      "平日",
      "土曜日",
      "祝日"
    ],
    "openDaysNote": "日曜日及び12月30日～1月3日まで休日とする。祝祭日は営業。"
  },
  {
    "id": "1091100220",
    "name": "デイサービスごうばら",
    "kana": "デイサービスゴウバラ",
    "address": "群馬県安中市郷原2982-1",
    "lat": 36.3113169,
    "lng": 138.8364785,
    "tel": "027-395-0150",
    "url": "",
    "pref": "群馬県",
    "city": "安中市",
    "category": "community_day_service",
    "serviceType": "地域密着型通所介護",
    "capacity": null,
    "openDays": [
      "平日",
      "祝日"
    ],
    "openDaysNote": ""
  },
  {
    "id": "1071100406",
    "name": "デイサービスセンター　野ゝ香",
    "kana": "デイサービスセンター　ノノカ",
    "address": "群馬県安中市野殿719-1",
    "lat": 36.3245408,
    "lng": 138.9248952,
    "tel": "027-382-8203",
    "url": "http://www.enishi2004.com",
    "pref": "群馬県",
    "city": "安中市",
    "category": "community_day_service",
    "serviceType": "地域密着型通所介護",
    "capacity": 0,
    "openDays": [
      "平日",
      "土曜日",
      "祝日"
    ],
    "openDaysNote": ""
  },
  {
    "id": "1071100752",
    "name": "デイサービスセンターぱぴよん",
    "kana": "デイサービスセンターパピヨン",
    "address": "群馬県安中市郷原2915番地1デイサービスセンターぱぴよん デイサービスセンターぱぴよん",
    "lat": 36.309721187094,
    "lng": 138.84021393248,
    "tel": "０２７－３８７－０４４５",
    "url": "",
    "pref": "群馬県",
    "city": "安中市",
    "category": "community_day_service",
    "serviceType": "地域密着型通所介護",
    "capacity": 18,
    "openDays": [
      "平日",
      "土曜日",
      "祝日"
    ],
    "openDaysNote": "その他年間の休日１２月３０日～１月３日"
  },
  {
    "id": "1071100679",
    "name": "デイサービスセンターまきば安中",
    "kana": "デイサービスセンターマキバアンナカ",
    "address": "群馬県安中市古屋字古屋74-1",
    "lat": 36.3300001012683,
    "lng": 138.873626662192,
    "tel": "027-381-6931",
    "url": "",
    "pref": "群馬県",
    "city": "安中市",
    "category": "community_day_service",
    "serviceType": "地域密着型通所介護",
    "capacity": 10,
    "openDays": [
      "平日",
      "土曜日",
      "祝日"
    ],
    "openDaysNote": "営業日は月曜日から土曜日(日曜日・1/1を除く)"
  },
  {
    "id": "1071100745",
    "name": "デイサービスセンターみなと",
    "kana": "デイサービスセンターミナト",
    "address": "群馬県安中市磯部3丁目3番19号",
    "lat": 36.3008610706738,
    "lng": 138.850704042189,
    "tel": "027-386-3710",
    "url": "https://minato-kaigo.netlify.app/",
    "pref": "群馬県",
    "city": "安中市",
    "category": "community_day_service",
    "serviceType": "地域密着型通所介護",
    "capacity": 10,
    "openDays": [
      "平日",
      "土曜日",
      "日曜日",
      "祝日"
    ],
    "openDaysNote": "その他の休日　12/29～1/3"
  },
  {
    "id": "1071101057",
    "name": "デイサービスほその",
    "kana": "デイサービスホソノ",
    "address": "群馬県安中市松井田町土塩1369-1",
    "lat": 36.3496022,
    "lng": 138.7649614,
    "tel": "027-393-9333",
    "url": "http://www.enishi2004.com",
    "pref": "群馬県",
    "city": "安中市",
    "category": "community_day_service",
    "serviceType": "地域密着型通所介護",
    "capacity": 0,
    "openDays": [
      "平日",
      "祝日"
    ],
    "openDaysNote": "他当社指定日"
  },
  {
    "id": "1071100992",
    "name": "デイサービスやまと",
    "kana": "デイサービスヤマト",
    "address": "群馬県安中市原市3519-3",
    "lat": 36.3170457,
    "lng": 138.8573445,
    "tel": "027-388-0071",
    "url": "https://www.yyh-yamato.co.jp/",
    "pref": "群馬県",
    "city": "安中市",
    "category": "community_day_service",
    "serviceType": "地域密着型通所介護",
    "capacity": 32,
    "openDays": [
      "平日",
      "祝日"
    ],
    "openDaysNote": ""
  },
  {
    "id": "1072500117",
    "name": "デイサービス宮口",
    "kana": "デイサービスミヤグチ",
    "address": "群馬県安中市松井田町二軒在家１５８０番地4",
    "lat": 36.2985939,
    "lng": 138.8083187,
    "tel": "027-393-9200",
    "url": "",
    "pref": "群馬県",
    "city": "安中市",
    "category": "community_day_service",
    "serviceType": "地域密着型通所介護",
    "capacity": 0,
    "openDays": [
      "平日",
      "土曜日",
      "祝日"
    ],
    "openDaysNote": ""
  },
  {
    "id": "1071100950",
    "name": "まごころデイサービス秋間",
    "kana": "マゴゴロデイサービスアキマ",
    "address": "群馬県安中市中秋間４６２－１",
    "lat": 36.3497233584582,
    "lng": 138.8652154724,
    "tel": "０２７－３８１－８５５６",
    "url": "",
    "pref": "群馬県",
    "city": "安中市",
    "category": "community_day_service",
    "serviceType": "地域密着型通所介護",
    "capacity": 0,
    "openDays": [
      "平日",
      "土曜日",
      "祝日"
    ],
    "openDaysNote": "年末年始１２月３１日～１月３日休日"
  },
  {
    "id": "1071100463",
    "name": "通所介護事業所　あおぞら",
    "kana": "ツウショカイゴジギョウショ　アオゾラ",
    "address": "群馬県安中市下秋間１７８４",
    "lat": 36.3482652,
    "lng": 138.8821231,
    "tel": "027-381-1955",
    "url": "",
    "pref": "群馬県",
    "city": "安中市",
    "category": "community_day_service",
    "serviceType": "地域密着型通所介護",
    "capacity": 5,
    "openDays": [
      "平日",
      "土曜日",
      "祝日"
    ],
    "openDaysNote": ""
  },
  {
    "id": "1070402092",
    "name": "ＧＥＮＫＩ　ＮＥＸＴ　伊勢崎",
    "kana": "ゲンキネクストイセサキ",
    "address": "群馬県伊勢崎市ひろせ町4098-4グリーンパーク1Ｆ グリーンパーク1Ｆ",
    "lat": 36.298421,
    "lng": 139.1970625,
    "tel": "0270-20-5141",
    "url": "http://kaigo-next.co.jp",
    "pref": "群馬県",
    "city": "伊勢崎市",
    "category": "community_day_service",
    "serviceType": "地域密着型通所介護",
    "capacity": 18,
    "openDays": [
      "平日",
      "祝日"
    ],
    "openDaysNote": ""
  },
  {
    "id": "1070402407",
    "name": "ＧＥＮＫＩ　ＮＥＸＴ　伊勢崎昭和町",
    "kana": "ゲンキネクスト　イセサキショウワチョウ",
    "address": "群馬県伊勢崎市昭和町３８０１－３　北爪ビルE号室",
    "lat": 36.3261481451849,
    "lng": 139.210810039773,
    "tel": "0270-20-1600",
    "url": "http://kaigo-next.co.jp",
    "pref": "群馬県",
    "city": "伊勢崎市",
    "category": "community_day_service",
    "serviceType": "地域密着型通所介護",
    "capacity": 100,
    "openDays": [
      "平日",
      "土曜日",
      "祝日"
    ],
    "openDaysNote": ""
  },
  {
    "id": "1070402084",
    "name": "ＧＥＮＫＩ　ＮＥＸＴ伊勢崎境",
    "kana": "ゲンキネクスト　イセサキサカイ",
    "address": "群馬県伊勢崎市境下武士2615",
    "lat": 36.2711334,
    "lng": 139.2483554,
    "tel": "0270-70-8071",
    "url": "",
    "pref": "群馬県",
    "city": "伊勢崎市",
    "category": "community_day_service",
    "serviceType": "地域密着型通所介護",
    "capacity": 10,
    "openDays": [
      "平日",
      "祝日"
    ],
    "openDaysNote": ""
  },
  {
    "id": "1090400308",
    "name": "あいデイサービス",
    "kana": "アイデイサービス",
    "address": "群馬県伊勢崎市田中島町1185-1",
    "lat": 36.324967289363,
    "lng": 139.161195074295,
    "tel": "0270-30-5677",
    "url": "",
    "pref": "群馬県",
    "city": "伊勢崎市",
    "category": "community_day_service",
    "serviceType": "地域密着型通所介護",
    "capacity": 0,
    "openDays": [
      "平日",
      "土曜日",
      "祝日"
    ],
    "openDaysNote": ""
  },
  {
    "id": "1070403280",
    "name": "お達者デイサービスいのしか蝶",
    "kana": "オタッシャデイサービスイノシカチョウ",
    "address": "群馬県伊勢崎市上田町１２６－２",
    "lat": 36.3506446638169,
    "lng": 139.240355633978,
    "tel": "０２７０－６２－６６６５",
    "url": "http://isesaki-kaigo.com/",
    "pref": "群馬県",
    "city": "伊勢崎市",
    "category": "community_day_service",
    "serviceType": "地域密着型通所介護",
    "capacity": 18,
    "openDays": [
      "平日"
    ],
    "openDaysNote": ""
  },
  {
    "id": "1070403306",
    "name": "ケアフレンド野田",
    "kana": "ケアフレンドノダ",
    "address": "群馬県伊勢崎市緑町8番2号",
    "lat": 36.3182889304402,
    "lng": 139.195364364418,
    "tel": "0270-61-7480",
    "url": "http://harmony-kaigo.com/",
    "pref": "群馬県",
    "city": "伊勢崎市",
    "category": "community_day_service",
    "serviceType": "地域密着型通所介護",
    "capacity": 0,
    "openDays": [
      "平日",
      "祝日"
    ],
    "openDaysNote": ""
  },
  {
    "id": "1070402928",
    "name": "こころの蔵くれよんにしのデイサービスセンター",
    "kana": "ココロノクラクレヨンニシノデイサービスセンター",
    "address": "群馬県伊勢崎市西野町490-4",
    "lat": 36.3984645,
    "lng": 139.2236315,
    "tel": "0270-27-7111",
    "url": "http://www.kureyon.co.jp/",
    "pref": "群馬県",
    "city": "伊勢崎市",
    "category": "community_day_service",
    "serviceType": "地域密着型通所介護",
    "capacity": 18,
    "openDays": [
      "平日",
      "土曜日",
      "祝日"
    ],
    "openDaysNote": ""
  },
  {
    "id": "1070402779",
    "name": "デイサービス　ひなた",
    "kana": "デイサービス　ヒナタ",
    "address": "群馬県伊勢崎市連取本町121番地9",
    "lat": 36.3190805349101,
    "lng": 139.182286816008,
    "tel": "0270-61-8939",
    "url": "www.rea-inc.jp/d-hinata/",
    "pref": "群馬県",
    "city": "伊勢崎市",
    "category": "community_day_service",
    "serviceType": "地域密着型通所介護",
    "capacity": 160,
    "openDays": [
      "平日",
      "祝日"
    ],
    "openDaysNote": "ゴールデンウイーク、お盆休みは、上記期間に土日が入る場合は土日を除く3日間を休業とする"
  },
  {
    "id": "1090400514",
    "name": "デイサービス　ひなたぼっこ",
    "kana": "デイサービス　ヒナタボッコ",
    "address": "群馬県伊勢崎市境保泉1553-1",
    "lat": 36.2904118,
    "lng": 139.2214794,
    "tel": "0270-74-2070",
    "url": "",
    "pref": "群馬県",
    "city": "伊勢崎市",
    "category": "community_day_service",
    "serviceType": "地域密着型通所介護",
    "capacity": 10,
    "openDays": [
      "平日",
      "祝日"
    ],
    "openDaysNote": ""
  },
  {
    "id": "1090400340",
    "name": "デイサービス　プチルーチェ",
    "kana": "デイサービス　プチルーチェ",
    "address": "群馬県伊勢﨑市韮塚町394-1住宅型有料老人ホーム　パルクルーチェ 住宅型有料老人ホーム　パルクルーチェ",
    "lat": 36.3068102992822,
    "lng": 139.182335954839,
    "tel": "0270-75-2816",
    "url": "http://parc-luce.com/",
    "pref": "群馬県",
    "city": "伊勢崎市",
    "category": "community_day_service",
    "serviceType": "地域密着型通所介護",
    "capacity": 10,
    "openDays": [
      "平日",
      "土曜日",
      "祝日"
    ],
    "openDaysNote": ""
  },
  {
    "id": "1090400589",
    "name": "デイサービスあそび処",
    "kana": "デイサービスアソビドコロ",
    "address": "群馬県伊勢崎市連取町3323-10",
    "lat": 36.3159287,
    "lng": 139.1709983,
    "tel": "0270-61-9036",
    "url": "",
    "pref": "群馬県",
    "city": "伊勢崎市",
    "category": "community_day_service",
    "serviceType": "地域密着型通所介護",
    "capacity": null,
    "openDays": [
      "平日"
    ],
    "openDaysNote": "年末年始12月30日～1月3日"
  },
  {
    "id": "1070401615",
    "name": "デイサービスかしま",
    "kana": "デイサービスカシマ",
    "address": "群馬県伊勢崎市鹿島町７８３",
    "lat": 36.3414024,
    "lng": 139.2065371,
    "tel": "0270-27-5853",
    "url": "https://dayservicekashima.wixsite.com/mysite",
    "pref": "群馬県",
    "city": "伊勢崎市",
    "category": "community_day_service",
    "serviceType": "地域密着型通所介護",
    "capacity": 18,
    "openDays": [
      "平日",
      "土曜日",
      "祝日"
    ],
    "openDaysNote": ""
  },
  {
    "id": "1072800434",
    "name": "デイサービスセンターはるかぜ",
    "kana": "デイサービスセンターハルカゼ",
    "address": "群馬県伊勢崎市田部井町3丁目2734-4",
    "lat": 36.3556219,
    "lng": 139.2649643,
    "tel": "0270-20-2271",
    "url": "https://www.fm-bridge.jp/homepage/D/1860969",
    "pref": "群馬県",
    "city": "伊勢崎市",
    "category": "community_day_service",
    "serviceType": "地域密着型通所介護",
    "capacity": 0,
    "openDays": [
      "平日",
      "祝日"
    ],
    "openDaysNote": ""
  },
  {
    "id": "1090400365",
    "name": "デイサービスフレンド結",
    "kana": "デイサービスフレンドユイ",
    "address": "群馬県伊勢崎市連取町3096-14",
    "lat": 36.3125830862662,
    "lng": 139.177073761904,
    "tel": "0270-27-4072",
    "url": "",
    "pref": "群馬県",
    "city": "伊勢崎市",
    "category": "community_day_service",
    "serviceType": "地域密着型通所介護",
    "capacity": null,
    "openDays": [
      "平日",
      "祝日"
    ],
    "openDaysNote": "年末年始はお休みします。"
  },
  {
    "id": "1090400415",
    "name": "デイサービス自遊のさと",
    "kana": "デイサービスジユウノサト",
    "address": "群馬県伊勢崎市境下武士2820",
    "lat": 36.2730582738213,
    "lng": 139.241586220537,
    "tel": "0270-61-8387",
    "url": "https://www.eforce.jp",
    "pref": "群馬県",
    "city": "伊勢崎市",
    "category": "community_day_service",
    "serviceType": "地域密着型通所介護",
    "capacity": 18,
    "openDays": [
      "平日",
      "祝日"
    ],
    "openDaysNote": ""
  },
  {
    "id": "1070400146",
    "name": "デイサービス太陽",
    "kana": "デイサービスタイヨウ",
    "address": "群馬県伊勢崎市堀口町６４６－１",
    "lat": 36.2873972,
    "lng": 139.191261,
    "tel": "0270-32-9595",
    "url": "http://www.jyoutoukai.or.jp/",
    "pref": "群馬県",
    "city": "伊勢崎市",
    "category": "community_day_service",
    "serviceType": "地域密着型通所介護",
    "capacity": 0,
    "openDays": [
      "平日",
      "土曜日",
      "祝日"
    ],
    "openDaysNote": ""
  },
  {
    "id": "1070402886",
    "name": "デイサービス優ちゃん家",
    "kana": "デイサービスユウチャンチ",
    "address": "群馬県伊勢崎市八斗島町1622番地28グランドハイツ優101号 グランドハイツ優101号",
    "lat": 36.2699409,
    "lng": 139.1899339,
    "tel": "0270-32-5838",
    "url": "",
    "pref": "群馬県",
    "city": "伊勢崎市",
    "category": "community_day_service",
    "serviceType": "地域密着型通所介護",
    "capacity": null,
    "openDays": [
      "平日",
      "土曜日",
      "祝日"
    ],
    "openDaysNote": ""
  },
  {
    "id": "1070403744",
    "name": "デイサービス優の家",
    "kana": "デイサービスユウノイエ",
    "address": "群馬県伊勢崎市八斗島町1595-6",
    "lat": 36.271477,
    "lng": 139.1938139,
    "tel": "0270-75-3723",
    "url": "",
    "pref": "群馬県",
    "city": "伊勢崎市",
    "category": "community_day_service",
    "serviceType": "地域密着型通所介護",
    "capacity": null,
    "openDays": [
      "平日",
      "土曜日",
      "祝日"
    ],
    "openDaysNote": ""
  },
  {
    "id": "1090400316",
    "name": "デイハウスななくさ",
    "kana": "デイハウスナナクサ",
    "address": "群馬県伊勢崎市豊城町１８６６番地１",
    "lat": 36.3321039,
    "lng": 139.2241437,
    "tel": "0270-40-6661",
    "url": "https://www.7793.co.jp",
    "pref": "群馬県",
    "city": "伊勢崎市",
    "category": "community_day_service",
    "serviceType": "地域密着型通所介護",
    "capacity": 0,
    "openDays": [
      "平日",
      "土曜日",
      "祝日"
    ],
    "openDaysNote": ""
  },
  {
    "id": "1070403090",
    "name": "デイハウスななくさ伊勢崎境",
    "kana": "デイハウスナナクサイセサキサカイ",
    "address": "群馬県伊勢崎市境上武士８５７番地１",
    "lat": 36.2793908,
    "lng": 139.2341562,
    "tel": "0270-61-7793",
    "url": "https://www.7793.co.jp",
    "pref": "群馬県",
    "city": "伊勢崎市",
    "category": "community_day_service",
    "serviceType": "地域密着型通所介護",
    "capacity": 10,
    "openDays": [
      "平日",
      "祝日"
    ],
    "openDaysNote": ""
  },
  {
    "id": "1090400274",
    "name": "デイハウスななくさ伊勢崎美茂呂",
    "kana": "デイハウスナナクサイセサキミモロ",
    "address": "群馬県伊勢崎市美茂呂町３９７３番地１",
    "lat": 36.303426,
    "lng": 139.1958625,
    "tel": "0270-21-8868",
    "url": "https://www.7793.co.jp",
    "pref": "群馬県",
    "city": "伊勢崎市",
    "category": "community_day_service",
    "serviceType": "地域密着型通所介護",
    "capacity": 10,
    "openDays": [
      "平日",
      "祝日"
    ],
    "openDaysNote": ""
  },
  {
    "id": "1090400472",
    "name": "デイホーム一期一会",
    "kana": "デイホームイチゴイチエ",
    "address": "群馬県伊勢崎市市場町2丁目1147-2",
    "lat": 36.3604638,
    "lng": 139.2243478,
    "tel": "0270-40-0705",
    "url": "http://aozora2003.com/",
    "pref": "群馬県",
    "city": "伊勢崎市",
    "category": "community_day_service",
    "serviceType": "地域密着型通所介護",
    "capacity": null,
    "openDays": [
      "平日",
      "土曜日",
      "日曜日",
      "祝日"
    ],
    "openDaysNote": ""
  },
  {
    "id": "1090400530",
    "name": "デイホーム時代",
    "kana": "デイホームジダイ",
    "address": "群馬県伊勢崎市市場町2-1147-2",
    "lat": 36.3604638,
    "lng": 139.2243478,
    "tel": "0270-40-0705",
    "url": "http://aozora2003.com/",
    "pref": "群馬県",
    "city": "伊勢崎市",
    "category": "community_day_service",
    "serviceType": "地域密着型通所介護",
    "capacity": null,
    "openDays": [
      "平日",
      "土曜日",
      "日曜日",
      "祝日"
    ],
    "openDaysNote": ""
  },
  {
    "id": "1090400498",
    "name": "デイリハセンターうちリハ伊勢崎境店",
    "kana": "デイリハセンターウチリハイセサキサカイテン",
    "address": "群馬県伊勢崎市境東新井582-4",
    "lat": 36.3115664,
    "lng": 139.264622,
    "tel": "0270-75-3256",
    "url": "https://waichi-uchiriha.com/",
    "pref": "群馬県",
    "city": "伊勢崎市",
    "category": "community_day_service",
    "serviceType": "地域密着型通所介護",
    "capacity": 0,
    "openDays": [
      "平日",
      "祝日"
    ],
    "openDaysNote": "サービス提供時間は３時間以上４時間未満の２単位（改行）午前の部　9：00～12：05（改行）午後の部　13：00～16：35"
  },
  {
    "id": "1090400431",
    "name": "デイルームはぁとらんど伊勢崎",
    "kana": "デイルームハァトランドイセサキ",
    "address": "群馬県伊勢崎市境栄７６２",
    "lat": 36.2747491,
    "lng": 139.2615463,
    "tel": "0270-75-3340",
    "url": "http://heartlandisesaki.webnode.jp/",
    "pref": "群馬県",
    "city": "伊勢崎市",
    "category": "community_day_service",
    "serviceType": "地域密着型通所介護",
    "capacity": 10,
    "openDays": [
      "平日",
      "土曜日"
    ],
    "openDaysNote": "12月31日～1月3日まで冬期休暇"
  },
  {
    "id": "1070402035",
    "name": "ぬくもり",
    "kana": "ヌクモリ",
    "address": "群馬県伊勢崎市田部井町２丁目１２０２",
    "lat": 36.3507368705275,
    "lng": 139.245684613847,
    "tel": "0270-75-4068",
    "url": "",
    "pref": "群馬県",
    "city": "伊勢崎市",
    "category": "community_day_service",
    "serviceType": "地域密着型通所介護",
    "capacity": 18,
    "openDays": [
      "平日",
      "祝日"
    ],
    "openDaysNote": "但し利用者のニーズによっては営業可能"
  },
  {
    "id": "1070403462",
    "name": "リハビリデイ　ふれあい",
    "kana": "リハビリデイ　フレアイ",
    "address": "群馬県伊勢崎市宮子町3566-1",
    "lat": 36.3278037724129,
    "lng": 139.153754821613,
    "tel": "0270-61-7702",
    "url": "http://www.day.iyasaka.info/",
    "pref": "群馬県",
    "city": "伊勢崎市",
    "category": "community_day_service",
    "serviceType": "地域密着型通所介護",
    "capacity": 10,
    "openDays": [
      "平日",
      "祝日"
    ],
    "openDaysNote": "国民の祝日は営業致します。"
  },
  {
    "id": "1090400506",
    "name": "リハビリパークフレンド",
    "kana": "リハビリパークフレンド",
    "address": "緑町3-16（石原整形外科跡地）",
    "lat": 36.3188323707771,
    "lng": 139.195677212007,
    "tel": "0270-55-2116",
    "url": "",
    "pref": "群馬県",
    "city": "伊勢崎市",
    "category": "community_day_service",
    "serviceType": "地域密着型通所介護",
    "capacity": 18,
    "openDays": [
      "平日",
      "祝日"
    ],
    "openDaysNote": ""
  },
  {
    "id": "1090400522",
    "name": "リハプライド伊勢崎",
    "kana": "リハプライドイセサキ",
    "address": "群馬県伊勢崎市八寸町4711-7",
    "lat": 36.3348680424744,
    "lng": 139.232673512303,
    "tel": "0270-75-3834",
    "url": "https://www.rehapride.co.jp/isesaki/",
    "pref": "群馬県",
    "city": "伊勢崎市",
    "category": "community_day_service",
    "serviceType": "地域密着型通所介護",
    "capacity": 0,
    "openDays": [
      "平日",
      "祝日"
    ],
    "openDaysNote": ""
  },
  {
    "id": "1070401052",
    "name": "リリーフ　スティション",
    "kana": "リリーフ　スティション",
    "address": "群馬県伊勢崎市日乃出町４２４番地１",
    "lat": 36.3198638379588,
    "lng": 139.224115062917,
    "tel": "0270-61-6701",
    "url": "http://www.riri-fu.co.jp",
    "pref": "群馬県",
    "city": "伊勢崎市",
    "category": "community_day_service",
    "serviceType": "地域密着型通所介護",
    "capacity": null,
    "openDays": [
      "平日",
      "土曜日",
      "祝日"
    ],
    "openDaysNote": "転送電話対応"
  },
  {
    "id": "1070403488",
    "name": "レッツ倶楽部伊勢崎",
    "kana": "レッツクラブイセサキ",
    "address": "群馬県伊勢崎市北千木町887番地6",
    "lat": 36.3073704,
    "lng": 139.2109268,
    "tel": "0270-61-6210",
    "url": "http://www.lets-club.jp/shop/isesaki/",
    "pref": "群馬県",
    "city": "伊勢崎市",
    "category": "community_day_service",
    "serviceType": "地域密着型通所介護",
    "capacity": 0,
    "openDays": [
      "平日",
      "祝日"
    ],
    "openDaysNote": ""
  },
  {
    "id": "1090400571",
    "name": "ロコモリハビリケア",
    "kana": "ロコモリハビリケア",
    "address": "群馬県伊勢崎市境下渕名2463-2ロコモリハビリケア ロコモリハビリケア",
    "lat": 36.3073003256903,
    "lng": 139.240359718385,
    "tel": "0270-27-4155",
    "url": "https//:locomo-day.com",
    "pref": "群馬県",
    "city": "伊勢崎市",
    "category": "community_day_service",
    "serviceType": "地域密着型通所介護",
    "capacity": 15,
    "openDays": [
      "平日"
    ],
    "openDaysNote": "平日祝日は営業し、12月30日から1月3日まではお休みとする"
  },
  {
    "id": "1090400423",
    "name": "介護予防運動型デイサービス　ハートリハつなとり",
    "kana": "カイゴヨボウウンドウガタデイサービス　ハートリハツナトリ",
    "address": "群馬県伊勢崎市連取町3341-14",
    "lat": 36.3186153,
    "lng": 139.1696948,
    "tel": "0270-75-6820",
    "url": "https://heart-reha.com/",
    "pref": "群馬県",
    "city": "伊勢崎市",
    "category": "community_day_service",
    "serviceType": "地域密着型通所介護",
    "capacity": 0,
    "openDays": [
      "平日"
    ],
    "openDaysNote": ""
  },
  {
    "id": "1072800301",
    "name": "株式会社ふれあいの家デイサービスセンター",
    "kana": "カブシキガイシャフレアイノイエデイサービスセンター",
    "address": "群馬県伊勢崎市三室町6181-3",
    "lat": 36.3232638,
    "lng": 139.2388176,
    "tel": "0270-20-8770",
    "url": "",
    "pref": "群馬県",
    "city": "伊勢崎市",
    "category": "community_day_service",
    "serviceType": "地域密着型通所介護",
    "capacity": 10,
    "openDays": [
      "平日"
    ],
    "openDaysNote": "特になし"
  },
  {
    "id": "1070402845",
    "name": "通所介護　ときめき",
    "kana": "ツウショカイゴ　トキメキ",
    "address": "群馬県伊勢崎市乾町109-3",
    "lat": 36.3386772,
    "lng": 139.1918001,
    "tel": "0270-27-5010",
    "url": "",
    "pref": "群馬県",
    "city": "伊勢崎市",
    "category": "community_day_service",
    "serviceType": "地域密着型通所介護",
    "capacity": 0,
    "openDays": [
      "平日",
      "土曜日",
      "祝日"
    ],
    "openDaysNote": "8月13～15　12月31～1月3日は休業"
  },
  {
    "id": "1070403736",
    "name": "通所介護　星のライフ",
    "kana": "ツウショカイゴ　ホシノライフ",
    "address": "群馬県伊勢崎市国定町一丁目１１５８番地１",
    "lat": 36.3685068,
    "lng": 139.2551185,
    "tel": "0270-61-6526",
    "url": "http://www.hoshinolife.com",
    "pref": "群馬県",
    "city": "伊勢崎市",
    "category": "community_day_service",
    "serviceType": "地域密着型通所介護",
    "capacity": 18,
    "openDays": [
      "平日",
      "土曜日",
      "祝日"
    ],
    "openDaysNote": ""
  },
  {
    "id": "1070403074",
    "name": "優楽舎デイサービスセンター",
    "kana": "ユウラクシャデイサービスセンター",
    "address": "群馬県伊勢崎市西久保町三丁目９６０－１",
    "lat": 36.3708646611009,
    "lng": 139.230625436246,
    "tel": "0270-61-6350",
    "url": "hikarihelper@car.ocn.ne.jp",
    "pref": "群馬県",
    "city": "伊勢崎市",
    "category": "community_day_service",
    "serviceType": "地域密着型通所介護",
    "capacity": 0,
    "openDays": [
      "平日",
      "祝日"
    ],
    "openDaysNote": "祝日が土曜日曜と重なる場合は定休日となります。（改行）（改行）例　2013年11月23日（土曜日）　勤労感謝の日　⇒　土日と重なるため定休日（改行）　　2013年10月14日（月曜日）　体育の日　⇒　土日と重ならないため営業日"
  },
  {
    "id": "1072400375",
    "name": "デイサービス　もんれーぶ",
    "kana": "デイサービス　モンレーブ",
    "address": "群馬県甘楽郡甘楽町大字小川37番地7ハイツベルメゾン１０２号室 ハイツベルメゾン１０２号室",
    "lat": 36.2496115,
    "lng": 138.9375196,
    "tel": "0274-67-0555",
    "url": "http://www.monreve7710.com/",
    "pref": "群馬県",
    "city": "甘楽町",
    "category": "community_day_service",
    "serviceType": "地域密着型通所介護",
    "capacity": 6,
    "openDays": [
      "平日",
      "土曜日",
      "日曜日",
      "祝日"
    ],
    "openDaysNote": ""
  },
  {
    "id": "1090700319",
    "name": "コンパスウォーク館林",
    "kana": "コンパスウォークタテバヤシ",
    "address": "群馬県館林市富士見町4-26日栄ビル１５　１F 日栄ビル１５　１F",
    "lat": 36.2437255,
    "lng": 139.5249172,
    "tel": "0276-57-6072",
    "url": "https://keigo-group.co.jp/shop/gunmaken/426/",
    "pref": "群馬県",
    "city": "館林市",
    "category": "community_day_service",
    "serviceType": "地域密着型通所介護",
    "capacity": 15,
    "openDays": [
      "平日"
    ],
    "openDaysNote": ""
  },
  {
    "id": "1070701162",
    "name": "デイサービス健幸倶楽部館林大手町",
    "kana": "デイサービスケンコウクラブタテバヤシオオテマチ",
    "address": "群馬県館林市大手町7－20日栄ビル１２-102 日栄ビル１２-102",
    "lat": 36.2474798462083,
    "lng": 139.537119650926,
    "tel": "0276-60-5000",
    "url": "",
    "pref": "群馬県",
    "city": "館林市",
    "category": "community_day_service",
    "serviceType": "地域密着型通所介護",
    "capacity": 100,
    "openDays": [
      "平日",
      "祝日"
    ],
    "openDaysNote": "お盆・年末年始・事業所が指定する日"
  },
  {
    "id": "1070701196",
    "name": "デイサービス松ぼっくり",
    "kana": "デイサービスマツボックリ",
    "address": "群馬県館林市加法師町11-10",
    "lat": 36.2525754,
    "lng": 139.5515115,
    "tel": "276473990",
    "url": "",
    "pref": "群馬県",
    "city": "館林市",
    "category": "community_day_service",
    "serviceType": "地域密着型通所介護",
    "capacity": 10,
    "openDays": [
      "平日",
      "土曜日",
      "祝日"
    ],
    "openDaysNote": ""
  },
  {
    "id": "1070700834",
    "name": "デイサービス千寿",
    "kana": "デイサービスセンジュ",
    "address": "群馬県館林市足次町900-2",
    "lat": 36.2611486706116,
    "lng": 139.53966317791,
    "tel": "0276-76-8120",
    "url": "",
    "pref": "群馬県",
    "city": "館林市",
    "category": "community_day_service",
    "serviceType": "地域密着型通所介護",
    "capacity": 15,
    "openDays": [
      "平日",
      "土曜日",
      "祝日"
    ],
    "openDaysNote": ""
  },
  {
    "id": "1090700251",
    "name": "デイサービス未来　館林",
    "kana": "デイサービスミライ　タテバヤシ",
    "address": "群馬県館林市本町4-6-7家具プラザIWATAYA１F 家具プラザIWATAYA１F",
    "lat": 36.2416344314292,
    "lng": 139.53379382209,
    "tel": "0276-55-8360",
    "url": "https://sites.google.com/view/mirai-tatebayashi/%E3%83%9B%E3%83%BC%E3%83%A0",
    "pref": "群馬県",
    "city": "館林市",
    "category": "community_day_service",
    "serviceType": "地域密着型通所介護",
    "capacity": 0,
    "openDays": [
      "平日",
      "祝日"
    ],
    "openDaysNote": "その他の休業として、GW休業（5月3日～5月5日）、夏季休業（8月13日～8月16日）、年末年始休業（12月30日～1月3日）"
  },
  {
    "id": "1090700244",
    "name": "メープルトレーニングスタジオ",
    "kana": "メープルトレーニングスタジオ",
    "address": "群馬県館林市松原１丁目16-23",
    "lat": 36.2383730409921,
    "lng": 139.542475684656,
    "tel": "0276-51-1161",
    "url": "http://www.popurakai.or.jp",
    "pref": "群馬県",
    "city": "館林市",
    "category": "community_day_service",
    "serviceType": "地域密着型通所介護",
    "capacity": 0,
    "openDays": [
      "平日",
      "祝日"
    ],
    "openDaysNote": ""
  },
  {
    "id": "1090700236",
    "name": "一本松",
    "kana": "イッポンマツ",
    "address": "群馬県館林市緑町二丁目10番4号",
    "lat": 36.2393435,
    "lng": 139.5344233,
    "tel": "0276-74-3155",
    "url": "http://hp.kaipoke.biz/d0m/",
    "pref": "群馬県",
    "city": "館林市",
    "category": "community_day_service",
    "serviceType": "地域密着型通所介護",
    "capacity": 0,
    "openDays": [
      "平日",
      "土曜日",
      "日曜日",
      "祝日"
    ],
    "openDaysNote": ""
  },
  {
    "id": "1090700285",
    "name": "地域密着デイの喜楽",
    "kana": "チイキミッチャクデイノキラク",
    "address": "群馬県館林市北成島町1829-1",
    "lat": 36.253126,
    "lng": 139.5195367,
    "tel": "0276-55-1720",
    "url": "http://otagaisamaegao.net",
    "pref": "群馬県",
    "city": "館林市",
    "category": "community_day_service",
    "serviceType": "地域密着型通所介護",
    "capacity": 35,
    "openDays": [
      "平日",
      "土曜日",
      "祝日"
    ],
    "openDaysNote": ""
  },
  {
    "id": "1072200767",
    "name": "らいふプラス吉岡",
    "kana": "ライフプラスヨシオカ",
    "address": "群馬県北群馬郡吉岡町漆原1462番地4和が家よしおか 和が家よしおか",
    "lat": 36.4357273347754,
    "lng": 139.029685487792,
    "tel": "0279-51-8480",
    "url": "http://www.samuesu.jp",
    "pref": "群馬県",
    "city": "吉岡町",
    "category": "community_day_service",
    "serviceType": "地域密着型通所介護",
    "capacity": 18,
    "openDays": [
      "平日",
      "土曜日",
      "祝日"
    ],
    "openDaysNote": "年末年始（12月31日、1月1日）休み"
  },
  {
    "id": "1072800673",
    "name": "デイサービス　ツクモ",
    "kana": "デイサービス　ツクモ",
    "address": "群馬県佐波郡玉村町大字板井1077-1",
    "lat": 36.3184208078266,
    "lng": 139.099834154167,
    "tel": "0270-75-5300",
    "url": "",
    "pref": "群馬県",
    "city": "玉村町",
    "category": "community_day_service",
    "serviceType": "地域密着型通所介護",
    "capacity": 17,
    "openDays": [
      "平日",
      "土曜日",
      "祝日"
    ],
    "openDaysNote": ""
  },
  {
    "id": "1072800962",
    "name": "ほっとテラス",
    "kana": "ホットテラス",
    "address": "群馬県佐波郡玉村町大字川井2124-2",
    "lat": 36.2867623,
    "lng": 139.1492576,
    "tel": "0270-65-1662",
    "url": "shibasakura.net",
    "pref": "群馬県",
    "city": "玉村町",
    "category": "community_day_service",
    "serviceType": "地域密着型通所介護",
    "capacity": 0,
    "openDays": [
      "平日",
      "祝日"
    ],
    "openDaysNote": ""
  },
  {
    "id": "1072800368",
    "name": "中里デイサービスセンター",
    "kana": "ナカザトデイサービスセンター",
    "address": "群馬県佐波郡玉村町大字板井1060-5",
    "lat": 36.3188011706138,
    "lng": 139.099276254692,
    "tel": "0270-64-1656",
    "url": "",
    "pref": "群馬県",
    "city": "玉村町",
    "category": "community_day_service",
    "serviceType": "地域密着型通所介護",
    "capacity": 18,
    "openDays": [
      "平日",
      "土曜日",
      "祝日"
    ],
    "openDaysNote": ""
  },
  {
    "id": "1070302474",
    "name": "GENKINEXT桐生駅南口",
    "kana": "ゲンキネクストキリュウエキミナミグチ",
    "address": "群馬県桐生市巴町2丁目8-2河合ビル1F 河合ビル1F",
    "lat": 36.4105929,
    "lng": 139.3311485,
    "tel": "0277-32-3411",
    "url": "",
    "pref": "群馬県",
    "city": "桐生市",
    "category": "community_day_service",
    "serviceType": "地域密着型通所介護",
    "capacity": 0,
    "openDays": [
      "平日",
      "祝日"
    ],
    "openDaysNote": ""
  },
  {
    "id": "1070302805",
    "name": "グランドケミー",
    "kana": "グランドケミー",
    "address": "群馬県桐生市東７丁目２番３２号",
    "lat": 36.4043631,
    "lng": 139.3455167,
    "tel": "0277-44-8294",
    "url": "http://www.kemy.info/",
    "pref": "群馬県",
    "city": "桐生市",
    "category": "community_day_service",
    "serviceType": "地域密着型通所介護",
    "capacity": 20,
    "openDays": [
      "平日"
    ],
    "openDaysNote": ""
  },
  {
    "id": "1070301781",
    "name": "ココロアットホーム",
    "kana": "ココロアットホーム",
    "address": "群馬県桐生市相生町2丁目270－1",
    "lat": 36.4134601896948,
    "lng": 139.31647132209,
    "tel": "0277-46-6012",
    "url": "http://coco-lo.net",
    "pref": "群馬県",
    "city": "桐生市",
    "category": "community_day_service",
    "serviceType": "地域密着型通所介護",
    "capacity": 18,
    "openDays": [
      "平日"
    ],
    "openDaysNote": ""
  },
  {
    "id": "1070302771",
    "name": "ココロトレーニングデイサービス",
    "kana": "ココロトレーニングデイサービス",
    "address": "群馬県桐生市広沢町6丁目909",
    "lat": 36.3729215,
    "lng": 139.350818,
    "tel": "0277-32-3404",
    "url": "http://coco-lo.net",
    "pref": "群馬県",
    "city": "桐生市",
    "category": "community_day_service",
    "serviceType": "地域密着型通所介護",
    "capacity": 10,
    "openDays": [
      "平日",
      "土曜日"
    ],
    "openDaysNote": "通所介護のサービス提供時間は、火曜日～土曜日の9：30～12：30、および水曜日～金曜日13：30～16：30（改行）水曜日・木曜日・金曜日のみ２単位目(定員8)を実施。"
  },
  {
    "id": "1090300524",
    "name": "さんかくみもざ",
    "kana": "サンカクミモザ",
    "address": "群馬県桐生市堤町1-8-27",
    "lat": 36.416425,
    "lng": 139.3259236,
    "tel": "0277-32-4225",
    "url": "https://sites.google.com/view/sankakumimosa-reha/home",
    "pref": "群馬県",
    "city": "桐生市",
    "category": "community_day_service",
    "serviceType": "地域密着型通所介護",
    "capacity": 0,
    "openDays": [
      "平日",
      "祝日"
    ],
    "openDaysNote": "年末年始休み"
  },
  {
    "id": "1090300425",
    "name": "デイサービス　いっ歩",
    "kana": "デイサービスイッポ",
    "address": "群馬県桐生市相生町５丁目444-85",
    "lat": 36.4173613,
    "lng": 139.2935504,
    "tel": "0277-52-1006",
    "url": "",
    "pref": "群馬県",
    "city": "桐生市",
    "category": "community_day_service",
    "serviceType": "地域密着型通所介護",
    "capacity": null,
    "openDays": [
      "平日",
      "祝日"
    ],
    "openDaysNote": ""
  },
  {
    "id": "1070302813",
    "name": "デイサービス　こらしょ",
    "kana": "デイサービス　コラショ",
    "address": "群馬県桐生市相生町１丁目２０８－１",
    "lat": 36.4002408,
    "lng": 139.321009,
    "tel": "0277-32-5235",
    "url": "http://www.korasyo.jp",
    "pref": "群馬県",
    "city": "桐生市",
    "category": "community_day_service",
    "serviceType": "地域密着型通所介護",
    "capacity": 0,
    "openDays": [
      "平日"
    ],
    "openDaysNote": "月～金までが営業（改行）祝日休み（令和６年７月より）"
  },
  {
    "id": "1070302102",
    "name": "デイサービス　さら",
    "kana": "デイサービス　サラ",
    "address": "群馬県桐生市境野町７丁目４９－５",
    "lat": 36.3778572,
    "lng": 139.364689,
    "tel": "0277-22-8003",
    "url": "",
    "pref": "群馬県",
    "city": "桐生市",
    "category": "community_day_service",
    "serviceType": "地域密着型通所介護",
    "capacity": 10,
    "openDays": [
      "平日",
      "土曜日",
      "祝日"
    ],
    "openDaysNote": ""
  },
  {
    "id": "1070301724",
    "name": "デイサービス　恵",
    "kana": "デイサービス　メグミ",
    "address": "群馬県桐生市錦町１－３－３０",
    "lat": 36.4069461,
    "lng": 139.3337428,
    "tel": "0277-44-0128",
    "url": "http://www.koue-kiryu.com/",
    "pref": "群馬県",
    "city": "桐生市",
    "category": "community_day_service",
    "serviceType": "地域密着型通所介護",
    "capacity": 3,
    "openDays": [
      "平日",
      "祝日"
    ],
    "openDaysNote": "土曜日、日曜日、年末年始(１２/３０～１/３）お休みとさせて頂きます。"
  },
  {
    "id": "1070302672",
    "name": "デイサービスＯＨＡＮＡ",
    "kana": "デイサービス　オハナ",
    "address": "群馬県桐生市新里町新川2036-54",
    "lat": 36.4192064511614,
    "lng": 139.257353710451,
    "tel": "0277-46-7616",
    "url": "",
    "pref": "群馬県",
    "city": "桐生市",
    "category": "community_day_service",
    "serviceType": "地域密着型通所介護",
    "capacity": 0,
    "openDays": [
      "平日",
      "土曜日",
      "祝日"
    ],
    "openDaysNote": ""
  },
  {
    "id": "1070302250",
    "name": "デイサービスセンター　やまぼうし",
    "kana": "デイサービスセンター　ヤマボウシ",
    "address": "群馬県桐生市広沢町５丁目１３８６番地の１",
    "lat": 36.3776405,
    "lng": 139.3471679,
    "tel": "0277-54-7470",
    "url": "",
    "pref": "群馬県",
    "city": "桐生市",
    "category": "community_day_service",
    "serviceType": "地域密着型通所介護",
    "capacity": 0,
    "openDays": [
      "平日",
      "土曜日",
      "祝日"
    ],
    "openDaysNote": ""
  },
  {
    "id": "1090300441",
    "name": "デイサービスなないろ",
    "kana": "デイサービスナナイロ",
    "address": "群馬県桐生市梅田町1丁目40-3",
    "lat": 36.4332406,
    "lng": 139.3546563,
    "tel": "277477250",
    "url": "",
    "pref": "群馬県",
    "city": "桐生市",
    "category": "community_day_service",
    "serviceType": "地域密着型通所介護",
    "capacity": 0,
    "openDays": [
      "平日",
      "土曜日",
      "祝日"
    ],
    "openDaysNote": ""
  },
  {
    "id": "1090300565",
    "name": "デイサービスにこ",
    "kana": "デイサービスニコ",
    "address": "群馬県桐生市天神町3丁目10-2",
    "lat": 36.4283451,
    "lng": 139.3546268,
    "tel": "0277-46-8908",
    "url": "info＠nanairo0401.com",
    "pref": "群馬県",
    "city": "桐生市",
    "category": "community_day_service",
    "serviceType": "地域密着型通所介護",
    "capacity": 0,
    "openDays": [
      "平日",
      "土曜日",
      "祝日"
    ],
    "openDaysNote": ""
  },
  {
    "id": "1090300540",
    "name": "デイサービス花結び",
    "kana": "デイサービスハナムスビ",
    "address": "群馬県桐生市川内町三丁目３９３番地４",
    "lat": 36.4315655,
    "lng": 139.3044535,
    "tel": "0277-46-8701",
    "url": "https://care-net.biz/10/nakazatokai/",
    "pref": "群馬県",
    "city": "桐生市",
    "category": "community_day_service",
    "serviceType": "地域密着型通所介護",
    "capacity": 16,
    "openDays": [
      "平日"
    ],
    "openDaysNote": ""
  },
  {
    "id": "1090300359",
    "name": "デイサービス彩",
    "kana": "デイサービスアヤ",
    "address": "群馬県桐生市織姫町3-11",
    "lat": 36.4033548,
    "lng": 139.328446,
    "tel": "277323889",
    "url": "http://www.longlife-lp.com",
    "pref": "群馬県",
    "city": "桐生市",
    "category": "community_day_service",
    "serviceType": "地域密着型通所介護",
    "capacity": 0,
    "openDays": [
      "平日",
      "祝日"
    ],
    "openDaysNote": ""
  },
  {
    "id": "1070302078",
    "name": "デイハウス　はまの郷",
    "kana": "デイハウス　ハマノキョウ",
    "address": "群馬県桐生市境野町７－１７７９－３０",
    "lat": 36.379632,
    "lng": 139.3608892,
    "tel": "0277-46-8696",
    "url": "",
    "pref": "群馬県",
    "city": "桐生市",
    "category": "community_day_service",
    "serviceType": "地域密着型通所介護",
    "capacity": 10,
    "openDays": [
      "平日"
    ],
    "openDaysNote": ""
  },
  {
    "id": "1070302359",
    "name": "デイホームこもれ陽",
    "kana": "デイホームコモレビ",
    "address": "群馬県桐生市境野町７丁目１７３１－９",
    "lat": 36.3818096,
    "lng": 139.3550422,
    "tel": "0277-20-8085",
    "url": "http://aozora2003.com",
    "pref": "群馬県",
    "city": "桐生市",
    "category": "community_day_service",
    "serviceType": "地域密着型通所介護",
    "capacity": 10,
    "openDays": [
      "平日",
      "土曜日",
      "日曜日",
      "祝日"
    ],
    "openDaysNote": ""
  },
  {
    "id": "1070302367",
    "name": "デイホーム桐生広沢",
    "kana": "デイホームキリュウヒロサワ",
    "address": "群馬県桐生市広沢町１丁目２７２５-１",
    "lat": 36.3937974,
    "lng": 139.3303268,
    "tel": "080-3383-5912",
    "url": "www.aozora2003.com",
    "pref": "群馬県",
    "city": "桐生市",
    "category": "community_day_service",
    "serviceType": "地域密着型通所介護",
    "capacity": 10,
    "openDays": [
      "平日",
      "土曜日",
      "日曜日",
      "祝日"
    ],
    "openDaysNote": ""
  },
  {
    "id": "1070302342",
    "name": "デイホーム大地",
    "kana": "デイホームダイチ",
    "address": "群馬県桐生市境野町２丁目１２８１－３",
    "lat": 36.3925475,
    "lng": 139.3457034,
    "tel": "0277-22-5430",
    "url": "http://aozora2003.com",
    "pref": "群馬県",
    "city": "桐生市",
    "category": "community_day_service",
    "serviceType": "地域密着型通所介護",
    "capacity": 10,
    "openDays": [
      "平日",
      "土曜日",
      "日曜日",
      "祝日"
    ],
    "openDaysNote": ""
  },
  {
    "id": "1070300122",
    "name": "ポピー介護センター",
    "kana": "ポピーカイゴセンター",
    "address": "群馬県桐生市菱町１丁目3006-1",
    "lat": 36.393128,
    "lng": 139.36148,
    "tel": "0277-47-5210",
    "url": "https://kabusikigaisyapoppy.wixsite.com/popy-carecenter",
    "pref": "群馬県",
    "city": "桐生市",
    "category": "community_day_service",
    "serviceType": "地域密着型通所介護",
    "capacity": 18,
    "openDays": [
      "平日",
      "土曜日",
      "祝日"
    ],
    "openDaysNote": "緊急の場合対応可。"
  },
  {
    "id": "1090300516",
    "name": "リハビリすぽっと　にこリハ",
    "kana": "リハビリスポット　ニコリハ",
    "address": "群馬県桐生市相生町2-282-11",
    "lat": 36.4142737,
    "lng": 139.3126374,
    "tel": "0277-46-7071",
    "url": "",
    "pref": "群馬県",
    "city": "桐生市",
    "category": "community_day_service",
    "serviceType": "地域密着型通所介護",
    "capacity": 0,
    "openDays": [
      "平日",
      "土曜日",
      "祝日"
    ],
    "openDaysNote": "但し、お盆8月14日、8月15日、年末年始12月29日から1月3日は休業"
  },
  {
    "id": "1090300557",
    "name": "リハビリすぽっと　にこリハ　境野店",
    "kana": "リハビリスポット　ニコリハ　サカイノテン",
    "address": "群馬県桐生市境野町6丁目594番地の1",
    "lat": 36.3876122,
    "lng": 139.3534372,
    "tel": "0277-46-9650",
    "url": "https://nicoreha.jp",
    "pref": "群馬県",
    "city": "桐生市",
    "category": "community_day_service",
    "serviceType": "地域密着型通所介護",
    "capacity": 10,
    "openDays": [
      "平日",
      "祝日"
    ],
    "openDaysNote": "但し、お盆8月14日、8月15日、年末年始12月29日から1月3日は休業"
  },
  {
    "id": "1090300458",
    "name": "リハビリはうす",
    "kana": "リハビリハウス",
    "address": "群馬県桐生市宮前町1-2-33",
    "lat": 36.4154124,
    "lng": 139.3255272,
    "tel": "0277-47-7313",
    "url": "",
    "pref": "群馬県",
    "city": "桐生市",
    "category": "community_day_service",
    "serviceType": "地域密着型通所介護",
    "capacity": 16,
    "openDays": [
      "平日",
      "祝日"
    ],
    "openDaysNote": ""
  },
  {
    "id": "1090300482",
    "name": "ローズヴィレッジ桜木",
    "kana": "ローズヴィレッジサクラギ",
    "address": "群馬県桐生市広沢町2丁目2953-13",
    "lat": 36.3953015,
    "lng": 139.3207562,
    "tel": "0277-47-7202",
    "url": "http://www.grand-love.co.jp/",
    "pref": "群馬県",
    "city": "桐生市",
    "category": "community_day_service",
    "serviceType": "地域密着型通所介護",
    "capacity": 0,
    "openDays": [
      "平日",
      "祝日"
    ],
    "openDaysNote": ""
  },
  {
    "id": "1070301971",
    "name": "一華リハビリの里",
    "kana": "イチカ　リハビリノサト",
    "address": "群馬県桐生市川内町5-333-7",
    "lat": 36.4380724,
    "lng": 139.3053203,
    "tel": "0277-46-7859",
    "url": "https;//sakuranet-gr.com/",
    "pref": "群馬県",
    "city": "桐生市",
    "category": "community_day_service",
    "serviceType": "地域密着型通所介護",
    "capacity": 10,
    "openDays": [
      "平日",
      "土曜日",
      "日曜日",
      "祝日"
    ],
    "openDaysNote": ""
  },
  {
    "id": "1090300474",
    "name": "家具のホンダ　リハ・アシスト　ホンダ　相生店",
    "kana": "カグノホンダ　リハ・アシスト　ホンダ　アイオイテン",
    "address": "群馬県桐生市相生町5-473-1",
    "lat": 36.4165711,
    "lng": 139.2891733,
    "tel": "0277-55-6011",
    "url": "http://wagamama-club.seneso.jp/",
    "pref": "群馬県",
    "city": "桐生市",
    "category": "community_day_service",
    "serviceType": "地域密着型通所介護",
    "capacity": 100,
    "openDays": [
      "平日",
      "祝日"
    ],
    "openDaysNote": "8月第一金曜日は地域の祭りがあり交通規制がある為。"
  },
  {
    "id": "1090300417",
    "name": "家具のホンダ　リハ・アシスト　ホンダ　東店",
    "kana": "カグノホンダ　リハ・アシスト　ホンダ　ヒガシテン",
    "address": "群馬県桐生市東6-1-6",
    "lat": 36.4075079,
    "lng": 139.3429892,
    "tel": "0277-20-1811",
    "url": "http://wagamama-club.seneso.jp/",
    "pref": "群馬県",
    "city": "桐生市",
    "category": "community_day_service",
    "serviceType": "地域密着型通所介護",
    "capacity": 120,
    "openDays": [
      "平日",
      "土曜日",
      "祝日"
    ],
    "openDaysNote": ""
  },
  {
    "id": "1070302896",
    "name": "家具のホンダ　リハ・アシスト　ホンダ　末広店",
    "kana": "カグノホンダ　リハ・アシスト　ホンダ　スエヒロテン",
    "address": "群馬県桐生市末広町6-28小林ビル1F 小林ビル1F",
    "lat": 36.4113524952363,
    "lng": 139.335526785879,
    "tel": "0277-46-8011",
    "url": "http://wagamama-club.seneso.jp",
    "pref": "群馬県",
    "city": "桐生市",
    "category": "community_day_service",
    "serviceType": "地域密着型通所介護",
    "capacity": 150,
    "openDays": [
      "平日",
      "祝日"
    ],
    "openDaysNote": ""
  },
  {
    "id": "1070301229",
    "name": "機能回復　フカサワ",
    "kana": "キノウカイフク　フカサワ",
    "address": "群馬県桐生市境野町２丁目777-12",
    "lat": 36.3920059,
    "lng": 139.3475171,
    "tel": "0277-46-2931",
    "url": "",
    "pref": "群馬県",
    "city": "桐生市",
    "category": "community_day_service",
    "serviceType": "地域密着型通所介護",
    "capacity": 4,
    "openDays": [
      "平日",
      "土曜日"
    ],
    "openDaysNote": ""
  },
  {
    "id": "1070300676",
    "name": "桐生協立デイサービスセンターさくら",
    "kana": "キリュウキョウリツデイサービスセンターサクラ",
    "address": "群馬県桐生市相生町２－５５４－５",
    "lat": 36.4193077,
    "lng": 139.2966604,
    "tel": "0277-52-0985",
    "url": "http://www.kyouritsu.org",
    "pref": "群馬県",
    "city": "桐生市",
    "category": "community_day_service",
    "serviceType": "地域密着型通所介護",
    "capacity": 18,
    "openDays": [
      "平日",
      "土曜日",
      "祝日"
    ],
    "openDaysNote": "特になし"
  },
  {
    "id": "1072000050",
    "name": "社会福祉法人　泰和会　しみずの里",
    "kana": "シャカイフクシホウジン　タイワカイ　シミズノサト",
    "address": "群馬県桐生市黒保根町下田沢2565-1",
    "lat": 36.5101374,
    "lng": 139.2760818,
    "tel": "0277-96-3388",
    "url": "http://taiwakai.com/",
    "pref": "群馬県",
    "city": "桐生市",
    "category": "community_day_service",
    "serviceType": "地域密着型通所介護",
    "capacity": 0,
    "openDays": [
      "平日",
      "土曜日",
      "祝日"
    ],
    "openDaysNote": ""
  },
  {
    "id": "1090300508",
    "name": "心春日和デイサービスセンター",
    "kana": "コハルビヨリデイサービスセンター",
    "address": "群馬県桐生市宮本町2-１３",
    "lat": 36.4218840469313,
    "lng": 139.338823611814,
    "tel": "277476090",
    "url": "http://peachfactory.jp/",
    "pref": "群馬県",
    "city": "桐生市",
    "category": "community_day_service",
    "serviceType": "地域密着型通所介護",
    "capacity": 0,
    "openDays": [
      "平日",
      "土曜日"
    ],
    "openDaysNote": ""
  },
  {
    "id": "1070301807",
    "name": "菱風園デイサービスセンター",
    "kana": "リョウフウエンデイサービスセンター",
    "address": "群馬県桐生市浜松町１－３－３",
    "lat": 36.4046797,
    "lng": 139.3410032,
    "tel": "0277-20-7184",
    "url": "http://www.cnet-ga.ne.jp/ryh-ikd/",
    "pref": "群馬県",
    "city": "桐生市",
    "category": "community_day_service",
    "serviceType": "地域密着型通所介護",
    "capacity": 15,
    "openDays": [
      "平日",
      "土曜日",
      "祝日"
    ],
    "openDaysNote": ""
  },
  {
    "id": "1070203516",
    "name": "ＧＥＮＫＩ　ＮＥＸＴ高崎緑町",
    "kana": "ゲンキネクスト　タカサキミドリチョウ",
    "address": "群馬県高崎市緑町1-25-5　丸九緑町ビル１Ｆ丸九緑町ビル１Ｆ 丸九緑町ビル１Ｆ",
    "lat": 36.3524678,
    "lng": 139.0025341,
    "tel": "027-370-0190",
    "url": "kaigo-next.com",
    "pref": "群馬県",
    "city": "高崎市",
    "category": "community_day_service",
    "serviceType": "地域密着型通所介護",
    "capacity": 15,
    "openDays": [
      "平日",
      "祝日"
    ],
    "openDaysNote": ""
  },
  {
    "id": "1070203268",
    "name": "GENKINEXT高崎上中居",
    "kana": "ゲンキネクストタカサキカミナカイ",
    "address": "群馬県高崎市上中居町763-1",
    "lat": 36.3168484,
    "lng": 139.0310054,
    "tel": "027-330-5801",
    "url": "https://kaigo-next.com/",
    "pref": "群馬県",
    "city": "高崎市",
    "category": "community_day_service",
    "serviceType": "地域密着型通所介護",
    "capacity": 18,
    "openDays": [
      "平日",
      "祝日"
    ],
    "openDaysNote": "冬期休暇：12/31～1/2"
  },
  {
    "id": "1070203565",
    "name": "MWS日高　八千代デイサービスセンターFC",
    "kana": "エムダブルエスヒダカ　ヤチヨデイサービスセンターエフシー",
    "address": "群馬県高崎市八千代町１－１２－９",
    "lat": 36.3208698,
    "lng": 138.9921139,
    "tel": "027-384-3345",
    "url": "http://www.kurara-mwsfc.com",
    "pref": "群馬県",
    "city": "高崎市",
    "category": "community_day_service",
    "serviceType": "地域密着型通所介護",
    "capacity": 18,
    "openDays": [
      "平日",
      "土曜日",
      "祝日"
    ],
    "openDaysNote": "祝祭日も営業"
  },
  {
    "id": "1070205248",
    "name": "SAYAKA",
    "kana": "サヤカ",
    "address": "群馬県高崎市吉井町南陽台3－13－1",
    "lat": 36.2720625,
    "lng": 138.9997546,
    "tel": "027－388－4183",
    "url": "https://www.sayaka777.com/",
    "pref": "群馬県",
    "city": "高崎市",
    "category": "community_day_service",
    "serviceType": "地域密着型通所介護",
    "capacity": 0,
    "openDays": [
      "平日",
      "土曜日",
      "日曜日",
      "祝日"
    ],
    "openDaysNote": "土曜日・日曜日は応相談になります。"
  },
  {
    "id": "1070202013",
    "name": "いきいきデイサービスセンター",
    "kana": "イキイキデイサービスセンター",
    "address": "群馬県高崎市下滝町１１－７",
    "lat": 36.3216523,
    "lng": 139.0718044,
    "tel": "027-353-9388",
    "url": "",
    "pref": "群馬県",
    "city": "高崎市",
    "category": "community_day_service",
    "serviceType": "地域密着型通所介護",
    "capacity": 12,
    "openDays": [
      "平日",
      "土曜日",
      "祝日"
    ],
    "openDaysNote": "年末年始休み　１２月３1日～１月３日まで"
  },
  {
    "id": "1070203391",
    "name": "いち・にのさん",
    "kana": "イチ・ニノサン",
    "address": "群馬県高崎市石原町3236",
    "lat": 36.3080270760928,
    "lng": 139.001996807748,
    "tel": "027-325-5085",
    "url": "http://www.npo-hatofuru.or.jp/",
    "pref": "群馬県",
    "city": "高崎市",
    "category": "community_day_service",
    "serviceType": "地域密着型通所介護",
    "capacity": 0,
    "openDays": [
      "平日",
      "祝日"
    ],
    "openDaysNote": "12/31～1/3休業"
  },
  {
    "id": "1090200906",
    "name": "グランドホーム箕輪",
    "kana": "グランドホームミノワ",
    "address": "群馬県高崎市箕郷町上芝８４５-３グランドホーム箕輪 グランドホーム箕輪",
    "lat": 36.3849599,
    "lng": 138.9609615,
    "tel": "027-371-3717",
    "url": "http//www.e-verde.co.jp/",
    "pref": "群馬県",
    "city": "高崎市",
    "category": "community_day_service",
    "serviceType": "地域密着型通所介護",
    "capacity": 0,
    "openDays": [
      "平日",
      "土曜日"
    ],
    "openDaysNote": ""
  },
  {
    "id": "1070202815",
    "name": "ぐんま共生倶楽部　デイたか松",
    "kana": "グンマキョウセイクラブ　デイタカマツ",
    "address": "群馬県高崎市中泉町619-2",
    "lat": 36.3700634,
    "lng": 139.0048779,
    "tel": "027-373-9810",
    "url": "",
    "pref": "群馬県",
    "city": "高崎市",
    "category": "community_day_service",
    "serviceType": "地域密着型通所介護",
    "capacity": 7,
    "openDays": [
      "平日",
      "土曜日",
      "祝日"
    ],
    "openDaysNote": "延長利用（早朝・夕刻後他）等は、利用者様事情により対応"
  },
  {
    "id": "1070203979",
    "name": "デイ・ニューサウンド",
    "kana": "デイ・ニューサウンド",
    "address": "群馬県高崎市中豊岡４８８－１",
    "lat": 36.3386658,
    "lng": 138.9762365,
    "tel": "027-388-1188",
    "url": "http://dey-newsound.com",
    "pref": "群馬県",
    "city": "高崎市",
    "category": "community_day_service",
    "serviceType": "地域密着型通所介護",
    "capacity": 15,
    "openDays": [
      "平日",
      "土曜日",
      "祝日"
    ],
    "openDaysNote": ""
  },
  {
    "id": "1070203318",
    "name": "デイサービス　あい",
    "kana": "デイサービス　アイ",
    "address": "群馬県高崎市緑町4丁目3-1",
    "lat": 36.3514625,
    "lng": 139.0099059,
    "tel": "027-386-8881",
    "url": "ｈｔｔｐ：//www.cosumosu.info",
    "pref": "群馬県",
    "city": "高崎市",
    "category": "community_day_service",
    "serviceType": "地域密着型通所介護",
    "capacity": 0,
    "openDays": [
      "平日",
      "土曜日",
      "日曜日",
      "祝日"
    ],
    "openDaysNote": ""
  },
  {
    "id": "1090200823",
    "name": "デイサービス　そら",
    "kana": "デイサービス　ソラ",
    "address": "群馬県高崎市日高町１０８７－１",
    "lat": 36.3508633,
    "lng": 139.0355623,
    "tel": "０２７－３３３－６５６５",
    "url": "",
    "pref": "群馬県",
    "city": "高崎市",
    "category": "community_day_service",
    "serviceType": "地域密着型通所介護",
    "capacity": 21,
    "openDays": [
      "平日",
      "土曜日",
      "祝日"
    ],
    "openDaysNote": ""
  },
  {
    "id": "1070204076",
    "name": "デイサービス　ねこやなぎ",
    "kana": "デイサービス　ネコヤナギ",
    "address": "群馬県高崎市箕郷町下芝７０２",
    "lat": 36.3775056,
    "lng": 138.9670112,
    "tel": "027-386-8890",
    "url": "",
    "pref": "群馬県",
    "city": "高崎市",
    "category": "community_day_service",
    "serviceType": "地域密着型通所介護",
    "capacity": 18,
    "openDays": [
      "平日",
      "土曜日",
      "日曜日",
      "祝日"
    ],
    "openDaysNote": "１月１日から３日まで休業"
  },
  {
    "id": "1070202492",
    "name": "デイサービス　ひだまり",
    "kana": "デイサービス　ヒダマリ",
    "address": "群馬県高崎市箕郷町富岡２８５－５",
    "lat": 36.3904616,
    "lng": 138.9482263,
    "tel": "027-371-5961",
    "url": "http://www",
    "pref": "群馬県",
    "city": "高崎市",
    "category": "community_day_service",
    "serviceType": "地域密着型通所介護",
    "capacity": 0,
    "openDays": [
      "平日",
      "土曜日",
      "祝日"
    ],
    "openDaysNote": "みどりの日・こどもの日以外の祝祭日は、年末年始を除き営業しています。"
  },
  {
    "id": "1070203649",
    "name": "デイサービスセンター　杏",
    "kana": "デイサービスセンター　アンズ",
    "address": "群馬県高崎市新町3148番地",
    "lat": 36.2772936630155,
    "lng": 139.114730292901,
    "tel": "0274-42-5778",
    "url": "http://az-1999.com/",
    "pref": "群馬県",
    "city": "高崎市",
    "category": "community_day_service",
    "serviceType": "地域密着型通所介護",
    "capacity": 0,
    "openDays": [
      "平日",
      "土曜日",
      "祝日"
    ],
    "openDaysNote": ""
  },
  {
    "id": "1072100678",
    "name": "デイサービスセンター　榛名　喜楽苑",
    "kana": "デイサービスセンター　ハルナキラクエン",
    "address": "群馬県高崎市三ツ子沢町253デイサービスセンター榛名喜楽苑 デイサービスセンター榛名喜楽苑",
    "lat": 36.3865142652964,
    "lng": 138.920290034393,
    "tel": "027-374-6521",
    "url": "",
    "pref": "群馬県",
    "city": "高崎市",
    "category": "community_day_service",
    "serviceType": "地域密着型通所介護",
    "capacity": 10,
    "openDays": [
      "平日",
      "日曜日",
      "祝日"
    ],
    "openDaysNote": ""
  },
  {
    "id": "1072300484",
    "name": "デイサービスセンター・プチケア",
    "kana": "デイサービスセンター・プチケア",
    "address": "群馬県高崎市吉井町吉井４１８-１サポートセンタープチケア サポートセンタープチケア",
    "lat": 36.2569641,
    "lng": 138.9839541,
    "tel": "027－384－8855",
    "url": "https://www.puchi-care.jp/",
    "pref": "群馬県",
    "city": "高崎市",
    "category": "community_day_service",
    "serviceType": "地域密着型通所介護",
    "capacity": 15,
    "openDays": [
      "平日",
      "祝日"
    ],
    "openDaysNote": ""
  },
  {
    "id": "1070200942",
    "name": "デイサービスセンター「家族の家」浜川",
    "kana": "デイサービスセンター「カゾクノイエ」ハマカワ",
    "address": "群馬県高崎市浜川町１３１４番地",
    "lat": 36.3707572,
    "lng": 138.9845848,
    "tel": "027-340-1071",
    "url": "h-inokawakai@wine.plala.co.jp",
    "pref": "群馬県",
    "city": "高崎市",
    "category": "community_day_service",
    "serviceType": "地域密着型通所介護",
    "capacity": 10,
    "openDays": [
      "平日",
      "土曜日",
      "祝日"
    ],
    "openDaysNote": "特になし"
  },
  {
    "id": "1070204118",
    "name": "デイサービスセンターゆたか",
    "kana": "デイサービスセンターユタカ",
    "address": "群馬県高崎市箕郷町下芝824-1",
    "lat": 36.3784834,
    "lng": 138.9709859,
    "tel": "027-393-6020",
    "url": "http://sky.geocities.jp/yutaka_takasaki_6020/",
    "pref": "群馬県",
    "city": "高崎市",
    "category": "community_day_service",
    "serviceType": "地域密着型通所介護",
    "capacity": 20,
    "openDays": [
      "平日",
      "土曜日",
      "祝日"
    ],
    "openDaysNote": ""
  },
  {
    "id": "1070201767",
    "name": "デイサービスセンター青葉",
    "kana": "デイサービスセンター　アオバ",
    "address": "群馬県高崎市南大類町1210",
    "lat": 36.3273038,
    "lng": 139.0351797,
    "tel": "027-353-0002",
    "url": "http://takasakifuku.jp/",
    "pref": "群馬県",
    "city": "高崎市",
    "category": "community_day_service",
    "serviceType": "地域密着型通所介護",
    "capacity": 0,
    "openDays": [
      "平日",
      "祝日"
    ],
    "openDaysNote": ""
  },
  {
    "id": "1070202724",
    "name": "デイサービスなかい",
    "kana": "デイサービスナカイ",
    "address": "群馬県高崎市中居町2-22-18",
    "lat": 36.3136878,
    "lng": 139.0447515,
    "tel": "027-352-1845",
    "url": "https://day-nakai.com/",
    "pref": "群馬県",
    "city": "高崎市",
    "category": "community_day_service",
    "serviceType": "地域密着型通所介護",
    "capacity": 8,
    "openDays": [
      "平日",
      "土曜日",
      "祝日"
    ],
    "openDaysNote": ""
  },
  {
    "id": "1070204720",
    "name": "デイサービスプランドールようざん",
    "kana": "デイサービスプランドールヨウザン",
    "address": "群馬県高崎市飯塚町1030-1",
    "lat": 36.3400161,
    "lng": 139.0032372,
    "tel": "027-381-6429",
    "url": "www.youzan.jp",
    "pref": "群馬県",
    "city": "高崎市",
    "category": "community_day_service",
    "serviceType": "地域密着型通所介護",
    "capacity": 0,
    "openDays": [
      "平日",
      "土曜日",
      "日曜日",
      "祝日"
    ],
    "openDaysNote": ""
  },
  {
    "id": "1090201391",
    "name": "デイサービスみなみかぜ",
    "kana": "デイサービスミナミカゼ",
    "address": "群馬県高崎市三ツ寺町1040-2",
    "lat": 36.3787016,
    "lng": 138.9968219,
    "tel": "027-386-3410",
    "url": "",
    "pref": "群馬県",
    "city": "高崎市",
    "category": "community_day_service",
    "serviceType": "地域密着型通所介護",
    "capacity": null,
    "openDays": [
      "平日",
      "土曜日",
      "祝日"
    ],
    "openDaysNote": ""
  },
  {
    "id": "1070204779",
    "name": "デイサービスゆとり",
    "kana": "デイサービスユトリ",
    "address": "群馬県高崎市井野町１０３８－１MWS日高FCくらら総合介護福祉センター MWS日高FCくらら総合介護福祉センター",
    "lat": 36.353006083064,
    "lng": 139.027459996642,
    "tel": "027-395-6612",
    "url": "http://www.kurara-mwsfc.com/company/",
    "pref": "群馬県",
    "city": "高崎市",
    "category": "community_day_service",
    "serviceType": "地域密着型通所介護",
    "capacity": 0,
    "openDays": [
      "平日",
      "土曜日",
      "祝日"
    ],
    "openDaysNote": "祝祭日も営業"
  },
  {
    "id": "1070202831",
    "name": "デイサービスようざん並榎",
    "kana": "デイサービスヨウザンナミエ",
    "address": "群馬県高崎市上並榎町1164－1",
    "lat": 36.342571,
    "lng": 138.9819247,
    "tel": "027-362-4373",
    "url": "http://www.youzan.jp",
    "pref": "群馬県",
    "city": "高崎市",
    "category": "community_day_service",
    "serviceType": "地域密着型通所介護",
    "capacity": 0,
    "openDays": [
      "平日",
      "土曜日",
      "祝日"
    ],
    "openDaysNote": "お正月もお盆も関係なく平常営業しています。"
  },
  {
    "id": "1070203698",
    "name": "デイサービス双樹園",
    "kana": "デイサービスソウジュエン",
    "address": "群馬県高崎市和田町8-16",
    "lat": 36.3166036,
    "lng": 139.0118154,
    "tel": "027-381-6622",
    "url": "https://www.tenkaien.or.jp/",
    "pref": "群馬県",
    "city": "高崎市",
    "category": "community_day_service",
    "serviceType": "地域密着型通所介護",
    "capacity": 0,
    "openDays": [
      "平日",
      "土曜日",
      "祝日"
    ],
    "openDaysNote": ""
  },
  {
    "id": "1090201268",
    "name": "デイサービス未来高崎",
    "kana": "デイサービスミライタカサキ",
    "address": "群馬県高崎市飯塚町611番地1",
    "lat": 36.3437524,
    "lng": 139.0019058,
    "tel": "027－377-5763",
    "url": "",
    "pref": "群馬県",
    "city": "高崎市",
    "category": "community_day_service",
    "serviceType": "地域密着型通所介護",
    "capacity": 100,
    "openDays": [
      "平日",
      "祝日"
    ],
    "openDaysNote": ""
  },
  {
    "id": "1090201441",
    "name": "デイサービス料理とものづくり",
    "kana": "デイサービス　リョウリトモノヅクリ",
    "address": "群馬県高崎市吉井町下長根5-1",
    "lat": 36.2514969,
    "lng": 138.9812773,
    "tel": "027－386ー3158",
    "url": "https://amolia.jp/day-service/",
    "pref": "群馬県",
    "city": "高崎市",
    "category": "community_day_service",
    "serviceType": "地域密着型通所介護",
    "capacity": null,
    "openDays": [
      "平日",
      "祝日"
    ],
    "openDaysNote": ""
  },
  {
    "id": "1070200132",
    "name": "デイサービス六郷友の家",
    "kana": "デイサービス　ロクゴウトモノイエ",
    "address": "群馬県高崎市下小鳥町76-5",
    "lat": 36.3513981,
    "lng": 138.9914043,
    "tel": "027-363-7660",
    "url": "http://www.kibokan.or.jp",
    "pref": "群馬県",
    "city": "高崎市",
    "category": "community_day_service",
    "serviceType": "地域密着型通所介護",
    "capacity": 18,
    "openDays": [
      "平日",
      "土曜日",
      "祝日"
    ],
    "openDaysNote": "特になし"
  },
  {
    "id": "1070205446",
    "name": "とれふクラブ",
    "kana": "トレフクラブ",
    "address": "群馬県高崎市新後閑町8-7",
    "lat": 36.3107507498722,
    "lng": 139.014559431352,
    "tel": "027-386-5275",
    "url": "https://family-hands.net/",
    "pref": "群馬県",
    "city": "高崎市",
    "category": "community_day_service",
    "serviceType": "地域密着型通所介護",
    "capacity": 10,
    "openDays": [
      "平日",
      "祝日"
    ],
    "openDaysNote": "年末年始　12月31日から1月3日を除く"
  },
  {
    "id": "1072100652",
    "name": "なかいずみデイサービスセンターみんなのサロン",
    "kana": "ナカイズミデイサービスセンターミンナノサロン",
    "address": "群馬県高崎市中泉町６１８－５",
    "lat": 36.37088,
    "lng": 139.0053029,
    "tel": "027-373-3348",
    "url": "http://mi-salon.org",
    "pref": "群馬県",
    "city": "高崎市",
    "category": "community_day_service",
    "serviceType": "地域密着型通所介護",
    "capacity": 10,
    "openDays": [
      "平日",
      "土曜日",
      "祝日"
    ],
    "openDaysNote": "日曜休日。月～土曜日の祝日は営業"
  },
  {
    "id": "1070205842",
    "name": "ひまわり上佐野",
    "kana": "ヒマワリカミサノ",
    "address": "群馬県高崎市上佐野町153-1",
    "lat": 36.3038731838516,
    "lng": 139.019050219574,
    "tel": "027-388-1442",
    "url": "http://www.t-net-g.co.jp/kaigo/kamisano.html",
    "pref": "群馬県",
    "city": "高崎市",
    "category": "community_day_service",
    "serviceType": "地域密着型通所介護",
    "capacity": 0,
    "openDays": [
      "平日",
      "土曜日",
      "祝日"
    ],
    "openDaysNote": "ただし、変更の場合があります。"
  },
  {
    "id": "1070202062",
    "name": "プチ希望館",
    "kana": "プチキボウカン",
    "address": "群馬県高崎市日光町５番地２４",
    "lat": 36.3370919,
    "lng": 139.0200641,
    "tel": "027-370-5621",
    "url": "http://www.kibokan.or.jp",
    "pref": "群馬県",
    "city": "高崎市",
    "category": "community_day_service",
    "serviceType": "地域密着型通所介護",
    "capacity": 10,
    "openDays": [
      "平日",
      "土曜日",
      "祝日"
    ],
    "openDaysNote": ""
  },
  {
    "id": "1070203672",
    "name": "プラトーケアセンター高崎",
    "kana": "プラトーケアセンタータカサキ",
    "address": "群馬県高崎市中泉町635-13",
    "lat": 36.3723713,
    "lng": 139.0004615,
    "tel": "027-381-6588",
    "url": "",
    "pref": "群馬県",
    "city": "高崎市",
    "category": "community_day_service",
    "serviceType": "地域密着型通所介護",
    "capacity": 0,
    "openDays": [
      "平日",
      "土曜日"
    ],
    "openDaysNote": ""
  },
  {
    "id": "1090201367",
    "name": "みかん色下里見",
    "kana": "ミカンイロシモサトミ",
    "address": "群馬県高崎市下里見町978-1",
    "lat": 36.3535272,
    "lng": 138.9334877,
    "tel": "027-386-8478",
    "url": "",
    "pref": "群馬県",
    "city": "高崎市",
    "category": "community_day_service",
    "serviceType": "地域密着型通所介護",
    "capacity": 10,
    "openDays": [
      "平日",
      "土曜日",
      "祝日"
    ],
    "openDaysNote": ""
  },
  {
    "id": "1070204175",
    "name": "リハビリデイセンターオカダ",
    "kana": "リハビリデイセンターオカダ",
    "address": "群馬県高崎市日高町437-2",
    "lat": 36.3612456,
    "lng": 139.0302097,
    "tel": "027-384-8080",
    "url": "",
    "pref": "群馬県",
    "city": "高崎市",
    "category": "community_day_service",
    "serviceType": "地域密着型通所介護",
    "capacity": 10,
    "openDays": [
      "平日",
      "祝日"
    ],
    "openDaysNote": "接骨院が併設しているので、万一の時でも安心です。接骨院の先生（柔道整復師）は運動器（筋肉、骨、関節）疾患のﾌﾟﾛﾌｪｯｼｮﾅﾙです。万一の施設内での事故に備え、接骨院と連携しておりお客様も安心して『リハビリデイセンターオカダ』に通って頂けます。"
  },
  {
    "id": "1090201417",
    "name": "リハビリの家　赤心",
    "kana": "リハビリノイエ　セキシン",
    "address": "群馬県高崎市八幡原町497番地1",
    "lat": 36.305009,
    "lng": 139.0866106,
    "tel": "027-377-0536",
    "url": "https://www.rehahome-sekishin.com/",
    "pref": "群馬県",
    "city": "高崎市",
    "category": "community_day_service",
    "serviceType": "地域密着型通所介護",
    "capacity": 10,
    "openDays": [
      "平日"
    ],
    "openDaysNote": ""
  },
  {
    "id": "1090201177",
    "name": "レコードブック高崎緑町",
    "kana": "レコードブックタカサキミドリチョウ",
    "address": "群馬県高崎市緑町１－１５―１０グリーンヒルズ梅山１階東 グリーンヒルズ梅山１階東",
    "lat": 36.3530938,
    "lng": 139.0007471,
    "tel": "027-393-6906",
    "url": "http://www.recordbook.jp/",
    "pref": "群馬県",
    "city": "高崎市",
    "category": "community_day_service",
    "serviceType": "地域密着型通所介護",
    "capacity": 15,
    "openDays": [
      "平日",
      "祝日"
    ],
    "openDaysNote": ""
  },
  {
    "id": "1090201375",
    "name": "ワークランドらくま",
    "kana": "ワークランドラクマ",
    "address": "群馬県高崎市楽間町87番地",
    "lat": 36.3681892,
    "lng": 138.9658157,
    "tel": "027-395-0832",
    "url": "file:///C:/Users/ykane/OneDrive/%E3%83%87%E3%82%B9%E3%82%AF%E3%83%88%E3%83%83%E3%83%97/%E3%83%AF%E3%83%BC%E3%82%AF%E3%83%A9%E3%83%B3%E3%83%89%E3%80%80%E3%82%89%E3%81%8F%E3%81%BE.html",
    "pref": "群馬県",
    "city": "高崎市",
    "category": "community_day_service",
    "serviceType": "地域密着型通所介護",
    "capacity": 0,
    "openDays": [
      "平日"
    ],
    "openDaysNote": ""
  },
  {
    "id": "1072100801",
    "name": "園遊亭",
    "kana": "エンユウテイ",
    "address": "群馬県高崎市保渡田町１１０１－２",
    "lat": 36.3781336,
    "lng": 138.9780825,
    "tel": "027-373-1666",
    "url": "",
    "pref": "群馬県",
    "city": "高崎市",
    "category": "community_day_service",
    "serviceType": "地域密着型通所介護",
    "capacity": 10,
    "openDays": [
      "平日",
      "祝日"
    ],
    "openDaysNote": ""
  },
  {
    "id": "1090201052",
    "name": "機能訓練型デイサービスやすらぎ健康館",
    "kana": "キノウクンレンガタデイサービスヤスラギケンコウカン",
    "address": "群馬県高崎市剣崎町224-13",
    "lat": 36.3411725105417,
    "lng": 138.95725945582,
    "tel": "027-388-8195",
    "url": "https://yasuragi-kenkokan.com/",
    "pref": "群馬県",
    "city": "高崎市",
    "category": "community_day_service",
    "serviceType": "地域密着型通所介護",
    "capacity": 10,
    "openDays": [
      "平日",
      "土曜日",
      "祝日"
    ],
    "openDaysNote": "営業日：月曜日～土曜日(祝祭日含む)（改行）サービス提供時間（改行）○午前の部　9:00～12:15(月～土)（改行）○午後の部13:30～16:45(月～土)"
  },
  {
    "id": "1090201219",
    "name": "機能訓練特化型デイサービス　ゴールデンステージ",
    "kana": "キノウクンレントッカガタデイサービス　ゴールデンステージ",
    "address": "群馬県高崎市中居町2-3-12第３桜ハイツ１F 第３桜ハイツ１F",
    "lat": 36.3185687,
    "lng": 139.0458519,
    "tel": "0273-29-5664",
    "url": "http://hp.kaipoke.biz/wzu/",
    "pref": "群馬県",
    "city": "高崎市",
    "category": "community_day_service",
    "serviceType": "地域密着型通所介護",
    "capacity": 10,
    "openDays": [
      "平日"
    ],
    "openDaysNote": ""
  },
  {
    "id": "1070203193",
    "name": "健康サポートげんき榛名町",
    "kana": "ケンコウサポートゲンキハルナマチ",
    "address": "群馬県高崎市下里見町1403-1",
    "lat": 36.36287,
    "lng": 138.9152831,
    "tel": "027-360-8115",
    "url": "",
    "pref": "群馬県",
    "city": "高崎市",
    "category": "community_day_service",
    "serviceType": "地域密着型通所介護",
    "capacity": 18,
    "openDays": [
      "平日",
      "土曜日",
      "日曜日",
      "祝日"
    ],
    "openDaysNote": ""
  },
  {
    "id": "1070205602",
    "name": "健康ぷらす高崎",
    "kana": "ケンコウプラスタカサキ",
    "address": "群馬県高崎市江木町６２４－５吉崎ビル１階 吉崎ビル１階",
    "lat": 36.3338891,
    "lng": 139.0162839,
    "tel": "027-388-9360",
    "url": "http://kaigo-plus.com/store/store-1199/",
    "pref": "群馬県",
    "city": "高崎市",
    "category": "community_day_service",
    "serviceType": "地域密着型通所介護",
    "capacity": 100,
    "openDays": [
      "平日",
      "祝日"
    ],
    "openDaysNote": "年末年始12/31～1/3は休み"
  },
  {
    "id": "1090201359",
    "name": "高崎市デイサービスセンター恵峰園",
    "kana": "タカサキシデイサービスセンターケイホウエン",
    "address": "群馬県高崎市京目町1632番地1",
    "lat": 36.3482367,
    "lng": 139.0532423,
    "tel": "027-353-2359",
    "url": "https://www.keihouen.or.jp/",
    "pref": "群馬県",
    "city": "高崎市",
    "category": "community_day_service",
    "serviceType": "地域密着型通所介護",
    "capacity": 18,
    "openDays": [
      "平日",
      "土曜日",
      "祝日"
    ],
    "openDaysNote": ""
  },
  {
    "id": "1070202211",
    "name": "高崎社協群馬デイサービスセンター",
    "kana": "タカサキシャキョウグンマデイサービスセンター",
    "address": "群馬県高崎市棟高町９７７番地１群馬福祉会館内 群馬福祉会館内",
    "lat": 36.397837,
    "lng": 139.0016278,
    "tel": "027-350-3302",
    "url": "http://takasaki-shakyo.or.jp/",
    "pref": "群馬県",
    "city": "高崎市",
    "category": "community_day_service",
    "serviceType": "地域密着型通所介護",
    "capacity": 5,
    "openDays": [
      "平日",
      "祝日"
    ],
    "openDaysNote": "月曜から金曜日。週５日間、営業しております。"
  },
  {
    "id": "1070204415",
    "name": "菜のはな一番館",
    "kana": "ナノハナイチバンカン",
    "address": "群馬県高崎市矢中町２０－５",
    "lat": 36.3093817226699,
    "lng": 139.043128076273,
    "tel": "027-384-4755",
    "url": "",
    "pref": "群馬県",
    "city": "高崎市",
    "category": "community_day_service",
    "serviceType": "地域密着型通所介護",
    "capacity": 10,
    "openDays": [
      "平日"
    ],
    "openDaysNote": "１日のなかで、サービス提供時間は、午前と午後の部があります。"
  },
  {
    "id": "1090201326",
    "name": "四つ葉のクローバー正観寺",
    "kana": "ヨツバノクローバーショウカンジ",
    "address": "群馬県高崎市正観寺町882-1",
    "lat": 36.3703967,
    "lng": 139.0149119,
    "tel": "027-384-3597",
    "url": "https://www.medical-sapo.jp/",
    "pref": "群馬県",
    "city": "高崎市",
    "category": "community_day_service",
    "serviceType": "地域密着型通所介護",
    "capacity": 24,
    "openDays": [
      "平日",
      "土曜日",
      "日曜日",
      "祝日"
    ],
    "openDaysNote": ""
  },
  {
    "id": "1070204852",
    "name": "小規模ファミリーデイ奏寿",
    "kana": "ショウキボファミリーデイソウジュ",
    "address": "群馬県高崎市矢中町44-3マインプラッツⅢ1-A号室 マインプラッツⅢ1-A号室",
    "lat": 36.3098407,
    "lng": 139.0429879,
    "tel": "027-386-5284",
    "url": "",
    "pref": "群馬県",
    "city": "高崎市",
    "category": "community_day_service",
    "serviceType": "地域密着型通所介護",
    "capacity": 0,
    "openDays": [
      "平日",
      "土曜日",
      "祝日"
    ],
    "openDaysNote": "日曜日は定休日。１月1日元旦もお休み。その他。"
  },
  {
    "id": "1090201045",
    "name": "早稲田イーライフ高崎常盤町",
    "kana": "ワセダイーライフタカサキトキワチョウ",
    "address": "群馬県高崎市常盤町133セントラルハイツ1Ｆ セントラルハイツ1Ｆ",
    "lat": 36.3294666,
    "lng": 138.9952521,
    "tel": "027-388-8931",
    "url": "",
    "pref": "群馬県",
    "city": "高崎市",
    "category": "community_day_service",
    "serviceType": "地域密着型通所介護",
    "capacity": 80,
    "openDays": [
      "平日"
    ],
    "openDaysNote": ""
  },
  {
    "id": "1090201235",
    "name": "通所介護明日風",
    "kana": "ツウショカイゴアスカ",
    "address": "群馬県高崎市上里見町2346",
    "lat": 36.3776504,
    "lng": 138.8702645,
    "tel": "273868285",
    "url": "https://asuka-1125.jp",
    "pref": "群馬県",
    "city": "高崎市",
    "category": "community_day_service",
    "serviceType": "地域密着型通所介護",
    "capacity": 15,
    "openDays": [
      "平日"
    ],
    "openDaysNote": ""
  },
  {
    "id": "1070202112",
    "name": "特別養護老人ホーム高風園",
    "kana": "トクベツヨウゴロウジンホーム　コウフウエン",
    "address": "群馬県　高崎市　寺尾町２４１２",
    "lat": 36.3019653,
    "lng": 138.9914928,
    "tel": "027-322-7802",
    "url": "http://kofuen.sakura.ne.jp/kofuen/",
    "pref": "群馬県",
    "city": "高崎市",
    "category": "community_day_service",
    "serviceType": "地域密着型通所介護",
    "capacity": 18,
    "openDays": [
      "平日",
      "土曜日",
      "祝日"
    ],
    "openDaysNote": ""
  },
  {
    "id": "1070203037",
    "name": "特別養護老人ホーム高風園「そめやの里」デイサービスセンター",
    "kana": "トクベツヨウゴロウジンホームコウフウエン「ソメヤノサト」デイサービスセンター",
    "address": "群馬県高崎市新保町993",
    "lat": 36.3487899656963,
    "lng": 139.042732415344,
    "tel": "027-364-1607",
    "url": "https://gswc-sf.org/kofuen-someyanosato/",
    "pref": "群馬県",
    "city": "高崎市",
    "category": "community_day_service",
    "serviceType": "地域密着型通所介護",
    "capacity": 0,
    "openDays": [
      "平日",
      "土曜日",
      "祝日"
    ],
    "openDaysNote": "土曜日運営については、利用希望の方がいないため休止している状態。"
  },
  {
    "id": "1070202914",
    "name": "箕郷町第二デイサービスセンター",
    "kana": "ミサトマチダイニデイサービスセンター",
    "address": "群馬県高崎市箕郷町矢原12番地1",
    "lat": 36.3972831,
    "lng": 138.9627778,
    "tel": "027-371-8501",
    "url": "http://www.izuminosono.com",
    "pref": "群馬県",
    "city": "高崎市",
    "category": "community_day_service",
    "serviceType": "地域密着型通所介護",
    "capacity": 10,
    "openDays": [
      "平日",
      "土曜日",
      "祝日"
    ],
    "openDaysNote": ""
  },
  {
    "id": "1092600251",
    "name": "高山村デイサービスセンター",
    "kana": "タカヤマムラデイサービスセンター",
    "address": "群馬県吾妻郡高山村大字中山3410",
    "lat": 36.6265514,
    "lng": 138.9435507,
    "tel": "0279-63-1031",
    "url": "https//www.takayama-shakyo.jp/day-service.html",
    "pref": "群馬県",
    "city": "高山村",
    "category": "community_day_service",
    "serviceType": "地域密着型通所介護",
    "capacity": null,
    "openDays": [
      "平日",
      "土曜日",
      "祝日"
    ],
    "openDaysNote": ""
  },
  {
    "id": "1090800127",
    "name": "デイサービス　スタジオRe:Do",
    "kana": "デイサービス　スタジオリドゥ",
    "address": "群馬県渋川市石原２０２番地2",
    "lat": 36.4902233,
    "lng": 139.0032333,
    "tel": "0279-24-3306",
    "url": "https://redokatakai.amebaownd.com/",
    "pref": "群馬県",
    "city": "渋川市",
    "category": "community_day_service",
    "serviceType": "地域密着型通所介護",
    "capacity": 45,
    "openDays": [
      "平日",
      "祝日"
    ],
    "openDaysNote": ""
  },
  {
    "id": "1090800119",
    "name": "デイサービスグランドホーム渋川",
    "kana": "デイサービスグランドホームシブカワ",
    "address": "群馬県渋川市半田1468-1",
    "lat": 36.4669371501975,
    "lng": 139.025935389133,
    "tel": "0279-26-7361",
    "url": "http://www.e-verde.co.jp",
    "pref": "群馬県",
    "city": "渋川市",
    "category": "community_day_service",
    "serviceType": "地域密着型通所介護",
    "capacity": 0,
    "openDays": [
      "平日",
      "土曜日",
      "日曜日",
      "祝日"
    ],
    "openDaysNote": ""
  },
  {
    "id": "1070800774",
    "name": "デイサービスセンターいこいの家",
    "kana": "デイサービスセンタウイコイノイエ",
    "address": "群馬県渋川市渋川１７４６－２",
    "lat": 36.4921759,
    "lng": 139.0035923,
    "tel": "0279-25-7234",
    "url": "http://www.ikoinoie.net/",
    "pref": "群馬県",
    "city": "渋川市",
    "category": "community_day_service",
    "serviceType": "地域密着型通所介護",
    "capacity": 18,
    "openDays": [
      "平日",
      "土曜日",
      "祝日"
    ],
    "openDaysNote": "年末年始(12月30日～1月3日）"
  },
  {
    "id": "1072200379",
    "name": "デイサービスセンター春日の家",
    "kana": "デイサービスセンターカスガノイエ",
    "address": "群馬県渋川市中郷４５４－２８",
    "lat": 36.5296139,
    "lng": 139.0139013,
    "tel": "0279-53-5539",
    "url": "http://www.kasugaen.com",
    "pref": "群馬県",
    "city": "渋川市",
    "category": "community_day_service",
    "serviceType": "地域密着型通所介護",
    "capacity": 9,
    "openDays": [
      "平日",
      "祝日"
    ],
    "openDaysNote": ""
  },
  {
    "id": "1090800150",
    "name": "デイサービスたちばな",
    "kana": "デイサービスタチバナ",
    "address": "群馬県渋川市北橘町下箱田189番地1",
    "lat": 36.4662870603176,
    "lng": 139.041989976721,
    "tel": "0279-26-3625",
    "url": "https://note.com/dstachibana_2022/",
    "pref": "群馬県",
    "city": "渋川市",
    "category": "community_day_service",
    "serviceType": "地域密着型通所介護",
    "capacity": 10,
    "openDays": [
      "平日",
      "土曜日",
      "祝日"
    ],
    "openDaysNote": ""
  },
  {
    "id": "1070800600",
    "name": "デイサービスほほえみ",
    "kana": "デイサービスホホエミ",
    "address": "群馬県渋川市赤城町津久田２３６番地１０",
    "lat": 36.5480648,
    "lng": 139.0442503,
    "tel": "0279-56-8860",
    "url": "",
    "pref": "群馬県",
    "city": "渋川市",
    "category": "community_day_service",
    "serviceType": "地域密着型通所介護",
    "capacity": 0,
    "openDays": [
      "平日",
      "祝日"
    ],
    "openDaysNote": ""
  },
  {
    "id": "1090800135",
    "name": "デイサービス実里",
    "kana": "デイサービスミノリ",
    "address": "群馬県渋川市赤城町津久田２６６番地２",
    "lat": 36.5489496,
    "lng": 139.0435285,
    "tel": "0279-26-3162",
    "url": "",
    "pref": "群馬県",
    "city": "渋川市",
    "category": "community_day_service",
    "serviceType": "地域密着型通所介護",
    "capacity": 0,
    "openDays": [
      "平日",
      "土曜日",
      "祝日"
    ],
    "openDaysNote": ""
  },
  {
    "id": "1070801160",
    "name": "デイサービス美保の森",
    "kana": "デイサービスミホノモリ",
    "address": "群馬県渋川市北橘町真壁833-2",
    "lat": 36.4784555000572,
    "lng": 139.038290810386,
    "tel": "0279-26-2333",
    "url": "",
    "pref": "群馬県",
    "city": "渋川市",
    "category": "community_day_service",
    "serviceType": "地域密着型通所介護",
    "capacity": 0,
    "openDays": [
      "平日",
      "土曜日",
      "祝日"
    ],
    "openDaysNote": ""
  },
  {
    "id": "1072000779",
    "name": "デイホーム　ひなたぼっこ",
    "kana": "デイホーム　ヒナタボッコ",
    "address": "群馬県渋川市赤城町津久田１６５番地３３",
    "lat": 36.5418628,
    "lng": 139.0309244,
    "tel": "0279-56-3430",
    "url": "",
    "pref": "群馬県",
    "city": "渋川市",
    "category": "community_day_service",
    "serviceType": "地域密着型通所介護",
    "capacity": 0,
    "openDays": [
      "平日",
      "土曜日",
      "日曜日",
      "祝日"
    ],
    "openDaysNote": ""
  },
  {
    "id": "1070801095",
    "name": "とねりこ",
    "kana": "トネリコ",
    "address": "群馬県渋川市八木原948-2",
    "lat": 36.4628822,
    "lng": 139.0156284,
    "tel": "0279-25-7500",
    "url": "http://tonerikohome.wixsite.com/toneriko/",
    "pref": "群馬県",
    "city": "渋川市",
    "category": "community_day_service",
    "serviceType": "地域密着型通所介護",
    "capacity": 0,
    "openDays": [
      "平日",
      "土曜日",
      "祝日"
    ],
    "openDaysNote": ""
  },
  {
    "id": "1070801012",
    "name": "ひなたぼっこの家",
    "kana": "ヒナタボッコノイエ",
    "address": "群馬県渋川市赤城町津久田1番地5",
    "lat": 36.5416486330446,
    "lng": 139.032687559525,
    "tel": "0279-26-7333",
    "url": "",
    "pref": "群馬県",
    "city": "渋川市",
    "category": "community_day_service",
    "serviceType": "地域密着型通所介護",
    "capacity": 0,
    "openDays": [
      "平日",
      "土曜日",
      "日曜日",
      "祝日"
    ],
    "openDaysNote": ""
  },
  {
    "id": "1070801038",
    "name": "ビルトケアデイサービスこもち",
    "kana": "ビルトケアデイサービスコモチ",
    "address": "群馬県渋川市北牧918-3",
    "lat": 36.5270164,
    "lng": 138.9894675,
    "tel": "0279-25-7850",
    "url": "",
    "pref": "群馬県",
    "city": "渋川市",
    "category": "community_day_service",
    "serviceType": "地域密着型通所介護",
    "capacity": null,
    "openDays": [
      "平日",
      "土曜日",
      "日曜日",
      "祝日"
    ],
    "openDaysNote": ""
  },
  {
    "id": "1070801194",
    "name": "リハビリ特化型デイサービス　スマイル辰巳",
    "kana": "リハビリトッカガタデイサービス　スマイルタツミ",
    "address": "群馬県渋川市渋川1820-26",
    "lat": 36.4921589329548,
    "lng": 139.004396317197,
    "tel": "0279-26-8111",
    "url": "http://smile-123.jp",
    "pref": "群馬県",
    "city": "渋川市",
    "category": "community_day_service",
    "serviceType": "地域密着型通所介護",
    "capacity": 0,
    "openDays": [
      "平日",
      "祝日"
    ],
    "openDaysNote": ""
  },
  {
    "id": "1090800176",
    "name": "渋川市小野上デイサービスセンター",
    "kana": "シブカワシオノガミデイサービスセンター",
    "address": "群馬県渋川市小野子9番地1",
    "lat": 36.5391118,
    "lng": 138.9665444,
    "tel": "0279-30-8008",
    "url": "https://shibukawa-csw.or.jp/",
    "pref": "群馬県",
    "city": "渋川市",
    "category": "community_day_service",
    "serviceType": "地域密着型通所介護",
    "capacity": null,
    "openDays": [
      "平日",
      "土曜日",
      "祝日"
    ],
    "openDaysNote": "年末年始臨時営業実施"
  },
  {
    "id": "1072700501",
    "name": "ディサービスセンターなんてんの実",
    "kana": "ディサービスセンターナンテンノミ",
    "address": "群馬県利根郡昭和村橡久保４６３－１",
    "lat": 36.6250410472373,
    "lng": 139.058796962463,
    "tel": "0278-25-8447",
    "url": "http://nanten-mi.jp",
    "pref": "群馬県",
    "city": "昭和村",
    "category": "community_day_service",
    "serviceType": "地域密着型通所介護",
    "capacity": 10,
    "openDays": [
      "平日",
      "土曜日",
      "祝日"
    ],
    "openDaysNote": "特になし"
  },
  {
    "id": "1072700022",
    "name": "昭和村社会福祉協議会昭和の里",
    "kana": "ショウワムラシャカイフクシキョウギカイショウワノサト",
    "address": "群馬県利根郡昭和村大字糸井６２４",
    "lat": 36.6413666,
    "lng": 139.0667956,
    "tel": "0278－30－2121",
    "url": "http://www.showa-shakyo.jp",
    "pref": "群馬県",
    "city": "昭和村",
    "category": "community_day_service",
    "serviceType": "地域密着型通所介護",
    "capacity": null,
    "openDays": [
      "平日",
      "土曜日",
      "祝日"
    ],
    "openDaysNote": ""
  },
  {
    "id": "1070600828",
    "name": "デイサービス　たんぽぽ",
    "kana": "デイサービス　タンポポ",
    "address": "群馬県沼田市白沢町上古語父１７６－２",
    "lat": 36.664093892769,
    "lng": 139.118199349074,
    "tel": "0278-53-2255",
    "url": "",
    "pref": "群馬県",
    "city": "沼田市",
    "category": "community_day_service",
    "serviceType": "地域密着型通所介護",
    "capacity": 50,
    "openDays": [
      "平日",
      "祝日"
    ],
    "openDaysNote": ""
  },
  {
    "id": "1070600695",
    "name": "デイサービスセンター　あゆみ",
    "kana": "デイサービスセンター　アユミ",
    "address": "群馬県沼田市柳町2262-8番地",
    "lat": 36.6535321232408,
    "lng": 139.051451836459,
    "tel": "0278-25-9335",
    "url": "http://tayumi.web.fc2.com/index.htm",
    "pref": "群馬県",
    "city": "沼田市",
    "category": "community_day_service",
    "serviceType": "地域密着型通所介護",
    "capacity": 15,
    "openDays": [
      "平日",
      "土曜日",
      "祝日"
    ],
    "openDaysNote": ""
  },
  {
    "id": "1090600253",
    "name": "デイサービス太介庵",
    "kana": "デイサービス　タスケアン",
    "address": "群馬県沼田市沼須町749番地",
    "lat": 36.6321412,
    "lng": 139.0527703,
    "tel": "0278-77-9162",
    "url": "https://goudoutasuke.wixsite.com/tasuke",
    "pref": "群馬県",
    "city": "沼田市",
    "category": "community_day_service",
    "serviceType": "地域密着型通所介護",
    "capacity": 8,
    "openDays": [
      "平日",
      "祝日"
    ],
    "openDaysNote": "その他：年末年始12/31～1/3まで休業。"
  },
  {
    "id": "1090600188",
    "name": "ライフネス",
    "kana": "ライフネス",
    "address": "群馬県沼田市井土上町２３５－９",
    "lat": 36.6638518,
    "lng": 139.0173627,
    "tel": "0278-25-8567",
    "url": "yu-jin-sha.com",
    "pref": "群馬県",
    "city": "沼田市",
    "category": "community_day_service",
    "serviceType": "地域密着型通所介護",
    "capacity": 0,
    "openDays": [
      "平日",
      "祝日"
    ],
    "openDaysNote": "月~金の祝祭日は通常営業。年末年始休業４日程度。夏季休業なし。"
  },
  {
    "id": "1090600162",
    "name": "楽笑会わがや",
    "kana": "ラクショウカイワガヤ",
    "address": "群馬県沼田市久屋原町228番地4",
    "lat": 36.6640705682442,
    "lng": 139.096950404894,
    "tel": "0278-30-2062",
    "url": "",
    "pref": "群馬県",
    "city": "沼田市",
    "category": "community_day_service",
    "serviceType": "地域密着型通所介護",
    "capacity": null,
    "openDays": [
      "平日",
      "土曜日",
      "祝日"
    ],
    "openDaysNote": "12月30日から1月3日までは休日とする"
  },
  {
    "id": "1070600927",
    "name": "療養通所介護ハッピーデイナーシング",
    "kana": "リョウヨウツウショカイゴハッピーデイナーシング",
    "address": "群馬県沼田市久屋原町３４５－１医療法人大誠会内田病院 医療法人大誠会内田病院",
    "lat": 36.665503,
    "lng": 139.1044896,
    "tel": "0278-23-1231",
    "url": "http://www.taiseikai-group.com",
    "pref": "群馬県",
    "city": "沼田市",
    "category": "community_day_service",
    "serviceType": "地域密着型通所介護",
    "capacity": 3,
    "openDays": [
      "平日",
      "祝日"
    ],
    "openDaysNote": "年末年始の休みが1週間以上となる場合は臨時営業致します。"
  },
  {
    "id": "1072200072",
    "name": "社会福祉法人榛東村社会福祉協議会",
    "kana": "シャカイフクシホウジンシントウムラシャカイフクシキョウギカイ",
    "address": "群馬県北群馬郡榛東村大字新井507番地3",
    "lat": 36.4383059,
    "lng": 138.9682425,
    "tel": "0279-55-5294",
    "url": "",
    "pref": "群馬県",
    "city": "榛東村",
    "category": "community_day_service",
    "serviceType": "地域密着型通所介護",
    "capacity": 18,
    "openDays": [
      "平日",
      "祝日"
    ],
    "openDaysNote": ""
  },
  {
    "id": "1073100933",
    "name": "あすかデイサービスセンター千代田",
    "kana": "アスカデイサービスセンターチヨダ",
    "address": "群馬県邑楽郡千代田町大字上中森１２２０",
    "lat": 36.1958822,
    "lng": 139.4777598,
    "tel": "0276-86-3625",
    "url": "",
    "pref": "群馬県",
    "city": "千代田町",
    "category": "community_day_service",
    "serviceType": "地域密着型通所介護",
    "capacity": null,
    "openDays": [
      "平日",
      "土曜日",
      "日曜日",
      "祝日"
    ],
    "openDaysNote": ""
  },
  {
    "id": "1070105893",
    "name": "GENKI　NEXT前橋上泉町",
    "kana": "ゲンキネクストマエバシカミイズミマチ",
    "address": "群馬県前橋市上泉町3484-1",
    "lat": 36.3975762656042,
    "lng": 139.118463240907,
    "tel": "027-257-4463",
    "url": "https://famiglia.amebaownd.com/",
    "pref": "群馬県",
    "city": "前橋市",
    "category": "community_day_service",
    "serviceType": "地域密着型通所介護",
    "capacity": 180,
    "openDays": [
      "平日",
      "祝日"
    ],
    "openDaysNote": "・夏季休業：8/13～8/16（改行）・冬季休業：12/30～1/3"
  },
  {
    "id": "1070102759",
    "name": "たかせデイサービス",
    "kana": "タカセデイサービス",
    "address": "群馬県前橋市下小出町2-45-10",
    "lat": 36.4138031,
    "lng": 139.0647297,
    "tel": "027-232-5794",
    "url": "",
    "pref": "群馬県",
    "city": "前橋市",
    "category": "community_day_service",
    "serviceType": "地域密着型通所介護",
    "capacity": 9,
    "openDays": [
      "平日"
    ],
    "openDaysNote": "年末年始・お盆休み"
  },
  {
    "id": "1090100783",
    "name": "デイサービス　くるみ",
    "kana": "デイサービス　クルミ",
    "address": "群馬県前橋市荻窪町1219-4",
    "lat": 36.4090240221471,
    "lng": 139.132947417435,
    "tel": "027-226-5185",
    "url": "http://hp.kaipoke.biz/pm2/",
    "pref": "群馬県",
    "city": "前橋市",
    "category": "community_day_service",
    "serviceType": "地域密着型通所介護",
    "capacity": 18,
    "openDays": [
      "平日",
      "祝日"
    ],
    "openDaysNote": ""
  },
  {
    "id": "1090100965",
    "name": "デイサービスKARMAstyle",
    "kana": "デイサービス　カルマスタイル",
    "address": "群馬県前橋市朝日町2-14--30さんらいず山田103 さんらいず山田103",
    "lat": 36.3848739275069,
    "lng": 139.083015182803,
    "tel": "027-289-3283",
    "url": "https://karma-style.business.site/?utm_source=gmb&utm_medium=referral",
    "pref": "群馬県",
    "city": "前橋市",
    "category": "community_day_service",
    "serviceType": "地域密着型通所介護",
    "capacity": null,
    "openDays": [
      "平日",
      "祝日"
    ],
    "openDaysNote": ""
  },
  {
    "id": "1090100718",
    "name": "デイサービスSOL",
    "kana": "デイサービスソル",
    "address": "群馬県前橋市荒子町1199番地3",
    "lat": 36.3868330523302,
    "lng": 139.167291250926,
    "tel": "027-226-5742",
    "url": "http://sol-hp.com/wp",
    "pref": "群馬県",
    "city": "前橋市",
    "category": "community_day_service",
    "serviceType": "地域密着型通所介護",
    "capacity": 100,
    "openDays": [
      "平日"
    ],
    "openDaysNote": ""
  },
  {
    "id": "1070103948",
    "name": "デイサービスあかね前橋大島",
    "kana": "デイサービスアカネマエバシオオシマ",
    "address": "群馬県前橋市上大島町539-5",
    "lat": 36.3658191,
    "lng": 139.1207021,
    "tel": "027-287-1221",
    "url": "http://www.lifeterrace.jp",
    "pref": "群馬県",
    "city": "前橋市",
    "category": "community_day_service",
    "serviceType": "地域密着型通所介護",
    "capacity": 18,
    "openDays": [
      "平日",
      "土曜日",
      "日曜日",
      "祝日"
    ],
    "openDaysNote": ""
  },
  {
    "id": "1070102593",
    "name": "デイサービスおそら",
    "kana": "デイサービスオソラ",
    "address": "群馬県前橋市石倉町5-18-2",
    "lat": 36.3938335,
    "lng": 139.0507541,
    "tel": "027-210-7536",
    "url": "http://palliativecare-daichi.com/",
    "pref": "群馬県",
    "city": "前橋市",
    "category": "community_day_service",
    "serviceType": "地域密着型通所介護",
    "capacity": 10,
    "openDays": [
      "平日",
      "土曜日",
      "祝日"
    ],
    "openDaysNote": ""
  },
  {
    "id": "1070105471",
    "name": "デイサービスこころの箱田店",
    "kana": "デイサービスココロノハコダテン",
    "address": "群馬県前橋市箱田町1638",
    "lat": 36.3663184397432,
    "lng": 139.051111202481,
    "tel": "027-289-9721",
    "url": "https:secondchapt.co.jp",
    "pref": "群馬県",
    "city": "前橋市",
    "category": "community_day_service",
    "serviceType": "地域密着型通所介護",
    "capacity": 250,
    "openDays": [
      "平日",
      "土曜日",
      "祝日"
    ],
    "openDaysNote": "12月31日・1月1日・2日・３日／8月13日・14日・15日は休業日"
  },
  {
    "id": "1090101039",
    "name": "デイサービスセンター　シャリティエまえばし",
    "kana": "デイサービスセンター　シャリティエマエバシ",
    "address": "群馬県前橋市表町２－１８－８",
    "lat": 36.3857669,
    "lng": 139.0732343,
    "tel": "027-221-6511",
    "url": "http://www.charitie.or.jp/",
    "pref": "群馬県",
    "city": "前橋市",
    "category": "community_day_service",
    "serviceType": "地域密着型通所介護",
    "capacity": 18,
    "openDays": [
      "平日",
      "土曜日",
      "祝日"
    ],
    "openDaysNote": ""
  },
  {
    "id": "1090101062",
    "name": "デイサービスセンターいろどり",
    "kana": "デイサービスセンターイロドリ",
    "address": "群馬県前橋市大友町1丁目20-7竹三ビル1F 竹三ビル1F",
    "lat": 36.3892152413312,
    "lng": 139.0454863,
    "tel": "027-215-7159",
    "url": "",
    "pref": "群馬県",
    "city": "前橋市",
    "category": "community_day_service",
    "serviceType": "地域密着型通所介護",
    "capacity": 0,
    "openDays": [
      "平日",
      "祝日"
    ],
    "openDaysNote": "月曜～金曜が祝日の場合は営業いたします。"
  },
  {
    "id": "1070102411",
    "name": "デイサービスセンターかまくら",
    "kana": "デイサービスセンターカマクラ",
    "address": "群馬県前橋市上細井町2050-7",
    "lat": 36.4149756,
    "lng": 139.0799449,
    "tel": "027-210-1110",
    "url": "http://kamakurakai.or.jp",
    "pref": "群馬県",
    "city": "前橋市",
    "category": "community_day_service",
    "serviceType": "地域密着型通所介護",
    "capacity": 18,
    "openDays": [
      "平日",
      "土曜日",
      "祝日"
    ],
    "openDaysNote": ""
  },
  {
    "id": "1090100700",
    "name": "デイサービスセンターコスモスまちだ",
    "kana": "デイサービスセンターコスモスマチダ",
    "address": "群馬県前橋市下小出町２丁目１６－２０",
    "lat": 36.4111814,
    "lng": 139.0685545,
    "tel": "０２７－２１９－０５５２",
    "url": "http://carecosmos.co.jp",
    "pref": "群馬県",
    "city": "前橋市",
    "category": "community_day_service",
    "serviceType": "地域密着型通所介護",
    "capacity": 16,
    "openDays": [
      "平日",
      "祝日"
    ],
    "openDaysNote": ""
  },
  {
    "id": "1070103005",
    "name": "デイサービスセンターひいらぎ",
    "kana": "デイサービスセンターヒイラギ",
    "address": "群馬県前橋市五代町１２０番地３",
    "lat": 36.4077404958642,
    "lng": 139.106114942992,
    "tel": "027-264-1300",
    "url": "",
    "pref": "群馬県",
    "city": "前橋市",
    "category": "community_day_service",
    "serviceType": "地域密着型通所介護",
    "capacity": 15,
    "openDays": [
      "平日",
      "土曜日",
      "祝日"
    ],
    "openDaysNote": ""
  },
  {
    "id": "1070101561",
    "name": "デイサービスセンターひゅーげ",
    "kana": "デイサービスセンターヒューゲ",
    "address": "群馬県前橋市岩神町3-17-4",
    "lat": 36.4052541,
    "lng": 139.0543284,
    "tel": "027-234-5211",
    "url": "",
    "pref": "群馬県",
    "city": "前橋市",
    "category": "community_day_service",
    "serviceType": "地域密着型通所介護",
    "capacity": 0,
    "openDays": [
      "平日",
      "土曜日"
    ],
    "openDaysNote": ""
  },
  {
    "id": "1072000829",
    "name": "デイサービスセンター桑の実",
    "kana": "デイサービスセンタークワノミ",
    "address": "群馬県前橋市富士見町時沢３４１－９",
    "lat": 36.4330562,
    "lng": 139.0784245,
    "tel": "027-288-8337",
    "url": "",
    "pref": "群馬県",
    "city": "前橋市",
    "category": "community_day_service",
    "serviceType": "地域密着型通所介護",
    "capacity": 0,
    "openDays": [
      "平日",
      "土曜日",
      "日曜日",
      "祝日"
    ],
    "openDaysNote": ""
  },
  {
    "id": "1070103211",
    "name": "デイサービスセンター桜桃園",
    "kana": "デイサービスセンターオウトウエン",
    "address": "群馬県前橋市房丸町４８番地１",
    "lat": 36.3388076,
    "lng": 139.1119509,
    "tel": "027-289-0111",
    "url": "http://outouen.or.jp/",
    "pref": "群馬県",
    "city": "前橋市",
    "category": "community_day_service",
    "serviceType": "地域密着型通所介護",
    "capacity": null,
    "openDays": [
      "平日",
      "土曜日",
      "祝日"
    ],
    "openDaysNote": ""
  },
  {
    "id": "1070105091",
    "name": "デイサービスセンター美そら",
    "kana": "デイサービスセンターミソラ",
    "address": "群馬県前橋市荒子町48-1",
    "lat": 36.3845660397783,
    "lng": 139.172089700031,
    "tel": "027-280-7333",
    "url": "http://www.misorahome.jp/",
    "pref": "群馬県",
    "city": "前橋市",
    "category": "community_day_service",
    "serviceType": "地域密着型通所介護",
    "capacity": 18,
    "openDays": [
      "平日",
      "土曜日",
      "祝日"
    ],
    "openDaysNote": ""
  },
  {
    "id": "1070104961",
    "name": "デイサービスまほろば",
    "kana": "デイサービスマホロバ",
    "address": "群馬県前橋市川原町1-43-3住宅型有料老人ホーム・デイサービス　まほろば 住宅型有料老人ホーム・デイサービス　まほろば",
    "lat": 36.425245237516,
    "lng": 139.040389325656,
    "tel": "027-210-3377",
    "url": "http://gm~mahoroba.sakura.ne.jp",
    "pref": "群馬県",
    "city": "前橋市",
    "category": "community_day_service",
    "serviceType": "地域密着型通所介護",
    "capacity": 10,
    "openDays": [
      "平日",
      "土曜日",
      "祝日"
    ],
    "openDaysNote": ""
  },
  {
    "id": "1070105513",
    "name": "デイサービス一久",
    "kana": "デイサービス　イッキュウ",
    "address": "群馬県前橋市上泉町６９番地",
    "lat": 36.3930959,
    "lng": 139.1019015,
    "tel": "027-289-3548",
    "url": "",
    "pref": "群馬県",
    "city": "前橋市",
    "category": "community_day_service",
    "serviceType": "地域密着型通所介護",
    "capacity": 5,
    "openDays": [
      "平日",
      "祝日"
    ],
    "openDaysNote": ""
  },
  {
    "id": "1070105083",
    "name": "デイサービス幸徳の里",
    "kana": "デイサービスコウトクノサト",
    "address": "群馬県前橋市池端町７９０番地４",
    "lat": 36.424617960283,
    "lng": 139.016478473911,
    "tel": "０２７-２８０－５０８８",
    "url": "",
    "pref": "群馬県",
    "city": "前橋市",
    "category": "community_day_service",
    "serviceType": "地域密着型通所介護",
    "capacity": 10,
    "openDays": [
      "平日",
      "祝日"
    ],
    "openDaysNote": ""
  },
  {
    "id": "1070104383",
    "name": "デイサービス室沢",
    "kana": "デイサービスムロサワ",
    "address": "群馬県前橋市粕川町室沢６７２－１",
    "lat": 36.4379344,
    "lng": 139.2076569,
    "tel": "027-280-9002",
    "url": "murosawa.com",
    "pref": "群馬県",
    "city": "前橋市",
    "category": "community_day_service",
    "serviceType": "地域密着型通所介護",
    "capacity": 14,
    "openDays": [
      "平日",
      "土曜日",
      "日曜日",
      "祝日"
    ],
    "openDaysNote": ""
  },
  {
    "id": "1090100916",
    "name": "デイサービス湯遊",
    "kana": "デイサービスユウユ",
    "address": "群馬県前橋市荒子町1205-3",
    "lat": 36.3874381,
    "lng": 139.1670653,
    "tel": "027-215-1395",
    "url": "",
    "pref": "群馬県",
    "city": "前橋市",
    "category": "community_day_service",
    "serviceType": "地域密着型通所介護",
    "capacity": null,
    "openDays": [
      "平日",
      "祝日"
    ],
    "openDaysNote": ""
  },
  {
    "id": "1090100957",
    "name": "デイホーム土屋前橋",
    "kana": "デイホームツチヤマエバシ",
    "address": "群馬県前橋市大渡町1-12-1",
    "lat": 36.396977,
    "lng": 139.0507585,
    "tel": "027-212-2326",
    "url": "https://day-tsuchiya.com›day-maebashi",
    "pref": "群馬県",
    "city": "前橋市",
    "category": "community_day_service",
    "serviceType": "地域密着型通所介護",
    "capacity": 10,
    "openDays": [
      "平日"
    ],
    "openDaysNote": "祝日は営業"
  },
  {
    "id": "1070104052",
    "name": "デイライト",
    "kana": "デイライト",
    "address": "群馬県前橋市三河町2-5-9",
    "lat": 36.384953020189,
    "lng": 139.080669118294,
    "tel": "027-226-6345",
    "url": "http://hp.kaipoke.biz/e6c/",
    "pref": "群馬県",
    "city": "前橋市",
    "category": "community_day_service",
    "serviceType": "地域密着型通所介護",
    "capacity": 5,
    "openDays": [
      "平日",
      "土曜日",
      "祝日"
    ],
    "openDaysNote": "午前　９：００～１２：０５（１２名定員）（改行）午後　１３：１５～１６：２０（１２名定員）（改行）時減については午前・午後の時間帯に体調不良や利用に慣れるまで等の必要な理由が有る時のみ適用する。"
  },
  {
    "id": "1090101070",
    "name": "ヒカリアレ",
    "kana": "ヒカリアレ",
    "address": "群馬県前橋市紅雲町２丁目２番1ラフェリーチェ101号室 ラフェリーチェ101号室",
    "lat": 36.3874829,
    "lng": 139.0643702,
    "tel": "027-289-6284",
    "url": "",
    "pref": "群馬県",
    "city": "前橋市",
    "category": "community_day_service",
    "serviceType": "地域密着型通所介護",
    "capacity": 0,
    "openDays": [
      "平日"
    ],
    "openDaysNote": "年末年始は、12月30日から1月4日まで休み。"
  },
  {
    "id": "1090100726",
    "name": "ほねつぎデイサービス前橋古市町",
    "kana": "ホネツギデイサービスマエバシフルイチマチ",
    "address": "群馬県前橋市古市町1-16-1",
    "lat": 36.3760224,
    "lng": 139.0542015,
    "tel": "027-226-5821",
    "url": "https://www.honetsugi-kaigo.com/",
    "pref": "群馬県",
    "city": "前橋市",
    "category": "community_day_service",
    "serviceType": "地域密着型通所介護",
    "capacity": 90,
    "openDays": [
      "平日",
      "祝日"
    ],
    "openDaysNote": ""
  },
  {
    "id": "1072000852",
    "name": "マナデイサービス",
    "kana": "マナデイサービス",
    "address": "群馬県前橋市富士見町時沢２９７９－３",
    "lat": 36.4484296,
    "lng": 139.0905257,
    "tel": "027-289-1180",
    "url": "",
    "pref": "群馬県",
    "city": "前橋市",
    "category": "community_day_service",
    "serviceType": "地域密着型通所介護",
    "capacity": 2,
    "openDays": [
      "平日",
      "土曜日",
      "日曜日",
      "祝日"
    ],
    "openDaysNote": "家庭の事情による緊急利用の対応。"
  },
  {
    "id": "1090101054",
    "name": "リハケア　ドリーム",
    "kana": "リハケア　ドリーム",
    "address": "群馬県前橋市元総社町244-1",
    "lat": 36.3843581,
    "lng": 139.0476177,
    "tel": "027-226-5886",
    "url": "",
    "pref": "群馬県",
    "city": "前橋市",
    "category": "community_day_service",
    "serviceType": "地域密着型通所介護",
    "capacity": null,
    "openDays": [
      "平日"
    ],
    "openDaysNote": "祝日は営業"
  },
  {
    "id": "1090100734",
    "name": "リハビリステーション片貝",
    "kana": "リハビリステーションカタカイ",
    "address": "群馬県前橋市西片貝町4-6-1高橋マンション102号 高橋マンション102号",
    "lat": 36.3874037331711,
    "lng": 139.091694220099,
    "tel": "027-289-6084",
    "url": "https://kaipoke.biz/v3u/",
    "pref": "群馬県",
    "city": "前橋市",
    "category": "community_day_service",
    "serviceType": "地域密着型通所介護",
    "capacity": 9,
    "openDays": [
      "平日",
      "土曜日",
      "祝日"
    ],
    "openDaysNote": ""
  },
  {
    "id": "1070105067",
    "name": "リハビリデイサービス　あか",
    "kana": "リハビリデイサービス　アカ",
    "address": "群馬県前橋市大胡町343-1",
    "lat": 36.4108423546689,
    "lng": 139.162121413492,
    "tel": "027-212-9381",
    "url": "http://colorsworks.jp",
    "pref": "群馬県",
    "city": "前橋市",
    "category": "community_day_service",
    "serviceType": "地域密着型通所介護",
    "capacity": 0,
    "openDays": [
      "平日"
    ],
    "openDaysNote": ""
  },
  {
    "id": "1070102189",
    "name": "リハビリ特化型デイサービス　スマイル前橋",
    "kana": "リハビリトッカガタデイサービス　スマイルマエバシ",
    "address": "群馬県前橋市南町四丁目１９－１１",
    "lat": 36.3778324059327,
    "lng": 139.0726352427,
    "tel": "027-260-9390",
    "url": "http://smile-123.jp/",
    "pref": "群馬県",
    "city": "前橋市",
    "category": "community_day_service",
    "serviceType": "地域密着型通所介護",
    "capacity": 20,
    "openDays": [
      "平日",
      "祝日"
    ],
    "openDaysNote": ""
  },
  {
    "id": "1070104946",
    "name": "リハプライド　前橋三俣",
    "kana": "リハプライド　マエバシミツマタ",
    "address": "群馬県前橋市三俣町１－２７－８塩野ビル１Ｆ 塩野ビル１Ｆ",
    "lat": 36.3940648,
    "lng": 139.0859565,
    "tel": "０２７－２１９－１４２２",
    "url": "http:www.lets-club.co.jp/maebashimitsumata/",
    "pref": "群馬県",
    "city": "前橋市",
    "category": "community_day_service",
    "serviceType": "地域密着型通所介護",
    "capacity": 18,
    "openDays": [
      "平日",
      "祝日"
    ],
    "openDaysNote": ""
  },
  {
    "id": "1090100890",
    "name": "レコードブック前橋石倉",
    "kana": "レコードブックマエバシイシクラ",
    "address": "群馬県前橋市石倉町５－１２－１２インセンスビル１Ｆ　１－Ｂ インセンスビル１Ｆ　１－Ｂ",
    "lat": 36.3938286,
    "lng": 139.052578,
    "tel": "027-226-1397",
    "url": "https://www.recordbook.jp/",
    "pref": "群馬県",
    "city": "前橋市",
    "category": "community_day_service",
    "serviceType": "地域密着型通所介護",
    "capacity": 15,
    "openDays": [
      "平日",
      "祝日"
    ],
    "openDaysNote": ""
  },
  {
    "id": "1070105968",
    "name": "レッツ倶楽部前橋古市",
    "kana": "レッツクラブマエバシフルイチ",
    "address": "群馬県前橋市古市町1-7-4コーポたかはし コーポたかはし",
    "lat": 36.3780693,
    "lng": 139.0543987,
    "tel": "027-289-2293",
    "url": "http://www.lets-club.jp/shop/maebashifuruichi/",
    "pref": "群馬県",
    "city": "前橋市",
    "category": "community_day_service",
    "serviceType": "地域密着型通所介護",
    "capacity": 7,
    "openDays": [
      "平日",
      "祝日"
    ],
    "openDaysNote": ""
  },
  {
    "id": "1090100973",
    "name": "運動リハビリ型オールケア前橋",
    "kana": "ウンドウリハビリガタオールケアマエバシ",
    "address": "天川大島町1203-1",
    "lat": 36.3698506282066,
    "lng": 139.108402879099,
    "tel": "027-263-3500",
    "url": "http://www.allcare-japan.com/.",
    "pref": "群馬県",
    "city": "前橋市",
    "category": "community_day_service",
    "serviceType": "地域密着型通所介護",
    "capacity": 0,
    "openDays": [
      "平日"
    ],
    "openDaysNote": "臨時的に営業を行う場合がある"
  },
  {
    "id": "1070104920",
    "name": "駒形デイサービス　輝",
    "kana": "コマガタデイサービス　カガヤキ",
    "address": "群馬県前橋市駒形町196-1",
    "lat": 36.3439921567719,
    "lng": 139.135579110451,
    "tel": "027-212-8497",
    "url": "https://kagayaki.skr.jp/",
    "pref": "群馬県",
    "city": "前橋市",
    "category": "community_day_service",
    "serviceType": "地域密着型通所介護",
    "capacity": 15,
    "openDays": [
      "平日",
      "祝日"
    ],
    "openDaysNote": ""
  },
  {
    "id": "1090100874",
    "name": "健康サポートげんき広瀬町",
    "kana": "ケンコウサポートゲンキヒロセマチ",
    "address": "群馬県前橋市広瀬町2-6-5",
    "lat": 36.3601366,
    "lng": 139.1083789,
    "tel": "027-290-2380",
    "url": "",
    "pref": "群馬県",
    "city": "前橋市",
    "category": "community_day_service",
    "serviceType": "地域密着型通所介護",
    "capacity": 0,
    "openDays": [
      "平日",
      "土曜日"
    ],
    "openDaysNote": ""
  },
  {
    "id": "1070105307",
    "name": "常楽園デイサービス",
    "kana": "ジョウラクエンデイサービス",
    "address": "群馬県前橋市西善町５９９－１",
    "lat": 36.3451848,
    "lng": 139.1188858,
    "tel": "027-266-0567",
    "url": "https://120sai.com",
    "pref": "群馬県",
    "city": "前橋市",
    "category": "community_day_service",
    "serviceType": "地域密着型通所介護",
    "capacity": 10,
    "openDays": [
      "平日",
      "土曜日",
      "祝日"
    ],
    "openDaysNote": "天候等による変更の可能性あり。"
  },
  {
    "id": "1070101363",
    "name": "前橋地域福祉事業所さわやか",
    "kana": "マエバシチイキフクシジギョウショサワヤカ",
    "address": "群馬県前橋市下大屋町２７２－５",
    "lat": 36.3918503000024,
    "lng": 139.168909,
    "tel": "027-280-7094",
    "url": "http://sawayaka-dayservice.jimdo.com/",
    "pref": "群馬県",
    "city": "前橋市",
    "category": "community_day_service",
    "serviceType": "地域密着型通所介護",
    "capacity": 10,
    "openDays": [
      "平日",
      "土曜日",
      "祝日"
    ],
    "openDaysNote": "2025年3月より毎週水曜日定休日となる。（改行）（改行）悪天候状況に応じて臨時休業となる場合がある。（改行）（改行）全職員研修日が営業日と重なった時は、臨時休業となる場合がある。"
  },
  {
    "id": "1070101157",
    "name": "大利根　ろまん亭",
    "kana": "オオトネ　ロマンテイ",
    "address": "群馬県前橋市大利根町2-39-9",
    "lat": 36.3570551,
    "lng": 139.0598461,
    "tel": "027-252-7735",
    "url": "https://ro-man-tei.jp",
    "pref": "群馬県",
    "city": "前橋市",
    "category": "community_day_service",
    "serviceType": "地域密着型通所介護",
    "capacity": 10,
    "openDays": [
      "平日",
      "土曜日"
    ],
    "openDaysNote": "年末年始約5日程度"
  },
  {
    "id": "1090100692",
    "name": "地域密着型デイサービスたいら",
    "kana": "チイキミッチャクガタデイサービスタイラ",
    "address": "群馬県前橋市堀越町618-3",
    "lat": 36.4253317,
    "lng": 139.1500801,
    "tel": "027-212-5495",
    "url": "",
    "pref": "群馬県",
    "city": "前橋市",
    "category": "community_day_service",
    "serviceType": "地域密着型通所介護",
    "capacity": null,
    "openDays": [
      "平日",
      "土曜日",
      "祝日"
    ],
    "openDaysNote": "12月30～1月3日は休み"
  },
  {
    "id": "1070103831",
    "name": "通所介護かけはし",
    "kana": "ツウショカイゴカケハシ",
    "address": "群馬県前橋市下大島町627番地1",
    "lat": 36.3606445,
    "lng": 139.118422,
    "tel": "027-267-7500",
    "url": "http://m-kakehashi.org/",
    "pref": "群馬県",
    "city": "前橋市",
    "category": "community_day_service",
    "serviceType": "地域密着型通所介護",
    "capacity": 10,
    "openDays": [
      "平日",
      "土曜日",
      "祝日"
    ],
    "openDaysNote": ""
  },
  {
    "id": "1070104763",
    "name": "通所介護広瀬",
    "kana": "ツウショカイゴヒロセ",
    "address": "群馬県前橋市天川大島町57-1",
    "lat": 36.3650052872896,
    "lng": 139.10735136627,
    "tel": "027-212-9911",
    "url": "http://m-kakehashi.org/",
    "pref": "群馬県",
    "city": "前橋市",
    "category": "community_day_service",
    "serviceType": "地域密着型通所介護",
    "capacity": 10,
    "openDays": [
      "平日",
      "土曜日",
      "祝日"
    ],
    "openDaysNote": ""
  },
  {
    "id": "1070104334",
    "name": "通所介護長磯",
    "kana": "ツウショカイゴナガイソ",
    "address": "群馬県前橋市上長磯町87番地",
    "lat": 36.3739349,
    "lng": 139.1210186,
    "tel": "027-261-1120",
    "url": "http://m-kakehashi.org",
    "pref": "群馬県",
    "city": "前橋市",
    "category": "community_day_service",
    "serviceType": "地域密着型通所介護",
    "capacity": 0,
    "openDays": [
      "平日",
      "土曜日",
      "祝日"
    ],
    "openDaysNote": "臨時の休業については別途お知らせする"
  },
  {
    "id": "1070106354",
    "name": "藤さくら倶楽部",
    "kana": "フジサクラクラブ",
    "address": "群馬県前橋市下細井町585-10",
    "lat": 36.4087101,
    "lng": 139.0861892,
    "tel": "027-289-9823",
    "url": "",
    "pref": "群馬県",
    "city": "前橋市",
    "category": "community_day_service",
    "serviceType": "地域密着型通所介護",
    "capacity": 0,
    "openDays": [
      "平日",
      "祝日"
    ],
    "openDaysNote": "年末年始　12/29～1/3はお休みとなります"
  },
  {
    "id": "1090101047",
    "name": "脳卒中リハビリ特化型デイサービスwithreha",
    "kana": "ノウソッチュウリハビリトッカガタデイサービスウィズリハ",
    "address": "群馬県前橋市昭和町三丁目19番地9号",
    "lat": 36.4058882,
    "lng": 139.0615592,
    "tel": "027-212-6175",
    "url": "https://with-reha.co.jp/",
    "pref": "群馬県",
    "city": "前橋市",
    "category": "community_day_service",
    "serviceType": "地域密着型通所介護",
    "capacity": null,
    "openDays": [
      "平日"
    ],
    "openDaysNote": ""
  },
  {
    "id": "1070105570",
    "name": "萩まち荘デイサービス",
    "kana": "ハギマチソウデイサービス",
    "address": "群馬県前橋市昭和町一丁目２番６",
    "lat": 36.3993914,
    "lng": 139.0662859,
    "tel": "０２７－２８９－６３９７",
    "url": "http://hagimachisou.com/",
    "pref": "群馬県",
    "city": "前橋市",
    "category": "community_day_service",
    "serviceType": "地域密着型通所介護",
    "capacity": 12,
    "openDays": [
      "平日",
      "土曜日",
      "祝日"
    ],
    "openDaysNote": "年末年始12/30～1/3休業（改行）日曜休業"
  },
  {
    "id": "1090100882",
    "name": "萩まち荘第２デイサービス",
    "kana": "ハギマチソウダイニデイサービス",
    "address": "群馬県前橋市昭和町１－６ー５",
    "lat": 36.4002919,
    "lng": 139.0662629,
    "tel": "027-212-4330",
    "url": "https://hagimachisou.com",
    "pref": "群馬県",
    "city": "前橋市",
    "category": "community_day_service",
    "serviceType": "地域密着型通所介護",
    "capacity": 12,
    "openDays": [
      "平日",
      "土曜日",
      "祝日"
    ],
    "openDaysNote": "年末年始12/30～1/3休業"
  },
  {
    "id": "1070105810",
    "name": "苗ケ島デイサービス",
    "kana": "ナエガシマデイサービス",
    "address": "群馬県前橋市苗ケ島町１９８１－１０苗ケ島デイサービス 苗ケ島デイサービス",
    "lat": 36.4414986941644,
    "lng": 139.186531061902,
    "tel": "０２７－２８９－８３４３",
    "url": "",
    "pref": "群馬県",
    "city": "前橋市",
    "category": "community_day_service",
    "serviceType": "地域密着型通所介護",
    "capacity": 0,
    "openDays": [
      "平日",
      "土曜日",
      "日曜日",
      "祝日"
    ],
    "openDaysNote": "年末年始の31日、1日、2日が休み"
  },
  {
    "id": "1090100932",
    "name": "明風園デイサービスセンター",
    "kana": "メイフウエンデイサービスセンター",
    "address": "群馬県　前橋市　亀泉町１－２６",
    "lat": 36.4049079,
    "lng": 139.126566,
    "tel": "027-260-3205",
    "url": "https://gswc-sf.org/meifuen/links",
    "pref": "群馬県",
    "city": "前橋市",
    "category": "community_day_service",
    "serviceType": "地域密着型通所介護",
    "capacity": 18,
    "openDays": [
      "平日",
      "土曜日",
      "祝日"
    ],
    "openDaysNote": "営業時間外は、留守番機能電話にて対応しています。"
  },
  {
    "id": "1072601022",
    "name": "なごみデイサービスセンター草津",
    "kana": "ナゴミデイサービスセンタークサツ",
    "address": "群馬県吾妻郡草津町大字草津９１３－２",
    "lat": 36.6114058721584,
    "lng": 138.593628768648,
    "tel": "0279-88-8765",
    "url": "http://www.nagomi-ths.jp",
    "pref": "群馬県",
    "city": "草津町",
    "category": "community_day_service",
    "serviceType": "地域密着型通所介護",
    "capacity": null,
    "openDays": [
      "平日",
      "祝日"
    ],
    "openDaysNote": "8月15日（お盆休み）・１２月３１日～１月３日まで（年末年始休業）"
  },
  {
    "id": "1072600826",
    "name": "草津温泉湯治館そよ風",
    "kana": "クサツオンセントウジカンソヨカゼ",
    "address": "群馬県吾妻郡草津町大字草津464-702草津温泉湯治館そよ風 草津温泉湯治館そよ風",
    "lat": 36.6193894,
    "lng": 138.5883342,
    "tel": "0279-80-4141",
    "url": "",
    "pref": "群馬県",
    "city": "草津町",
    "category": "community_day_service",
    "serviceType": "地域密着型通所介護",
    "capacity": 0,
    "openDays": [
      "平日",
      "土曜日",
      "日曜日",
      "祝日"
    ],
    "openDaysNote": ""
  },
  {
    "id": "1072600131",
    "name": "草津町在宅介護サービスセンター",
    "kana": "クサツマチザイタクカイゴサービスセンター",
    "address": "群馬県吾妻郡草津町草津４６４－２８草津町総合保健福祉センター 草津町総合保健福祉センター",
    "lat": 36.6205949,
    "lng": 138.5907228,
    "tel": "0279-88-1050",
    "url": "http://www.kusatsu-shakyo.com/",
    "pref": "群馬県",
    "city": "草津町",
    "category": "community_day_service",
    "serviceType": "地域密着型通所介護",
    "capacity": 0,
    "openDays": [
      "平日"
    ],
    "openDaysNote": ""
  },
  {
    "id": "1070501729",
    "name": "ＧＥＮＫＩ　ＮＥＸＴ　太田",
    "kana": "ゲンキネクストオオタ",
    "address": "群馬県太田市藤阿久町617-17　1F",
    "lat": 36.29313,
    "lng": 139.3554942,
    "tel": "0276-33-9131",
    "url": "http://www.genki-next.com/",
    "pref": "群馬県",
    "city": "太田市",
    "category": "community_day_service",
    "serviceType": "地域密着型通所介護",
    "capacity": 10,
    "openDays": [
      "平日",
      "祝日"
    ],
    "openDaysNote": "祝日は営業しております。"
  },
  {
    "id": "1090500511",
    "name": "あすプラスケア通所介護事業所",
    "kana": "アスプラスケアツウショカイゴジギョウショ",
    "address": "群馬県太田市飯田町1077番地4",
    "lat": 36.204824,
    "lng": 138.252924,
    "tel": "0276‐55‐4277",
    "url": "https://www.happinesskey.co.jp/",
    "pref": "群馬県",
    "city": "太田市",
    "category": "community_day_service",
    "serviceType": "地域密着型通所介護",
    "capacity": 25,
    "openDays": [
      "平日",
      "祝日"
    ],
    "openDaysNote": ""
  },
  {
    "id": "1090500453",
    "name": "かなやまの里デイサービス",
    "kana": "カナヤマノサトデイサービス",
    "address": "群馬県太田市東今泉町６６５番地１８",
    "lat": 36.3279656,
    "lng": 139.3850226,
    "tel": "0276-47-5602",
    "url": "https://kanayama-sato.com",
    "pref": "群馬県",
    "city": "太田市",
    "category": "community_day_service",
    "serviceType": "地域密着型通所介護",
    "capacity": 0,
    "openDays": [
      "平日",
      "土曜日",
      "祝日"
    ],
    "openDaysNote": ""
  },
  {
    "id": "1070503147",
    "name": "グッドデイズ太田",
    "kana": "グッドデイズオオタ",
    "address": "群馬県太田市大島町351-8サンコー第2ビルB号 サンコー第2ビルB号",
    "lat": 36.3020625,
    "lng": 139.3651128,
    "tel": "0276-49-5940",
    "url": "https://gooddays-ota-day.com",
    "pref": "群馬県",
    "city": "太田市",
    "category": "community_day_service",
    "serviceType": "地域密着型通所介護",
    "capacity": 0,
    "openDays": [
      "平日"
    ],
    "openDaysNote": ""
  },
  {
    "id": "1070502263",
    "name": "さくらコミュニティデイハウス　栞",
    "kana": "サクラコミュニティデイハウス　シオリ",
    "address": "群馬県太田市新島町３４８－２",
    "lat": 36.2953971,
    "lng": 139.3895503,
    "tel": "０２７６－６０－３３８８",
    "url": "http://www.sakula-co.jp/day",
    "pref": "群馬県",
    "city": "太田市",
    "category": "community_day_service",
    "serviceType": "地域密着型通所介護",
    "capacity": 10,
    "openDays": [
      "平日",
      "土曜日",
      "日曜日",
      "祝日"
    ],
    "openDaysNote": ""
  },
  {
    "id": "1070502958",
    "name": "ステラ・ハウス",
    "kana": "ステラ・ハウス",
    "address": "群馬県太田市大久保町390-50",
    "lat": 36.338663,
    "lng": 139.2731946,
    "tel": "0277-79-0885",
    "url": "http://www.stella-house.net",
    "pref": "群馬県",
    "city": "太田市",
    "category": "community_day_service",
    "serviceType": "地域密着型通所介護",
    "capacity": 10,
    "openDays": [
      "平日",
      "祝日"
    ],
    "openDaysNote": "併設　グループホーム一番星"
  },
  {
    "id": "1070503154",
    "name": "デイサービス　reスタート",
    "kana": "デイサービス　リスタート",
    "address": "群馬県太田市新田市野井町2041-2",
    "lat": 36.3210874995135,
    "lng": 139.303384703041,
    "tel": "0276-55-8499",
    "url": "https://changes.red/",
    "pref": "群馬県",
    "city": "太田市",
    "category": "community_day_service",
    "serviceType": "地域密着型通所介護",
    "capacity": 15,
    "openDays": [
      "平日",
      "祝日"
    ],
    "openDaysNote": ""
  },
  {
    "id": "1070502776",
    "name": "デイサービス　我が家",
    "kana": "デイサービス　ワガヤ",
    "address": "群馬県太田市新田天良町１６７－１９６",
    "lat": 36.3351888,
    "lng": 139.326129,
    "tel": "0276-52-8468",
    "url": "",
    "pref": "群馬県",
    "city": "太田市",
    "category": "community_day_service",
    "serviceType": "地域密着型通所介護",
    "capacity": 0,
    "openDays": [
      "平日",
      "土曜日",
      "祝日"
    ],
    "openDaysNote": ""
  },
  {
    "id": "1070500705",
    "name": "デイサービスコスモス",
    "kana": "デイサービスコスモス",
    "address": "群馬県太田市藤久良町６８－５",
    "lat": 36.2892054,
    "lng": 139.349342,
    "tel": "0276-33-0012",
    "url": "http://npo-cosmos.jp/",
    "pref": "群馬県",
    "city": "太田市",
    "category": "community_day_service",
    "serviceType": "地域密着型通所介護",
    "capacity": 18,
    "openDays": [
      "平日",
      "土曜日",
      "祝日"
    ],
    "openDaysNote": "早朝、延長利用はその都度相談させていただき対応しております。"
  },
  {
    "id": "1072900465",
    "name": "デイサービスセンター　ほたるの里",
    "kana": "デイサービスセンター　ホタルノサト",
    "address": "群馬県太田市新田大根町259-5",
    "lat": 36.3148007596929,
    "lng": 139.288164842328,
    "tel": "0276-57-0778",
    "url": "",
    "pref": "群馬県",
    "city": "太田市",
    "category": "community_day_service",
    "serviceType": "地域密着型通所介護",
    "capacity": 0,
    "openDays": [
      "平日",
      "土曜日"
    ],
    "openDaysNote": "その他、事業所の都合により休みになる場合があります。その場合は、あらかじめ連絡させていただきます。"
  },
  {
    "id": "1070502859",
    "name": "デイサービスセンター　よくする",
    "kana": "デイサービスセンター　ヨクスル",
    "address": "群馬県太田市藤阿久町430-8",
    "lat": 36.2883973,
    "lng": 139.3592357,
    "tel": "0276-55-5014",
    "url": "http://www.gakuyoudou.com",
    "pref": "群馬県",
    "city": "太田市",
    "category": "community_day_service",
    "serviceType": "地域密着型通所介護",
    "capacity": 20,
    "openDays": [
      "平日"
    ],
    "openDaysNote": ""
  },
  {
    "id": "1090500735",
    "name": "デイサービスセンターアルヴェアーレ東矢島",
    "kana": "デイサービスセンターアルウ˝ェアーレヒガシヤジマ",
    "address": "群馬県太田市東矢島町1179-1",
    "lat": 36.2701679,
    "lng": 139.384356,
    "tel": "0276－57－8500",
    "url": "",
    "pref": "群馬県",
    "city": "太田市",
    "category": "community_day_service",
    "serviceType": "地域密着型通所介護",
    "capacity": 0,
    "openDays": [
      "平日",
      "祝日"
    ],
    "openDaysNote": ""
  },
  {
    "id": "1070502040",
    "name": "ディサービスセンターてのひら",
    "kana": "ディサービスセンターテノヒラ",
    "address": "群馬県太田市新田木崎町1133番地",
    "lat": 36.2989486,
    "lng": 139.3361957,
    "tel": "0276-57-8681",
    "url": "",
    "pref": "群馬県",
    "city": "太田市",
    "category": "community_day_service",
    "serviceType": "地域密着型通所介護",
    "capacity": 0,
    "openDays": [
      "平日"
    ],
    "openDaysNote": ""
  },
  {
    "id": "1090500644",
    "name": "デイサービス太田サンフラワー",
    "kana": "デイサービスオオタサンフラワー",
    "address": "群馬県太田市台之郷町308番地2",
    "lat": 36.3045084,
    "lng": 139.4157302,
    "tel": "0276-60-2942",
    "url": "http://himawari⁻no1.com/",
    "pref": "群馬県",
    "city": "太田市",
    "category": "community_day_service",
    "serviceType": "地域密着型通所介護",
    "capacity": 0,
    "openDays": [
      "平日"
    ],
    "openDaysNote": ""
  },
  {
    "id": "1070502453",
    "name": "デイサービス浜町",
    "kana": "デイサービスハマチョウ",
    "address": "群馬県太田市浜町45-31",
    "lat": 36.2912915,
    "lng": 139.3671185,
    "tel": "0276-50-1106",
    "url": "http://www.hamachou.jp/",
    "pref": "群馬県",
    "city": "太田市",
    "category": "community_day_service",
    "serviceType": "地域密着型通所介護",
    "capacity": 10,
    "openDays": [
      "平日",
      "土曜日"
    ],
    "openDaysNote": ""
  },
  {
    "id": "1090500636",
    "name": "デイリハステーションこいたっぷ",
    "kana": "デイリハステーションコイタップ",
    "address": "群馬県太田市西本町５９番カワムラビル2-A カワムラビル2-A",
    "lat": 36.296666,
    "lng": 139.359163,
    "tel": "0276-57-8311",
    "url": "http://hp.kaipoke.biz/nhw/",
    "pref": "群馬県",
    "city": "太田市",
    "category": "community_day_service",
    "serviceType": "地域密着型通所介護",
    "capacity": 10,
    "openDays": [
      "平日",
      "祝日"
    ],
    "openDaysNote": "お盆・年末年始を除く祝日は実施いたします。（改行）詳細は事業所までお問い合わせください。"
  },
  {
    "id": "1090500578",
    "name": "ナイスデイ",
    "kana": "ナイスデイ",
    "address": "群馬県太田市由良町894₋3",
    "lat": 36.2915434435103,
    "lng": 139.345356596295,
    "tel": "0276-55-6018",
    "url": "smartbrain-1113.com",
    "pref": "群馬県",
    "city": "太田市",
    "category": "community_day_service",
    "serviceType": "地域密着型通所介護",
    "capacity": 0,
    "openDays": [
      "平日",
      "土曜日",
      "祝日"
    ],
    "openDaysNote": ""
  },
  {
    "id": "1090500685",
    "name": "ナイスデイ　内ケ島",
    "kana": "ナイスデイ　ウチガシマ",
    "address": "群馬県太田市内ケ島町2098関口ビル1階 関口ビル1階",
    "lat": 36.2782807,
    "lng": 139.4039788,
    "tel": "0276-55-8439",
    "url": "smartbrain-1113.com",
    "pref": "群馬県",
    "city": "太田市",
    "category": "community_day_service",
    "serviceType": "地域密着型通所介護",
    "capacity": 0,
    "openDays": [
      "平日",
      "祝日"
    ],
    "openDaysNote": ""
  },
  {
    "id": "1090500503",
    "name": "ラブアンドスマイル太田",
    "kana": "ラブアンドスマイルオオタ",
    "address": "群馬県太田市新道町1253-4",
    "lat": 36.2983099,
    "lng": 139.348689,
    "tel": "0276-49-5425",
    "url": "",
    "pref": "群馬県",
    "city": "太田市",
    "category": "community_day_service",
    "serviceType": "地域密着型通所介護",
    "capacity": 18,
    "openDays": [
      "平日",
      "土曜日"
    ],
    "openDaysNote": "お盆休み、年末年始休み"
  },
  {
    "id": "1090500552",
    "name": "リハセンターR-studio",
    "kana": "リハセンターアールスタジオ",
    "address": "群馬県太田市飯塚町1493",
    "lat": 36.2820737594089,
    "lng": 139.380022723943,
    "tel": "0276-57-8275",
    "url": "http://r-connect1011.jimdo.com",
    "pref": "群馬県",
    "city": "太田市",
    "category": "community_day_service",
    "serviceType": "地域密着型通所介護",
    "capacity": 115,
    "openDays": [
      "平日",
      "祝日"
    ],
    "openDaysNote": ""
  },
  {
    "id": "1090500727",
    "name": "リハビリ専門デイサービス憩い",
    "kana": "リハビリセンヨウデイサービスイコイ",
    "address": "市場町690-6",
    "lat": null,
    "lng": null,
    "tel": "0284-64-7362",
    "url": "",
    "pref": "群馬県",
    "city": "太田市",
    "category": "community_day_service",
    "serviceType": "地域密着型通所介護",
    "capacity": 0,
    "openDays": [
      "平日",
      "土曜日",
      "祝日"
    ],
    "openDaysNote": ""
  },
  {
    "id": "1090500479",
    "name": "医療法人KOSSMOS会　剣持整形デイサービス泉町",
    "kana": "イリョウホウジンコスモスカイ　ケンモチセイケイデイサービスイズミチョウ",
    "address": "群馬県太田市泉町1515-3",
    "lat": 36.268107626365,
    "lng": 139.310989457043,
    "tel": "0276-33-7700",
    "url": "www.kossmos.jp/",
    "pref": "群馬県",
    "city": "太田市",
    "category": "community_day_service",
    "serviceType": "地域密着型通所介護",
    "capacity": 0,
    "openDays": [
      "平日"
    ],
    "openDaysNote": ""
  },
  {
    "id": "1090500446",
    "name": "医療法人KOSSMOS会　剣持整形デイサービス東本町",
    "kana": "イリョウホウジンコスモスカイ　ケンモチセイケイデイサービスヒガシホンチョウ",
    "address": "群馬県太田市東本町３９−１",
    "lat": 36.2977884271171,
    "lng": 139.378637266375,
    "tel": "０２７６−２５−２５１７",
    "url": "www.kossmos.jp",
    "pref": "群馬県",
    "city": "太田市",
    "category": "community_day_service",
    "serviceType": "地域密着型通所介護",
    "capacity": 18,
    "openDays": [
      "平日"
    ],
    "openDaysNote": "年末年始、お盆"
  },
  {
    "id": "1090500495",
    "name": "社会福祉法人　至誠会　清風園",
    "kana": "シャカイフクシホウジン　シセイカイ　セイフウエン",
    "address": "群馬県太田市熊野町３８－８１",
    "lat": 36.3080929,
    "lng": 139.3838199,
    "tel": "0276-22-2615",
    "url": "http://seifuen.info/index.html",
    "pref": "群馬県",
    "city": "太田市",
    "category": "community_day_service",
    "serviceType": "地域密着型通所介護",
    "capacity": 0,
    "openDays": [
      "平日",
      "土曜日",
      "祝日"
    ],
    "openDaysNote": "特になし"
  },
  {
    "id": "1070500556",
    "name": "太田中央デイサ－ビスセンター",
    "kana": "オオタチュウオウデイサービスセンター",
    "address": "群馬県太田市新島町359-9",
    "lat": 36.2942222,
    "lng": 139.3882422,
    "tel": "0276-60-1773",
    "url": "",
    "pref": "群馬県",
    "city": "太田市",
    "category": "community_day_service",
    "serviceType": "地域密着型通所介護",
    "capacity": 18,
    "openDays": [
      "平日",
      "土曜日",
      "日曜日",
      "祝日"
    ],
    "openDaysNote": ""
  },
  {
    "id": "1090500693",
    "name": "歩き続けるカラダづくりの場　ソトエ",
    "kana": "アルキツヅケルカラダヅクリノバ　ソトエ",
    "address": "群馬県太田市熊野町28-8タローロボハイム1F タローロボハイム1F",
    "lat": 36.3055458,
    "lng": 139.3839989,
    "tel": "0276-55-5545",
    "url": "https://sotoe.life/",
    "pref": "群馬県",
    "city": "太田市",
    "category": "community_day_service",
    "serviceType": "地域密着型通所介護",
    "capacity": 0,
    "openDays": [
      "平日",
      "祝日"
    ],
    "openDaysNote": ""
  },
  {
    "id": "1090500669",
    "name": "療養デイサービスきずな",
    "kana": "リョウヨウデイサービスキズナ",
    "address": "群馬県太田市内ヶ島町2051",
    "lat": 36.2806672,
    "lng": 139.4033041,
    "tel": "0276-57-6150",
    "url": "https://tubasakizuna.web.fc2.com/index.html",
    "pref": "群馬県",
    "city": "太田市",
    "category": "community_day_service",
    "serviceType": "地域密着型通所介護",
    "capacity": 5,
    "openDays": [
      "平日",
      "土曜日",
      "祝日"
    ],
    "openDaysNote": "創立日は11月28日となり、前後の日曜日を創立記念日とさせていただいております。"
  },
  {
    "id": "1093100194",
    "name": "Ya☆HeySUN",
    "kana": "ヤ　ヘイ　サン",
    "address": "群馬県邑楽郡大泉町大字寄木戸1638番地の2",
    "lat": 36.257644388015,
    "lng": 139.385425649138,
    "tel": "0276-55-2096",
    "url": "https://mituyaselect.com/",
    "pref": "群馬県",
    "city": "大泉町",
    "category": "community_day_service",
    "serviceType": "地域密着型通所介護",
    "capacity": null,
    "openDays": [
      "平日",
      "祝日"
    ],
    "openDaysNote": ""
  },
  {
    "id": "1093100178",
    "name": "デイサービス　あいの花",
    "kana": "デイサービス　アイノハナ",
    "address": "群馬県邑楽郡大泉町吉田2392-3",
    "lat": 36.2437497,
    "lng": 139.4105586,
    "tel": "0276-57-8711",
    "url": "https://i-miyagokai.jp/ainohana/",
    "pref": "群馬県",
    "city": "大泉町",
    "category": "community_day_service",
    "serviceType": "地域密着型通所介護",
    "capacity": 0,
    "openDays": [
      "平日"
    ],
    "openDaysNote": ""
  },
  {
    "id": "1093100186",
    "name": "デイサービス　リハビリ館",
    "kana": "デイサービス　リハビリカン",
    "address": "群馬県邑楽郡大泉町３－２－１８",
    "lat": 36.245702,
    "lng": 139.409667,
    "tel": "0276-47-3535",
    "url": "http://www.mazenta.co.jp/htm/rehabilikan.htm",
    "pref": "群馬県",
    "city": "大泉町",
    "category": "community_day_service",
    "serviceType": "地域密着型通所介護",
    "capacity": 15,
    "openDays": [
      "平日",
      "祝日"
    ],
    "openDaysNote": ""
  },
  {
    "id": "1072601246",
    "name": "アンジャーネ",
    "kana": "アンジャーネ",
    "address": "群馬県吾妻郡中之条町大字伊勢町22番地3",
    "lat": 36.5832833401326,
    "lng": 138.854034546558,
    "tel": "０２７９－７５－４８６０",
    "url": "",
    "pref": "群馬県",
    "city": "中之条町",
    "category": "community_day_service",
    "serviceType": "地域密着型通所介護",
    "capacity": 0,
    "openDays": [
      "平日",
      "土曜日",
      "祝日"
    ],
    "openDaysNote": "・年末年始の休業日は事前に文書にてお知らせします。"
  },
  {
    "id": "1072600750",
    "name": "サザン倶楽部",
    "kana": "サザンクラブ",
    "address": "群馬県吾妻郡中之条町大字中之条町714-1",
    "lat": 36.5837013,
    "lng": 138.8324817,
    "tel": "0279-75-7890",
    "url": "https://southern-ogawa.or.jp/",
    "pref": "群馬県",
    "city": "中之条町",
    "category": "community_day_service",
    "serviceType": "地域密着型通所介護",
    "capacity": 18,
    "openDays": [
      "平日",
      "土曜日",
      "祝日"
    ],
    "openDaysNote": ""
  },
  {
    "id": "1092600244",
    "name": "デイサービスてんだい",
    "kana": "デイサービステンダイ",
    "address": "群馬県吾妻郡中之条町大字横尾３２７６－２",
    "lat": 36.598792,
    "lng": 138.850755,
    "tel": "0279-75-6401",
    "url": "",
    "pref": "群馬県",
    "city": "中之条町",
    "category": "community_day_service",
    "serviceType": "地域密着型通所介護",
    "capacity": null,
    "openDays": [
      "平日"
    ],
    "openDaysNote": ""
  },
  {
    "id": "1092600194",
    "name": "デイサービスやまゆり",
    "kana": "デイサービスヤマユリ",
    "address": "群馬県吾妻郡中之条町大字折田2515番地",
    "lat": 36.6021438,
    "lng": 138.8143159,
    "tel": "0279-75-6517",
    "url": "http://www12.wind.ne.jp/harukaze/",
    "pref": "群馬県",
    "city": "中之条町",
    "category": "community_day_service",
    "serviceType": "地域密着型通所介護",
    "capacity": 15,
    "openDays": [
      "平日",
      "祝日"
    ],
    "openDaysNote": ""
  },
  {
    "id": "1072601014",
    "name": "デイサービス一休",
    "kana": "デイサービスイッキュウ",
    "address": "群馬県吾妻郡中之条町上沢渡棚界戸3641-11",
    "lat": 36.6200278176656,
    "lng": 138.745351356192,
    "tel": "0279-66-2008",
    "url": "",
    "pref": "群馬県",
    "city": "中之条町",
    "category": "community_day_service",
    "serviceType": "地域密着型通所介護",
    "capacity": 0,
    "openDays": [
      "平日",
      "土曜日"
    ],
    "openDaysNote": ""
  },
  {
    "id": "1092600061",
    "name": "なかんじょ在宅ケアセンター",
    "kana": "ナカンジョザイタクケアセンター",
    "address": "群馬県吾妻郡中之条町大字中之条町1869-5",
    "lat": 36.5853869,
    "lng": 138.845208,
    "tel": "0279-75-2800",
    "url": "http://www.kijoukai-gr.jp/nakazai/",
    "pref": "群馬県",
    "city": "中之条町",
    "category": "community_day_service",
    "serviceType": "地域密着型通所介護",
    "capacity": 90,
    "openDays": [
      "平日",
      "土曜日",
      "祝日"
    ],
    "openDaysNote": ""
  },
  {
    "id": "1092600269",
    "name": "みんなの家なかんじょ",
    "kana": "ミンナノイエナカンジョ",
    "address": "群馬県吾妻郡中之条町大字中之条町967",
    "lat": 36.5894897,
    "lng": 138.8439696,
    "tel": "0279-75-4165",
    "url": "https://kijokai.or.jp/minnanoie-nakanjo/",
    "pref": "群馬県",
    "city": "中之条町",
    "category": "community_day_service",
    "serviceType": "地域密着型通所介護",
    "capacity": 0,
    "openDays": [
      "平日",
      "土曜日",
      "祝日"
    ],
    "openDaysNote": ""
  },
  {
    "id": "1072601188",
    "name": "もてなし日和　えん",
    "kana": "モテナシビヨリ　エン",
    "address": "群馬県吾妻郡中之条町伊勢町758-1",
    "lat": 36.5842879,
    "lng": 138.8518105,
    "tel": "0279-26-3178",
    "url": "http://www.pure-next.co.jp/",
    "pref": "群馬県",
    "city": "中之条町",
    "category": "community_day_service",
    "serviceType": "地域密着型通所介護",
    "capacity": 13,
    "openDays": [
      "平日",
      "土曜日",
      "祝日"
    ],
    "openDaysNote": ""
  },
  {
    "id": "1072600636",
    "name": "寄り処はなまる",
    "kana": "ヨリドコロハナマル",
    "address": "群馬県吾妻郡中之条町大字下沢渡１５８０－２",
    "lat": 36.6165521,
    "lng": 138.7930235,
    "tel": "0279-66-2161",
    "url": "http://www12.wind.ne.jp/hanamaru/",
    "pref": "群馬県",
    "city": "中之条町",
    "category": "community_day_service",
    "serviceType": "地域密着型通所介護",
    "capacity": 0,
    "openDays": [
      "平日"
    ],
    "openDaysNote": ""
  },
  {
    "id": "1092600137",
    "name": "地域密着型デイサービス　想～そう～",
    "kana": "チイキミッチャクガタデイサービスソウ",
    "address": "群馬県吾妻郡中之条町大字赤坂２１９番地３",
    "lat": 36.6094858,
    "lng": 138.8740667,
    "tel": "０２７９－５１－８１９１",
    "url": "",
    "pref": "群馬県",
    "city": "中之条町",
    "category": "community_day_service",
    "serviceType": "地域密着型通所介護",
    "capacity": 10,
    "openDays": [
      "平日",
      "祝日"
    ],
    "openDaysNote": "年末年始休暇　１２／３０～１／３"
  },
  {
    "id": "1092600228",
    "name": "あかりデイサービス",
    "kana": "アカリデイサービス",
    "address": "群馬県吾妻郡長野原町大津230-1ショッピングセンター　レクス内 ショッピングセンター　レクス内",
    "lat": 36.5538419,
    "lng": 138.6190946,
    "tel": "0279-82-5136",
    "url": "",
    "pref": "群馬県",
    "city": "長野原町",
    "category": "community_day_service",
    "serviceType": "地域密着型通所介護",
    "capacity": 9,
    "openDays": [
      "平日",
      "土曜日",
      "日曜日",
      "祝日"
    ],
    "openDaysNote": "午前の部　9:00～12:00、午後の部　13:30～16:30の各部3時間のデイサービスになります。（改行）年始等ショッピングセンター休業日は、休業となります。"
  },
  {
    "id": "1072600081",
    "name": "からまつ荘",
    "kana": "カラマツソウ",
    "address": "群馬県吾妻郡長野原町大字与喜屋1624",
    "lat": 36.5470226927942,
    "lng": 138.618600908598,
    "tel": "0279-82-4150",
    "url": "https://nishiagatsuma.jp/",
    "pref": "群馬県",
    "city": "長野原町",
    "category": "community_day_service",
    "serviceType": "地域密着型通所介護",
    "capacity": 0,
    "openDays": [
      "平日",
      "土曜日",
      "祝日"
    ],
    "openDaysNote": ""
  },
  {
    "id": "1072601220",
    "name": "デイぬくもり",
    "kana": "デイヌクモリ",
    "address": "群馬県吾妻郡長野原町応桑1697-6",
    "lat": 36.5167210107167,
    "lng": 138.598397653967,
    "tel": "0279-82-5685",
    "url": "http://www.chousei-hp.or.jp/serviceInfo.html",
    "pref": "群馬県",
    "city": "長野原町",
    "category": "community_day_service",
    "serviceType": "地域密着型通所介護",
    "capacity": 0,
    "openDays": [
      "平日",
      "土曜日",
      "日曜日",
      "祝日"
    ],
    "openDaysNote": "１２月３０日から１月３日まで休業します。"
  },
  {
    "id": "1092600236",
    "name": "通所介護川原湯温泉",
    "kana": "ツウショカイゴカワラユオンセン",
    "address": "群馬県吾妻郡長野原町川原湯４８２－１３はなかしわ内 はなかしわ内",
    "lat": 36.5420709,
    "lng": 138.7015768,
    "tel": "０２７９－８２－５５２２",
    "url": "http://koutoku-group.co.jp",
    "pref": "群馬県",
    "city": "長野原町",
    "category": "community_day_service",
    "serviceType": "地域密着型通所介護",
    "capacity": 18,
    "openDays": [
      "平日",
      "土曜日",
      "祝日"
    ],
    "openDaysNote": "年末年始休業：１２月２９日～１月３日"
  },
  {
    "id": "1072600867",
    "name": "なごみデイサービスセンター",
    "kana": "ナゴミデイサービスセンター",
    "address": "群馬県吾妻郡嬬恋村大字今井９３－１",
    "lat": 36.5462884868144,
    "lng": 138.580122684656,
    "tel": "0279-97-1753",
    "url": "http://www.nagomi-ths.jp",
    "pref": "群馬県",
    "city": "嬬恋村",
    "category": "community_day_service",
    "serviceType": "地域密着型通所介護",
    "capacity": 0,
    "openDays": [
      "平日",
      "祝日"
    ],
    "openDaysNote": "８月１５日（お盆休み）・１２月３1日から１月３日まで（年末年始休業）"
  },
  {
    "id": "1072601030",
    "name": "デイサービスセンター　ぽっかぽか",
    "kana": "デイサービスセンター　ポッカポカ",
    "address": "群馬県吾妻郡東吾妻町大字岩井402",
    "lat": 36.5791767084695,
    "lng": 138.843270174204,
    "tel": "0279-25-7349",
    "url": "pokkapoka-s.jp",
    "pref": "群馬県",
    "city": "東吾妻町",
    "category": "community_day_service",
    "serviceType": "地域密着型通所介護",
    "capacity": 12,
    "openDays": [
      "平日",
      "祝日"
    ],
    "openDaysNote": "年末年始休業あり（１２/３１～１/２）"
  },
  {
    "id": "1070900921",
    "name": "ＧＥＮＫＩ　NEXT　藤岡",
    "kana": "ゲンキネクスト　フジオカ",
    "address": "群馬県藤岡市東平井586-7",
    "lat": 36.2256084323967,
    "lng": 139.046753469312,
    "tel": "0274-23-7233",
    "url": "",
    "pref": "群馬県",
    "city": "藤岡市",
    "category": "community_day_service",
    "serviceType": "地域密着型通所介護",
    "capacity": 18,
    "openDays": [
      "平日",
      "土曜日",
      "祝日"
    ],
    "openDaysNote": ""
  },
  {
    "id": "1070901101",
    "name": "デイサービスあいの丘",
    "kana": "デイサービスアイノオカ",
    "address": "群馬県藤岡市藤岡2798-1",
    "lat": 36.2310016,
    "lng": 139.0570991,
    "tel": "0274-22-3022",
    "url": "",
    "pref": "群馬県",
    "city": "藤岡市",
    "category": "community_day_service",
    "serviceType": "地域密着型通所介護",
    "capacity": 0,
    "openDays": [
      "平日",
      "祝日"
    ],
    "openDaysNote": "12月29日から1月4日まで休み"
  },
  {
    "id": "1070900905",
    "name": "デイサービスセンター　花ぐるま",
    "kana": "デイサービスセンター　ハナグルマ",
    "address": "群馬県藤岡市白石1259-2",
    "lat": 36.2595033,
    "lng": 139.0390063,
    "tel": "0274-50-8653",
    "url": "",
    "pref": "群馬県",
    "city": "藤岡市",
    "category": "community_day_service",
    "serviceType": "地域密着型通所介護",
    "capacity": 0,
    "openDays": [
      "平日",
      "祝日"
    ],
    "openDaysNote": ""
  },
  {
    "id": "1070901135",
    "name": "デイサービスセンターかわせみ",
    "kana": "デイサービスセンターカワセミ",
    "address": "群馬県藤岡市鬼石６３２番地８",
    "lat": 36.1544413,
    "lng": 139.0517135,
    "tel": "0274-25-8558",
    "url": "",
    "pref": "群馬県",
    "city": "藤岡市",
    "category": "community_day_service",
    "serviceType": "地域密着型通所介護",
    "capacity": 10,
    "openDays": [
      "平日",
      "土曜日",
      "祝日"
    ],
    "openDaysNote": ""
  },
  {
    "id": "1070900269",
    "name": "デイサービスセンターほあんの家",
    "kana": "デイサービスセンターホアンノイエ",
    "address": "群馬県藤岡市立石668-1",
    "lat": 36.2831631,
    "lng": 139.0780434,
    "tel": "0274-40-2512",
    "url": "http://www.npo-fan.jp/",
    "pref": "群馬県",
    "city": "藤岡市",
    "category": "community_day_service",
    "serviceType": "地域密着型通所介護",
    "capacity": 18,
    "openDays": [
      "平日",
      "土曜日",
      "祝日"
    ],
    "openDaysNote": "６～１０月は夏時間で９時から17時まで利用可能（改行）延長も可能"
  },
  {
    "id": "1090900117",
    "name": "デイサービスぷらすけあ藤岡",
    "kana": "デイサービスプラスケアフジオカ",
    "address": "群馬県藤岡市上栗須69-4ぷらすけあ藤岡 ぷらすけあ藤岡",
    "lat": 36.2593506,
    "lng": 139.0707612,
    "tel": "0274-25-8523",
    "url": "",
    "pref": "群馬県",
    "city": "藤岡市",
    "category": "community_day_service",
    "serviceType": "地域密着型通所介護",
    "capacity": 0,
    "openDays": [
      "平日"
    ],
    "openDaysNote": ""
  },
  {
    "id": "1072300385",
    "name": "デイハウスオアシス",
    "kana": "デイハウスオアシス",
    "address": "群馬県藤岡市三波川215-2",
    "lat": 36.1581434,
    "lng": 139.0400118,
    "tel": "0274-52-3975",
    "url": "",
    "pref": "群馬県",
    "city": "藤岡市",
    "category": "community_day_service",
    "serviceType": "地域密着型通所介護",
    "capacity": 0,
    "openDays": [
      "平日",
      "土曜日",
      "日曜日",
      "祝日"
    ],
    "openDaysNote": ""
  },
  {
    "id": "1070900244",
    "name": "ナイスデイサービスセンター",
    "kana": "ナイスデイサービスセンター",
    "address": "群馬県藤岡市中栗須238-1群馬県藤岡市中栗須238-1 群馬県藤岡市中栗須238-1",
    "lat": 36.2588469537011,
    "lng": 139.076508474869,
    "tel": "0274-22-1336",
    "url": "",
    "pref": "群馬県",
    "city": "藤岡市",
    "category": "community_day_service",
    "serviceType": "地域密着型通所介護",
    "capacity": 90,
    "openDays": [
      "平日",
      "土曜日",
      "祝日"
    ],
    "openDaysNote": ""
  },
  {
    "id": "1090900125",
    "name": "藤虎の門デイサービス",
    "kana": "フジトラノモンデイサービス",
    "address": "群馬県藤岡市本郷1100-5",
    "lat": 36.2280893241779,
    "lng": 139.072581707515,
    "tel": "0274-50-8701",
    "url": "http://www.flash.or.jp/fujitora/index.html",
    "pref": "群馬県",
    "city": "藤岡市",
    "category": "community_day_service",
    "serviceType": "地域密着型通所介護",
    "capacity": 0,
    "openDays": [
      "平日",
      "祝日"
    ],
    "openDaysNote": "1単位目：9：00～12：05（改行）2単位目：13：30～16：35"
  },
  {
    "id": "1073101170",
    "name": "サクラ　デイサービス",
    "kana": "サクラ　デイサービス",
    "address": "群馬県邑楽郡板倉町西岡新田163-1",
    "lat": 36.2620283176068,
    "lng": 139.610927814086,
    "tel": "0276-47-4976",
    "url": "https://www.asahilifeinc.com",
    "pref": "群馬県",
    "city": "板倉町",
    "category": "community_day_service",
    "serviceType": "地域密着型通所介護",
    "capacity": 18,
    "openDays": [
      "平日",
      "祝日"
    ],
    "openDaysNote": "年末年始　　　　　　12月30日～1月3日（改行）ゴールデンウィーク　5月3日～5日（改行）お盆　　　　　　　　8月13日～16日（改行）はお休みとなります。"
  },
  {
    "id": "1071000705",
    "name": "エンジョイ・ア・デイ・原",
    "kana": "エンジョイ・ア・デイ・ハラ",
    "address": "群馬県富岡市原621-1",
    "lat": 36.2534028311354,
    "lng": 138.806578924219,
    "tel": "0247-67-7723",
    "url": "",
    "pref": "群馬県",
    "city": "富岡市",
    "category": "community_day_service",
    "serviceType": "地域密着型通所介護",
    "capacity": 17,
    "openDays": [
      "平日",
      "土曜日",
      "祝日"
    ],
    "openDaysNote": ""
  },
  {
    "id": "1071000531",
    "name": "デイサービスセンター　きずな",
    "kana": "デイサービスセンター　キズナ",
    "address": "群馬県富岡市妙義町下高田900-1",
    "lat": 36.2724891,
    "lng": 138.8328283,
    "tel": "0274-73-3788",
    "url": "",
    "pref": "群馬県",
    "city": "富岡市",
    "category": "community_day_service",
    "serviceType": "地域密着型通所介護",
    "capacity": 16,
    "openDays": [
      "平日",
      "土曜日",
      "祝日"
    ],
    "openDaysNote": "上記の休みとなっていますが、相談に応じます。"
  },
  {
    "id": "1071000069",
    "name": "デイサービスセンター鏑泉苑",
    "kana": "デイサービスセンターテキセンエン",
    "address": "群馬県富岡市下高瀬７２４",
    "lat": 36.2421844,
    "lng": 138.886503,
    "tel": "0274-62-0964",
    "url": "http://www.keisaikai.com/",
    "pref": "群馬県",
    "city": "富岡市",
    "category": "community_day_service",
    "serviceType": "地域密着型通所介護",
    "capacity": 18,
    "openDays": [
      "平日",
      "祝日"
    ],
    "openDaysNote": "祝日は通常通りサービス提供（９：００～１５：３０）"
  },
  {
    "id": "1071000614",
    "name": "ナイス・デイ里山",
    "kana": "ナイス・デイサトヤマ",
    "address": "群馬県富岡市上高尾909-5",
    "lat": 36.2816689,
    "lng": 138.9074434,
    "tel": "0274-67-5567",
    "url": "",
    "pref": "群馬県",
    "city": "富岡市",
    "category": "community_day_service",
    "serviceType": "地域密着型通所介護",
    "capacity": 10,
    "openDays": [
      "平日",
      "土曜日",
      "祝日"
    ],
    "openDaysNote": "他の休日・・・12/30～1/3（年末年始）、5/5"
  },
  {
    "id": "1071000549",
    "name": "リビングこぐまクラブデイサービスセンタ－",
    "kana": "リビングコグマクラブデイサービスセンター",
    "address": "群馬県富岡市七日市636番地2",
    "lat": 36.2597545,
    "lng": 138.884641,
    "tel": "0274-62-6515",
    "url": "",
    "pref": "群馬県",
    "city": "富岡市",
    "category": "community_day_service",
    "serviceType": "地域密着型通所介護",
    "capacity": 20,
    "openDays": [
      "平日",
      "土曜日",
      "日曜日",
      "祝日"
    ],
    "openDaysNote": "延長時間午後6時から午後8時まで。（改行）午前7時から午後9時まで"
  },
  {
    "id": "1071000747",
    "name": "富岡地域療養通所介護事業所",
    "kana": "トミオカチイキリョウヨウツウショカイゴジギョウショ",
    "address": "群馬県富岡市七日市643",
    "lat": 36.2585713,
    "lng": 138.8836551,
    "tel": "0274-62-3000",
    "url": "https://zaitakuiryo.nano-hosp.jp/",
    "pref": "群馬県",
    "city": "富岡市",
    "category": "community_day_service",
    "serviceType": "地域密着型通所介護",
    "capacity": null,
    "openDays": [
      "平日"
    ],
    "openDaysNote": ""
  },
  {
    "id": "1093100152",
    "name": "デイサービス　とくめい",
    "kana": "デイサービス　トクメイ",
    "address": "群馬県邑楽郡明和町梅原1012-1",
    "lat": 36.199450307218,
    "lng": 139.533802534185,
    "tel": "0276-57-6294",
    "url": "",
    "pref": "群馬県",
    "city": "明和町",
    "category": "community_day_service",
    "serviceType": "地域密着型通所介護",
    "capacity": 0,
    "openDays": [
      "平日",
      "土曜日",
      "祝日"
    ],
    "openDaysNote": ""
  },
  {
    "id": "1093100202",
    "name": "明和町デイサービスセンター",
    "kana": "メイワマチデイサービスセンター",
    "address": "群馬県邑楽郡明和町新里３１１番地１",
    "lat": 36.2102361,
    "lng": 139.5381024,
    "tel": "0276-84-5222",
    "url": "meiwa-syakyo.or.jp/",
    "pref": "群馬県",
    "city": "明和町",
    "category": "community_day_service",
    "serviceType": "地域密着型通所介護",
    "capacity": 0,
    "openDays": [
      "平日",
      "土曜日",
      "祝日"
    ],
    "openDaysNote": ""
  },
  {
    "id": "1073100172",
    "name": "社会福祉法人邑楽町社会福祉協議会ディサービスセンター",
    "kana": "シャカイフクシホウジンオウラマチシャカイフクシキョウギカイディサービスセンター",
    "address": "群馬県邑楽郡邑楽町中野１３４２",
    "lat": 36.2696870324668,
    "lng": 139.448619005405,
    "tel": "0276-89-1522",
    "url": "http://oura-syakyo.jimdo.com/",
    "pref": "群馬県",
    "city": "邑楽町",
    "category": "community_day_service",
    "serviceType": "地域密着型通所介護",
    "capacity": 18,
    "openDays": [
      "平日",
      "祝日"
    ],
    "openDaysNote": ""
  }
]