[
  {
    "id": "873900427",
    "name": "グリーンヒル千代田　デイサービスセンター",
    "kana": "グリーンヒルチヨダデイサービスセンター",
    "address": "茨城県かすみがうら市上佐谷2008",
    "lat": 36.1640865,
    "lng": 140.2108435,
    "tel": "299593787",
    "url": "asahikai@wab.wakwak.com",
    "pref": "茨城県",
    "city": "かすみがうら市",
    "category": "community_day_service",
    "serviceType": "地域密着型通所介護",
    "capacity": 0,
    "openDays": [
      "平日",
      "土曜日"
    ],
    "openDaysNote": ""
  },
  {
    "id": "893000067",
    "name": "デイサービス　ラブちゃん",
    "kana": "デイサービス　ラブチャン",
    "address": "かすみがうら市上稲吉1548",
    "lat": 36.1330745,
    "lng": 140.2032296,
    "tel": "0299-56-6014",
    "url": "",
    "pref": "茨城県",
    "city": "かすみがうら市",
    "category": "community_day_service",
    "serviceType": "地域密着型通所介護",
    "capacity": null,
    "openDays": [
      "平日",
      "土曜日",
      "日曜日",
      "祝日"
    ],
    "openDaysNote": ""
  },
  {
    "id": "873000244",
    "name": "デイサービスここいち稲吉",
    "kana": "デイサービスココイチイナヨシ",
    "address": "茨城県かすみがうら市稲吉東3-7-12",
    "lat": 36.1289844,
    "lng": 140.2536234,
    "tel": "029-886-4101",
    "url": "https://isshin.gr.jp/index.php",
    "pref": "茨城県",
    "city": "かすみがうら市",
    "category": "community_day_service",
    "serviceType": "地域密着型通所介護",
    "capacity": 0,
    "openDays": [
      "平日",
      "土曜日",
      "祝日"
    ],
    "openDaysNote": "特になし"
  },
  {
    "id": "873000194",
    "name": "デイサービスここいち神立",
    "kana": "デイサービスココイチカンダツ",
    "address": "茨城県かすみがうら市下稲吉2-17-39",
    "lat": 36.1237442,
    "lng": 140.2477322,
    "tel": "029-830-2551",
    "url": "https://isshin.gr.jp/index.php",
    "pref": "茨城県",
    "city": "かすみがうら市",
    "category": "community_day_service",
    "serviceType": "地域密着型通所介護",
    "capacity": 0,
    "openDays": [
      "平日",
      "土曜日",
      "祝日"
    ],
    "openDaysNote": "特になし"
  },
  {
    "id": "873900500",
    "name": "社会福祉法人　聖朋会　デイサービスセンターあゆみ",
    "kana": "シャカイフクシホウジン　セイホウカイ　デイサービスセンターアユミ",
    "address": "坂933-1",
    "lat": 34.465636,
    "lng": 132.659147,
    "tel": "029-840-9195",
    "url": "http://www.seihoukai-ibaraki.org/",
    "pref": "茨城県",
    "city": "かすみがうら市",
    "category": "community_day_service",
    "serviceType": "地域密着型通所介護",
    "capacity": 10,
    "openDays": [
      "平日",
      "祝日"
    ],
    "openDaysNote": ""
  },
  {
    "id": "873000301",
    "name": "早稲田イーライフかすみがうら",
    "kana": "ワセダイーライフカスミガウラ",
    "address": "茨城県かすみがうら市深谷2813-5",
    "lat": 36.0919385503479,
    "lng": 140.303850949738,
    "tel": "029-875-7088",
    "url": "https://waseda-e-life.co.jp/facilities/facilities-69/",
    "pref": "茨城県",
    "city": "かすみがうら市",
    "category": "community_day_service",
    "serviceType": "地域密着型通所介護",
    "capacity": 100,
    "openDays": [
      "平日",
      "祝日"
    ],
    "openDaysNote": "ゴールデンウイーク　5/3-5/5（改行）夏季休業　8/13-8/15（改行）年末年始　12/30-1/3"
  },
  {
    "id": "895500049",
    "name": "からだはうすMIRAI",
    "kana": "カラダハウスミライ",
    "address": "茨城県つくばみらい市小張4822-1",
    "lat": 35.9840638,
    "lng": 140.0428251,
    "tel": "0297-21-8636",
    "url": "",
    "pref": "茨城県",
    "city": "つくばみらい市",
    "category": "community_day_service",
    "serviceType": "地域密着型通所介護",
    "capacity": 0,
    "openDays": [
      "平日",
      "祝日"
    ],
    "openDaysNote": "月曜日から金曜日で祝日の場合は営業します。"
  },
  {
    "id": "875500274",
    "name": "ご長寿くらぶみらい平デイサービスセンター",
    "kana": "ゴチョウジュクラブデイサービスセンター",
    "address": "茨城県つくばみらい市紫峰が丘2-20-1ご長寿くらぶみらい平 ご長寿くらぶみらい平",
    "lat": 36.0022054,
    "lng": 140.037999,
    "tel": "0297-44-6027",
    "url": "http://gotyoujyuclub.com/hometype/336",
    "pref": "茨城県",
    "city": "つくばみらい市",
    "category": "community_day_service",
    "serviceType": "地域密着型通所介護",
    "capacity": 0,
    "openDays": [
      "平日",
      "土曜日",
      "日曜日",
      "祝日"
    ],
    "openDaysNote": ""
  },
  {
    "id": "874000185",
    "name": "指定通所介護事業所　ﾋﾟｲ・ディ・ジェイ　伊奈",
    "kana": "シテイツウショカイゴジギョウショ　ピイ・ディ・ジェィ　イナ",
    "address": "茨城県つくばみらい市板橋2243-1",
    "lat": 35.9862785,
    "lng": 140.0556315,
    "tel": "0297-20-7755",
    "url": "http://keiyu.or.jp/ina",
    "pref": "茨城県",
    "city": "つくばみらい市",
    "category": "community_day_service",
    "serviceType": "地域密着型通所介護",
    "capacity": 0,
    "openDays": [
      "平日",
      "土曜日"
    ],
    "openDaysNote": ""
  },
  {
    "id": "892000316",
    "name": "ウェルネスクラブ　桜",
    "kana": "ウェルネスクラブ　サクラ",
    "address": "茨城県つくば市柴崎１０５４",
    "lat": 36.1044419,
    "lng": 140.118946,
    "tel": "298965300",
    "url": "info@icnet-tsukuba.com",
    "pref": "茨城県",
    "city": "つくば市",
    "category": "community_day_service",
    "serviceType": "地域密着型通所介護",
    "capacity": 0,
    "openDays": [
      "平日"
    ],
    "openDaysNote": ""
  },
  {
    "id": "892000357",
    "name": "さわやかジム",
    "kana": "サワヤカジム",
    "address": "茨城県つくば市下広岡７４５－１",
    "lat": 36.0689297,
    "lng": 140.1687352,
    "tel": "080-4188-2211",
    "url": "",
    "pref": "茨城県",
    "city": "つくば市",
    "category": "community_day_service",
    "serviceType": "地域密着型通所介護",
    "capacity": null,
    "openDays": [
      "平日",
      "祝日"
    ],
    "openDaysNote": ""
  },
  {
    "id": "892000258",
    "name": "つくばの杜指定通所介護事業所",
    "kana": "ツクバノモリシテイツウショカイゴジギョウショ",
    "address": "茨城県つくば市吉瀬字神送1017-1",
    "lat": 36.0754504,
    "lng": 140.1488861,
    "tel": "029-857-8666",
    "url": "https://www.tsukubanomori.or.jp/",
    "pref": "茨城県",
    "city": "つくば市",
    "category": "community_day_service",
    "serviceType": "地域密着型通所介護",
    "capacity": null,
    "openDays": [
      "平日",
      "土曜日"
    ],
    "openDaysNote": ""
  },
  {
    "id": "892000365",
    "name": "デイケアホーム飯田医院つくばの里",
    "kana": "デイケアホームイイダイインツクバノサト",
    "address": "茨城県つくば市沼田101番地",
    "lat": 36.2082743,
    "lng": 140.0802715,
    "tel": "029-850-8330",
    "url": "https://www.chikuhoukai-iidaiin.com",
    "pref": "茨城県",
    "city": "つくば市",
    "category": "community_day_service",
    "serviceType": "地域密着型通所介護",
    "capacity": null,
    "openDays": [
      "平日"
    ],
    "openDaysNote": ""
  },
  {
    "id": "872002837",
    "name": "でいさ～びす　木の花さくや",
    "kana": "デイサービス　コノハナサクヤ",
    "address": "鬼ケ窪1212-11デイサービス棟 デイサービス棟",
    "lat": 36.0790180491713,
    "lng": 140.048368050401,
    "tel": "029-828-7061",
    "url": "http://www.nozomikai.com/",
    "pref": "茨城県",
    "city": "つくば市",
    "category": "community_day_service",
    "serviceType": "地域密着型通所介護",
    "capacity": 10,
    "openDays": [
      "平日",
      "祝日"
    ],
    "openDaysNote": ""
  },
  {
    "id": "872001128",
    "name": "デイサービスうちね",
    "kana": "デイサービスウチネ",
    "address": "茨城県つくば市上ノ室2439",
    "lat": 36.0851692,
    "lng": 140.1348352,
    "tel": "029-857-7399",
    "url": "",
    "pref": "茨城県",
    "city": "つくば市",
    "category": "community_day_service",
    "serviceType": "地域密着型通所介護",
    "capacity": 0,
    "openDays": [
      "平日",
      "土曜日",
      "祝日"
    ],
    "openDaysNote": "同法人施設の利用者のみに提供"
  },
  {
    "id": "892000381",
    "name": "デイサービスセンター　筑波園　　通所介護事業所",
    "kana": "デイサービスセンター　ツクバエン　ツウショカイゴジギョウショ",
    "address": "茨城県つくば市北条1180-2",
    "lat": 36.1802376,
    "lng": 140.0979861,
    "tel": "029-867-1143",
    "url": "http://www.intio.or.jp/tukubaen/",
    "pref": "茨城県",
    "city": "つくば市",
    "category": "community_day_service",
    "serviceType": "地域密着型通所介護",
    "capacity": null,
    "openDays": [
      "平日",
      "祝日"
    ],
    "openDaysNote": ""
  },
  {
    "id": "872002456",
    "name": "デイサービスセンターVividつくば",
    "kana": "デイサービスセンタービビッドツクバ",
    "address": "茨城県つくば市島名８０８-１",
    "lat": 36.0710643,
    "lng": 140.0552666,
    "tel": "０２９－８９５－２１４０",
    "url": "vivid3131.jimdo.com",
    "pref": "茨城県",
    "city": "つくば市",
    "category": "community_day_service",
    "serviceType": "地域密着型通所介護",
    "capacity": 15,
    "openDays": [
      "平日"
    ],
    "openDaysNote": ""
  },
  {
    "id": "872002522",
    "name": "デイサービスゆとりえ春日",
    "kana": "デイサービスユトリエカスガ",
    "address": "つくば市春日2-32-11",
    "lat": 36.0885309,
    "lng": 140.101053,
    "tel": "029-879-7333",
    "url": "",
    "pref": "茨城県",
    "city": "つくば市",
    "category": "community_day_service",
    "serviceType": "地域密着型通所介護",
    "capacity": 0,
    "openDays": [
      "平日",
      "土曜日",
      "祝日"
    ],
    "openDaysNote": ""
  },
  {
    "id": "872002704",
    "name": "トレランス田村デイサービスセンター",
    "kana": "トレランスタムラデイサービスセンター",
    "address": "茨城県つくば市上横場２２９０－９",
    "lat": 36.039933,
    "lng": 140.0899339,
    "tel": "０２９－８９３－３１２６",
    "url": "www.chikunankai.jp",
    "pref": "茨城県",
    "city": "つくば市",
    "category": "community_day_service",
    "serviceType": "地域密着型通所介護",
    "capacity": 0,
    "openDays": [
      "平日"
    ],
    "openDaysNote": ""
  },
  {
    "id": "892000340",
    "name": "レコードブックつくば竹園",
    "kana": "レコードブックツクバタケゾノ",
    "address": "茨城県つくば市竹園2-18-4101 101",
    "lat": 36.0761231,
    "lng": 140.1221965,
    "tel": "029-893-3236",
    "url": "",
    "pref": "茨城県",
    "city": "つくば市",
    "category": "community_day_service",
    "serviceType": "地域密着型通所介護",
    "capacity": 15,
    "openDays": [
      "平日",
      "祝日"
    ],
    "openDaysNote": ""
  },
  {
    "id": "892000373",
    "name": "地域密着型デイサービスセンターはなみずき",
    "kana": "チイキミッチャクガタデイサービスセンターハナミズキ",
    "address": "下原525-1",
    "lat": 36.0399459183221,
    "lng": 140.132466132558,
    "tel": "029-896-3022",
    "url": "http://hanamizuki-care.jp/",
    "pref": "茨城県",
    "city": "つくば市",
    "category": "community_day_service",
    "serviceType": "地域密着型通所介護",
    "capacity": null,
    "openDays": [
      "平日",
      "土曜日",
      "祝日"
    ],
    "openDaysNote": ""
  },
  {
    "id": "872101134",
    "name": "オハナデイサービス",
    "kana": "オハナデイサービス",
    "address": "茨城県ひたちなか市大字中根4783-1",
    "lat": 36.3911753,
    "lng": 140.5543044,
    "tel": "029-350-2300",
    "url": "nemoto-care.com",
    "pref": "茨城県",
    "city": "ひたちなか市",
    "category": "community_day_service",
    "serviceType": "地域密着型通所介護",
    "capacity": 18,
    "openDays": [
      "平日",
      "土曜日",
      "祝日"
    ],
    "openDaysNote": "年末年始、お盆休み有"
  },
  {
    "id": "872102058",
    "name": "ご長寿くらぶ　外野",
    "kana": "ゴチョウジュクラブ　ソトノ",
    "address": "茨城県ひたちなか市東石川3202-4ご長寿くらぶ外野 ご長寿くらぶ外野",
    "lat": 36.4140431,
    "lng": 140.5368908,
    "tel": "029-229-3061",
    "url": "http://gotyouzyuclub.com/",
    "pref": "茨城県",
    "city": "ひたちなか市",
    "category": "community_day_service",
    "serviceType": "地域密着型通所介護",
    "capacity": 0,
    "openDays": [
      "平日",
      "土曜日",
      "祝日"
    ],
    "openDaysNote": ""
  },
  {
    "id": "872101761",
    "name": "ご長寿くらぶ　高場",
    "kana": "ゴチョウジュクラブ　タカバ",
    "address": "茨城県ひたちなか市大字高場2355-1",
    "lat": 36.4261927,
    "lng": 140.5299587,
    "tel": "029-229-0891",
    "url": "gotyoujyuclub.com>recruit",
    "pref": "茨城県",
    "city": "ひたちなか市",
    "category": "community_day_service",
    "serviceType": "地域密着型通所介護",
    "capacity": 0,
    "openDays": [
      "平日",
      "土曜日",
      "日曜日",
      "祝日"
    ],
    "openDaysNote": ""
  },
  {
    "id": "872101696",
    "name": "ご長寿くらぶ東石川デイサービスセンター",
    "kana": "ゴチョウジュクラブヒガシイシカワデイサービスセンター",
    "address": "ひたちなか市西光地2-18-1ご長寿くらぶ東石川 ご長寿くらぶ東石川",
    "lat": 36.4163236,
    "lng": 140.5317827,
    "tel": "029-270-2023",
    "url": "http://gotyoujyuclub.com/hometype/441",
    "pref": "茨城県",
    "city": "ひたちなか市",
    "category": "community_day_service",
    "serviceType": "地域密着型通所介護",
    "capacity": 0,
    "openDays": [
      "平日",
      "土曜日",
      "祝日"
    ],
    "openDaysNote": ""
  },
  {
    "id": "872101860",
    "name": "デイサービス　まごころの家　ひたちなか高野",
    "kana": "デイサービス　マゴコロノイエ　ヒタチナカコウヤ",
    "address": "茨城県ひたちなか市高野２４８－１",
    "lat": 36.4216083322266,
    "lng": 140.55266244841,
    "tel": "029-202-6380",
    "url": "",
    "pref": "茨城県",
    "city": "ひたちなか市",
    "category": "community_day_service",
    "serviceType": "地域密着型通所介護",
    "capacity": 0,
    "openDays": [
      "平日",
      "祝日"
    ],
    "openDaysNote": ""
  },
  {
    "id": "872101795",
    "name": "デイサービス　まごころの家　ひたちなか佐和",
    "kana": "デイサービス　マゴコロノイエ　ヒタチナカサワ",
    "address": "茨城県ひたちなか市小貫山１－８－９",
    "lat": 36.4349273,
    "lng": 140.5440755,
    "tel": "029-202-6123",
    "url": "",
    "pref": "茨城県",
    "city": "ひたちなか市",
    "category": "community_day_service",
    "serviceType": "地域密着型通所介護",
    "capacity": 0,
    "openDays": [
      "平日",
      "祝日"
    ],
    "openDaysNote": ""
  },
  {
    "id": "892100298",
    "name": "デイサービス　まごころの家　ひたちなか松戸",
    "kana": "デイサービス　マゴコロノイエ　ヒタチナカマツド",
    "address": "茨城県ひたちなか市松戸町２－１０－１３",
    "lat": 36.3924633,
    "lng": 140.5476903,
    "tel": "029-212-6700",
    "url": "",
    "pref": "茨城県",
    "city": "ひたちなか市",
    "category": "community_day_service",
    "serviceType": "地域密着型通所介護",
    "capacity": 0,
    "openDays": [
      "平日",
      "土曜日",
      "日曜日",
      "祝日"
    ],
    "openDaysNote": ""
  },
  {
    "id": "872102124",
    "name": "デイサービス　まごころの家　ひたちなか東石川",
    "kana": "デイサービス　マゴコロノイエ　ヒタチナカヒガシイシカワ",
    "address": "茨城県ひたちなか市東石川３５５６",
    "lat": 36.3967787,
    "lng": 140.532032,
    "tel": "029-212-9800",
    "url": "",
    "pref": "茨城県",
    "city": "ひたちなか市",
    "category": "community_day_service",
    "serviceType": "地域密着型通所介護",
    "capacity": 0,
    "openDays": [
      "平日",
      "土曜日",
      "日曜日",
      "祝日"
    ],
    "openDaysNote": ""
  },
  {
    "id": "872101613",
    "name": "デイサービス　まごころの家　ひたちなか馬渡",
    "kana": "デイサービス　マゴコロノイエ　ヒタチナカマワタリ",
    "address": "茨城県ひたちなか市馬渡２９１０－７",
    "lat": 36.4060142,
    "lng": 140.5639532,
    "tel": "029-354-1151",
    "url": "",
    "pref": "茨城県",
    "city": "ひたちなか市",
    "category": "community_day_service",
    "serviceType": "地域密着型通所介護",
    "capacity": 0,
    "openDays": [
      "平日",
      "祝日"
    ],
    "openDaysNote": ""
  },
  {
    "id": "872101837",
    "name": "デイサービスSARA(さら）らいはーと",
    "kana": "デイサービスサラライハート",
    "address": "茨城県ひたちなか市高場2-18-22",
    "lat": 36.4234855,
    "lng": 140.5347553,
    "tel": "029-219-6141",
    "url": "https://www.live-core-support.com/",
    "pref": "茨城県",
    "city": "ひたちなか市",
    "category": "community_day_service",
    "serviceType": "地域密着型通所介護",
    "capacity": null,
    "openDays": [
      "平日",
      "土曜日",
      "日曜日",
      "祝日"
    ],
    "openDaysNote": ""
  },
  {
    "id": "872101779",
    "name": "デイサービスウェルフェア",
    "kana": "デイサービスウェルフェア",
    "address": "阿字ヶ浦町1385-1",
    "lat": 36.3728828,
    "lng": 140.5952475,
    "tel": "029-265-1050",
    "url": "welfare-d@kuc.biglobe.ne.jp",
    "pref": "茨城県",
    "city": "ひたちなか市",
    "category": "community_day_service",
    "serviceType": "地域密着型通所介護",
    "capacity": 0,
    "openDays": [
      "平日",
      "土曜日"
    ],
    "openDaysNote": ""
  },
  {
    "id": "872101936",
    "name": "デイサービスここいちひたちなか",
    "kana": "デイサービスココイチヒタチナカ",
    "address": "茨城県ひたちなか市大成町４９－１４",
    "lat": 36.3871282,
    "lng": 140.5400209,
    "tel": "029-229-2301",
    "url": "https://isshin.gr.jp/index.php",
    "pref": "茨城県",
    "city": "ひたちなか市",
    "category": "community_day_service",
    "serviceType": "地域密着型通所介護",
    "capacity": 0,
    "openDays": [
      "平日",
      "土曜日",
      "祝日"
    ],
    "openDaysNote": ""
  },
  {
    "id": "872101365",
    "name": "デイサービスセンター　なぎの木",
    "kana": "デイサービスセンター　ナギノキ",
    "address": "茨城県ひたちなか市阿字ヶ浦町172―19",
    "lat": 36.383359,
    "lng": 140.614898,
    "tel": "０２９（２６２５）１００３",
    "url": "",
    "pref": "茨城県",
    "city": "ひたちなか市",
    "category": "community_day_service",
    "serviceType": "地域密着型通所介護",
    "capacity": 17,
    "openDays": [
      "平日",
      "土曜日",
      "祝日"
    ],
    "openDaysNote": "祝日は通常営業"
  },
  {
    "id": "892100306",
    "name": "デイサービスセンター和雲",
    "kana": "デイサービスセンターワクモ",
    "address": "中根4957-2",
    "lat": 36.4063579,
    "lng": 140.5447172,
    "tel": "029-212-8335",
    "url": "http://ratell-wakumo.jp/",
    "pref": "茨城県",
    "city": "ひたちなか市",
    "category": "community_day_service",
    "serviceType": "地域密着型通所介護",
    "capacity": 20,
    "openDays": [
      "平日"
    ],
    "openDaysNote": ""
  },
  {
    "id": "892100314",
    "name": "デイサービスはるのさと",
    "kana": "デイサービスハルノサト",
    "address": "茨城県ひたちなか市堀口79番地2",
    "lat": 36.3894432,
    "lng": 140.5107624,
    "tel": "029-229-2623",
    "url": "http://syunjyukai2225.or.jp/",
    "pref": "茨城県",
    "city": "ひたちなか市",
    "category": "community_day_service",
    "serviceType": "地域密着型通所介護",
    "capacity": null,
    "openDays": [
      "平日",
      "土曜日",
      "祝日"
    ],
    "openDaysNote": "年末年始(12/29日～1/3日)は営業無し。"
  },
  {
    "id": "892100181",
    "name": "デイサービスひめの",
    "kana": "デイサービスヒメノ",
    "address": "茨城県ひたちなか市釈迦町17-19",
    "lat": 36.3463247,
    "lng": 140.584364,
    "tel": "029-212-5239",
    "url": "http://teys.jp",
    "pref": "茨城県",
    "city": "ひたちなか市",
    "category": "community_day_service",
    "serviceType": "地域密着型通所介護",
    "capacity": 15,
    "openDays": [
      "平日",
      "土曜日"
    ],
    "openDaysNote": ""
  },
  {
    "id": "892100330",
    "name": "デイサービス笹野",
    "kana": "デイサービスササノ",
    "address": "茨城県ひたちなか市笹野町1-2-4ウェルネス笹野 ウェルネス笹野",
    "lat": 36.3947779,
    "lng": 140.5414598,
    "tel": "029-274-7443",
    "url": "",
    "pref": "茨城県",
    "city": "ひたちなか市",
    "category": "community_day_service",
    "serviceType": "地域密着型通所介護",
    "capacity": null,
    "openDays": [
      "平日",
      "土曜日",
      "祝日"
    ],
    "openDaysNote": "サービス提供時間は9：00～16：00"
  },
  {
    "id": "892100231",
    "name": "デイサービス野ばら　長者ヶ谷津温泉館",
    "kana": "デイサービスノバラチョウジャガヤツオンセンカン",
    "address": "茨城県ひたちなか市大平1-21-10",
    "lat": 36.3837776,
    "lng": 140.5404499,
    "tel": "029-219-4613",
    "url": "http://www.nobara-kaigo.com",
    "pref": "茨城県",
    "city": "ひたちなか市",
    "category": "community_day_service",
    "serviceType": "地域密着型通所介護",
    "capacity": 18,
    "openDays": [
      "平日",
      "土曜日",
      "日曜日",
      "祝日"
    ],
    "openDaysNote": ""
  },
  {
    "id": "872101712",
    "name": "デイゆうなぎ",
    "kana": "デイユウナギ",
    "address": "茨城県ひたちなか市足崎1458-148コムズハウス佐和内 コムズハウス佐和内",
    "lat": 36.4109530687146,
    "lng": 140.557540424537,
    "tel": "029-219-6915",
    "url": "http://www.coms-care.com",
    "pref": "茨城県",
    "city": "ひたちなか市",
    "category": "community_day_service",
    "serviceType": "地域密着型通所介護",
    "capacity": 0,
    "openDays": [
      "平日",
      "土曜日",
      "祝日"
    ],
    "openDaysNote": ""
  },
  {
    "id": "892100355",
    "name": "ひらいそリハビリステーション",
    "kana": "ヒライソリハビリステーション",
    "address": "平磯町1218",
    "lat": 36.3554787,
    "lng": 140.611494,
    "tel": "03-352-2873",
    "url": "https://www.hiraiso-rehab-sta.com/",
    "pref": "茨城県",
    "city": "ひたちなか市",
    "category": "community_day_service",
    "serviceType": "地域密着型通所介護",
    "capacity": null,
    "openDays": [
      "平日",
      "土曜日",
      "日曜日"
    ],
    "openDaysNote": ""
  },
  {
    "id": "892100363",
    "name": "リハビリ特化型デイサービス　カラダラボひたちなか",
    "kana": "リハビリトッカガタデイサービス　カラダラボヒタチナカ",
    "address": "茨城県ひたちなか市高場３丁目１－２９",
    "lat": 36.4245319070954,
    "lng": 140.534198509914,
    "tel": "029-355-1864",
    "url": "https://www.karadalabo.com/",
    "pref": "茨城県",
    "city": "ひたちなか市",
    "category": "community_day_service",
    "serviceType": "地域密着型通所介護",
    "capacity": 0,
    "openDays": [
      "平日",
      "祝日"
    ],
    "openDaysNote": ""
  },
  {
    "id": "872100417",
    "name": "株式会社メディアシスト山口内科デイサービス",
    "kana": "カブシキガイシャメディアシスト　ヤマグチナイカデイサービス",
    "address": "茨城県ひたちなか市東石川3379-156",
    "lat": 36.4022171,
    "lng": 140.540367,
    "tel": "029-354-1181",
    "url": "",
    "pref": "茨城県",
    "city": "ひたちなか市",
    "category": "community_day_service",
    "serviceType": "地域密着型通所介護",
    "capacity": 15,
    "openDays": [
      "平日",
      "土曜日"
    ],
    "openDaysNote": ""
  },
  {
    "id": "872900287",
    "name": "デイサービスうさぎ",
    "kana": "デイサービスウサギ",
    "address": "茨城県稲敷市福田1597番地",
    "lat": 35.9445503,
    "lng": 140.3704244,
    "tel": "0299-77-9173",
    "url": "http://usagi.or,jp",
    "pref": "茨城県",
    "city": "稲敷市",
    "category": "community_day_service",
    "serviceType": "地域密着型通所介護",
    "capacity": 0,
    "openDays": [
      "平日",
      "土曜日",
      "祝日"
    ],
    "openDaysNote": "祝日は営業"
  },
  {
    "id": "892900051",
    "name": "リハビリデイサービスあおい",
    "kana": "リハビリデイサービスアオイ",
    "address": "鳩崎28-15",
    "lat": 35.9982578,
    "lng": 140.325604,
    "tel": "298808057",
    "url": "http://hp.kaipoke.biz/xrv/index.html",
    "pref": "茨城県",
    "city": "稲敷市",
    "category": "community_day_service",
    "serviceType": "地域密着型通所介護",
    "capacity": 10,
    "openDays": [
      "平日",
      "祝日"
    ],
    "openDaysNote": ""
  },
  {
    "id": "872701016",
    "name": "デイサービス　まごころの家　筑西下館",
    "kana": "デイサービス　マゴコロノイエ　チクセイシモダテ",
    "address": "茨城県筑西市榎生１－１２－１",
    "lat": 36.297162,
    "lng": 139.9847818,
    "tel": "0296-48-7007",
    "url": "",
    "pref": "茨城県",
    "city": "茨城町",
    "category": "community_day_service",
    "serviceType": "地域密着型通所介護",
    "capacity": 0,
    "openDays": [
      "平日",
      "土曜日",
      "日曜日",
      "祝日"
    ],
    "openDaysNote": ""
  },
  {
    "id": "873101349",
    "name": "デイサービスセンター　さくらの里",
    "kana": "デイサービスセンター　サクラノサト",
    "address": "茨城県東茨城郡茨城町小幡1316-18",
    "lat": 36.2549655,
    "lng": 140.3878518,
    "tel": "029-219-1188",
    "url": "http://www.sakura-kirakira.com",
    "pref": "茨城県",
    "city": "茨城町",
    "category": "community_day_service",
    "serviceType": "地域密着型通所介護",
    "capacity": null,
    "openDays": [
      "平日"
    ],
    "openDaysNote": ""
  },
  {
    "id": "873101414",
    "name": "デイサービスとんぼ",
    "kana": "デイサービストンボ",
    "address": "茨城県東茨城郡茨城町中石崎2651-1",
    "lat": 36.2836005,
    "lng": 140.4946007,
    "tel": "029-240--8333",
    "url": "http://www.shinaikai.or.jp",
    "pref": "茨城県",
    "city": "茨城町",
    "category": "community_day_service",
    "serviceType": "地域密着型通所介護",
    "capacity": 0,
    "openDays": [
      "平日",
      "土曜日",
      "祝日"
    ],
    "openDaysNote": ""
  },
  {
    "id": "871000790",
    "name": "あおばデイサービス",
    "kana": "アオバデイサービス",
    "address": "茨城県下妻市南原124-1株式会社あおば 株式会社あおば",
    "lat": 36.1994923,
    "lng": 139.9443256,
    "tel": "0296-44-6721",
    "url": "URL://www.aoba-homehelp.com",
    "pref": "茨城県",
    "city": "下妻市",
    "category": "community_day_service",
    "serviceType": "地域密着型通所介護",
    "capacity": 0,
    "openDays": [
      "平日",
      "土曜日",
      "祝日"
    ],
    "openDaysNote": ""
  },
  {
    "id": "871000873",
    "name": "デイサービスここいち下妻",
    "kana": "デイサービスココイチ下妻",
    "address": "茨城県下妻市村岡乙167-1",
    "lat": 36.155717156306,
    "lng": 139.920324555264,
    "tel": "0296-30-7051",
    "url": "https://isshin.gr.jp/index.php",
    "pref": "茨城県",
    "city": "下妻市",
    "category": "community_day_service",
    "serviceType": "地域密着型通所介護",
    "capacity": 0,
    "openDays": [
      "平日",
      "土曜日",
      "祝日"
    ],
    "openDaysNote": ""
  },
  {
    "id": "891000051",
    "name": "デイサービスセンターアシエンダ",
    "kana": "デイサービスセンターアシエンダ",
    "address": "茨城県下妻市40番地",
    "lat": 36.1941259350688,
    "lng": 139.944704897878,
    "tel": "0296-48-9737",
    "url": "",
    "pref": "茨城県",
    "city": "下妻市",
    "category": "community_day_service",
    "serviceType": "地域密着型通所介護",
    "capacity": 40,
    "openDays": [
      "平日",
      "祝日"
    ],
    "openDaysNote": ""
  },
  {
    "id": "891000044",
    "name": "デイサービス輝",
    "kana": "デイサービスカガヤキ",
    "address": "茨城県下妻市中居指199-1",
    "lat": 36.1782803628401,
    "lng": 139.939960280704,
    "tel": "0296-48-7707",
    "url": "http://carehome-nakao.com/",
    "pref": "茨城県",
    "city": "下妻市",
    "category": "community_day_service",
    "serviceType": "地域密着型通所介護",
    "capacity": 0,
    "openDays": [
      "平日",
      "土曜日",
      "祝日"
    ],
    "openDaysNote": ""
  },
  {
    "id": "871000840",
    "name": "ふれあいデイサービス",
    "kana": "フレアイデイサービス",
    "address": "茨城県下妻市大木253-1",
    "lat": 36.2086846,
    "lng": 139.9564371,
    "tel": "0296-44-1055",
    "url": "",
    "pref": "茨城県",
    "city": "下妻市",
    "category": "community_day_service",
    "serviceType": "地域密着型通所介護",
    "capacity": null,
    "openDays": [
      "平日",
      "祝日"
    ],
    "openDaysNote": ""
  },
  {
    "id": "871000931",
    "name": "下妻デイサービスあおやま",
    "kana": "シモツマデイサービスアオヤマ",
    "address": "茨城県下妻市横根460－1",
    "lat": 36.198866,
    "lng": 139.9845069,
    "tel": "0296-54-6444",
    "url": "",
    "pref": "茨城県",
    "city": "下妻市",
    "category": "community_day_service",
    "serviceType": "地域密着型通所介護",
    "capacity": 9,
    "openDays": [
      "平日",
      "土曜日",
      "祝日"
    ],
    "openDaysNote": "午前9:00~12:05　午後13:30~16:35の二部制"
  },
  {
    "id": "891000069",
    "name": "下妻社協ケアセンター",
    "kana": "シモツマシャキョウケアセンター",
    "address": "茨城県下妻市別府５４５番地",
    "lat": 36.1495433,
    "lng": 139.939974,
    "tel": "0296-44-6993",
    "url": "",
    "pref": "茨城県",
    "city": "下妻市",
    "category": "community_day_service",
    "serviceType": "地域密着型通所介護",
    "capacity": null,
    "openDays": [
      "平日"
    ],
    "openDaysNote": ""
  },
  {
    "id": "871600508",
    "name": "たまり場・デイ茶ービス",
    "kana": "タマリバデイチャービス",
    "address": "茨城県笠間市湯崎1048-13",
    "lat": 36.3080797,
    "lng": 140.3233106,
    "tel": "0296-73-5541",
    "url": "https://sharehouse-wagaya.jimdofree.com/",
    "pref": "茨城県",
    "city": "笠間市",
    "category": "community_day_service",
    "serviceType": "地域密着型通所介護",
    "capacity": 0,
    "openDays": [
      "平日",
      "祝日"
    ],
    "openDaysNote": "営業日は月曜日から金曜日までとし、祝日も営業する。"
  },
  {
    "id": "871600441",
    "name": "デイサービスセンター　いわまの郷",
    "kana": "デイサービスセンター　イワマノサト",
    "address": "下郷6004-1",
    "lat": 36.300532,
    "lng": 140.268394,
    "tel": "0299-45-2433",
    "url": "",
    "pref": "茨城県",
    "city": "笠間市",
    "category": "community_day_service",
    "serviceType": "地域密着型通所介護",
    "capacity": 0,
    "openDays": [
      "平日",
      "土曜日",
      "日曜日",
      "祝日"
    ],
    "openDaysNote": ""
  },
  {
    "id": "871600490",
    "name": "デイサービスセンターおひさま",
    "kana": "デイサービスセンターオヒサマ",
    "address": "茨城県笠間市平町１７５５－４",
    "lat": 36.3404953,
    "lng": 140.3022148,
    "tel": "０２９６－７１－４００３",
    "url": "cnc-s.com",
    "pref": "茨城県",
    "city": "笠間市",
    "category": "community_day_service",
    "serviceType": "地域密着型通所介護",
    "capacity": 10,
    "openDays": [
      "平日",
      "祝日"
    ],
    "openDaysNote": "年末年始12/29～1/3"
  },
  {
    "id": "891600199",
    "name": "デイサービスセンターはこだ",
    "kana": "デイサービスセンターハコダ",
    "address": "茨城県笠間市箱田1838-1シルバーパークはこだ シルバーパークはこだ",
    "lat": 36.4027506,
    "lng": 140.2219742,
    "tel": "0296-73-0966",
    "url": "",
    "pref": "茨城県",
    "city": "笠間市",
    "category": "community_day_service",
    "serviceType": "地域密着型通所介護",
    "capacity": 0,
    "openDays": [
      "平日",
      "祝日"
    ],
    "openDaysNote": ""
  },
  {
    "id": "891600132",
    "name": "デイサービス福楽縁",
    "kana": "デイサービスフクラクエン",
    "address": "茨城県笠間市大田町224-1",
    "lat": 36.3536455,
    "lng": 140.2764516,
    "tel": "0296-71-6555",
    "url": "http://hp.kaipoke.biz/zuc/102918/base_0004.html",
    "pref": "茨城県",
    "city": "笠間市",
    "category": "community_day_service",
    "serviceType": "地域密着型通所介護",
    "capacity": 14,
    "openDays": [
      "平日",
      "土曜日",
      "日曜日",
      "祝日"
    ],
    "openDaysNote": "定員１４名"
  },
  {
    "id": "891600215",
    "name": "合同会社しいのき",
    "kana": "ゴウドウガイシャシイノキ",
    "address": "茨城県笠間市平町197番地10",
    "lat": 36.3429303,
    "lng": 140.2888722,
    "tel": "296780923",
    "url": "",
    "pref": "茨城県",
    "city": "笠間市",
    "category": "community_day_service",
    "serviceType": "地域密着型通所介護",
    "capacity": 140,
    "openDays": [
      "平日"
    ],
    "openDaysNote": ""
  },
  {
    "id": "891600165",
    "name": "友部接骨院併設リハビリデイサービス",
    "kana": "トモベセッコツインヘイセツリハビリデイサービス",
    "address": "茨城県笠間市鯉淵6338-4",
    "lat": 36.3422731,
    "lng": 140.3264624,
    "tel": "0296-77-1110",
    "url": "tomobe-s.com",
    "pref": "茨城県",
    "city": "笠間市",
    "category": "community_day_service",
    "serviceType": "地域密着型通所介護",
    "capacity": 110,
    "openDays": [
      "平日",
      "土曜日"
    ],
    "openDaysNote": ""
  },
  {
    "id": "871901021",
    "name": "デイサービスセンターありでいず",
    "kana": "デイサービスセンターアリデイズ",
    "address": "茨城県牛久市上柏田4-52-1デイサービスセンターありでいず デイサービスセンターありでいず",
    "lat": 35.9832949,
    "lng": 140.1595588,
    "tel": "029-804-1597",
    "url": "http://arino-s.jp/",
    "pref": "茨城県",
    "city": "牛久市",
    "category": "community_day_service",
    "serviceType": "地域密着型通所介護",
    "capacity": 0,
    "openDays": [
      "平日",
      "土曜日"
    ],
    "openDaysNote": ""
  },
  {
    "id": "871900965",
    "name": "デイサービスセンターにれの家",
    "kana": "デイサービスセンターニレノイエ",
    "address": "茨城県牛久市ひたち野東３－２４－３",
    "lat": 36.0011717,
    "lng": 140.1682844,
    "tel": "029-878-3212",
    "url": "http://nirenoie.com",
    "pref": "茨城県",
    "city": "牛久市",
    "category": "community_day_service",
    "serviceType": "地域密着型通所介護",
    "capacity": null,
    "openDays": [
      "平日",
      "土曜日",
      "日曜日",
      "祝日"
    ],
    "openDaysNote": ""
  },
  {
    "id": "871900825",
    "name": "デイサービス奏で",
    "kana": "デイサービスカナデ",
    "address": "茨城県牛久市上柏田4-26-18",
    "lat": 35.9860928,
    "lng": 140.1580337,
    "tel": "029-870-5502",
    "url": "http://magokoro-kanade.com/index.html",
    "pref": "茨城県",
    "city": "牛久市",
    "category": "community_day_service",
    "serviceType": "地域密着型通所介護",
    "capacity": 0,
    "openDays": [
      "平日",
      "土曜日",
      "日曜日",
      "祝日"
    ],
    "openDaysNote": "利用希望者により、時間外サービスの提供を行う場合あり。"
  },
  {
    "id": "891900102",
    "name": "みどり野からだはうす",
    "kana": "ミドリノカラダハウス",
    "address": "茨城県牛久市南6-4-1",
    "lat": 35.9628037,
    "lng": 140.1502664,
    "tel": "029-886-3306",
    "url": "https://www.midorinoseikotsuin.com/karada/",
    "pref": "茨城県",
    "city": "牛久市",
    "category": "community_day_service",
    "serviceType": "地域密着型通所介護",
    "capacity": 5,
    "openDays": [
      "平日",
      "土曜日"
    ],
    "openDaysNote": ""
  },
  {
    "id": "871901062",
    "name": "歩夢",
    "kana": "アユム",
    "address": "茨城県牛久市さくら台1丁目18番地9",
    "lat": 35.960738,
    "lng": 140.1560943,
    "tel": "029-893-4388",
    "url": "",
    "pref": "茨城県",
    "city": "牛久市",
    "category": "community_day_service",
    "serviceType": "地域密着型通所介護",
    "capacity": null,
    "openDays": [
      "平日",
      "土曜日"
    ],
    "openDaysNote": ""
  },
  {
    "id": "874300510",
    "name": "（有）介護サービス　花みずき",
    "kana": "（ユウ）カイゴサービス　ハナミズキ",
    "address": "茨城県猿島郡境町浦向587-2",
    "lat": 36.0922295578299,
    "lng": 139.809524727613,
    "tel": "0280-87-5735",
    "url": "",
    "pref": "茨城県",
    "city": "境町",
    "category": "community_day_service",
    "serviceType": "地域密着型通所介護",
    "capacity": 10,
    "openDays": [
      "平日",
      "土曜日",
      "祝日"
    ],
    "openDaysNote": ""
  },
  {
    "id": "874301096",
    "name": "介護支援センター　たんぽぽ",
    "kana": "カイゴシエンセンター　タンポポ",
    "address": "茨城県猿島郡境町伏木1227",
    "lat": 36.0954655,
    "lng": 139.8289254,
    "tel": "0280-81-3083",
    "url": "sakaitanpopo,com",
    "pref": "茨城県",
    "city": "境町",
    "category": "community_day_service",
    "serviceType": "地域密着型通所介護",
    "capacity": 10,
    "openDays": [
      "平日",
      "祝日"
    ],
    "openDaysNote": ""
  },
  {
    "id": "890700073",
    "name": "ご長寿くらぶ結城　デイサービスセンター",
    "kana": "ゴチョウジュクラブユウキ　デイサービスセンター",
    "address": "茨城県結城市結城11977ご長寿くらぶ結城 ご長寿くらぶ結城",
    "lat": 36.3105942840757,
    "lng": 139.871341596295,
    "tel": "0296－45－7727",
    "url": "ｈｔｔｐ：/gotyoujyuclub.com/hometype/820",
    "pref": "茨城県",
    "city": "結城市",
    "category": "community_day_service",
    "serviceType": "地域密着型通所介護",
    "capacity": 15,
    "openDays": [
      "平日",
      "日曜日",
      "祝日"
    ],
    "openDaysNote": ""
  },
  {
    "id": "870700432",
    "name": "デイサービスあおやま",
    "kana": "デイサービスアオヤマ",
    "address": "茨城県結城市結城7201-9",
    "lat": 36.2986344,
    "lng": 139.875587,
    "tel": "0296-32-7767",
    "url": "https://www.aoyama-kaigo.com/",
    "pref": "茨城県",
    "city": "結城市",
    "category": "community_day_service",
    "serviceType": "地域密着型通所介護",
    "capacity": 0,
    "openDays": [
      "平日",
      "祝日"
    ],
    "openDaysNote": "夏季は８月１３日から８月１５日のいずれか１日を休業日とする（改行）年末年始は１２月３０日から１月３日までとする"
  },
  {
    "id": "870700556",
    "name": "デイサービスたんとん",
    "kana": "デイサービスタントン",
    "address": "茨城県結城市小田林2533-2",
    "lat": 36.2990119,
    "lng": 139.8526108,
    "tel": "0296-54-6826",
    "url": "info@tanton.co.jp",
    "pref": "茨城県",
    "city": "結城市",
    "category": "community_day_service",
    "serviceType": "地域密着型通所介護",
    "capacity": 10,
    "openDays": [
      "平日",
      "祝日"
    ],
    "openDaysNote": "祝祭日について、定休日と重ならない場合は営業する"
  },
  {
    "id": "890400138",
    "name": "アイフィット",
    "kana": "アイフィット",
    "address": "茨城県古河市三杉町2-24-14",
    "lat": 36.205693,
    "lng": 139.720319,
    "tel": "0280-23-5915",
    "url": "",
    "pref": "茨城県",
    "city": "古河市",
    "category": "community_day_service",
    "serviceType": "地域密着型通所介護",
    "capacity": 18,
    "openDays": [
      "平日",
      "土曜日",
      "祝日"
    ],
    "openDaysNote": ""
  },
  {
    "id": "890400195",
    "name": "イオンスマイル古河店",
    "kana": "イオンスマイルコガテン",
    "address": "茨城県古河市旭町1-2‐17イオン古河1階 イオン古河1階",
    "lat": 36.1977768,
    "lng": 139.7195465,
    "tel": "0280‐23-4901",
    "url": "https://www.aeonretail.jp/aeonsmile/store/koga/index.html",
    "pref": "茨城県",
    "city": "古河市",
    "category": "community_day_service",
    "serviceType": "地域密着型通所介護",
    "capacity": 0,
    "openDays": [
      "平日"
    ],
    "openDaysNote": ""
  },
  {
    "id": "890400187",
    "name": "おとなり",
    "kana": "オトナリ",
    "address": "茨城県古河市小堤68-13",
    "lat": 36.203365,
    "lng": 139.7651059,
    "tel": "0280-23-5320",
    "url": "",
    "pref": "茨城県",
    "city": "古河市",
    "category": "community_day_service",
    "serviceType": "地域密着型通所介護",
    "capacity": 10,
    "openDays": [
      "平日"
    ],
    "openDaysNote": ""
  },
  {
    "id": "870401320",
    "name": "コスモスクラブデイサービス",
    "kana": "コスモスクラブデイサービス",
    "address": "茨城県　古河市　旭町２－１４－６１",
    "lat": 36.1984516,
    "lng": 139.7252878,
    "tel": "0280-30-7082",
    "url": "",
    "pref": "茨城県",
    "city": "古河市",
    "category": "community_day_service",
    "serviceType": "地域密着型通所介護",
    "capacity": null,
    "openDays": [
      "平日",
      "祝日"
    ],
    "openDaysNote": ""
  },
  {
    "id": "890400120",
    "name": "ご長寿くらぶ古河旭町デイサービスセンター",
    "kana": "ゴチョウジュクラブコガアサヒチョウデイサービスセンター",
    "address": "茨城県古河市旭町2丁目15-53",
    "lat": 36.1967010025458,
    "lng": 139.726578549623,
    "tel": "0280-23-3357",
    "url": "",
    "pref": "茨城県",
    "city": "古河市",
    "category": "community_day_service",
    "serviceType": "地域密着型通所介護",
    "capacity": 18,
    "openDays": [
      "平日",
      "土曜日",
      "祝日"
    ],
    "openDaysNote": "12月31日、1月1日休業"
  },
  {
    "id": "870401346",
    "name": "しらこばとケアセンター",
    "kana": "シラコバトケアセンター",
    "address": "三杉町2－29－6",
    "lat": 36.2076207,
    "lng": 139.7202398,
    "tel": "280330810",
    "url": "",
    "pref": "茨城県",
    "city": "古河市",
    "category": "community_day_service",
    "serviceType": "地域密着型通所介護",
    "capacity": 0,
    "openDays": [
      "平日",
      "土曜日"
    ],
    "openDaysNote": "午前８時３０分～１１時３５分（改行）午後２時00分～５時０５分"
  },
  {
    "id": "870400934",
    "name": "デイサービスセンター　こすもす",
    "kana": "デイサービスセンター　コスモス",
    "address": "茨城県古河市大和田1802-1",
    "lat": 36.2022482,
    "lng": 139.7900719,
    "tel": "0280-75-2251",
    "url": "",
    "pref": "茨城県",
    "city": "古河市",
    "category": "community_day_service",
    "serviceType": "地域密着型通所介護",
    "capacity": 18,
    "openDays": [
      "平日",
      "土曜日",
      "祝日"
    ],
    "openDaysNote": "サービス提供時間は、９時00分～16時00分"
  },
  {
    "id": "870401122",
    "name": "デイサービスセンターゆきわり草",
    "kana": "デイサービスセンターユキワリソウ",
    "address": "茨城県古河市諸川1676-1",
    "lat": 36.2022359,
    "lng": 139.8056227,
    "tel": "280338177",
    "url": "",
    "pref": "茨城県",
    "city": "古河市",
    "category": "community_day_service",
    "serviceType": "地域密着型通所介護",
    "capacity": 0,
    "openDays": [
      "平日"
    ],
    "openDaysNote": ""
  },
  {
    "id": "870401189",
    "name": "リハビリデイサービスみらい",
    "kana": "リハビリデイサービスミライ",
    "address": "茨城県古河市大堤288",
    "lat": 36.1820303,
    "lng": 139.7192223,
    "tel": "0280-23-1431",
    "url": "",
    "pref": "茨城県",
    "city": "古河市",
    "category": "community_day_service",
    "serviceType": "地域密着型通所介護",
    "capacity": 50,
    "openDays": [
      "平日",
      "祝日"
    ],
    "openDaysNote": ""
  },
  {
    "id": "870401767",
    "name": "リハプライド古河女沼",
    "kana": "リハプライドコガオナヌマ",
    "address": "茨城県古河市女沼715-1",
    "lat": 36.1734875,
    "lng": 139.7402501,
    "tel": "0280-33-6980",
    "url": "https://www.rehapride.co.jp/kogaonanuma/",
    "pref": "茨城県",
    "city": "古河市",
    "category": "community_day_service",
    "serviceType": "地域密着型通所介護",
    "capacity": 0,
    "openDays": [
      "平日",
      "祝日"
    ],
    "openDaysNote": ""
  },
  {
    "id": "895300036",
    "name": "デイサービスすみれ",
    "kana": "デイサービススミレ",
    "address": "茨城県行方市麻生615-8",
    "lat": 35.9981223,
    "lng": 140.4720459,
    "tel": "0299-94-2405",
    "url": "",
    "pref": "茨城県",
    "city": "行方市",
    "category": "community_day_service",
    "serviceType": "地域密着型通所介護",
    "capacity": null,
    "openDays": [
      "平日",
      "土曜日",
      "祝日"
    ],
    "openDaysNote": ""
  },
  {
    "id": "895300028",
    "name": "地域生活サポートセンター希来",
    "kana": "チイキセイカツサポートセンターキキ",
    "address": "茨城県行方市麻生3288-50",
    "lat": 36.0181098,
    "lng": 140.4993596,
    "tel": "0299-95-8035",
    "url": "http://hp.kaipoke.biz/b14/",
    "pref": "茨城県",
    "city": "行方市",
    "category": "community_day_service",
    "serviceType": "地域密着型通所介護",
    "capacity": 18,
    "openDays": [
      "平日",
      "土曜日",
      "祝日"
    ],
    "openDaysNote": ""
  },
  {
    "id": "875300170",
    "name": "通所介護事業所さくら",
    "kana": "ツウショカイゴジギョウショサクラ",
    "address": "茨城県行方市南95－7",
    "lat": 36.0203464,
    "lng": 140.4696283,
    "tel": "0299－94－8551",
    "url": "",
    "pref": "茨城県",
    "city": "行方市",
    "category": "community_day_service",
    "serviceType": "地域密着型通所介護",
    "capacity": 0,
    "openDays": [
      "平日",
      "土曜日",
      "祝日"
    ],
    "openDaysNote": ""
  },
  {
    "id": "871400495",
    "name": "デイサービス　まごころの家　高萩",
    "kana": "デイサービス　マゴコロノイエ　タカハギ",
    "address": "茨城県高萩市島名１９６８－１７",
    "lat": 36.711286537707,
    "lng": 140.691987763229,
    "tel": "0293-20-4055",
    "url": "",
    "pref": "茨城県",
    "city": "高萩市",
    "category": "community_day_service",
    "serviceType": "地域密着型通所介護",
    "capacity": 0,
    "openDays": [
      "平日",
      "土曜日",
      "祝日"
    ],
    "openDaysNote": ""
  },
  {
    "id": "871400289",
    "name": "デイサービス　わが家",
    "kana": "デイサービス　ワガヤ",
    "address": "茨城県高萩市大字高萩２５３番地の１",
    "lat": 36.7210412,
    "lng": 140.692743,
    "tel": "0293-24-0305",
    "url": "",
    "pref": "茨城県",
    "city": "高萩市",
    "category": "community_day_service",
    "serviceType": "地域密着型通所介護",
    "capacity": 0,
    "openDays": [
      "平日",
      "土曜日",
      "日曜日",
      "祝日"
    ],
    "openDaysNote": ""
  },
  {
    "id": "871400362",
    "name": "デイサービス　わが家その２",
    "kana": "デイサービス　ワガヤソノニ",
    "address": "茨城県高萩市大字高萩２５３番地の１",
    "lat": 36.7210412,
    "lng": 140.692743,
    "tel": "0293-24-0305",
    "url": "",
    "pref": "茨城県",
    "city": "高萩市",
    "category": "community_day_service",
    "serviceType": "地域密着型通所介護",
    "capacity": 0,
    "openDays": [
      "平日",
      "土曜日",
      "日曜日",
      "祝日"
    ],
    "openDaysNote": ""
  },
  {
    "id": "891400061",
    "name": "デイサービス　高萩ガーデン",
    "kana": "デイサービス　タカハギガーデン",
    "address": "本町3丁目36-1",
    "lat": 35.6889105,
    "lng": 139.6810577,
    "tel": "0293-24-8606",
    "url": "http://takahagi-garden.com/",
    "pref": "茨城県",
    "city": "高萩市",
    "category": "community_day_service",
    "serviceType": "地域密着型通所介護",
    "capacity": 0,
    "openDays": [
      "平日",
      "土曜日",
      "祝日"
    ],
    "openDaysNote": ""
  },
  {
    "id": "871400438",
    "name": "株式会社ふじ",
    "kana": "カブシキガイシャフジ",
    "address": "安良川897-9",
    "lat": 36.7075866,
    "lng": 140.7040742,
    "tel": "0293-22-1144",
    "url": "",
    "pref": "茨城県",
    "city": "高萩市",
    "category": "community_day_service",
    "serviceType": "地域密着型通所介護",
    "capacity": null,
    "openDays": [
      "平日",
      "土曜日",
      "祝日"
    ],
    "openDaysNote": ""
  },
  {
    "id": "891400079",
    "name": "共生型デイサービスめだか",
    "kana": "キョウセイガタデイサービスメダカ",
    "address": "茨城県高萩市大字高萩字坂東塚７６３",
    "lat": 36.7237186,
    "lng": 140.6833612,
    "tel": "0293-24-9008",
    "url": "https://medakanokai.or.jp",
    "pref": "茨城県",
    "city": "高萩市",
    "category": "community_day_service",
    "serviceType": "地域密着型通所介護",
    "capacity": 0,
    "openDays": [
      "平日",
      "土曜日"
    ],
    "openDaysNote": ""
  },
  {
    "id": "871400461",
    "name": "七福神温泉",
    "kana": "シチフクジンオンセン",
    "address": "茨城県高萩市上手綱4010-4",
    "lat": 36.7591715,
    "lng": 140.6708081,
    "tel": "0293-24-9305",
    "url": "http://care-net.biz/07/shitifukuzin/",
    "pref": "茨城県",
    "city": "高萩市",
    "category": "community_day_service",
    "serviceType": "地域密着型通所介護",
    "capacity": 0,
    "openDays": [
      "平日"
    ],
    "openDaysNote": "自然災害発生等利用者の安全を第一に考え柔軟に提供"
  },
  {
    "id": "871800249",
    "name": "デイサービス大空",
    "kana": "デイサービスオオゾラ",
    "address": "茨城県坂東市猫実796-1",
    "lat": 36.0383533,
    "lng": 139.9268989,
    "tel": "0297-38-6855",
    "url": "",
    "pref": "茨城県",
    "city": "坂東市",
    "category": "community_day_service",
    "serviceType": "地域密着型通所介護",
    "capacity": null,
    "openDays": [
      "平日",
      "土曜日",
      "日曜日",
      "祝日"
    ],
    "openDaysNote": ""
  },
  {
    "id": "872800370",
    "name": "リハビリデイサービスほのぼの",
    "kana": "リハビリデイサービスホノボノ",
    "address": "茨城県坂東市岩井3326-1宇佐見テナント１階101号室 宇佐見テナント１階101号室",
    "lat": 36.0487218,
    "lng": 139.88635,
    "tel": "0297-38-8201",
    "url": "",
    "pref": "茨城県",
    "city": "坂東市",
    "category": "community_day_service",
    "serviceType": "地域密着型通所介護",
    "capacity": 0,
    "openDays": [
      "平日"
    ],
    "openDaysNote": ""
  },
  {
    "id": "875100208",
    "name": "あさひデイサービスセンター",
    "kana": "アサヒデイサービスセンター",
    "address": "茨城県桜川市青柳538-32",
    "lat": 36.3629542,
    "lng": 140.1190063,
    "tel": "0296-75-6106",
    "url": "",
    "pref": "茨城県",
    "city": "桜川市",
    "category": "community_day_service",
    "serviceType": "地域密着型通所介護",
    "capacity": 18,
    "openDays": [
      "平日",
      "土曜日",
      "祝日"
    ],
    "openDaysNote": ""
  },
  {
    "id": "875100331",
    "name": "リハビリハート",
    "kana": "リハビリハート",
    "address": "茨城県桜川市西桜川２－１８－５リハビリハート総合介護ケアセンター リハビリハート総合介護ケアセンター",
    "lat": 36.3643748517181,
    "lng": 140.105098143655,
    "tel": "0296-73-6965",
    "url": "",
    "pref": "茨城県",
    "city": "桜川市",
    "category": "community_day_service",
    "serviceType": "地域密着型通所介護",
    "capacity": 18,
    "openDays": [
      "平日",
      "土曜日",
      "祝日"
    ],
    "openDaysNote": "毎年8月14日から8月16日まで休み　12月29日から翌年1月3日まで休み"
  },
  {
    "id": "08A2200046",
    "name": "アントラーズスポーツドック介護予防センター",
    "kana": "アントラーズスポーツドックカイゴヨボウセンター",
    "address": "神向寺26‐2",
    "lat": 35.9921995376003,
    "lng": 140.641095546835,
    "tel": "0299-95-7250",
    "url": "",
    "pref": "茨城県",
    "city": "鹿嶋市",
    "category": "community_day_service",
    "serviceType": "地域密着型通所介護",
    "capacity": null,
    "openDays": [
      "平日"
    ],
    "openDaysNote": ""
  },
  {
    "id": "872200399",
    "name": "デイサービスセンターくぬぎの森",
    "kana": "デイサービスセンタークヌギノモリ",
    "address": "茨城県鹿嶋市和825-2",
    "lat": 36.0397483,
    "lng": 140.611189,
    "tel": "0299-90-9900",
    "url": "https://sites.google.com/view/kunugi-kashima/",
    "pref": "茨城県",
    "city": "鹿嶋市",
    "category": "community_day_service",
    "serviceType": "地域密着型通所介護",
    "capacity": 18,
    "openDays": [
      "平日",
      "土曜日",
      "祝日"
    ],
    "openDaysNote": "祝日は営業しています。"
  },
  {
    "id": "872200779",
    "name": "デイサービスセンターぷらっと",
    "kana": "デイサービスセンタープラット",
    "address": "小山1010-1",
    "lat": 36.0095579,
    "lng": 140.6337487,
    "tel": "0299-94-8822",
    "url": "",
    "pref": "茨城県",
    "city": "鹿嶋市",
    "category": "community_day_service",
    "serviceType": "地域密着型通所介護",
    "capacity": 0,
    "openDays": [
      "平日",
      "土曜日",
      "祝日"
    ],
    "openDaysNote": "ただし、1月1日～1月2日は除く"
  },
  {
    "id": "892200106",
    "name": "デイサービス海",
    "kana": "デイサービスウミ",
    "address": "茨城県鹿嶋市平井1100-9デイサービス海 デイサービス海",
    "lat": 35.9656475,
    "lng": 140.6638858,
    "tel": "0299-77-7617",
    "url": "",
    "pref": "茨城県",
    "city": "鹿嶋市",
    "category": "community_day_service",
    "serviceType": "地域密着型通所介護",
    "capacity": 0,
    "openDays": [
      "平日",
      "土曜日",
      "日曜日",
      "祝日"
    ],
    "openDaysNote": ""
  },
  {
    "id": "08A2200038",
    "name": "ハッピーエブリ鹿島神宮店",
    "kana": "ハッピーエブリカシマジングウテン",
    "address": "茨城県鹿嶋市宮下４丁目７－２０",
    "lat": 35.9711424,
    "lng": 140.6253641,
    "tel": "0299-94-8277",
    "url": "https://dayservice.happyevery.jp/",
    "pref": "茨城県",
    "city": "鹿嶋市",
    "category": "community_day_service",
    "serviceType": "地域密着型通所介護",
    "capacity": null,
    "openDays": [
      "平日",
      "祝日"
    ],
    "openDaysNote": ""
  },
  {
    "id": "892200080",
    "name": "リハビリデイサービススマイリーラボ鹿嶋",
    "kana": "リハビリデイサービススマイリーラボカシマ",
    "address": "茨城県鹿嶋市平井1228-50",
    "lat": 35.9676306,
    "lng": 140.6471293,
    "tel": "0299-95-9090",
    "url": "",
    "pref": "茨城県",
    "city": "鹿嶋市",
    "category": "community_day_service",
    "serviceType": "地域密着型通所介護",
    "capacity": null,
    "openDays": [
      "平日",
      "祝日"
    ],
    "openDaysNote": ""
  },
  {
    "id": "892200064",
    "name": "鹿嶋ふれあいデイサービスセンター",
    "kana": "カシマフレアイデイサービスセンター",
    "address": "茨城県鹿嶋市宮中2030-1",
    "lat": 35.9679097,
    "lng": 140.6453143,
    "tel": "0299-85-0033",
    "url": "",
    "pref": "茨城県",
    "city": "鹿嶋市",
    "category": "community_day_service",
    "serviceType": "地域密着型通所介護",
    "capacity": 0,
    "openDays": [
      "平日",
      "土曜日",
      "日曜日",
      "祝日"
    ],
    "openDaysNote": ""
  },
  {
    "id": "871700993",
    "name": "ケアパーク",
    "kana": "ケアパーク",
    "address": "茨城県取手市米ノ井172-1",
    "lat": 35.9248530310945,
    "lng": 140.024663202055,
    "tel": "0297-85-4834",
    "url": "",
    "pref": "茨城県",
    "city": "取手市",
    "category": "community_day_service",
    "serviceType": "地域密着型通所介護",
    "capacity": 0,
    "openDays": [
      "平日",
      "土曜日",
      "祝日"
    ],
    "openDaysNote": ""
  },
  {
    "id": "871700670",
    "name": "ケアプロジェクト株式会社",
    "kana": "ケアプロジェクトカブシキガイシャ",
    "address": "茨城県取手市戸頭8-7-27戸頭第八ビル１F 戸頭第八ビル１F",
    "lat": 35.9250752,
    "lng": 140.0092717,
    "tel": "0297-84-6070",
    "url": "",
    "pref": "茨城県",
    "city": "取手市",
    "category": "community_day_service",
    "serviceType": "地域密着型通所介護",
    "capacity": 10,
    "openDays": [
      "平日",
      "土曜日",
      "祝日"
    ],
    "openDaysNote": "早出、延長に関しては個別対応有り"
  },
  {
    "id": "891700122",
    "name": "ご長寿くらぶ新取手",
    "kana": "ゴチョウジュクラブシントリデ",
    "address": "茨城県取手市新取手4-7-9",
    "lat": 35.9186233,
    "lng": 140.0497731,
    "tel": "0297-79-5580",
    "url": "https://gotyoujyuclub.com/about",
    "pref": "茨城県",
    "city": "取手市",
    "category": "community_day_service",
    "serviceType": "地域密着型通所介護",
    "capacity": 0,
    "openDays": [
      "平日"
    ],
    "openDaysNote": ""
  },
  {
    "id": "871701033",
    "name": "デイサービス　めぐみの杜",
    "kana": "デイサービス　メグミノモリ",
    "address": "茨城県取手市稲29番1",
    "lat": 35.9094658,
    "lng": 140.0445171,
    "tel": "0297-84-6155",
    "url": "http://shinwakai-ibaraki.jp/",
    "pref": "茨城県",
    "city": "取手市",
    "category": "community_day_service",
    "serviceType": "地域密着型通所介護",
    "capacity": null,
    "openDays": [
      "平日"
    ],
    "openDaysNote": ""
  },
  {
    "id": "871701249",
    "name": "デイサービスえがお　いきいき俱楽部",
    "kana": "デイサービスエガオ　イキイキクラブ",
    "address": "茨城県取手市新取手1-4-6アーバンヴィレッジ新取手ビル アーバンヴィレッジ新取手ビル",
    "lat": 35.9181033,
    "lng": 140.0440958,
    "tel": "0297-72-7133",
    "url": "http//hp.kaipoke.biz./r7d/",
    "pref": "茨城県",
    "city": "取手市",
    "category": "community_day_service",
    "serviceType": "地域密着型通所介護",
    "capacity": 10,
    "openDays": [
      "平日",
      "土曜日",
      "祝日"
    ],
    "openDaysNote": "年末年始の定休日日数は変更になる場合があります。"
  },
  {
    "id": "871701207",
    "name": "デイサービスはるか",
    "kana": "デイサービスハルカ",
    "address": "茨城県取手市寺田６３５７マツザキビル１階 マツザキビル１階",
    "lat": 35.9111783,
    "lng": 140.0484718,
    "tel": "０２９７－８４－１０３９",
    "url": "",
    "pref": "茨城県",
    "city": "取手市",
    "category": "community_day_service",
    "serviceType": "地域密着型通所介護",
    "capacity": 0,
    "openDays": [
      "平日",
      "土曜日",
      "祝日"
    ],
    "openDaysNote": "サービス提供時間は９時１０分から１６時１０分とする。"
  },
  {
    "id": "891700247",
    "name": "デイサービスファミーナ希望館",
    "kana": "デイサービスファミーナキボウカン",
    "address": "茨城県取手市井野台5丁目4-14",
    "lat": 35.9092953,
    "lng": 140.0679366,
    "tel": "0297-71-3166",
    "url": "",
    "pref": "茨城県",
    "city": "取手市",
    "category": "community_day_service",
    "serviceType": "地域密着型通所介護",
    "capacity": 0,
    "openDays": [
      "平日",
      "土曜日",
      "祝日"
    ],
    "openDaysNote": ""
  },
  {
    "id": "891700239",
    "name": "デイサービスふくろう",
    "kana": "デイサービスフクロウ",
    "address": "茨城県取手市椚木352-33",
    "lat": 35.92978,
    "lng": 140.1042256,
    "tel": "0297-85-3977",
    "url": "http://hp.kaipoke.biz/r7d/",
    "pref": "茨城県",
    "city": "取手市",
    "category": "community_day_service",
    "serviceType": "地域密着型通所介護",
    "capacity": 10,
    "openDays": [
      "平日",
      "土曜日",
      "祝日"
    ],
    "openDaysNote": "年末年始の定休日日数は変更になる場合があります。"
  },
  {
    "id": "891700114",
    "name": "デイサービスゆたか",
    "kana": "デイサービスユタカ",
    "address": "取手市寺田6357　2階",
    "lat": 35.9112646,
    "lng": 140.0483073,
    "tel": "0297-84-1038",
    "url": "",
    "pref": "茨城県",
    "city": "取手市",
    "category": "community_day_service",
    "serviceType": "地域密着型通所介護",
    "capacity": null,
    "openDays": [
      "平日",
      "土曜日",
      "祝日"
    ],
    "openDaysNote": ""
  },
  {
    "id": "871701199",
    "name": "デイサービス奏で　取手店",
    "kana": "デイサービスカナデ　トリデテン",
    "address": "茨城県取手市井野台2-5-38",
    "lat": 35.9036119,
    "lng": 140.0681727,
    "tel": "297775355",
    "url": "http://magokoro-kanade.com/index.html",
    "pref": "茨城県",
    "city": "取手市",
    "category": "community_day_service",
    "serviceType": "地域密着型通所介護",
    "capacity": 0,
    "openDays": [
      "平日",
      "土曜日",
      "日曜日",
      "祝日"
    ],
    "openDaysNote": "利用希望者により、時間外サービスの提供を行う場合あり。"
  },
  {
    "id": "871700746",
    "name": "デイサロン・とりでケア",
    "kana": "デイサロン・トリデケア",
    "address": "茨城県取手市本郷1-31-15",
    "lat": 35.9117985447543,
    "lng": 140.061867579762,
    "tel": "0297-73-6700",
    "url": "http://toride-care.com",
    "pref": "茨城県",
    "city": "取手市",
    "category": "community_day_service",
    "serviceType": "地域密着型通所介護",
    "capacity": 10,
    "openDays": [
      "平日",
      "土曜日",
      "祝日"
    ],
    "openDaysNote": ""
  },
  {
    "id": "891700262",
    "name": "ハッピーエブリ取手藤代店",
    "kana": "ハッピーエブリトリデフジシロテン",
    "address": "藤代499-2",
    "lat": 35.9239992,
    "lng": 140.1131141,
    "tel": "0297-63-3017",
    "url": "https://happyevery.jp/",
    "pref": "茨城県",
    "city": "取手市",
    "category": "community_day_service",
    "serviceType": "地域密着型通所介護",
    "capacity": null,
    "openDays": [
      "平日"
    ],
    "openDaysNote": ""
  },
  {
    "id": "891700296",
    "name": "フラワーデイハウス",
    "kana": "フラワーデイハウス",
    "address": "茨城県取手市東6-17-5",
    "lat": 35.891856,
    "lng": 140.0737328,
    "tel": "297632205",
    "url": "",
    "pref": "茨城県",
    "city": "取手市",
    "category": "community_day_service",
    "serviceType": "地域密着型通所介護",
    "capacity": 0,
    "openDays": [
      "平日"
    ],
    "openDaysNote": ""
  },
  {
    "id": "871701140",
    "name": "よりみち",
    "kana": "ヨリミチ",
    "address": "茨城県取手市桑原6-3よりみち よりみち",
    "lat": 35.904571,
    "lng": 140.0762882,
    "tel": "0297-84-6408",
    "url": "",
    "pref": "茨城県",
    "city": "取手市",
    "category": "community_day_service",
    "serviceType": "地域密着型通所介護",
    "capacity": 0,
    "openDays": [
      "平日",
      "祝日"
    ],
    "openDaysNote": "祝日は営業日ですが、GWは定休日です。"
  },
  {
    "id": "871701413",
    "name": "リハビリデイサービス　スモールランド　取手",
    "kana": "リハビリデイサービス　スモールランド　トリデ",
    "address": "茨城県取手市東6-34-11",
    "lat": 35.8935585,
    "lng": 140.0745755,
    "tel": "0297-84-1713",
    "url": "",
    "pref": "茨城県",
    "city": "取手市",
    "category": "community_day_service",
    "serviceType": "地域密着型通所介護",
    "capacity": 0,
    "openDays": [
      "平日"
    ],
    "openDaysNote": "月から金の祝日は営業します"
  },
  {
    "id": "891700205",
    "name": "リハビリ特化型デイサービス橙",
    "kana": "リハビリトッカガタデイサービスダイダイ",
    "address": "茨城県取手市桑原6番地3",
    "lat": 35.904602,
    "lng": 140.076278,
    "tel": "0297-75-2777",
    "url": "http://hp.kaipoke.biz/84d/",
    "pref": "茨城県",
    "city": "取手市",
    "category": "community_day_service",
    "serviceType": "地域密着型通所介護",
    "capacity": 28,
    "openDays": [
      "平日",
      "祝日"
    ],
    "openDaysNote": ""
  },
  {
    "id": "891700197",
    "name": "りぼんくらぶ・小浮気",
    "kana": "リボンクラブ・コブケ",
    "address": "茨城県取手市小浮気179-1",
    "lat": 35.9209143,
    "lng": 140.103369,
    "tel": "0297-70-8722",
    "url": "http://www.rebornclub.net",
    "pref": "茨城県",
    "city": "取手市",
    "category": "community_day_service",
    "serviceType": "地域密着型通所介護",
    "capacity": null,
    "openDays": [
      "平日",
      "祝日"
    ],
    "openDaysNote": ""
  },
  {
    "id": "891700155",
    "name": "レコードブック取手新町",
    "kana": "レコードブックトリデシンマチ",
    "address": "茨城県取手市新町5丁目19番11号US6ビル101 US6ビル101",
    "lat": 35.8998586,
    "lng": 140.0522408,
    "tel": "297633455",
    "url": "",
    "pref": "茨城県",
    "city": "取手市",
    "category": "community_day_service",
    "serviceType": "地域密着型通所介護",
    "capacity": 0,
    "openDays": [
      "平日"
    ],
    "openDaysNote": ""
  },
  {
    "id": "871700423",
    "name": "株式会社　プラテック　デイサービス　介護のバナナ",
    "kana": "カブシキカイシャ　プラテック　デイサービス　カイゴノバナナ",
    "address": "茨城県取手市上高井383-1",
    "lat": 35.9287027,
    "lng": 140.0230766,
    "tel": "0297-70-7050",
    "url": "https://www.tamatebako-558.com/",
    "pref": "茨城県",
    "city": "取手市",
    "category": "community_day_service",
    "serviceType": "地域密着型通所介護",
    "capacity": 6,
    "openDays": [
      "平日",
      "祝日"
    ],
    "openDaysNote": "自然災害時(台風・地震・等の場合)は、営業中止になる場合もあります。"
  },
  {
    "id": "891700213",
    "name": "取手地域福祉事業所　みんなのおうち　ゆう",
    "kana": "トリデチイキフクシジギョウショ　ミンナノオウチ　ユウ",
    "address": "茨城県取手市青柳480－2",
    "lat": 35.8931835,
    "lng": 140.0815366,
    "tel": "0297-63-2771",
    "url": "",
    "pref": "茨城県",
    "city": "取手市",
    "category": "community_day_service",
    "serviceType": "地域密着型通所介護",
    "capacity": null,
    "openDays": [
      "平日"
    ],
    "openDaysNote": ""
  },
  {
    "id": "891700221",
    "name": "樹楽取手",
    "kana": "キラクトリデ",
    "address": "茨城県取手市谷中44-3",
    "lat": 35.9194343,
    "lng": 140.1044666,
    "tel": "0297-85-2600",
    "url": "http://hp.kaipoke.biz/yt1/",
    "pref": "茨城県",
    "city": "取手市",
    "category": "community_day_service",
    "serviceType": "地域密着型通所介護",
    "capacity": null,
    "openDays": [
      "平日"
    ],
    "openDaysNote": ""
  },
  {
    "id": "871700118",
    "name": "通所介護　取手市デイサービスセンターふれあいの郷",
    "kana": "ツウショカイゴ　トリデシデイサービスセンターフレアイノサト",
    "address": "茨城県取手市ゆめみ野三丁目２３番地１",
    "lat": 35.9255289,
    "lng": 140.0442363,
    "tel": "0297-78-2525",
    "url": "http://www.torideshi-fureainosato.com",
    "pref": "茨城県",
    "city": "取手市",
    "category": "community_day_service",
    "serviceType": "地域密着型通所介護",
    "capacity": 0,
    "openDays": [
      "平日",
      "土曜日",
      "祝日"
    ],
    "openDaysNote": ""
  },
  {
    "id": "872400734",
    "name": "ケアパーク守谷",
    "kana": "ケアパーク",
    "address": "茨城県守谷市薬師台6-7-1",
    "lat": 35.9603484,
    "lng": 139.9636486,
    "tel": "0297-38-6988",
    "url": "",
    "pref": "茨城県",
    "city": "守谷市",
    "category": "community_day_service",
    "serviceType": "地域密着型通所介護",
    "capacity": null,
    "openDays": [
      "平日"
    ],
    "openDaysNote": ""
  },
  {
    "id": "872400502",
    "name": "デイサービスうらら",
    "kana": "デイサービスウララ",
    "address": "茨城県守谷市高野2013-1",
    "lat": 35.93514,
    "lng": 139.9807775,
    "tel": "0297-44-5252",
    "url": "",
    "pref": "茨城県",
    "city": "守谷市",
    "category": "community_day_service",
    "serviceType": "地域密着型通所介護",
    "capacity": 0,
    "openDays": [
      "平日",
      "土曜日",
      "祝日"
    ],
    "openDaysNote": ""
  },
  {
    "id": "872400825",
    "name": "デイサービスひばりの",
    "kana": "デイサービスヒバリノ",
    "address": "茨城県守谷市松前台7-13-10",
    "lat": 35.9744479934328,
    "lng": 139.95933022592,
    "tel": "0297-44-6448",
    "url": "",
    "pref": "茨城県",
    "city": "守谷市",
    "category": "community_day_service",
    "serviceType": "地域密着型通所介護",
    "capacity": 0,
    "openDays": [
      "平日",
      "土曜日",
      "祝日"
    ],
    "openDaysNote": ""
  },
  {
    "id": "872400254",
    "name": "デイホーム　ひだまり",
    "kana": "デイホーム　ヒダマリ",
    "address": "茨城県守谷市野木崎５２５－２",
    "lat": 35.9454656,
    "lng": 139.9671368,
    "tel": "0297-46-1446",
    "url": "https://www.dayhomehidamari.com/",
    "pref": "茨城県",
    "city": "守谷市",
    "category": "community_day_service",
    "serviceType": "地域密着型通所介護",
    "capacity": 10,
    "openDays": [
      "平日",
      "土曜日"
    ],
    "openDaysNote": "上記の定休日であっても事情により利用が必要とされる場合には、介護保険外事業として実費にて利用が可能。利用時間も介護保険利用にて延長2時間（最大10時間利用可）。"
  },
  {
    "id": "892400094",
    "name": "社会福祉法人峰林会　峰林荘通所介護事業所",
    "kana": "シャカイフクシホウジンホウリンカイ　ホウリンソウツウショカイゴジギョウショ",
    "address": "茨城県守谷市野木崎1935-1",
    "lat": 35.9528761704996,
    "lng": 139.958769008877,
    "tel": "0297-44-4399",
    "url": "http://hourinkai.com",
    "pref": "茨城県",
    "city": "守谷市",
    "category": "community_day_service",
    "serviceType": "地域密着型通所介護",
    "capacity": 18,
    "openDays": [
      "平日",
      "土曜日",
      "祝日"
    ],
    "openDaysNote": ""
  },
  {
    "id": "875600330",
    "name": "デイサービスのうば",
    "kana": "デイサービスノウバ",
    "address": "茨城県小美玉市納場111-6",
    "lat": 36.2618171,
    "lng": 140.3185347,
    "tel": "0299-56-3072",
    "url": "dayservice-nouba.com",
    "pref": "茨城県",
    "city": "小美玉市",
    "category": "community_day_service",
    "serviceType": "地域密着型通所介護",
    "capacity": 0,
    "openDays": [
      "平日",
      "土曜日",
      "祝日"
    ],
    "openDaysNote": ""
  },
  {
    "id": "875600405",
    "name": "ハウスデアダマリスデイサービスセンター",
    "kana": "ハウスデアダマリスデイサービスンター",
    "address": "茨城県小美玉市下玉里2014－1",
    "lat": 36.1538712,
    "lng": 140.3401612,
    "tel": "0299-57-3111",
    "url": "damaris.jp",
    "pref": "茨城県",
    "city": "小美玉市",
    "category": "community_day_service",
    "serviceType": "地域密着型通所介護",
    "capacity": null,
    "openDays": [
      "平日"
    ],
    "openDaysNote": ""
  },
  {
    "id": "875600090",
    "name": "小美玉社協デイサービスセンター玉里",
    "kana": "オミタマシャキョウデイサービスセンタータマリ",
    "address": "茨城県小美玉市上玉里１１２２番地小美玉市玉里保健福祉センター 小美玉市玉里保健福祉センター",
    "lat": 36.1619769,
    "lng": 140.3356964,
    "tel": "0299-58-0511",
    "url": "http://www.omitama-shakyo.or.jp/",
    "pref": "茨城県",
    "city": "小美玉市",
    "category": "community_day_service",
    "serviceType": "地域密着型通所介護",
    "capacity": 50,
    "openDays": [
      "平日"
    ],
    "openDaysNote": ""
  },
  {
    "id": "893100115",
    "name": "デイサービスセンター桂聖明園",
    "kana": "デイサービスセンターカツラセイメイエン",
    "address": "茨城県東茨城郡城里町高根台1-53",
    "lat": 36.5210461,
    "lng": 140.3447563,
    "tel": "029-289-4744",
    "url": "",
    "pref": "茨城県",
    "city": "城里町",
    "category": "community_day_service",
    "serviceType": "地域密着型通所介護",
    "capacity": null,
    "openDays": [
      "平日",
      "土曜日",
      "祝日"
    ],
    "openDaysNote": ""
  },
  {
    "id": "871100368",
    "name": "デイサービス華",
    "kana": "デイサービスハナ",
    "address": "茨城県常総市中妻町1023-2",
    "lat": 36.0467329,
    "lng": 139.9937409,
    "tel": "0297-23-3011",
    "url": "http://carehome-nakao.com/index.php",
    "pref": "茨城県",
    "city": "常総市",
    "category": "community_day_service",
    "serviceType": "地域密着型通所介護",
    "capacity": 15,
    "openDays": [
      "平日",
      "土曜日",
      "祝日"
    ],
    "openDaysNote": ""
  },
  {
    "id": "871100566",
    "name": "デイサロン　彩葉",
    "kana": "デイサロン　イロハ",
    "address": "茨城県常総市新石下８１番地１",
    "lat": 36.1078137,
    "lng": 139.9705505,
    "tel": "0297-44-5326",
    "url": "",
    "pref": "茨城県",
    "city": "常総市",
    "category": "community_day_service",
    "serviceType": "地域密着型通所介護",
    "capacity": 0,
    "openDays": [
      "平日",
      "祝日"
    ],
    "openDaysNote": ""
  },
  {
    "id": "871100327",
    "name": "ラポール常総デイサービスセンター",
    "kana": "ラポールジョウソウデイサービスセンター",
    "address": "茨城県常総市舘方1038番地",
    "lat": 36.1290243,
    "lng": 139.993813,
    "tel": "0297-43-1050",
    "url": "",
    "pref": "茨城県",
    "city": "常総市",
    "category": "community_day_service",
    "serviceType": "地域密着型通所介護",
    "capacity": 0,
    "openDays": [
      "平日",
      "祝日"
    ],
    "openDaysNote": ""
  },
  {
    "id": "871100574",
    "name": "千の杜デイサービスセンター",
    "kana": "センノモリデイサービスセンター",
    "address": "茨城県常総市菅生町1319－1",
    "lat": 35.988772014292,
    "lng": 139.933230127457,
    "tel": "0297-44-7085",
    "url": "http://www.mokusei-grp.jp",
    "pref": "茨城県",
    "city": "常総市",
    "category": "community_day_service",
    "serviceType": "地域密着型通所介護",
    "capacity": 0,
    "openDays": [
      "平日",
      "土曜日",
      "祝日"
    ],
    "openDaysNote": ""
  },
  {
    "id": "871100426",
    "name": "有限会社　豊玉",
    "kana": "ユウゲンガイシャ　ホウギョク",
    "address": "茨城県常総市豊岡町乙3587番地",
    "lat": 36.0590513,
    "lng": 139.9670602,
    "tel": "0297-27-5070",
    "url": "info@sakurasaku-kaigo.com",
    "pref": "茨城県",
    "city": "常総市",
    "category": "community_day_service",
    "serviceType": "地域密着型通所介護",
    "capacity": 0,
    "openDays": [
      "平日",
      "土曜日",
      "日曜日",
      "祝日"
    ],
    "openDaysNote": ""
  },
  {
    "id": "891200131",
    "name": "ＪＡ常陸金砂デイサービスセンターだいすき",
    "kana": "ジェイエイヒタチカナサデイサービスセンターダイスキ",
    "address": "茨城県常陸太田市下宮河内町34",
    "lat": 36.6123878,
    "lng": 140.4402202,
    "tel": "0294-76-9144",
    "url": "",
    "pref": "茨城県",
    "city": "常陸太田市",
    "category": "community_day_service",
    "serviceType": "地域密着型通所介護",
    "capacity": 0,
    "openDays": [
      "平日",
      "土曜日",
      "祝日"
    ],
    "openDaysNote": "祭日は営業"
  },
  {
    "id": "891200164",
    "name": "いばらきのケア　地域密着型通所介護　デイサービスセンターresort寿楽",
    "kana": "イバラキノケア　チイキミッチャクガタツウショカイゴ　デイサービスセンター　リゾート　ジュラク",
    "address": "茨城県常陸太田市西三町4165-1",
    "lat": 36.5360591,
    "lng": 140.520877,
    "tel": "0294-33-8677",
    "url": "",
    "pref": "茨城県",
    "city": "常陸太田市",
    "category": "community_day_service",
    "serviceType": "地域密着型通所介護",
    "capacity": 0,
    "openDays": [
      "平日",
      "土曜日",
      "祝日"
    ],
    "openDaysNote": ""
  },
  {
    "id": "871200796",
    "name": "デイサービス　くめ",
    "kana": "デイサービス　クメ",
    "address": "茨城県常陸太田市久米町230サービス付き高齢者向け住宅「久米」内 サービス付き高齢者向け住宅「久米」内",
    "lat": 36.5419186,
    "lng": 140.4781581,
    "tel": "0294-33-9032",
    "url": "https://www.nemoto-clinic.com/",
    "pref": "茨城県",
    "city": "常陸太田市",
    "category": "community_day_service",
    "serviceType": "地域密着型通所介護",
    "capacity": null,
    "openDays": [
      "平日",
      "土曜日",
      "祝日"
    ],
    "openDaysNote": ""
  },
  {
    "id": "871200739",
    "name": "デイサービス　まごころの家　常陸太田",
    "kana": "デイサービス　マゴコロノイエ　ヒタチオオタ",
    "address": "茨城県常陸太田市天神林町８７０－１６８",
    "lat": 36.5222228,
    "lng": 140.510249,
    "tel": "0294-80-4550",
    "url": "",
    "pref": "茨城県",
    "city": "常陸太田市",
    "category": "community_day_service",
    "serviceType": "地域密着型通所介護",
    "capacity": 0,
    "openDays": [
      "平日",
      "土曜日",
      "祝日"
    ],
    "openDaysNote": ""
  },
  {
    "id": "871200663",
    "name": "デイサービス　ワコー大里",
    "kana": "デイサービス　ワコーオオサト",
    "address": "茨城県常陸太田市大里町237番地の1",
    "lat": 36.5209042,
    "lng": 140.4803913,
    "tel": "0294-70-3388",
    "url": "",
    "pref": "茨城県",
    "city": "常陸太田市",
    "category": "community_day_service",
    "serviceType": "地域密着型通所介護",
    "capacity": 0,
    "openDays": [
      "平日",
      "祝日"
    ],
    "openDaysNote": ""
  },
  {
    "id": "871200499",
    "name": "デイサービス・ひばり",
    "kana": "デイサービスヒバリ",
    "address": "茨城県常陸太田市真弓町1953-2",
    "lat": 36.5298652,
    "lng": 140.5706909,
    "tel": "0294-74-2277",
    "url": "",
    "pref": "茨城県",
    "city": "常陸太田市",
    "category": "community_day_service",
    "serviceType": "地域密着型通所介護",
    "capacity": 0,
    "openDays": [
      "平日",
      "土曜日",
      "祝日"
    ],
    "openDaysNote": ""
  },
  {
    "id": "891200107",
    "name": "デイサービスMAO佐竹南台",
    "kana": "デイサービスマオサタケミナミダイ",
    "address": "茨城県常陸太田市天神林町３８５-２",
    "lat": 36.5252656969716,
    "lng": 140.512317955017,
    "tel": "0294-33-5663",
    "url": "http://care-net.biz/08/mao/",
    "pref": "茨城県",
    "city": "常陸太田市",
    "category": "community_day_service",
    "serviceType": "地域密着型通所介護",
    "capacity": 0,
    "openDays": [
      "平日",
      "土曜日",
      "祝日"
    ],
    "openDaysNote": ""
  },
  {
    "id": "871200291",
    "name": "デイサービスセンター　えみの里",
    "kana": "デイサービスセンター　エミノサト",
    "address": "茨城県常陸太田市徳田町143",
    "lat": 36.7732189,
    "lng": 140.48294,
    "tel": "0294-70-7151",
    "url": "http://care-net.biz/08/syomakai/",
    "pref": "茨城県",
    "city": "常陸太田市",
    "category": "community_day_service",
    "serviceType": "地域密着型通所介護",
    "capacity": 18,
    "openDays": [
      "平日",
      "土曜日",
      "祝日"
    ],
    "openDaysNote": ""
  },
  {
    "id": "891200149",
    "name": "デイサービスセンター　金砂郷",
    "kana": "デイサービスセンター　カナサゴウ",
    "address": "常陸太田市箕町８４４番地の１",
    "lat": 36.5607340053672,
    "lng": 140.44505828214,
    "tel": "0294-76-1200",
    "url": "http://anshin-sunpia.or.jp/",
    "pref": "茨城県",
    "city": "常陸太田市",
    "category": "community_day_service",
    "serviceType": "地域密着型通所介護",
    "capacity": null,
    "openDays": [
      "平日"
    ],
    "openDaysNote": ""
  },
  {
    "id": "891200172",
    "name": "デイサービスセンター　世矢の里",
    "kana": "デイサービスセンター　セヤノサト",
    "address": "常陸太田市亀作町481-1",
    "lat": 36.5263881,
    "lng": 140.5677168,
    "tel": "294702220",
    "url": "http://seyanosato.org/",
    "pref": "茨城県",
    "city": "常陸太田市",
    "category": "community_day_service",
    "serviceType": "地域密着型通所介護",
    "capacity": null,
    "openDays": [
      "平日",
      "土曜日"
    ],
    "openDaysNote": ""
  },
  {
    "id": "871200648",
    "name": "デイサービスセンター花・大里",
    "kana": "デイサービスセンターハナ・オオサト",
    "address": "茨城県常陸太田市大里町2833番地３",
    "lat": 36.5314023,
    "lng": 140.4847197,
    "tel": "0294-33-5966",
    "url": "",
    "pref": "茨城県",
    "city": "常陸太田市",
    "category": "community_day_service",
    "serviceType": "地域密着型通所介護",
    "capacity": null,
    "openDays": [
      "平日",
      "土曜日",
      "祝日"
    ],
    "openDaysNote": ""
  },
  {
    "id": "871200713",
    "name": "デイサービスゆりの里",
    "kana": "デイサービスユリノサト",
    "address": "天下野町7064",
    "lat": 36.646018,
    "lng": 140.4838622,
    "tel": "0294-33-7633",
    "url": "",
    "pref": "茨城県",
    "city": "常陸太田市",
    "category": "community_day_service",
    "serviceType": "地域密着型通所介護",
    "capacity": 0,
    "openDays": [
      "平日",
      "祝日"
    ],
    "openDaysNote": ""
  },
  {
    "id": "871200655",
    "name": "ハートケア太田デイサービス",
    "kana": "ハアトケアオオタデイサービス",
    "address": "茨城県常陸太田市馬場町86",
    "lat": 36.550442,
    "lng": 140.5301495,
    "tel": "0294-33-6920",
    "url": "https://oota-dayservice.jimdofree.com/",
    "pref": "茨城県",
    "city": "常陸太田市",
    "category": "community_day_service",
    "serviceType": "地域密着型通所介護",
    "capacity": 0,
    "openDays": [
      "平日",
      "土曜日",
      "日曜日",
      "祝日"
    ],
    "openDaysNote": ""
  },
  {
    "id": "871200879",
    "name": "ふらわあデイサービス太田",
    "kana": "フラワアデイサービスオオタ",
    "address": "茨城県常陸太田市塙町2926-3",
    "lat": 36.5410158,
    "lng": 140.5298691,
    "tel": "0294-33-7603",
    "url": "http://www.hanawa-const.com",
    "pref": "茨城県",
    "city": "常陸太田市",
    "category": "community_day_service",
    "serviceType": "地域密着型通所介護",
    "capacity": null,
    "openDays": [
      "平日",
      "土曜日",
      "日曜日",
      "祝日"
    ],
    "openDaysNote": "通所利用の方は9：00～16：15までの利用時間"
  },
  {
    "id": "871200747",
    "name": "ライフピア稲木",
    "kana": "ライフピアイナギ",
    "address": "茨城県常陸太田市稲木町893‐１",
    "lat": 36.5290959,
    "lng": 140.5102843,
    "tel": "0294‐80‐3470",
    "url": "",
    "pref": "茨城県",
    "city": "常陸太田市",
    "category": "community_day_service",
    "serviceType": "地域密着型通所介護",
    "capacity": 0,
    "openDays": [
      "平日"
    ],
    "openDaysNote": "8/13～8/15まで夏季休業（改行）12/30～1/3まで年末年始休業"
  },
  {
    "id": "871200820",
    "name": "株式会社ながたの里工房",
    "kana": "カブシキガイシャナガタノサトコウボウ",
    "address": "茨城県常陸太田市大里町2830番地1",
    "lat": 36.531613,
    "lng": 140.4848005,
    "tel": "0294-33-8777",
    "url": "",
    "pref": "茨城県",
    "city": "常陸太田市",
    "category": "community_day_service",
    "serviceType": "地域密着型通所介護",
    "capacity": null,
    "openDays": [
      "平日",
      "土曜日",
      "日曜日",
      "祝日"
    ],
    "openDaysNote": ""
  },
  {
    "id": "872500434",
    "name": "デイサービス　まごころの家　常陸大宮",
    "kana": "デイサービス　マゴコロノイエ　ヒタチオオミヤ",
    "address": "茨城県常陸大宮市栄町１２２６－７",
    "lat": 36.5415831233571,
    "lng": 140.414032749182,
    "tel": "0295-53-8277",
    "url": "",
    "pref": "茨城県",
    "city": "常陸大宮市",
    "category": "community_day_service",
    "serviceType": "地域密着型通所介護",
    "capacity": 0,
    "openDays": [
      "平日",
      "土曜日",
      "祝日"
    ],
    "openDaysNote": ""
  },
  {
    "id": "872500459",
    "name": "デイサービス　まごころの家　常陸大宮中富",
    "kana": "デイサービス　マゴコロノイエ　ヒタチオオミヤナカトミ",
    "address": "茨城県常陸大宮市中富町３１３３－１０６",
    "lat": 36.5465065,
    "lng": 140.4050711,
    "tel": "0295-55-8140",
    "url": "",
    "pref": "茨城県",
    "city": "常陸大宮市",
    "category": "community_day_service",
    "serviceType": "地域密着型通所介護",
    "capacity": 0,
    "openDays": [
      "平日",
      "土曜日",
      "祝日"
    ],
    "openDaysNote": ""
  },
  {
    "id": "892500232",
    "name": "デイサービスセンターサングリーンピア山方",
    "kana": "デイサービスセンターサングリーンピアヤマガタ",
    "address": "茨城県常陸大宮市西野内1537-1",
    "lat": 36.6419311655543,
    "lng": 140.401698501852,
    "tel": "0295-57-2100",
    "url": "http://sungreenpia.com",
    "pref": "茨城県",
    "city": "常陸大宮市",
    "category": "community_day_service",
    "serviceType": "地域密着型通所介護",
    "capacity": null,
    "openDays": [
      "平日",
      "土曜日",
      "日曜日",
      "祝日"
    ],
    "openDaysNote": "隔週日曜日はミニデイサービス営業日となるため、地域密着型通所介護は定休日となる。"
  },
  {
    "id": "892500208",
    "name": "ほほえみセンターひより",
    "kana": "ホホエミセンターヒヨリ",
    "address": "茨城県常陸大宮市下檜沢3632",
    "lat": 36.644369,
    "lng": 140.3410471,
    "tel": "0295-55-7220",
    "url": "http：//kyukensya.com/",
    "pref": "茨城県",
    "city": "常陸大宮市",
    "category": "community_day_service",
    "serviceType": "地域密着型通所介護",
    "capacity": 0,
    "openDays": [
      "平日",
      "祝日"
    ],
    "openDaysNote": "1/1～1/3、事業所の都合により特に定めた日"
  },
  {
    "id": "872500327",
    "name": "株式会社上高野の里",
    "kana": "カブシキガイシャカミコウヤノサト",
    "address": "下村田2307",
    "lat": 36.5189387,
    "lng": 140.4180991,
    "tel": "0295-55-8270",
    "url": "http://kamikouyanosato.on.arena.ne.jp",
    "pref": "茨城県",
    "city": "常陸大宮市",
    "category": "community_day_service",
    "serviceType": "地域密着型通所介護",
    "capacity": 0,
    "openDays": [
      "平日",
      "土曜日",
      "日曜日",
      "祝日"
    ],
    "openDaysNote": ""
  },
  {
    "id": "895200160",
    "name": "デイサービス　たいよう",
    "kana": "デイサービス　タイヨウ",
    "address": "茨城県神栖市深芝南3-26-6",
    "lat": 35.9145647,
    "lng": 140.6499817,
    "tel": "0299-95-6222",
    "url": "https://www.no-limit2023.com/",
    "pref": "茨城県",
    "city": "神栖市",
    "category": "community_day_service",
    "serviceType": "地域密着型通所介護",
    "capacity": 0,
    "openDays": [
      "平日",
      "祝日"
    ],
    "openDaysNote": ""
  },
  {
    "id": "895200152",
    "name": "デイサービス　花結び",
    "kana": "デイサービス　ハナムスビ",
    "address": "茨城県神栖市知手中央4-3-11",
    "lat": 35.8770759999122,
    "lng": 140.714402468123,
    "tel": "0299-95-8833",
    "url": "https://day-hanamusubi.com/",
    "pref": "茨城県",
    "city": "神栖市",
    "category": "community_day_service",
    "serviceType": "地域密着型通所介護",
    "capacity": 0,
    "openDays": [
      "平日",
      "土曜日",
      "祝日"
    ],
    "openDaysNote": ""
  },
  {
    "id": "873600274",
    "name": "デイサービスセンターしおさい苑",
    "kana": "デイサービズセンター　シオサイエン",
    "address": "茨城県神栖市矢田部9416-1",
    "lat": 35.8031175,
    "lng": 140.7864019,
    "tel": "0479-48-1110",
    "url": "",
    "pref": "茨城県",
    "city": "神栖市",
    "category": "community_day_service",
    "serviceType": "地域密着型通所介護",
    "capacity": 0,
    "openDays": [
      "平日",
      "祝日"
    ],
    "openDaysNote": "毎月第3土曜日は、9：00～17：00まで行っています。"
  },
  {
    "id": "875200610",
    "name": "デイサービスセンターなごみ",
    "kana": "デイサービスセンターナゴミ",
    "address": "茨城県神栖市波崎6442-1",
    "lat": 35.7523967698674,
    "lng": 140.806933802377,
    "tel": "0479-40-3910",
    "url": "http://hp.kaipoke.biz/eed/",
    "pref": "茨城県",
    "city": "神栖市",
    "category": "community_day_service",
    "serviceType": "地域密着型通所介護",
    "capacity": 0,
    "openDays": [
      "平日",
      "土曜日",
      "祝日"
    ],
    "openDaysNote": ""
  },
  {
    "id": "875200669",
    "name": "デイサービス花めぐみ",
    "kana": "デイサービスハナメグミ",
    "address": "茨城県神栖市太田1885-9",
    "lat": 35.800288347308,
    "lng": 140.750162239365,
    "tel": "0479-21-7878",
    "url": "",
    "pref": "茨城県",
    "city": "神栖市",
    "category": "community_day_service",
    "serviceType": "地域密着型通所介護",
    "capacity": 0,
    "openDays": [
      "平日"
    ],
    "openDaysNote": ""
  },
  {
    "id": "875200560",
    "name": "デイぬくもり",
    "kana": "デイヌクモリ",
    "address": "茨城県神栖市息栖3950-64",
    "lat": 35.8815131,
    "lng": 140.6344803,
    "tel": "0299-91-1281",
    "url": "http://care-net.biz/08/satellite/",
    "pref": "茨城県",
    "city": "神栖市",
    "category": "community_day_service",
    "serviceType": "地域密着型通所介護",
    "capacity": 18,
    "openDays": [
      "平日",
      "土曜日",
      "日曜日",
      "祝日"
    ],
    "openDaysNote": "年末年始休業（12月31日～1月3日）、夏季休業（8月13日～8月15日）（改行）必要がある時は、休業日・時間外にも対応します"
  },
  {
    "id": "895200111",
    "name": "ハッピーエブリ神栖波崎店",
    "kana": "ハッピーエブリカミスハサキテン",
    "address": "茨城県神栖市波崎7683-7",
    "lat": 35.751521,
    "lng": 140.816472,
    "tel": "0479-21-7102",
    "url": "https://dayservice.happyevery.jp/",
    "pref": "茨城県",
    "city": "神栖市",
    "category": "community_day_service",
    "serviceType": "地域密着型通所介護",
    "capacity": null,
    "openDays": [
      "平日",
      "祝日"
    ],
    "openDaysNote": ""
  },
  {
    "id": "873600795",
    "name": "ふくしの介護センター",
    "kana": "フクシノカイゴセンター",
    "address": "茨城県神栖市高浜880",
    "lat": 35.8686962,
    "lng": 140.64418,
    "tel": "0299-91-1261",
    "url": "https://fukushino.jp/",
    "pref": "茨城県",
    "city": "神栖市",
    "category": "community_day_service",
    "serviceType": "地域密着型通所介護",
    "capacity": null,
    "openDays": [
      "平日",
      "祝日"
    ],
    "openDaysNote": "１２/３１～1/3は年末年始でお休みします"
  },
  {
    "id": "875200800",
    "name": "リハビリデイサービス　ケアプラスかみす",
    "kana": "リハビリデイサービス　ケアプラスカミス",
    "address": "茨城県神栖市知手中央4-12-9",
    "lat": 35.8781772,
    "lng": 140.7168955,
    "tel": "0299-95-7722",
    "url": "",
    "pref": "茨城県",
    "city": "神栖市",
    "category": "community_day_service",
    "serviceType": "地域密着型通所介護",
    "capacity": 18,
    "openDays": [
      "平日",
      "祝日"
    ],
    "openDaysNote": ""
  },
  {
    "id": "08A5200100",
    "name": "リハビリ麻雀デイサービス花恵",
    "kana": "リハビリマージャンデイサービスハナケイ",
    "address": "茨城県神栖市大野原2丁目29-41",
    "lat": 35.8946431,
    "lng": 140.6455376,
    "tel": "090-9202-3163",
    "url": "",
    "pref": "茨城県",
    "city": "神栖市",
    "category": "community_day_service",
    "serviceType": "地域密着型通所介護",
    "capacity": null,
    "openDays": [
      "平日",
      "祝日"
    ],
    "openDaysNote": ""
  },
  {
    "id": "08A5200092",
    "name": "元気クラブらっぽ",
    "kana": "ゲンキクラブラッポ",
    "address": "茨城県神栖市神栖３丁目９－１１",
    "lat": 35.9049076330482,
    "lng": 140.650130164943,
    "tel": "0299-94-8870",
    "url": "",
    "pref": "茨城県",
    "city": "神栖市",
    "category": "community_day_service",
    "serviceType": "地域密着型通所介護",
    "capacity": 18,
    "openDays": [
      "平日"
    ],
    "openDaysNote": "９時～１２時は、要介護メイン（要支援・事業対象者の利用も可）（改行）１３時３０分～１５時３０分は、要支援・事業対象者となっている。"
  },
  {
    "id": "875200529",
    "name": "寿　デイサービス",
    "kana": "コトブキ　デイサービス",
    "address": "茨城県神栖市神栖三町目１１番９号",
    "lat": 35.9038335,
    "lng": 140.64872,
    "tel": "0299-94-7652",
    "url": "",
    "pref": "茨城県",
    "city": "神栖市",
    "category": "community_day_service",
    "serviceType": "地域密着型通所介護",
    "capacity": null,
    "openDays": [
      "平日",
      "祝日"
    ],
    "openDaysNote": ""
  },
  {
    "id": "870102167",
    "name": "あおぞらデイサービス水戸",
    "kana": "アオゾラデイサービスミト",
    "address": "水戸市見川5-1250-6",
    "lat": 36.3697625,
    "lng": 140.425114,
    "tel": "029-252-0838",
    "url": "http://ameblo.jp/nsiwashita/",
    "pref": "茨城県",
    "city": "水戸市",
    "category": "community_day_service",
    "serviceType": "地域密着型通所介護",
    "capacity": 0,
    "openDays": [
      "平日",
      "土曜日",
      "祝日"
    ],
    "openDaysNote": ""
  },
  {
    "id": "870102373",
    "name": "ケアレジデンス水戸　デイサービスセンター五軒町",
    "kana": "ケアレジデンスミト　デイサービスセンターゴケンチョウ",
    "address": "茨城県水戸市五軒町３丁目４番７号",
    "lat": 36.3836094,
    "lng": 140.4601356,
    "tel": "029-300-5120",
    "url": "http://www.careresi.jp/",
    "pref": "茨城県",
    "city": "水戸市",
    "category": "community_day_service",
    "serviceType": "地域密着型通所介護",
    "capacity": 15,
    "openDays": [
      "平日",
      "土曜日",
      "祝日"
    ],
    "openDaysNote": "サービス提供時間は9:00～16:00"
  },
  {
    "id": "890100381",
    "name": "ご長寿くらぶ　水戸・石川",
    "kana": "ゴチョウジュクラブミトイシカワ",
    "address": "茨城県水戸市石川一丁目3964－2",
    "lat": 36.3894606979194,
    "lng": 140.429575596295,
    "tel": "293068872",
    "url": "https://gotyoujyuclub.com/hometype/ibaraki/mito/2922",
    "pref": "茨城県",
    "city": "水戸市",
    "category": "community_day_service",
    "serviceType": "地域密着型通所介護",
    "capacity": 15,
    "openDays": [
      "平日",
      "土曜日",
      "日曜日",
      "祝日"
    ],
    "openDaysNote": ""
  },
  {
    "id": "870105475",
    "name": "ご長寿くらぶ水戸けやき台",
    "kana": "ゴチョウジュクラブミトケヤキダイ",
    "address": "茨城県水戸市けやき台2丁目51番地4",
    "lat": 36.3357148,
    "lng": 140.4898981,
    "tel": "029-246-6045",
    "url": "",
    "pref": "茨城県",
    "city": "水戸市",
    "category": "community_day_service",
    "serviceType": "地域密着型通所介護",
    "capacity": 18,
    "openDays": [
      "平日",
      "土曜日"
    ],
    "openDaysNote": ""
  },
  {
    "id": "870105483",
    "name": "ご長寿くらぶ水戸河和田デイサービスセンター",
    "kana": "ゴチョウジュクラブミトカワワダデイサービスセンター",
    "address": "茨城県水戸市河和田2-21-18",
    "lat": 36.3782052,
    "lng": 140.4067168,
    "tel": "029-246-6361",
    "url": "https://gotyoujyuclub.com/",
    "pref": "茨城県",
    "city": "水戸市",
    "category": "community_day_service",
    "serviceType": "地域密着型通所介護",
    "capacity": 0,
    "openDays": [
      "平日"
    ],
    "openDaysNote": "サービス提供時間は9：15～16：30まで"
  },
  {
    "id": "890100365",
    "name": "ご長寿くらぶ水戸金町デイサービスセンター",
    "kana": "ゴチョウジュクラブミトカネマチデイサービスセンター",
    "address": "金町2-3-30",
    "lat": 35.7656212,
    "lng": 139.867526,
    "tel": "029-297-7785",
    "url": "",
    "pref": "茨城県",
    "city": "水戸市",
    "category": "community_day_service",
    "serviceType": "地域密着型通所介護",
    "capacity": 0,
    "openDays": [
      "平日",
      "土曜日",
      "祝日"
    ],
    "openDaysNote": ""
  },
  {
    "id": "873100705",
    "name": "サンピアデイサービスセンター",
    "kana": "サンピアデイサービスセンター",
    "address": "茨城県水戸市内原町１２６番地",
    "lat": 36.370887,
    "lng": 140.3565258,
    "tel": "029-259-2666",
    "url": "http://anshin-sunpia.or.jp/",
    "pref": "茨城県",
    "city": "水戸市",
    "category": "community_day_service",
    "serviceType": "地域密着型通所介護",
    "capacity": 0,
    "openDays": [
      "平日"
    ],
    "openDaysNote": ""
  },
  {
    "id": "870104734",
    "name": "つねずみ接骨院リハビリデイサービス",
    "kana": "ツネズミセッコツインリハビリデイサービス",
    "address": "茨城県水戸市栗崎町1561番地の-1",
    "lat": 36.3468533,
    "lng": 140.5224646,
    "tel": "０２９－２４０－５８８５",
    "url": "",
    "pref": "茨城県",
    "city": "水戸市",
    "category": "community_day_service",
    "serviceType": "地域密着型通所介護",
    "capacity": 10,
    "openDays": [
      "平日"
    ],
    "openDaysNote": "ゴールデンウイーク（カレンダー通り）（改行）お盆8／13〜8／16（改行）年末年始12／30〜1／3　　　　　お休みとなります。"
  },
  {
    "id": "870105830",
    "name": "デイサービス　てんしん",
    "kana": "デイサービス　テンシン",
    "address": "茨城県水戸市内原町817番地の3",
    "lat": 36.3692288,
    "lng": 140.3545744,
    "tel": "029-259-5355",
    "url": "",
    "pref": "茨城県",
    "city": "水戸市",
    "category": "community_day_service",
    "serviceType": "地域密着型通所介護",
    "capacity": 0,
    "openDays": [
      "平日"
    ],
    "openDaysNote": "利用者様のニーズに対応している。"
  },
  {
    "id": "890100316",
    "name": "デイサービス　ハートライフ城東",
    "kana": "デイサービス　ハートライフジョウトウ",
    "address": "茨城県水戸市城東3-2-23",
    "lat": 36.3722998,
    "lng": 140.4967024,
    "tel": "029-291-3303",
    "url": "",
    "pref": "茨城県",
    "city": "水戸市",
    "category": "community_day_service",
    "serviceType": "地域密着型通所介護",
    "capacity": 0,
    "openDays": [
      "平日",
      "土曜日"
    ],
    "openDaysNote": ""
  },
  {
    "id": "870105442",
    "name": "デイサービス　ピースフル・ウッズ",
    "kana": "デイサービス　ピースフル・ウッズ",
    "address": "東前町1165番地サービス付き高齢者向け住宅ピースフル・ウッズ東前 サービス付き高齢者向け住宅ピースフル・ウッズ東前",
    "lat": 36.3390871116987,
    "lng": 140.523820325131,
    "tel": "029-306-7165",
    "url": "http://sugisyoku.co.jp/",
    "pref": "茨城県",
    "city": "水戸市",
    "category": "community_day_service",
    "serviceType": "地域密着型通所介護",
    "capacity": null,
    "openDays": [
      "平日",
      "土曜日",
      "祝日"
    ],
    "openDaysNote": ""
  },
  {
    "id": "870105210",
    "name": "デイサービス　まごころの家　水戸駅南",
    "kana": "デイサービス　マゴコロノイエ　ミトエキミナミ",
    "address": "茨城県水戸市元吉田町５７５－１",
    "lat": 36.3597785,
    "lng": 140.4775962,
    "tel": "029-239-5820",
    "url": "",
    "pref": "茨城県",
    "city": "水戸市",
    "category": "community_day_service",
    "serviceType": "地域密着型通所介護",
    "capacity": 0,
    "openDays": [
      "平日",
      "土曜日",
      "祝日"
    ],
    "openDaysNote": ""
  },
  {
    "id": "870105632",
    "name": "デイサービス　まごころの家　水戸若宮",
    "kana": "デイサービス　マゴコロノイエ　ミトワカミヤ",
    "address": "茨城県水戸市若宮２－５－３１",
    "lat": 36.3774631,
    "lng": 140.5013246,
    "tel": "029-306-6700",
    "url": "",
    "pref": "茨城県",
    "city": "水戸市",
    "category": "community_day_service",
    "serviceType": "地域密着型通所介護",
    "capacity": 0,
    "openDays": [
      "平日",
      "土曜日",
      "日曜日",
      "祝日"
    ],
    "openDaysNote": ""
  },
  {
    "id": "870104817",
    "name": "デイサービス　まごころの家　水戸堀町",
    "kana": "デイサービス　マゴコロノイエ　ミトホリチョウ",
    "address": "茨城県水戸市堀町９２０－１",
    "lat": 36.403245133481,
    "lng": 140.428771406221,
    "tel": "029-309-1250",
    "url": "",
    "pref": "茨城県",
    "city": "水戸市",
    "category": "community_day_service",
    "serviceType": "地域密着型通所介護",
    "capacity": 0,
    "openDays": [
      "平日",
      "土曜日",
      "祝日"
    ],
    "openDaysNote": ""
  },
  {
    "id": "870104601",
    "name": "デイサービス　まごころの家　赤塚",
    "kana": "デイサービス　マゴコロノイエ　アカツカ",
    "address": "茨城県水戸市中丸町２７０",
    "lat": 36.3879877,
    "lng": 140.4094704,
    "tel": "029-309-0056",
    "url": "",
    "pref": "茨城県",
    "city": "水戸市",
    "category": "community_day_service",
    "serviceType": "地域密着型通所介護",
    "capacity": 0,
    "openDays": [
      "平日",
      "土曜日",
      "祝日"
    ],
    "openDaysNote": ""
  },
  {
    "id": "870102811",
    "name": "デイサービス　東野の家",
    "kana": "デイサービス　トウノノイエ",
    "address": "水戸市東野町215-1",
    "lat": 36.3227496,
    "lng": 140.4519523,
    "tel": "029-247-1551",
    "url": "http://www.tokusenkai.jimusho.jp/",
    "pref": "茨城県",
    "city": "水戸市",
    "category": "community_day_service",
    "serviceType": "地域密着型通所介護",
    "capacity": null,
    "openDays": [
      "平日",
      "祝日"
    ],
    "openDaysNote": ""
  },
  {
    "id": "870104221",
    "name": "デイサービスここいち水戸",
    "kana": "デイサービスココイチミト",
    "address": "茨城県水戸市大塚町1612-2",
    "lat": 36.3868014,
    "lng": 140.397295,
    "tel": "029-353-6761",
    "url": "https://isshin.gr.jp/index.php",
    "pref": "茨城県",
    "city": "水戸市",
    "category": "community_day_service",
    "serviceType": "地域密着型通所介護",
    "capacity": 0,
    "openDays": [
      "平日",
      "土曜日",
      "祝日"
    ],
    "openDaysNote": ""
  },
  {
    "id": "870105426",
    "name": "デイサービスここいち水戸城東",
    "kana": "デイサービスココイチミトジョウトウ",
    "address": "茨城県水戸市城東4-4-6",
    "lat": 36.3746261,
    "lng": 140.4945523,
    "tel": "029-246-5175",
    "url": "https://isshin.gr.jp/index.php",
    "pref": "茨城県",
    "city": "水戸市",
    "category": "community_day_service",
    "serviceType": "地域密着型通所介護",
    "capacity": 0,
    "openDays": [
      "平日",
      "土曜日",
      "祝日"
    ],
    "openDaysNote": ""
  },
  {
    "id": "870104627",
    "name": "デイサービスセンター　アテンドハウス・ウエスト",
    "kana": "デイサービスセンター　アテンドハウス・ウエスト",
    "address": "茨城県水戸市東原3-2-12アテンドハウス・ウエスト アテンドハウス・ウエスト",
    "lat": 36.386806,
    "lng": 140.4463505,
    "tel": "029-303-2005",
    "url": "http://www.hokuyoukai.jp/attendhouse-west/",
    "pref": "茨城県",
    "city": "水戸市",
    "category": "community_day_service",
    "serviceType": "地域密着型通所介護",
    "capacity": 18,
    "openDays": [
      "平日",
      "土曜日",
      "日曜日",
      "祝日"
    ],
    "openDaysNote": ""
  },
  {
    "id": "870101862",
    "name": "デイサービスセンター　しゃらく",
    "kana": "デイサービスセンター　シャラク",
    "address": "茨城県水戸市中丸町604-1",
    "lat": 36.3908506,
    "lng": 140.4013795,
    "tel": "029-257-2565",
    "url": "",
    "pref": "茨城県",
    "city": "水戸市",
    "category": "community_day_service",
    "serviceType": "地域密着型通所介護",
    "capacity": 0,
    "openDays": [
      "平日",
      "祝日"
    ],
    "openDaysNote": "振替え利用や突発利用なども可能です。また、準備が間に合わなかったり行き渋りがあったりする場合でも再度時間を調整してお迎えに行くなどの対応もしております。利用時間も支援家族や家庭環境の要望に細やかに対応いたしますのでご相談下さい。"
  },
  {
    "id": "890100373",
    "name": "デイサービスセンター和敬",
    "kana": "デイサービスセンターワケイ",
    "address": "茨城県水戸市城東３丁目５－８城東ロイヤルハイツ１０６ 城東ロイヤルハイツ１０６",
    "lat": 36.3723044,
    "lng": 140.4992098,
    "tel": "029-350-9328",
    "url": "",
    "pref": "茨城県",
    "city": "水戸市",
    "category": "community_day_service",
    "serviceType": "地域密着型通所介護",
    "capacity": 0,
    "openDays": [
      "平日",
      "土曜日",
      "祝日"
    ],
    "openDaysNote": ""
  },
  {
    "id": "890100209",
    "name": "デイサービスわくわく",
    "kana": "デイサービスワクワク",
    "address": "茨城県水戸市松が丘2-1-2和楽久プロシード赤塚 和楽久プロシード赤塚",
    "lat": 36.3870061,
    "lng": 140.4334511,
    "tel": "029-291-7700",
    "url": "https://wa-ra-ku.com",
    "pref": "茨城県",
    "city": "水戸市",
    "category": "community_day_service",
    "serviceType": "地域密着型通所介護",
    "capacity": 0,
    "openDays": [
      "平日",
      "土曜日"
    ],
    "openDaysNote": "12月30日から1月30日までを除く"
  },
  {
    "id": "870104452",
    "name": "デイサービス桜香",
    "kana": "デイサービスオウカ",
    "address": "茨城県水戸市千波町２７７６−１６",
    "lat": 36.3599735,
    "lng": 140.4504617,
    "tel": "029-353-8386",
    "url": "",
    "pref": "茨城県",
    "city": "水戸市",
    "category": "community_day_service",
    "serviceType": "地域密着型通所介護",
    "capacity": null,
    "openDays": [
      "平日",
      "祝日"
    ],
    "openDaysNote": ""
  },
  {
    "id": "870103843",
    "name": "デイサービス百合が丘",
    "kana": "デイサービスユリガオカ",
    "address": "茨城県水戸市六反田町1000-2",
    "lat": 36.3480924,
    "lng": 140.5100748,
    "tel": "029-306-8761",
    "url": "",
    "pref": "茨城県",
    "city": "水戸市",
    "category": "community_day_service",
    "serviceType": "地域密着型通所介護",
    "capacity": 10,
    "openDays": [
      "平日",
      "土曜日",
      "祝日"
    ],
    "openDaysNote": ""
  },
  {
    "id": "870103744",
    "name": "デイサービス野ばら　千波みどり館",
    "kana": "デイサービスノバラ　センバミドリカン",
    "address": "茨城県水戸市千波町1384-7",
    "lat": 36.3573691327941,
    "lng": 140.470185663926,
    "tel": "029-306-7742",
    "url": "http://www.nobara-kaigo.com",
    "pref": "茨城県",
    "city": "水戸市",
    "category": "community_day_service",
    "serviceType": "地域密着型通所介護",
    "capacity": 18,
    "openDays": [
      "平日",
      "土曜日",
      "日曜日",
      "祝日"
    ],
    "openDaysNote": ""
  },
  {
    "id": "870104379",
    "name": "デイサービス野ばら堀町館",
    "kana": "デイサービスノバラホリマチカン",
    "address": "茨城県水戸市堀町１１４７－１２５",
    "lat": 36.3960184,
    "lng": 140.4299568,
    "tel": "０２９－３５３－８９５１",
    "url": "https://nobara-horimachi.com/",
    "pref": "茨城県",
    "city": "水戸市",
    "category": "community_day_service",
    "serviceType": "地域密着型通所介護",
    "capacity": null,
    "openDays": [
      "平日",
      "土曜日",
      "日曜日",
      "祝日"
    ],
    "openDaysNote": ""
  },
  {
    "id": "890100225",
    "name": "デイサロン欅倶楽部",
    "kana": "デイサロンケヤキクラブ",
    "address": "茨城県水戸市酒門町3158",
    "lat": 36.3404528,
    "lng": 140.4872276,
    "tel": "029-350-2055",
    "url": "http://www.momiyama-kai.org",
    "pref": "茨城県",
    "city": "水戸市",
    "category": "community_day_service",
    "serviceType": "地域密着型通所介護",
    "capacity": 0,
    "openDays": [
      "平日",
      "土曜日",
      "祝日"
    ],
    "openDaysNote": ""
  },
  {
    "id": "890100548",
    "name": "デイホームМＹＳＡ",
    "kana": "デイホームミーサ",
    "address": "茨城県水戸市元吉田町２７９５－２",
    "lat": 36.3580451,
    "lng": 140.488837,
    "tel": "029-350-3531",
    "url": "http://hp.kaipoke.biz/1pg/",
    "pref": "茨城県",
    "city": "水戸市",
    "category": "community_day_service",
    "serviceType": "地域密着型通所介護",
    "capacity": 18,
    "openDays": [
      "平日",
      "土曜日",
      "日曜日",
      "祝日"
    ],
    "openDaysNote": ""
  },
  {
    "id": "870104114",
    "name": "なごみの家",
    "kana": "ナゴミノイエ",
    "address": "茨城県水戸市青柳町字藤柄4713",
    "lat": 36.3856271972138,
    "lng": 140.484920108768,
    "tel": "029-353-6753",
    "url": "",
    "pref": "茨城県",
    "city": "水戸市",
    "category": "community_day_service",
    "serviceType": "地域密着型通所介護",
    "capacity": 0,
    "openDays": [
      "平日",
      "土曜日",
      "祝日"
    ],
    "openDaysNote": ""
  },
  {
    "id": "870105269",
    "name": "ﾌﾛｲﾃﾞ総合在宅SC水戸けやき台　小規模デイサービスつどいの家",
    "kana": "フロイデソウゴウザイタクエスシーミトケヤキダイ　ショウキボデイサービスツドイノイエ",
    "address": "茨城県水戸市酒門町千束3282-6",
    "lat": 36.3381144292479,
    "lng": 140.484896624925,
    "tel": "029-291-3311",
    "url": "https://www.hakujinkai.com/satellite_sc_keyakidai.php",
    "pref": "茨城県",
    "city": "水戸市",
    "category": "community_day_service",
    "serviceType": "地域密着型通所介護",
    "capacity": 6,
    "openDays": [
      "平日",
      "土曜日",
      "日曜日",
      "祝日"
    ],
    "openDaysNote": ""
  },
  {
    "id": "890100191",
    "name": "まちなかデイサービスななほし",
    "kana": "マチナカデイサービスナナホシ",
    "address": "茨城県水戸市泉町3－1－23",
    "lat": 36.3793395,
    "lng": 140.4611651,
    "tel": "029-233-5226",
    "url": "https://www.iwamatoukadou.jp",
    "pref": "茨城県",
    "city": "水戸市",
    "category": "community_day_service",
    "serviceType": "地域密着型通所介護",
    "capacity": 0,
    "openDays": [
      "平日",
      "祝日"
    ],
    "openDaysNote": "大雪等の自然災害時には臨時休業することがございます。"
  },
  {
    "id": "870100443",
    "name": "ライフピア青柳　通所介護事業所",
    "kana": "ライフピアアオヤギ　ツウショカイゴジギョウショ",
    "address": "茨城県水戸市青柳町3796",
    "lat": 36.3984414,
    "lng": 140.4778841,
    "tel": "029-224-5855",
    "url": "https://www.koushoukai.or.jp/",
    "pref": "茨城県",
    "city": "水戸市",
    "category": "community_day_service",
    "serviceType": "地域密着型通所介護",
    "capacity": null,
    "openDays": [
      "平日",
      "土曜日",
      "祝日"
    ],
    "openDaysNote": ""
  },
  {
    "id": "870101169",
    "name": "リハビリデイサービスセンター　はーとぴあ",
    "kana": "リハビリデイサービスセンター　ハートピア",
    "address": "茨城県水戸市開江町8番地",
    "lat": 36.395681,
    "lng": 140.390705,
    "tel": "029-257-6001",
    "url": "http://www.heart-pia.com",
    "pref": "茨城県",
    "city": "水戸市",
    "category": "community_day_service",
    "serviceType": "地域密着型通所介護",
    "capacity": 15,
    "openDays": [
      "平日",
      "祝日"
    ],
    "openDaysNote": ""
  },
  {
    "id": "890100472",
    "name": "リハプライド水戸",
    "kana": "リハプライドミト",
    "address": "茨城県水戸市笠原町1191-2",
    "lat": 36.3481742,
    "lng": 140.451657,
    "tel": "029-305-5022",
    "url": "https://rehapride.co.jp/reha_mito/",
    "pref": "茨城県",
    "city": "水戸市",
    "category": "community_day_service",
    "serviceType": "地域密着型通所介護",
    "capacity": null,
    "openDays": [
      "平日",
      "土曜日",
      "祝日"
    ],
    "openDaysNote": ""
  },
  {
    "id": "890100506",
    "name": "リラクゼーション型デイサービス　ジョリテラス",
    "kana": "リラクゼーションガタ　ジョリテラス",
    "address": "見和2丁目191-1緑川ビル 緑川ビル",
    "lat": 36.37304,
    "lng": 140.4275326,
    "tel": "029-303-5152",
    "url": "",
    "pref": "茨城県",
    "city": "水戸市",
    "category": "community_day_service",
    "serviceType": "地域密着型通所介護",
    "capacity": 90,
    "openDays": [
      "平日",
      "祝日"
    ],
    "openDaysNote": "平日に祝日ある場合は通常営業"
  },
  {
    "id": "890100589",
    "name": "合同会社アットリセスデイサービスつなぐ",
    "kana": "ゴウドウガイシャアットリセスデイサービスツナグ",
    "address": "茨城県水戸市河和田町4126-224",
    "lat": 36.353026,
    "lng": 140.4027516,
    "tel": "029-279-0475",
    "url": "",
    "pref": "茨城県",
    "city": "水戸市",
    "category": "community_day_service",
    "serviceType": "地域密着型通所介護",
    "capacity": 5,
    "openDays": [
      "平日",
      "土曜日"
    ],
    "openDaysNote": ""
  },
  {
    "id": "870105061",
    "name": "社会福祉法人　樅山会　デイサロン千波山",
    "kana": "シャカイフクシホウジンモミヤマカイデイサロンセンバヤマ",
    "address": "茨城県水戸市千波町508-63",
    "lat": 36.3680135091789,
    "lng": 140.451228659911,
    "tel": "０２９－３０５－１８８８",
    "url": "http://www.momiyama-kai.org/",
    "pref": "茨城県",
    "city": "水戸市",
    "category": "community_day_service",
    "serviceType": "地域密着型通所介護",
    "capacity": 0,
    "openDays": [
      "平日",
      "土曜日",
      "祝日"
    ],
    "openDaysNote": "特になし"
  },
  {
    "id": "870105129",
    "name": "種村デイサービス",
    "kana": "タネムラデイサービス",
    "address": "茨城県水戸市堀町2294-10",
    "lat": 36.3941495,
    "lng": 140.4198164,
    "tel": "029-350-5350",
    "url": "",
    "pref": "茨城県",
    "city": "水戸市",
    "category": "community_day_service",
    "serviceType": "地域密着型通所介護",
    "capacity": 0,
    "openDays": [
      "平日",
      "土曜日"
    ],
    "openDaysNote": ""
  },
  {
    "id": "890100654",
    "name": "樹楽水戸千波",
    "kana": "キラクミトセンバ",
    "address": "茨城県水戸市千波町2365-7",
    "lat": 36.3592963,
    "lng": 140.445292,
    "tel": "029-306-9000",
    "url": "https://www.kiraku-ac.com/shisetsu/list/ibaraki/sembacho/",
    "pref": "茨城県",
    "city": "水戸市",
    "category": "community_day_service",
    "serviceType": "地域密着型通所介護",
    "capacity": 0,
    "openDays": [
      "平日",
      "土曜日",
      "日曜日",
      "祝日"
    ],
    "openDaysNote": "年末年始も営業しています。"
  },
  {
    "id": "870104940",
    "name": "助川接骨院機能訓練特化型デイサービス",
    "kana": "スケガワセッコツインキノウクンレントッカガタデイサービス",
    "address": "茨城県水戸市末広町1-4-11",
    "lat": 36.388184,
    "lng": 140.4557246,
    "tel": "029-233-9275",
    "url": "https://sukegawasekkotsuin.com/",
    "pref": "茨城県",
    "city": "水戸市",
    "category": "community_day_service",
    "serviceType": "地域密着型通所介護",
    "capacity": null,
    "openDays": [
      "平日",
      "土曜日"
    ],
    "openDaysNote": ""
  },
  {
    "id": "890100217",
    "name": "心の里ディサービスセンター",
    "kana": "ココロノサト",
    "address": "茨城県水戸市松が丘１－５－１０",
    "lat": 36.3864971,
    "lng": 140.4345932,
    "tel": "０２９－２３３－７５５６",
    "url": "",
    "pref": "茨城県",
    "city": "水戸市",
    "category": "community_day_service",
    "serviceType": "地域密着型通所介護",
    "capacity": 18,
    "openDays": [
      "平日",
      "土曜日",
      "日曜日",
      "祝日"
    ],
    "openDaysNote": ""
  },
  {
    "id": "870103553",
    "name": "特別養護老人ホーム　はぎの郷",
    "kana": "トクベツヨウゴロウジンホーム　ハギノサト",
    "address": "茨城県水戸市酒門町2946-3",
    "lat": 36.34112,
    "lng": 140.497658,
    "tel": "029-291-7780",
    "url": "http://www.mokusei-grp.jp/contents/senior_support/haginosato.html",
    "pref": "茨城県",
    "city": "水戸市",
    "category": "community_day_service",
    "serviceType": "地域密着型通所介護",
    "capacity": 17,
    "openDays": [
      "平日",
      "土曜日",
      "祝日"
    ],
    "openDaysNote": ""
  },
  {
    "id": "890100340",
    "name": "福祉サポートセンターあすなろ",
    "kana": "フクシサポートセンターアスナロ",
    "address": "茨城県水戸市赤尾関町986番1",
    "lat": 36.369120013413,
    "lng": 140.368267026289,
    "tel": "029-297-1400",
    "url": "https://www.fukushi-support-asunaro.jp/",
    "pref": "茨城県",
    "city": "水戸市",
    "category": "community_day_service",
    "serviceType": "地域密着型通所介護",
    "capacity": 15,
    "openDays": [
      "平日"
    ],
    "openDaysNote": ""
  },
  {
    "id": "870500915",
    "name": "コープ菜の花石岡旭台デイサービスセンター",
    "kana": "コープナノハナイシオカアサヒダイデイサービスセンター",
    "address": "茨城県石岡市旭台3丁目15－2",
    "lat": 36.1903904,
    "lng": 140.3053594,
    "tel": "299285066",
    "url": "http://ibaraki.coopnet.or.jp",
    "pref": "茨城県",
    "city": "石岡市",
    "category": "community_day_service",
    "serviceType": "地域密着型通所介護",
    "capacity": 15,
    "openDays": [
      "平日",
      "祝日"
    ],
    "openDaysNote": ""
  },
  {
    "id": "870500972",
    "name": "デイサービス　まごころの家　石岡総社",
    "kana": "デイサービス　マゴコロノイエ　イシオカソウシャ",
    "address": "茨城県石岡市総社２－９－３８",
    "lat": 36.189129,
    "lng": 140.263949,
    "tel": "0299-27-6656",
    "url": "",
    "pref": "茨城県",
    "city": "石岡市",
    "category": "community_day_service",
    "serviceType": "地域密着型通所介護",
    "capacity": 0,
    "openDays": [
      "平日",
      "土曜日",
      "日曜日",
      "祝日"
    ],
    "openDaysNote": ""
  },
  {
    "id": "870501145",
    "name": "ディサービス　ようよう",
    "kana": "ディサービス　ヨウヨウ",
    "address": "東石岡3-2-19",
    "lat": 36.1861489,
    "lng": 140.2980854,
    "tel": "0299-56-4545",
    "url": "http://sannoudaiyouyou.jp/",
    "pref": "茨城県",
    "city": "石岡市",
    "category": "community_day_service",
    "serviceType": "地域密着型通所介護",
    "capacity": 18,
    "openDays": [
      "平日",
      "日曜日",
      "祝日"
    ],
    "openDaysNote": ""
  },
  {
    "id": "870500857",
    "name": "デイサービスここいち石岡",
    "kana": "デイサービスココイチイシオカ",
    "address": "茨城県石岡市柿岡2314-13",
    "lat": 36.2364169716239,
    "lng": 140.199683016533,
    "tel": "0299-56-5660",
    "url": "https://isshin.gr.jp/index.php",
    "pref": "茨城県",
    "city": "石岡市",
    "category": "community_day_service",
    "serviceType": "地域密着型通所介護",
    "capacity": 0,
    "openDays": [
      "平日",
      "土曜日",
      "祝日"
    ],
    "openDaysNote": "特になし"
  },
  {
    "id": "870501087",
    "name": "デイサービスセンター　いこいの郷　百百花",
    "kana": "デイサービスセンター　イコイノサト　モモカ",
    "address": "茨城県石岡市貝地　２－６－１６",
    "lat": 36.1847503,
    "lng": 140.2796562,
    "tel": "０２９９－５６－６５４７",
    "url": "",
    "pref": "茨城県",
    "city": "石岡市",
    "category": "community_day_service",
    "serviceType": "地域密着型通所介護",
    "capacity": 11,
    "openDays": [
      "平日",
      "土曜日",
      "祝日"
    ],
    "openDaysNote": "その他の休日（年末・年始　12月31日・1月1日・2日・3日）"
  },
  {
    "id": "870500535",
    "name": "デイサービスセンター　かいじ",
    "kana": "デイサービスセンター　カイジ",
    "address": "石岡市貝地　2-10-39",
    "lat": 36.1828294,
    "lng": 140.2825428,
    "tel": "0299-23-8068",
    "url": "http://nf-support.com",
    "pref": "茨城県",
    "city": "石岡市",
    "category": "community_day_service",
    "serviceType": "地域密着型通所介護",
    "capacity": 18,
    "openDays": [
      "平日",
      "祝日"
    ],
    "openDaysNote": "お盆休み(8/13～8/15)／年末年始(12/29～1/3)の休みあり"
  },
  {
    "id": "870500626",
    "name": "デイサービスセンターれもん",
    "kana": "デイサービスセンターレモン",
    "address": "茨城県石岡市下林3346番地1",
    "lat": 36.2273215,
    "lng": 140.2435088,
    "tel": "0299-43-6511",
    "url": "souyuukai-lemon-2006@ec4.technowave.ne.jp",
    "pref": "茨城県",
    "city": "石岡市",
    "category": "community_day_service",
    "serviceType": "地域密着型通所介護",
    "capacity": 0,
    "openDays": [
      "平日",
      "祝日"
    ],
    "openDaysNote": ""
  },
  {
    "id": "870500683",
    "name": "ディサービスセンター百百花",
    "kana": "ディサービスセンターモモカ",
    "address": "茨城県石岡市貝地2-6-24",
    "lat": 36.1851007,
    "lng": 140.2798173,
    "tel": "0299-24-5071",
    "url": "momoka-ms@jcom.ne.jp",
    "pref": "茨城県",
    "city": "石岡市",
    "category": "community_day_service",
    "serviceType": "地域密着型通所介護",
    "capacity": 0,
    "openDays": [
      "平日",
      "土曜日",
      "祝日"
    ],
    "openDaysNote": "土曜日は、第2土曜日、第4土曜日のみ稼働"
  },
  {
    "id": "890500200",
    "name": "デイサービス未来石岡",
    "kana": "デイサービスミライイシオカ",
    "address": "茨城県石岡市府中4丁目7-2",
    "lat": 36.1972302,
    "lng": 140.2746219,
    "tel": "0299-56-7801",
    "url": "",
    "pref": "茨城県",
    "city": "石岡市",
    "category": "community_day_service",
    "serviceType": "地域密着型通所介護",
    "capacity": 60,
    "openDays": [
      "平日",
      "祝日"
    ],
    "openDaysNote": "その他の休日として12月30日～1月3日を年末年始休業とする。"
  },
  {
    "id": "870501137",
    "name": "地域密着型通所介護デイサービス　ラ・フェリーチェ",
    "kana": "チイキミッチャクガタツウショカイゴデイサービス　ラ・フェリーチェ",
    "address": "茨城県石岡市東石岡4-1-8",
    "lat": 36.1878631,
    "lng": 140.2912769,
    "tel": "0299-56-3535",
    "url": "htt://www.sannoudai.or.jp",
    "pref": "茨城県",
    "city": "石岡市",
    "category": "community_day_service",
    "serviceType": "地域密着型通所介護",
    "capacity": 0,
    "openDays": [
      "平日",
      "祝日"
    ],
    "openDaysNote": ""
  },
  {
    "id": "873400410",
    "name": "デイサービス　あいおんの丘大子",
    "kana": "デイサービス　アイオンノオカダイゴ",
    "address": "茨城県久慈郡大子町初原２９４",
    "lat": 36.7997535,
    "lng": 140.318205,
    "tel": "0295-78-5023",
    "url": "https://youkou-kai.or.jp/",
    "pref": "茨城県",
    "city": "大子町",
    "category": "community_day_service",
    "serviceType": "地域密着型通所介護",
    "capacity": null,
    "openDays": [
      "平日",
      "祝日"
    ],
    "openDaysNote": ""
  },
  {
    "id": "873101646",
    "name": "デイサービスここいち大洗",
    "kana": "デイサービスココイチオオアライ",
    "address": "茨城県東茨城郡大洗町大貫町64-46",
    "lat": 36.3077284,
    "lng": 140.5651893,
    "tel": "029-229-0801",
    "url": "https://isshin.gr.jp/index.php",
    "pref": "茨城県",
    "city": "大洗町",
    "category": "community_day_service",
    "serviceType": "地域密着型通所介護",
    "capacity": 0,
    "openDays": [
      "平日",
      "土曜日",
      "祝日"
    ],
    "openDaysNote": ""
  },
  {
    "id": "873101687",
    "name": "デイ松ぼっくり",
    "kana": "デイマツボックリ",
    "address": "茨城県東茨城郡大洗町大貫町256-398",
    "lat": 36.2964127,
    "lng": 140.5597341,
    "tel": "029-219-8887",
    "url": "www.shinaikai.or.jp",
    "pref": "茨城県",
    "city": "大洗町",
    "category": "community_day_service",
    "serviceType": "地域密着型通所介護",
    "capacity": 15,
    "openDays": [
      "平日",
      "土曜日",
      "祝日"
    ],
    "openDaysNote": ""
  },
  {
    "id": "893100107",
    "name": "大洗町社会福祉協議会指定通所介護事業所",
    "kana": "オオアライマチシャカイフクシキョウギカイシテイツウショカイゴジギョウショ",
    "address": "茨城県東茨城郡大洗町港中央26-1大洗町健康福祉センター　ゆっくら健康館　1階 大洗町健康福祉センター　ゆっくら健康館　1階",
    "lat": 36.3114961,
    "lng": 140.570266,
    "tel": "029-266-3021",
    "url": "http://www.oarai-syakyo.or.jp/",
    "pref": "茨城県",
    "city": "大洗町",
    "category": "community_day_service",
    "serviceType": "地域密着型通所介護",
    "capacity": 18,
    "openDays": [
      "平日",
      "祝日"
    ],
    "openDaysNote": ""
  },
  {
    "id": "872700836",
    "name": "あい・すまいるデイサービス",
    "kana": "アイ・スマイルデイサービス",
    "address": "下中山676-1",
    "lat": 36.3091389,
    "lng": 139.9862228,
    "tel": "070-6515-2025",
    "url": "http://ai-smile.net/",
    "pref": "茨城県",
    "city": "筑西市",
    "category": "community_day_service",
    "serviceType": "地域密着型通所介護",
    "capacity": 0,
    "openDays": [
      "平日",
      "祝日"
    ],
    "openDaysNote": ""
  },
  {
    "id": "872700877",
    "name": "デイサービス笑福",
    "kana": "デイサービスショウフク",
    "address": "茨城県筑西市細田4-6",
    "lat": 36.3266405,
    "lng": 140.0343872,
    "tel": "0296-48-8141",
    "url": "raifufainn@ba.wakwak.com",
    "pref": "茨城県",
    "city": "筑西市",
    "category": "community_day_service",
    "serviceType": "地域密着型通所介護",
    "capacity": 0,
    "openDays": [
      "平日"
    ],
    "openDaysNote": ""
  },
  {
    "id": "872700240",
    "name": "デイホームひなたぼっこ２号館",
    "kana": "デイホームヒナタボッコニゴウカン",
    "address": "茨城県筑西市市野辺132－4番地",
    "lat": 36.3129904,
    "lng": 139.9867901,
    "tel": "0296-25-3306",
    "url": "http://www.ne.jp/asahi/hinatabokko/group/",
    "pref": "茨城県",
    "city": "筑西市",
    "category": "community_day_service",
    "serviceType": "地域密着型通所介護",
    "capacity": 0,
    "openDays": [
      "平日",
      "土曜日",
      "祝日"
    ],
    "openDaysNote": "なし"
  },
  {
    "id": "872700265",
    "name": "はあとふるデイサービスセンター",
    "kana": "ハアトフルデイサービスセンター",
    "address": "茨城県筑西市西保末23-5",
    "lat": 36.2498665089146,
    "lng": 139.99601496627,
    "tel": "0296-37-5980",
    "url": "",
    "pref": "茨城県",
    "city": "筑西市",
    "category": "community_day_service",
    "serviceType": "地域密着型通所介護",
    "capacity": 0,
    "openDays": [
      "平日",
      "土曜日",
      "祝日"
    ],
    "openDaysNote": ""
  },
  {
    "id": "892700162",
    "name": "ビビッドヒロサワシティ",
    "kana": "ビビッドヒロサワシティ",
    "address": "茨城県筑西市茂田1858－9",
    "lat": 36.2954130606263,
    "lng": 140.019840719049,
    "tel": "0296－48－8858",
    "url": "",
    "pref": "茨城県",
    "city": "筑西市",
    "category": "community_day_service",
    "serviceType": "地域密着型通所介護",
    "capacity": 0,
    "openDays": [
      "平日"
    ],
    "openDaysNote": "サービス提供時間について（改行）午前の部　9：00～12：00　午後の部　14：00～17：00　　各定員１５名"
  },
  {
    "id": "872700653",
    "name": "リハビリデイサービスあおやま",
    "kana": "リハビリデイサービスアオヤマ",
    "address": "茨城県筑西市伊讃美下原850-1",
    "lat": 36.300935,
    "lng": 139.935183,
    "tel": "0296-28-0027",
    "url": "https://aoyama-llc.com/",
    "pref": "茨城県",
    "city": "筑西市",
    "category": "community_day_service",
    "serviceType": "地域密着型通所介護",
    "capacity": 15,
    "openDays": [
      "平日",
      "祝日"
    ],
    "openDaysNote": "年末年始とお盆の休みは当社規定による休日日数。"
  },
  {
    "id": "892700105",
    "name": "介護サービス優雨　通所介護事業所",
    "kana": "カイゴサービスユウ　ツウショカイゴジギョウショ",
    "address": "茨城県筑西市蓮沼102番地5",
    "lat": 36.3235774,
    "lng": 140.0296423,
    "tel": "0296-54-4615",
    "url": "",
    "pref": "茨城県",
    "city": "筑西市",
    "category": "community_day_service",
    "serviceType": "地域密着型通所介護",
    "capacity": 3,
    "openDays": [
      "平日",
      "祝日"
    ],
    "openDaysNote": ""
  },
  {
    "id": "892700097",
    "name": "特養しらとりデイサービス",
    "kana": "トクヨウシラトリデイサービス",
    "address": "茨城県筑西市上平塚590-1",
    "lat": 36.3198854,
    "lng": 139.9292556,
    "tel": "0296-28-1277",
    "url": "http://tokuyou-shiratori.jp/",
    "pref": "茨城県",
    "city": "筑西市",
    "category": "community_day_service",
    "serviceType": "地域密着型通所介護",
    "capacity": null,
    "openDays": [
      "平日"
    ],
    "openDaysNote": ""
  },
  {
    "id": "872300355",
    "name": "デイサービスこころ",
    "kana": "デイサービスココロ",
    "address": "茨城県潮来市日の出1丁目21-1",
    "lat": 35.932777612797,
    "lng": 140.581764700664,
    "tel": "0299-80-9066",
    "url": "",
    "pref": "茨城県",
    "city": "潮来市",
    "category": "community_day_service",
    "serviceType": "地域密着型通所介護",
    "capacity": 15,
    "openDays": [
      "平日",
      "土曜日",
      "祝日"
    ],
    "openDaysNote": "１２月３１日は時間短縮での営業（１４：００まで）"
  },
  {
    "id": "890300445",
    "name": "おおらか",
    "kana": "オオラカ",
    "address": "茨城県土浦市小松1丁目22-26",
    "lat": 36.0695526,
    "lng": 140.2057746,
    "tel": "029-846-4718",
    "url": "",
    "pref": "茨城県",
    "city": "土浦市",
    "category": "community_day_service",
    "serviceType": "地域密着型通所介護",
    "capacity": null,
    "openDays": [
      "平日"
    ],
    "openDaysNote": "午前　9：00～12：05（改行）午後　13：30～16：35"
  },
  {
    "id": "890300304",
    "name": "ご長寿くらぶ土浦みぎもみ2デイサービスセンター",
    "kana": "ゴチョウジュクラブツチウラミギモミ2デイサービスセンター",
    "address": "茨城県土浦市右籾2722-3ご長寿くらぶ土浦みぎもみⅡ ご長寿くらぶ土浦みぎもみⅡ",
    "lat": 36.0438581,
    "lng": 140.1858252,
    "tel": "029-846-3622",
    "url": "",
    "pref": "茨城県",
    "city": "土浦市",
    "category": "community_day_service",
    "serviceType": "地域密着型通所介護",
    "capacity": 18,
    "openDays": [
      "平日",
      "土曜日",
      "祝日"
    ],
    "openDaysNote": ""
  },
  {
    "id": "870302569",
    "name": "ご長寿くらぶ土浦みぎもみデイサービスセンター",
    "kana": "ゴチョウジュクラブツチウラミギモミデイサービスセンター",
    "address": "土浦市右籾2722-2",
    "lat": 36.0434460373278,
    "lng": 140.186372370639,
    "tel": "029-893-2200",
    "url": "https://gotyoujyuclub.com/",
    "pref": "茨城県",
    "city": "土浦市",
    "category": "community_day_service",
    "serviceType": "地域密着型通所介護",
    "capacity": 0,
    "openDays": [
      "平日",
      "土曜日",
      "祝日"
    ],
    "openDaysNote": ""
  },
  {
    "id": "890300254",
    "name": "ご長寿くらぶ土浦小松デイサービスセンター",
    "kana": "ゴチョウジュクラブツチウラコマツデイサービスセンター",
    "address": "茨城県土浦市小松2-13-6",
    "lat": 36.06297,
    "lng": 140.1981018,
    "tel": "029-893-3522",
    "url": "http://www.urbanarchitech.com",
    "pref": "茨城県",
    "city": "土浦市",
    "category": "community_day_service",
    "serviceType": "地域密着型通所介護",
    "capacity": 0,
    "openDays": [
      "平日",
      "土曜日"
    ],
    "openDaysNote": ""
  },
  {
    "id": "890300429",
    "name": "デイサービス　コラボ",
    "kana": "デイサービス　コラボ",
    "address": "茨城県土浦市西真鍋町10-13",
    "lat": 36.0966195766634,
    "lng": 140.196426673016,
    "tel": "029-802-8110",
    "url": "",
    "pref": "茨城県",
    "city": "土浦市",
    "category": "community_day_service",
    "serviceType": "地域密着型通所介護",
    "capacity": 0,
    "openDays": [
      "平日",
      "土曜日"
    ],
    "openDaysNote": ""
  },
  {
    "id": "870302452",
    "name": "デイサービス　まごころの家　土浦上高津",
    "kana": "デイサービス　マゴコロノイエ　ツチウラカミタカツ",
    "address": "茨城県土浦市上高津新町１０－５２",
    "lat": 36.0721884,
    "lng": 140.173064,
    "tel": "029-875-4501",
    "url": "",
    "pref": "茨城県",
    "city": "土浦市",
    "category": "community_day_service",
    "serviceType": "地域密着型通所介護",
    "capacity": 0,
    "openDays": [
      "平日",
      "土曜日",
      "祝日"
    ],
    "openDaysNote": ""
  },
  {
    "id": "890300155",
    "name": "デイサービス　まごころの家　土浦真鍋",
    "kana": "デイサービス　マゴコロノイエ　ツチウラマナベ",
    "address": "茨城県土浦市真鍋２－４－３２",
    "lat": 36.0908743,
    "lng": 140.197213,
    "tel": "029-846-1288",
    "url": "",
    "pref": "茨城県",
    "city": "土浦市",
    "category": "community_day_service",
    "serviceType": "地域密着型通所介護",
    "capacity": 0,
    "openDays": [
      "平日",
      "土曜日",
      "日曜日",
      "祝日"
    ],
    "openDaysNote": ""
  },
  {
    "id": "890300338",
    "name": "デイサービス　まごころの家　土浦西根",
    "kana": "デイサービス　マゴコロノイエ　ツチウラニシネ",
    "address": "西根南１－６－１７",
    "lat": 36.04532,
    "lng": 140.1659226,
    "tel": "029-828-7503",
    "url": "",
    "pref": "茨城県",
    "city": "土浦市",
    "category": "community_day_service",
    "serviceType": "地域密着型通所介護",
    "capacity": 0,
    "openDays": [
      "平日",
      "土曜日",
      "日曜日",
      "祝日"
    ],
    "openDaysNote": ""
  },
  {
    "id": "870301868",
    "name": "デイサービスゆとりえ土浦",
    "kana": "デイサービスユトリエツチウラ",
    "address": "茨城県土浦市田中1-6-3クラフト田中一丁目テナントⅡ クラフト田中一丁目テナントⅡ",
    "lat": 36.0877852,
    "lng": 140.1936285,
    "tel": "029-875-4126",
    "url": "http://annex-ltd.jp/index.php",
    "pref": "茨城県",
    "city": "土浦市",
    "category": "community_day_service",
    "serviceType": "地域密着型通所介護",
    "capacity": 0,
    "openDays": [
      "平日",
      "土曜日",
      "祝日"
    ],
    "openDaysNote": ""
  },
  {
    "id": "890300437",
    "name": "デイサービスリバティ",
    "kana": "デイサービスリバティ",
    "address": "茨城県土浦市中１１７７ー１",
    "lat": 36.048296,
    "lng": 140.174687,
    "tel": "029-846-4085",
    "url": "",
    "pref": "茨城県",
    "city": "土浦市",
    "category": "community_day_service",
    "serviceType": "地域密着型通所介護",
    "capacity": null,
    "openDays": [
      "平日"
    ],
    "openDaysNote": ""
  },
  {
    "id": "870302510",
    "name": "のどか",
    "kana": "ノドカ",
    "address": "茨城県土浦市烏山１丁目２３４７－１",
    "lat": 36.0520374440271,
    "lng": 140.202143163902,
    "tel": "029-875-9877",
    "url": "",
    "pref": "茨城県",
    "city": "土浦市",
    "category": "community_day_service",
    "serviceType": "地域密着型通所介護",
    "capacity": 0,
    "openDays": [
      "平日",
      "土曜日"
    ],
    "openDaysNote": "お盆、年末年始の休業日については、事前に口頭・書面にて全利用者様及びご家族様へ通知している。"
  },
  {
    "id": "890300452",
    "name": "ハッピーエブリ土浦真鍋店",
    "kana": "ハッピーエブリツチウラマナベテン",
    "address": "茨城県土浦市真鍋3丁目2－5",
    "lat": 36.0918371,
    "lng": 140.200808,
    "tel": "029-875-6127",
    "url": "https://dayservice.happyevery.jp/",
    "pref": "茨城県",
    "city": "土浦市",
    "category": "community_day_service",
    "serviceType": "地域密着型通所介護",
    "capacity": null,
    "openDays": [
      "平日"
    ],
    "openDaysNote": ""
  },
  {
    "id": "870301892",
    "name": "ヤックスデイサービス土浦",
    "kana": "ヤックスデイサービスウチウラ",
    "address": "茨城県土浦市真鍋新町7-4",
    "lat": 36.0893632,
    "lng": 140.2100791,
    "tel": "029-824-1501",
    "url": "",
    "pref": "茨城県",
    "city": "土浦市",
    "category": "community_day_service",
    "serviceType": "地域密着型通所介護",
    "capacity": null,
    "openDays": [
      "平日",
      "土曜日"
    ],
    "openDaysNote": ""
  },
  {
    "id": "890300171",
    "name": "リハプライド・土浦",
    "kana": "リハプライド・ツチウラ",
    "address": "茨城県土浦市富士崎1丁目10番1号",
    "lat": 36.0714175,
    "lng": 140.1992424,
    "tel": "０２９－８９６－６９２２",
    "url": "https://rehapride.co.jp/tsuchiura",
    "pref": "茨城県",
    "city": "土浦市",
    "category": "community_day_service",
    "serviceType": "地域密着型通所介護",
    "capacity": 0,
    "openDays": [
      "平日",
      "祝日"
    ],
    "openDaysNote": "但し１２月３１日から１月３日を除く　　夏季休業　３日"
  },
  {
    "id": "890300403",
    "name": "レコードブック土浦駅前",
    "kana": "レコードブックツチウラエキマエ",
    "address": "茨城県土浦市港町1丁目7-5櫻井ビルⅡ1階 櫻井ビルⅡ1階",
    "lat": 36.0769608,
    "lng": 140.207691,
    "tel": "029-896-5884",
    "url": "https://www.recordbook.jp/facility/tsuchiuraekimae/",
    "pref": "茨城県",
    "city": "土浦市",
    "category": "community_day_service",
    "serviceType": "地域密着型通所介護",
    "capacity": 0,
    "openDays": [
      "平日",
      "祝日"
    ],
    "openDaysNote": ""
  },
  {
    "id": "890300262",
    "name": "神立デイサービスセンター優",
    "kana": "カンダツデイサービスセンターユウ",
    "address": "茨城県土浦市神立町2245-3",
    "lat": 36.1081195,
    "lng": 140.2321693,
    "tel": "029-846-1116",
    "url": "",
    "pref": "茨城県",
    "city": "土浦市",
    "category": "community_day_service",
    "serviceType": "地域密着型通所介護",
    "capacity": null,
    "openDays": [
      "平日",
      "土曜日",
      "祝日"
    ],
    "openDaysNote": ""
  },
  {
    "id": "870301371",
    "name": "土浦なごみ　デイサービス",
    "kana": "ツチウラナゴミ　デイサービス",
    "address": "茨城県土浦市右籾644-1",
    "lat": 36.0505918,
    "lng": 140.1833857,
    "tel": "029-841-7532",
    "url": "http://nagomi-tsuchiura.com/",
    "pref": "茨城県",
    "city": "土浦市",
    "category": "community_day_service",
    "serviceType": "地域密着型通所介護",
    "capacity": 10,
    "openDays": [
      "平日",
      "祝日"
    ],
    "openDaysNote": ""
  },
  {
    "id": "890300353",
    "name": "半日型デイサービスいろどり",
    "kana": "ハンニチガタデイサービスイロドリ",
    "address": "生田町３－３",
    "lat": 34.7016813,
    "lng": 135.1972777,
    "tel": "029-823-5052",
    "url": "https://irodori-tsuchiura.com",
    "pref": "茨城県",
    "city": "土浦市",
    "category": "community_day_service",
    "serviceType": "地域密着型通所介護",
    "capacity": null,
    "openDays": [
      "平日"
    ],
    "openDaysNote": ""
  },
  {
    "id": "873301154",
    "name": "デイサービス　まごころの家　村松",
    "kana": "デイサービス　マゴコロノイエ　ムラマツ",
    "address": "茨城県那珂郡東海村村松２９９－１",
    "lat": 36.4634062,
    "lng": 140.5892278,
    "tel": "029-306-5005",
    "url": "",
    "pref": "茨城県",
    "city": "東海村",
    "category": "community_day_service",
    "serviceType": "地域密着型通所介護",
    "capacity": 0,
    "openDays": [
      "平日",
      "土曜日",
      "祝日"
    ],
    "openDaysNote": ""
  },
  {
    "id": "873300743",
    "name": "デイサービスカトレア",
    "kana": "デイサービスカトレア",
    "address": "茨城県那珂郡東海村舟石川944",
    "lat": 36.4719150517043,
    "lng": 140.556644680951,
    "tel": "029-282-4141",
    "url": "",
    "pref": "茨城県",
    "city": "東海村",
    "category": "community_day_service",
    "serviceType": "地域密着型通所介護",
    "capacity": null,
    "openDays": [
      "平日",
      "土曜日"
    ],
    "openDaysNote": ""
  },
  {
    "id": "892600123",
    "name": "ケアサポートよこぼり",
    "kana": "ケアサポートヨコボリ",
    "address": "茨城県那珂市横堀1789-25",
    "lat": 36.4637067,
    "lng": 140.5169955,
    "tel": "029-212-5088",
    "url": "http://www.trust-caresupport.com",
    "pref": "茨城県",
    "city": "那珂市",
    "category": "community_day_service",
    "serviceType": "地域密着型通所介護",
    "capacity": 0,
    "openDays": [
      "平日"
    ],
    "openDaysNote": "不定期に土曜日営業あり"
  },
  {
    "id": "872600366",
    "name": "デイサービス　まごころの家　那珂",
    "kana": "デイサービス　マゴコロノイエ　ナカ",
    "address": "茨城県那珂市杉４５１－１",
    "lat": 36.459058,
    "lng": 140.5052713,
    "tel": "029-270-8355",
    "url": "",
    "pref": "茨城県",
    "city": "那珂市",
    "category": "community_day_service",
    "serviceType": "地域密着型通所介護",
    "capacity": 0,
    "openDays": [
      "平日",
      "土曜日",
      "日曜日",
      "祝日"
    ],
    "openDaysNote": ""
  },
  {
    "id": "872600010",
    "name": "デイサービスいきいき",
    "kana": "デイサービスイキイキ",
    "address": "茨城県那珂市瓜連１７４０",
    "lat": 36.504065,
    "lng": 140.4487245,
    "tel": "029-296-3360",
    "url": "https://cp-ikiiki-com.sakura.ne.jp/",
    "pref": "茨城県",
    "city": "那珂市",
    "category": "community_day_service",
    "serviceType": "地域密着型通所介護",
    "capacity": 10,
    "openDays": [
      "平日",
      "土曜日",
      "祝日"
    ],
    "openDaysNote": "時間外の自費利用ができます。"
  },
  {
    "id": "892600099",
    "name": "デイサービスえくぼ",
    "kana": "デイサービスエクボ",
    "address": "茨城県那珂市後台1495-1",
    "lat": 36.4231713,
    "lng": 140.4793251,
    "tel": "029-353-1165",
    "url": "http:/www.ekubo.ne.jp",
    "pref": "茨城県",
    "city": "那珂市",
    "category": "community_day_service",
    "serviceType": "地域密着型通所介護",
    "capacity": 18,
    "openDays": [
      "平日",
      "土曜日",
      "祝日"
    ],
    "openDaysNote": ""
  },
  {
    "id": "872600275",
    "name": "デイサービスはる風",
    "kana": "デイサービスハルカゼ",
    "address": "茨城県那珂市後台2400番地1ケアコミュニティはる風 ケアコミュニティはる風",
    "lat": 36.4353601,
    "lng": 140.4822411,
    "tel": "029-219-7255",
    "url": "",
    "pref": "茨城県",
    "city": "那珂市",
    "category": "community_day_service",
    "serviceType": "地域密着型通所介護",
    "capacity": null,
    "openDays": [
      "平日",
      "土曜日",
      "祝日"
    ],
    "openDaysNote": "12月31日～1月3日までお休みを頂いております。"
  },
  {
    "id": "892600156",
    "name": "デイサロン瓜連",
    "kana": "デイサロンウリヅラ",
    "address": "茨城県那珂市瓜連1001番地1",
    "lat": 36.4992859622358,
    "lng": 140.456912481083,
    "tel": "029-219-5220",
    "url": "",
    "pref": "茨城県",
    "city": "那珂市",
    "category": "community_day_service",
    "serviceType": "地域密着型通所介護",
    "capacity": null,
    "openDays": [
      "平日",
      "土曜日",
      "祝日"
    ],
    "openDaysNote": "コロナ感染症予防のため、日曜日の営業を見合わせております。"
  },
  {
    "id": "872600218",
    "name": "ふらわあデイサービス那珂",
    "kana": "フラワアデイサービスナカ",
    "address": "茨城県那珂市後台3159-1",
    "lat": 36.4232645,
    "lng": 140.499837,
    "tel": "029-295-5417",
    "url": "",
    "pref": "茨城県",
    "city": "那珂市",
    "category": "community_day_service",
    "serviceType": "地域密着型通所介護",
    "capacity": null,
    "openDays": [
      "平日",
      "土曜日",
      "日曜日",
      "祝日"
    ],
    "openDaysNote": ""
  },
  {
    "id": "892600107",
    "name": "那珂デイホームぽっかぽか",
    "kana": "ナカデイホームポッカポカ",
    "address": "茨城県那珂市1165－4",
    "lat": 36.464052,
    "lng": 140.503805,
    "tel": "029-295-8822",
    "url": "",
    "pref": "茨城県",
    "city": "那珂市",
    "category": "community_day_service",
    "serviceType": "地域密着型通所介護",
    "capacity": 18,
    "openDays": [
      "平日",
      "土曜日",
      "祝日"
    ],
    "openDaysNote": ""
  },
  {
    "id": "870202256",
    "name": "あじさいデイサービス弁天",
    "kana": "アジサイデイサービスベンテン",
    "address": "弁天町2-21-18",
    "lat": 35.7047385,
    "lng": 139.726046,
    "tel": "0294-87-6726",
    "url": "http://care-net.biz/08/ajisai1947/",
    "pref": "茨城県",
    "city": "日立市",
    "category": "community_day_service",
    "serviceType": "地域密着型通所介護",
    "capacity": null,
    "openDays": [
      "平日",
      "土曜日",
      "祝日"
    ],
    "openDaysNote": ""
  },
  {
    "id": "870202058",
    "name": "ご長寿くらぶ日立おおみかデイサービスセンター",
    "kana": "ゴチョウジュクラブデイサービスセンター",
    "address": "茨城県日立市大みか町3-16-22ご長寿くらぶ日立おおみか ご長寿くらぶ日立おおみか",
    "lat": 36.5135477,
    "lng": 140.6305891,
    "tel": "0294-33-8912",
    "url": "https://urbanarchitech.com/company/",
    "pref": "茨城県",
    "city": "日立市",
    "category": "community_day_service",
    "serviceType": "地域密着型通所介護",
    "capacity": 0,
    "openDays": [
      "平日",
      "祝日"
    ],
    "openDaysNote": "12/29～1/3は休み"
  },
  {
    "id": "870202322",
    "name": "ご長寿くらぶ日立滑川デイサービスセンター",
    "kana": "ゴチョウジュクラブヒタチナメカワデイサービスセンター",
    "address": "茨城県日立市東滑川町4-15-1",
    "lat": 36.621804,
    "lng": 140.6770046,
    "tel": "0294-32-5510",
    "url": "http://gotyoujyuclub.com/",
    "pref": "茨城県",
    "city": "日立市",
    "category": "community_day_service",
    "serviceType": "地域密着型通所介護",
    "capacity": 0,
    "openDays": [
      "平日",
      "土曜日",
      "祝日"
    ],
    "openDaysNote": ""
  },
  {
    "id": "890200249",
    "name": "ご長寿くらぶ日立諏訪Ⅱデイサービスセンター",
    "kana": "ゴチョウジュクラブヒタチスワニデイサービスセンター",
    "address": "茨城県日立市諏訪町4-29-15サービス付き高齢者住宅　ご長寿くらぶ日立諏訪Ⅱ サービス付き高齢者住宅　ご長寿くらぶ日立諏訪Ⅱ",
    "lat": 36.56872,
    "lng": 140.6178516,
    "tel": "0294-87-8885",
    "url": "https：//www.urbannarchitech.com",
    "pref": "茨城県",
    "city": "日立市",
    "category": "community_day_service",
    "serviceType": "地域密着型通所介護",
    "capacity": 0,
    "openDays": [
      "平日",
      "土曜日",
      "祝日"
    ],
    "openDaysNote": "年末12/30から年始1/3まで休み"
  },
  {
    "id": "870202231",
    "name": "ご長寿くらぶ日立諏訪デイサービスセンター",
    "kana": "ゴチョウジュクラブヒタチスワイチデイサービスセンター",
    "address": "諏訪町4-14-3住宅型有料老人ホームご長寿くらぶ日立諏訪 住宅型有料老人ホームご長寿くらぶ日立諏訪",
    "lat": 32.7479683,
    "lng": 129.8821705,
    "tel": "0294-87-6375",
    "url": "http:www.urbanarchitech.com",
    "pref": "茨城県",
    "city": "日立市",
    "category": "community_day_service",
    "serviceType": "地域密着型通所介護",
    "capacity": 18,
    "openDays": [
      "平日",
      "土曜日",
      "日曜日",
      "祝日"
    ],
    "openDaysNote": ""
  },
  {
    "id": "870202348",
    "name": "ご長寿くらぶ日立大久保　ディサービスセンター",
    "kana": "ゴチョウジュクラブヒタチオオクボ　ディサービスセンター",
    "address": "茨城県日立市大久保町4-7-15ご長寿くらぶ日立大久保 ご長寿くらぶ日立大久保",
    "lat": 36.5555135,
    "lng": 140.6194081,
    "tel": "0294-87-7110",
    "url": "gotyoujyuclub.com",
    "pref": "茨城県",
    "city": "日立市",
    "category": "community_day_service",
    "serviceType": "地域密着型通所介護",
    "capacity": 0,
    "openDays": [
      "平日",
      "土曜日",
      "祝日"
    ],
    "openDaysNote": "年末年始休業　12/31～1/3"
  },
  {
    "id": "890200256",
    "name": "ご長寿くらぶ日立本宮デイサービスセンター",
    "kana": "ゴチョウジュクラブデイサービスセンター",
    "address": "茨城県日立市本宮町5-8-21ご長寿くらぶ日立本宮 ご長寿くらぶ日立本宮",
    "lat": 36.6061035,
    "lng": 140.6694858,
    "tel": "0294-87-8775",
    "url": "http://gotyoujyuclub.com/",
    "pref": "茨城県",
    "city": "日立市",
    "category": "community_day_service",
    "serviceType": "地域密着型通所介護",
    "capacity": 0,
    "openDays": [
      "平日",
      "土曜日"
    ],
    "openDaysNote": ""
  },
  {
    "id": "890200371",
    "name": "デイサービス　まごころの家　宮田",
    "kana": "デイサービス　マゴコロノイエ　ミヤタ",
    "address": "茨城県日立市宮田町４－６－２",
    "lat": 36.6055951,
    "lng": 140.6530373,
    "tel": "0294-33-9730",
    "url": "",
    "pref": "茨城県",
    "city": "日立市",
    "category": "community_day_service",
    "serviceType": "地域密着型通所介護",
    "capacity": 0,
    "openDays": [
      "平日",
      "土曜日",
      "日曜日",
      "祝日"
    ],
    "openDaysNote": ""
  },
  {
    "id": "870201647",
    "name": "デイサービス　まごころの家　金沢",
    "kana": "デイサービス　マゴコロノイエ　カネサワ",
    "address": "茨城県日立市金沢町４－２０－１０",
    "lat": 36.5399878,
    "lng": 140.6181888,
    "tel": "0294-25-7607",
    "url": "",
    "pref": "茨城県",
    "city": "日立市",
    "category": "community_day_service",
    "serviceType": "地域密着型通所介護",
    "capacity": 0,
    "openDays": [
      "平日",
      "土曜日",
      "日曜日",
      "祝日"
    ],
    "openDaysNote": ""
  },
  {
    "id": "870201860",
    "name": "デイサービス　まごころの家　小木津",
    "kana": "デイサービス　マゴコロノイエ　オギツ",
    "address": "茨城県日立市小木津町３－２０－７",
    "lat": 36.6413247,
    "lng": 140.6787126,
    "tel": "0294-25-9066",
    "url": "",
    "pref": "茨城県",
    "city": "日立市",
    "category": "community_day_service",
    "serviceType": "地域密着型通所介護",
    "capacity": 0,
    "openDays": [
      "平日",
      "土曜日",
      "祝日"
    ],
    "openDaysNote": ""
  },
  {
    "id": "870201951",
    "name": "デイサービス　まごころの家　森山",
    "kana": "デイサービス　マゴコロノイエ　モリヤマ",
    "address": "茨城県日立市森山町２－２６－７",
    "lat": 36.52168792037,
    "lng": 140.617971028172,
    "tel": "0294-29-1655",
    "url": "",
    "pref": "茨城県",
    "city": "日立市",
    "category": "community_day_service",
    "serviceType": "地域密着型通所介護",
    "capacity": 0,
    "openDays": [
      "平日",
      "土曜日",
      "日曜日",
      "祝日"
    ],
    "openDaysNote": ""
  },
  {
    "id": "870201985",
    "name": "デイサービス　まごころの家　大久保",
    "kana": "デイサービス　マゴコロノイエ　オオクボ",
    "address": "茨城県日立市大久保町５－４－２４",
    "lat": 36.5478828,
    "lng": 140.6187511,
    "tel": "0294-25-7588",
    "url": "",
    "pref": "茨城県",
    "city": "日立市",
    "category": "community_day_service",
    "serviceType": "地域密着型通所介護",
    "capacity": 0,
    "openDays": [
      "平日",
      "土曜日",
      "日曜日",
      "祝日"
    ],
    "openDaysNote": ""
  },
  {
    "id": "870202298",
    "name": "デイサービス　まごころの家　南高野",
    "kana": "デイサービス　マゴコロノイエ　ミナミコウヤ",
    "address": "茨城県日立市南高野町２－１７－５",
    "lat": 36.5044578,
    "lng": 140.6024144,
    "tel": "0294-59-3211",
    "url": "",
    "pref": "茨城県",
    "city": "日立市",
    "category": "community_day_service",
    "serviceType": "地域密着型通所介護",
    "capacity": 0,
    "openDays": [
      "平日",
      "土曜日",
      "日曜日",
      "祝日"
    ],
    "openDaysNote": ""
  },
  {
    "id": "870202314",
    "name": "デイサービス　まごころの家　日高",
    "kana": "デイサービス　マゴコロノイエ　ヒダカ",
    "address": "茨城県日立市日高町４－６－９",
    "lat": 36.6353118,
    "lng": 140.6892785,
    "tel": "0294-85-6500",
    "url": "",
    "pref": "茨城県",
    "city": "日立市",
    "category": "community_day_service",
    "serviceType": "地域密着型通所介護",
    "capacity": 0,
    "openDays": [
      "平日",
      "土曜日",
      "祝日"
    ],
    "openDaysNote": ""
  },
  {
    "id": "870202082",
    "name": "デイサービス　まごころの家　日立北",
    "kana": "デイサービス　マゴコロノイエ　ヒタチキタ",
    "address": "茨城県日立市川尻町７－３１－７",
    "lat": 36.6610864,
    "lng": 140.6847559,
    "tel": "0294-25-3133",
    "url": "",
    "pref": "茨城県",
    "city": "日立市",
    "category": "community_day_service",
    "serviceType": "地域密着型通所介護",
    "capacity": 0,
    "openDays": [
      "平日",
      "土曜日",
      "祝日"
    ],
    "openDaysNote": ""
  },
  {
    "id": "870201753",
    "name": "デイサービス　まごころの家　塙山",
    "kana": "デイサービス　マゴコロノイエ　ハナヤマ",
    "address": "茨城県日立市金沢町２－５－４３",
    "lat": 36.5411496,
    "lng": 140.6093682,
    "tel": "0294-28-5600",
    "url": "",
    "pref": "茨城県",
    "city": "日立市",
    "category": "community_day_service",
    "serviceType": "地域密着型通所介護",
    "capacity": 0,
    "openDays": [
      "平日",
      "土曜日",
      "日曜日",
      "祝日"
    ],
    "openDaysNote": ""
  },
  {
    "id": "890200306",
    "name": "デイサービス　みずき桜の杜",
    "kana": "デイサービス　ミズキサクラノモリ",
    "address": "茨城県日立市水木町2-25-3",
    "lat": 36.5173415,
    "lng": 140.6275311,
    "tel": "0294-85-6800",
    "url": "www.mizuki-sakura.jp/",
    "pref": "茨城県",
    "city": "日立市",
    "category": "community_day_service",
    "serviceType": "地域密着型通所介護",
    "capacity": 0,
    "openDays": [
      "平日"
    ],
    "openDaysNote": ""
  },
  {
    "id": "890200553",
    "name": "デイサービスいろは",
    "kana": "デイサービスイロハ",
    "address": "茨城県日立市小木津町510-4",
    "lat": 36.6437704,
    "lng": 140.665818,
    "tel": "0294-51-4073",
    "url": "",
    "pref": "茨城県",
    "city": "日立市",
    "category": "community_day_service",
    "serviceType": "地域密着型通所介護",
    "capacity": 0,
    "openDays": [
      "平日",
      "土曜日",
      "祝日"
    ],
    "openDaysNote": ""
  },
  {
    "id": "870202223",
    "name": "デイサービスかごや",
    "kana": "デイサービスカゴヤ",
    "address": "茨城県日立市相田町2-5-7",
    "lat": 36.6289497,
    "lng": 140.6840218,
    "tel": "0294-32-5858",
    "url": "",
    "pref": "茨城県",
    "city": "日立市",
    "category": "community_day_service",
    "serviceType": "地域密着型通所介護",
    "capacity": null,
    "openDays": [
      "平日",
      "土曜日",
      "日曜日",
      "祝日"
    ],
    "openDaysNote": ""
  },
  {
    "id": "870201332",
    "name": "デイサービスクローバー",
    "kana": "デイサービスクローバー",
    "address": "茨城県日立市川尻町１丁目１５－２２",
    "lat": 36.6528126,
    "lng": 140.6980558,
    "tel": "０２９４－３３－７７７２",
    "url": "",
    "pref": "茨城県",
    "city": "日立市",
    "category": "community_day_service",
    "serviceType": "地域密着型通所介護",
    "capacity": 10,
    "openDays": [
      "平日",
      "土曜日",
      "祝日"
    ],
    "openDaysNote": ""
  },
  {
    "id": "890200405",
    "name": "デイサービスセンター　陽なた",
    "kana": "デイサービスセンター　ヒナタ",
    "address": "茨城県日立市東成沢町3-20-16",
    "lat": 36.5741602241159,
    "lng": 140.648941828538,
    "tel": "0294-33-8130",
    "url": "",
    "pref": "茨城県",
    "city": "日立市",
    "category": "community_day_service",
    "serviceType": "地域密着型通所介護",
    "capacity": 15,
    "openDays": [
      "平日",
      "土曜日",
      "祝日"
    ],
    "openDaysNote": ""
  },
  {
    "id": "870201944",
    "name": "デイサービスセンターリライフ",
    "kana": "デイサービスセンターリライフ",
    "address": "茨城県日立市大沼町4-9-11",
    "lat": 36.5349314,
    "lng": 140.6150372,
    "tel": "0294-25-6653",
    "url": "http://www.merry-gr.jp",
    "pref": "茨城県",
    "city": "日立市",
    "category": "community_day_service",
    "serviceType": "地域密着型通所介護",
    "capacity": 14,
    "openDays": [
      "平日",
      "祝日"
    ],
    "openDaysNote": ""
  },
  {
    "id": "890200298",
    "name": "デイサービス架橋",
    "kana": "デイサービスカケハシ",
    "address": "茨城県日立市田尻町3-43-3",
    "lat": 36.6247959,
    "lng": 140.6710462,
    "tel": "0294-44-7014",
    "url": "hp.kaipoke.biz/k9u/",
    "pref": "茨城県",
    "city": "日立市",
    "category": "community_day_service",
    "serviceType": "地域密着型通所介護",
    "capacity": null,
    "openDays": [
      "平日",
      "土曜日"
    ],
    "openDaysNote": ""
  },
  {
    "id": "870201498",
    "name": "ふらわあデイサービス宮田",
    "kana": "フラワアデイサービスミヤタ",
    "address": "茨城県日立市宮田町4-10-8",
    "lat": 36.6042034,
    "lng": 140.6533105,
    "tel": "0294-33-6528",
    "url": "http://www.hanawa-const.com",
    "pref": "茨城県",
    "city": "日立市",
    "category": "community_day_service",
    "serviceType": "地域密着型通所介護",
    "capacity": null,
    "openDays": [
      "平日",
      "土曜日",
      "日曜日",
      "祝日"
    ],
    "openDaysNote": ""
  },
  {
    "id": "890200439",
    "name": "ほっと・なめかわ元気館",
    "kana": "ホット・ナメカワゲンキカン",
    "address": "茨城県日立市東滑川町1-10-25",
    "lat": 36.6096666,
    "lng": 140.6706815,
    "tel": "0294-27-7715",
    "url": "https://hot-group-hitachi.com/group_1.html",
    "pref": "茨城県",
    "city": "日立市",
    "category": "community_day_service",
    "serviceType": "地域密着型通所介護",
    "capacity": 0,
    "openDays": [
      "平日",
      "土曜日",
      "祝日"
    ],
    "openDaysNote": ""
  },
  {
    "id": "870201050",
    "name": "ラブリーデイサービス",
    "kana": "ラブリーデイサービス",
    "address": "茨城県日立市滑川町3-6-33",
    "lat": 36.6128393,
    "lng": 140.6613991,
    "tel": "0294-25-2177",
    "url": "",
    "pref": "茨城県",
    "city": "日立市",
    "category": "community_day_service",
    "serviceType": "地域密着型通所介護",
    "capacity": null,
    "openDays": [
      "平日",
      "祝日"
    ],
    "openDaysNote": ""
  },
  {
    "id": "870200888",
    "name": "鮎川さくら館　デイサービスセンター",
    "kana": "アユカワサクラカン　デイサービスセンター",
    "address": "日立市国分町3-12-10",
    "lat": 36.5670299,
    "lng": 140.6495296,
    "tel": "0294-36-7300",
    "url": "http://www.syujinkai-kh.or.jp/ayukawasakurakan/detail.php?eid=00003",
    "pref": "茨城県",
    "city": "日立市",
    "category": "community_day_service",
    "serviceType": "地域密着型通所介護",
    "capacity": 18,
    "openDays": [
      "平日",
      "祝日"
    ],
    "openDaysNote": ""
  },
  {
    "id": "890200322",
    "name": "聖孝園池の川デイサービスセンター",
    "kana": "セイコウエンイケノカワデイサービスセンター",
    "address": "茨城県日立市中成沢町1-10-1",
    "lat": 36.5772904,
    "lng": 140.6461044,
    "tel": "0294-59-3366",
    "url": "aikohkai.or.jp",
    "pref": "茨城県",
    "city": "日立市",
    "category": "community_day_service",
    "serviceType": "地域密着型通所介護",
    "capacity": null,
    "openDays": [
      "平日",
      "土曜日",
      "祝日"
    ],
    "openDaysNote": ""
  },
  {
    "id": "890200348",
    "name": "日立ホットケアーリハビリ型デイサービス",
    "kana": "ヒタチホットケアーリハビリガタデイサービス",
    "address": "茨城県日立市助川町1-7-12",
    "lat": 36.5986607,
    "lng": 140.6518375,
    "tel": "0294-51-4007",
    "url": "",
    "pref": "茨城県",
    "city": "日立市",
    "category": "community_day_service",
    "serviceType": "地域密着型通所介護",
    "capacity": null,
    "openDays": [
      "平日",
      "土曜日",
      "祝日"
    ],
    "openDaysNote": ""
  },
  {
    "id": "890200231",
    "name": "日立南部地区デイサービスセンターおおみかの湯",
    "kana": "ヒタチナンブチクデイサービスセンターオオミカノユ",
    "address": "茨城県日立市大みか町4-7-9",
    "lat": 36.5099654,
    "lng": 140.6266603,
    "tel": "0294-52-7677",
    "url": "http://www.ibc.or.jp/",
    "pref": "茨城県",
    "city": "日立市",
    "category": "community_day_service",
    "serviceType": "地域密着型通所介護",
    "capacity": null,
    "openDays": [
      "平日",
      "土曜日",
      "日曜日",
      "祝日"
    ],
    "openDaysNote": ""
  },
  {
    "id": "874200504",
    "name": "デイサービスセンター　じゅげむ",
    "kana": "デイサービスセンター　ジュゲム",
    "address": "茨城県結城郡八千代町大字菅谷字新田山1021‐1",
    "lat": 36.1805562504581,
    "lng": 139.888883599197,
    "tel": "0296-49-3886",
    "url": "http://www.tamaki.or.jp",
    "pref": "茨城県",
    "city": "八千代町",
    "category": "community_day_service",
    "serviceType": "地域密着型通所介護",
    "capacity": 10,
    "openDays": [
      "平日",
      "土曜日",
      "祝日"
    ],
    "openDaysNote": ""
  },
  {
    "id": "874200579",
    "name": "なかよし家族",
    "kana": "ナカヨシカゾク",
    "address": "茨城県結城郡八千代町大里9-1",
    "lat": 36.2276244,
    "lng": 139.9012724,
    "tel": "0296-54-6511",
    "url": "www.nakayoshi-kaigo.co.jp",
    "pref": "茨城県",
    "city": "八千代町",
    "category": "community_day_service",
    "serviceType": "地域密着型通所介護",
    "capacity": 0,
    "openDays": [
      "平日",
      "土曜日",
      "祝日"
    ],
    "openDaysNote": ""
  },
  {
    "id": "874200454",
    "name": "なごみ苑通所介護事業所",
    "kana": "ナゴミエンツウショカイゴジギョウショ",
    "address": "茨城県結城郡八千代町村貫111-3",
    "lat": 36.171784982964,
    "lng": 139.873680006593,
    "tel": "0296-30-3753",
    "url": "https://www.nagomi3753.com/",
    "pref": "茨城県",
    "city": "八千代町",
    "category": "community_day_service",
    "serviceType": "地域密着型通所介護",
    "capacity": null,
    "openDays": [
      "平日"
    ],
    "openDaysNote": ""
  },
  {
    "id": "874200280",
    "name": "プライエいつき通所介護事業所",
    "kana": "プライエイツキツウショカイゴジギョウショ",
    "address": "茨城県結城郡八千代町兵庫472-3",
    "lat": 36.1954594499616,
    "lng": 139.895068942267,
    "tel": "0296-30-2217",
    "url": "",
    "pref": "茨城県",
    "city": "八千代町",
    "category": "community_day_service",
    "serviceType": "地域密着型通所介護",
    "capacity": 10,
    "openDays": [
      "平日",
      "土曜日",
      "祝日"
    ],
    "openDaysNote": ""
  },
  {
    "id": "873800601",
    "name": "みほデイサービスセンター",
    "kana": "ミホデイサービスセンター",
    "address": "茨城県稲敷郡美浦村受領881",
    "lat": 36.0034692,
    "lng": 140.3121473,
    "tel": "029-891-5561",
    "url": "http://www.seiei-kai.jp/",
    "pref": "茨城県",
    "city": "美浦村",
    "category": "community_day_service",
    "serviceType": "地域密着型通所介護",
    "capacity": 0,
    "openDays": [
      "平日",
      "土曜日",
      "祝日"
    ],
    "openDaysNote": ""
  },
  {
    "id": "873600498",
    "name": "あおばデイサービス",
    "kana": "アオバデイサービス",
    "address": "茨城県鉾田市鉾田1444-8",
    "lat": 36.1584369,
    "lng": 140.515282,
    "tel": "0291-34-8550",
    "url": "",
    "pref": "茨城県",
    "city": "鉾田市",
    "category": "community_day_service",
    "serviceType": "地域密着型通所介護",
    "capacity": null,
    "openDays": [
      "平日",
      "土曜日"
    ],
    "openDaysNote": "上記の休みの日に電話連絡はできません。翌営業日にお掛け直しください。"
  },
  {
    "id": "895400075",
    "name": "デイサービス　クローバー",
    "kana": "デイサービス　クローバー",
    "address": "茨城県鉾田市塔ケ崎　694-5",
    "lat": 36.1621666857856,
    "lng": 140.49681707791,
    "tel": "0291-32-9121",
    "url": "http://hp.kaipoke.biz/3xv/",
    "pref": "茨城県",
    "city": "鉾田市",
    "category": "community_day_service",
    "serviceType": "地域密着型通所介護",
    "capacity": 18,
    "openDays": [
      "平日",
      "祝日"
    ],
    "openDaysNote": ""
  },
  {
    "id": "895400067",
    "name": "古民家デイサービス作左衛門",
    "kana": "コミンカデイサービスサクザエモン",
    "address": "茨城県鉾田市大竹43",
    "lat": 36.1471793,
    "lng": 140.5800797,
    "tel": "0291-37-5556",
    "url": "https://www.carelabokaigo.com",
    "pref": "茨城県",
    "city": "鉾田市",
    "category": "community_day_service",
    "serviceType": "地域密着型通所介護",
    "capacity": 0,
    "openDays": [
      "平日",
      "祝日"
    ],
    "openDaysNote": ""
  },
  {
    "id": "895400059",
    "name": "古民家デイサービス新宮",
    "kana": "コミンカデイサービスシングウ",
    "address": "茨城県鉾田市烟田1484-1",
    "lat": 36.1461871,
    "lng": 140.5259718,
    "tel": "0291-32-9332",
    "url": "http://www.carelabokaigo.com",
    "pref": "茨城県",
    "city": "鉾田市",
    "category": "community_day_service",
    "serviceType": "地域密着型通所介護",
    "capacity": 0,
    "openDays": [
      "平日",
      "土曜日",
      "祝日"
    ],
    "openDaysNote": ""
  },
  {
    "id": "875400103",
    "name": "通所介護サービス　まほろば",
    "kana": "ツウショカイゴサービスマホロバ",
    "address": "茨城県鉾田市玉田1046‐11",
    "lat": 36.229984,
    "lng": 140.54014,
    "tel": "0291‐37‐0336",
    "url": "",
    "pref": "茨城県",
    "city": "鉾田市",
    "category": "community_day_service",
    "serviceType": "地域密着型通所介護",
    "capacity": 0,
    "openDays": [
      "平日",
      "土曜日",
      "日曜日",
      "祝日"
    ],
    "openDaysNote": ""
  },
  {
    "id": "871500344",
    "name": "あじさいの杜あやとり",
    "kana": "アジサイノモリアヤトリ",
    "address": "茨城県北茨城市華川町小豆畑1141-1",
    "lat": 36.823921,
    "lng": 140.6986703,
    "tel": "0293-43-1208",
    "url": "http://www.welovekitaibaraki.com",
    "pref": "茨城県",
    "city": "北茨城市",
    "category": "community_day_service",
    "serviceType": "地域密着型通所介護",
    "capacity": null,
    "openDays": [
      "平日",
      "祝日"
    ],
    "openDaysNote": ""
  },
  {
    "id": "891500134",
    "name": "ご長寿くらぶ北茨城",
    "kana": "ゴチョウジュクラブキタイバラキ",
    "address": "茨城県北茨城市平潟町字山ノ田1305番1",
    "lat": 36.8509631,
    "lng": 140.7921835,
    "tel": "0293-24-5520",
    "url": "",
    "pref": "茨城県",
    "city": "北茨城市",
    "category": "community_day_service",
    "serviceType": "地域密着型通所介護",
    "capacity": 0,
    "openDays": [
      "平日",
      "土曜日"
    ],
    "openDaysNote": ""
  },
  {
    "id": "891500167",
    "name": "だいせんデイサービス磯原",
    "kana": "ダイセンデイサービスイソハラ",
    "address": "茨城県北茨城市磯原町豊田字下桶仕内280-1",
    "lat": 36.7955155,
    "lng": 140.7299857,
    "tel": "0293-44-8571",
    "url": "http://www.daisenkk.jp",
    "pref": "茨城県",
    "city": "北茨城市",
    "category": "community_day_service",
    "serviceType": "地域密着型通所介護",
    "capacity": 0,
    "openDays": [
      "平日",
      "土曜日",
      "日曜日",
      "祝日"
    ],
    "openDaysNote": ""
  },
  {
    "id": "891500225",
    "name": "デイサービス　えがお",
    "kana": "デイサービス　エガオ",
    "address": "茨城県北茨城市中郷町日棚２０４３－５",
    "lat": 36.7626424,
    "lng": 140.6839965,
    "tel": "0293-24-5522",
    "url": "",
    "pref": "茨城県",
    "city": "北茨城市",
    "category": "community_day_service",
    "serviceType": "地域密着型通所介護",
    "capacity": 0,
    "openDays": [
      "平日",
      "祝日"
    ],
    "openDaysNote": ""
  },
  {
    "id": "891500241",
    "name": "デイサービス　オリーブ",
    "kana": "デイサービス　オリーブ",
    "address": "茨城県北茨城市華川町中妻473-2",
    "lat": 36.8086393,
    "lng": 140.7289918,
    "tel": "0293-44-8655",
    "url": "",
    "pref": "茨城県",
    "city": "北茨城市",
    "category": "community_day_service",
    "serviceType": "地域密着型通所介護",
    "capacity": null,
    "openDays": [
      "平日",
      "土曜日"
    ],
    "openDaysNote": ""
  },
  {
    "id": "891500233",
    "name": "デイサービス　カラフル",
    "kana": "デイサービス　カラフル",
    "address": "茨城県北茨城市中郷町上桜井2289番地の5",
    "lat": 36.7836447,
    "lng": 140.7318032,
    "tel": "0293-43-5777",
    "url": "",
    "pref": "茨城県",
    "city": "北茨城市",
    "category": "community_day_service",
    "serviceType": "地域密着型通所介護",
    "capacity": 0,
    "openDays": [
      "平日",
      "土曜日",
      "日曜日",
      "祝日"
    ],
    "openDaysNote": ""
  },
  {
    "id": "871500773",
    "name": "デイサービス　デイドリーム",
    "kana": "デイサービス　デイドリーム",
    "address": "茨城県北茨城市中郷町汐見ヶ丘５丁目１９７番地の２５",
    "lat": 36.7652345,
    "lng": 140.7333429,
    "tel": "０２９３－４３－４１９１",
    "url": "",
    "pref": "茨城県",
    "city": "北茨城市",
    "category": "community_day_service",
    "serviceType": "地域密着型通所介護",
    "capacity": 0,
    "openDays": [
      "平日",
      "祝日"
    ],
    "openDaysNote": ""
  },
  {
    "id": "871500781",
    "name": "デイサービス　まごころの家　磯原",
    "kana": "デイサービス　マゴコロノイエ　イソハラ",
    "address": "茨城県北茨城市磯原町豊田1-16",
    "lat": 36.7927336,
    "lng": 140.7245807,
    "tel": "0293-44-8181",
    "url": "",
    "pref": "茨城県",
    "city": "北茨城市",
    "category": "community_day_service",
    "serviceType": "地域密着型通所介護",
    "capacity": 0,
    "openDays": [
      "平日",
      "土曜日",
      "祝日"
    ],
    "openDaysNote": ""
  },
  {
    "id": "871500757",
    "name": "デイサービスさと",
    "kana": "デイサービスサト",
    "address": "茨城県北茨城市関南町神岡下568",
    "lat": 36.8339973,
    "lng": 140.7494619,
    "tel": "0293-24-5501",
    "url": "",
    "pref": "茨城県",
    "city": "北茨城市",
    "category": "community_day_service",
    "serviceType": "地域密着型通所介護",
    "capacity": 18,
    "openDays": [
      "平日",
      "土曜日",
      "祝日"
    ],
    "openDaysNote": ""
  },
  {
    "id": "871500484",
    "name": "トレーニングルーム輝き",
    "kana": "トレーニングルームカガヤキ",
    "address": "北茨城市磯原町磯原1630-251",
    "lat": 36.8042675,
    "lng": 140.7539057,
    "tel": "0293-43-7059",
    "url": "care-net.biz/08/hiraga01/",
    "pref": "茨城県",
    "city": "北茨城市",
    "category": "community_day_service",
    "serviceType": "地域密着型通所介護",
    "capacity": null,
    "openDays": [
      "平日",
      "祝日"
    ],
    "openDaysNote": ""
  },
  {
    "id": "891500159",
    "name": "リハビリデイサービス（機能訓練特化型）めいと",
    "kana": "リハビリデイサービス（キノウクンレントッカガタ）メイト",
    "address": "茨城県北茨城市磯原町磯原4-8",
    "lat": 36.7935312,
    "lng": 140.7399577,
    "tel": "0293-24-7575",
    "url": "",
    "pref": "茨城県",
    "city": "北茨城市",
    "category": "community_day_service",
    "serviceType": "地域密着型通所介護",
    "capacity": null,
    "openDays": [
      "平日"
    ],
    "openDaysNote": ""
  },
  {
    "id": "891500217",
    "name": "リハプライド北茨城",
    "kana": "リハプライドキタイバラキ",
    "address": "茨城県北茨城市磯原町磯原1892-12",
    "lat": 36.8053408737896,
    "lng": 140.747887827647,
    "tel": "0293-44-7735",
    "url": "kitaibaraki@rehapride.co.jp",
    "pref": "茨城県",
    "city": "北茨城市",
    "category": "community_day_service",
    "serviceType": "地域密着型通所介護",
    "capacity": 0,
    "openDays": [
      "平日",
      "土曜日",
      "祝日"
    ],
    "openDaysNote": "年末・年始休暇として12月30日から1月3日迄は休み"
  },
  {
    "id": "871500765",
    "name": "樹楽団らんの家五浦",
    "kana": "キラクダンランノイエイヅラ",
    "address": "茨城県北茨城市大津町字五浦　3－17－1",
    "lat": 36.832039,
    "lng": 140.7991533,
    "tel": "0293－44－6772",
    "url": "kiraku-legame.co.jp",
    "pref": "茨城県",
    "city": "北茨城市",
    "category": "community_day_service",
    "serviceType": "地域密着型通所介護",
    "capacity": 0,
    "openDays": [
      "平日",
      "土曜日",
      "日曜日",
      "祝日"
    ],
    "openDaysNote": ""
  },
  {
    "id": "874400484",
    "name": "フィットネスデイ・まきうち",
    "kana": "フィットネスデイ・マキウチ",
    "address": "茨城県北相馬郡利根町布川2592-14",
    "lat": 35.8536481,
    "lng": 140.147001,
    "tel": "0297－68－6055",
    "url": "",
    "pref": "茨城県",
    "city": "利根町",
    "category": "community_day_service",
    "serviceType": "地域密着型通所介護",
    "capacity": 15,
    "openDays": [
      "平日",
      "土曜日"
    ],
    "openDaysNote": "夏季休暇8月１４．１５．１６日　　年末年始12月29・30・31日　1月1・2・3・4日"
  },
  {
    "id": "890800154",
    "name": "「こころの花」リハビリテーション龍ケ崎",
    "kana": "「ココロノハナ」リハビリテーションリュウガサキ",
    "address": "茨城県龍ケ崎市光順田1822番地7",
    "lat": 35.907117,
    "lng": 140.193745,
    "tel": "0297-86-8720",
    "url": "https://kaigo.tokiwakotori-nursery.ed.jp/",
    "pref": "茨城県",
    "city": "龍ヶ崎市",
    "category": "community_day_service",
    "serviceType": "地域密着型通所介護",
    "capacity": 0,
    "openDays": [
      "平日"
    ],
    "openDaysNote": ""
  },
  {
    "id": "890800063",
    "name": "ご長寿くらぶ　龍ヶ崎・下町デイサービスセンター",
    "kana": "ゴチョウジュクラブ　リュウガサキ・シモマチデイサービスセンター",
    "address": "茨城県龍ケ崎市4907",
    "lat": 35.9044376995762,
    "lng": -219.806040885117,
    "tel": "0297-86-8300",
    "url": "http://urbanarchitech.com",
    "pref": "茨城県",
    "city": "龍ヶ崎市",
    "category": "community_day_service",
    "serviceType": "地域密着型通所介護",
    "capacity": 0,
    "openDays": [
      "平日",
      "土曜日",
      "祝日"
    ],
    "openDaysNote": ""
  },
  {
    "id": "870801065",
    "name": "ご長寿くらぶ　龍ケ崎デイサービスセンター",
    "kana": "ゴチョウジュクラブ　リュウガサキセイサービスセンター",
    "address": "茨城県龍ヶ崎市中根台4-5-3",
    "lat": 35.9302385,
    "lng": 140.1738344,
    "tel": "0297-86-6360",
    "url": "http://urbanarchitech.com",
    "pref": "茨城県",
    "city": "龍ヶ崎市",
    "category": "community_day_service",
    "serviceType": "地域密着型通所介護",
    "capacity": 12,
    "openDays": [
      "平日",
      "土曜日",
      "祝日"
    ],
    "openDaysNote": ""
  },
  {
    "id": "890800097",
    "name": "ご長寿くらぶ龍ケ崎中根台Ⅱ",
    "kana": "ゴチョウジュクラブリュウガサキナカネダイニ",
    "address": "茨城県龍ヶ崎市中根台4丁目2-9",
    "lat": 35.9308768721632,
    "lng": 140.172995220763,
    "tel": "0297-85-5567",
    "url": "https://gotyoujyuclub.com/recruit/ibaraki/ryugasaki/4035",
    "pref": "茨城県",
    "city": "龍ヶ崎市",
    "category": "community_day_service",
    "serviceType": "地域密着型通所介護",
    "capacity": 0,
    "openDays": [
      "平日",
      "土曜日",
      "祝日"
    ],
    "openDaysNote": ""
  },
  {
    "id": "890800048",
    "name": "デイサービス　つくしんぼスマイル",
    "kana": "デイサービス　ツクシンボスマイル",
    "address": "茨城県龍ケ崎市松ヶ丘2-24-22",
    "lat": 35.928264,
    "lng": 140.2057344,
    "tel": "0297-84-6215",
    "url": "",
    "pref": "茨城県",
    "city": "龍ヶ崎市",
    "category": "community_day_service",
    "serviceType": "地域密着型通所介護",
    "capacity": 16,
    "openDays": [
      "平日",
      "土曜日",
      "祝日"
    ],
    "openDaysNote": ""
  },
  {
    "id": "870800786",
    "name": "デイサービスここいち龍ケ崎",
    "kana": "デイサービスココイチリュウガサキ",
    "address": "茨城県龍ケ崎市白羽4-4-6",
    "lat": 35.9261336858592,
    "lng": 140.219136862041,
    "tel": "0297-85-3566",
    "url": "https://isshin.gr.jp/index.php",
    "pref": "茨城県",
    "city": "龍ヶ崎市",
    "category": "community_day_service",
    "serviceType": "地域密着型通所介護",
    "capacity": 0,
    "openDays": [
      "平日",
      "土曜日",
      "祝日"
    ],
    "openDaysNote": "特になし"
  },
  {
    "id": "870800661",
    "name": "ヤックスデイサービスセンター龍ヶ崎",
    "kana": "ヤックスデイサービスセンター龍ヶ崎",
    "address": "茨城県龍ケ崎市藤ケ丘１‐３‐１ヤックスドラッグ竜ヶ崎藤ヶ丘店内 ヤックスドラッグ竜ヶ崎藤ヶ丘店内",
    "lat": 35.9369515,
    "lng": 140.2001029,
    "tel": "0297-60-1275",
    "url": "http://www.yacs.jp/home/service/index.html",
    "pref": "茨城県",
    "city": "龍ヶ崎市",
    "category": "community_day_service",
    "serviceType": "地域密着型通所介護",
    "capacity": null,
    "openDays": [
      "平日",
      "土曜日",
      "祝日"
    ],
    "openDaysNote": ""
  },
  {
    "id": "890800113",
    "name": "リハビリデイサービス　スモールランド龍ヶ崎",
    "kana": "リハビリデイサービス　スモールランドリュウガサキ",
    "address": "茨城県龍ケ崎市佐貫2-3-6アークフィ－ルズ1階 アークフィ－ルズ1階",
    "lat": 35.9271177,
    "lng": 140.1429924,
    "tel": "0297-79-4858",
    "url": "www.smallland-day.com",
    "pref": "茨城県",
    "city": "龍ヶ崎市",
    "category": "community_day_service",
    "serviceType": "地域密着型通所介護",
    "capacity": 0,
    "openDays": [
      "平日",
      "祝日"
    ],
    "openDaysNote": "月曜日から金曜日の祝日は営業いたします。"
  },
  {
    "id": "890800139",
    "name": "リハビリ特化型デイサービス橙　佐貫",
    "kana": "リハビリトッカガタデイサービスダイダイ　サヌキ",
    "address": "佐貫町1097-4",
    "lat": 35.9329061,
    "lng": 140.1337905,
    "tel": "0297-79-5981",
    "url": "http://hp.kaipoke.biz/84d/",
    "pref": "茨城県",
    "city": "龍ヶ崎市",
    "category": "community_day_service",
    "serviceType": "地域密着型通所介護",
    "capacity": null,
    "openDays": [
      "平日",
      "祝日"
    ],
    "openDaysNote": ""
  },
  {
    "id": "890800121",
    "name": "通所介護事業所友助",
    "kana": "ツウショカイゴジギョウショトモスケ",
    "address": "長山5-14-9",
    "lat": null,
    "lng": null,
    "tel": "0297-84-1552",
    "url": "https://kizuna2020811.wixsite.com/tomosuke",
    "pref": "茨城県",
    "city": "龍ヶ崎市",
    "category": "community_day_service",
    "serviceType": "地域密着型通所介護",
    "capacity": null,
    "openDays": [
      "平日",
      "土曜日",
      "祝日"
    ],
    "openDaysNote": ""
  }
]