[
  {
    "id": "4272100373",
    "name": "デイサービスセンターまごころ",
    "kana": "デイサービスセンターマゴコロ",
    "address": "長崎県壱岐市石田町筒城東触1840-3",
    "lat": 33.7517920241026,
    "lng": 129.785148656236,
    "tel": "0920-44-8171",
    "url": "",
    "pref": "長崎県",
    "city": "壱岐市",
    "category": "community_day_service",
    "serviceType": "地域密着型通所介護",
    "capacity": 15,
    "openDays": [
      "平日",
      "土曜日",
      "日曜日",
      "祝日"
    ],
    "openDaysNote": ""
  },
  {
    "id": "4292400225",
    "name": "デイサービスセンター「くにみの里」",
    "kana": "デイサービスセンター「クニミノサト」",
    "address": "長崎県雲仙市国見町多比良戊１４４９－４１５",
    "lat": 32.8310738,
    "lng": 130.2914309,
    "tel": "0957－78－5656",
    "url": "http://nissin-g.jp",
    "pref": "長崎県",
    "city": "雲仙市",
    "category": "community_day_service",
    "serviceType": "地域密着型通所介護",
    "capacity": 18,
    "openDays": [
      "平日",
      "土曜日",
      "祝日"
    ],
    "openDaysNote": "特になし"
  },
  {
    "id": "4292400209",
    "name": "リハビリテーションしとらす-citrus-",
    "kana": "リハビリテーションシトラス",
    "address": "長崎県雲仙市瑞穂町古部甲1819番地",
    "lat": 32.8500959,
    "lng": 130.2234298,
    "tel": "0957-61-0799",
    "url": "https://tsuku2.jp/citrus",
    "pref": "長崎県",
    "city": "雲仙市",
    "category": "community_day_service",
    "serviceType": "地域密着型通所介護",
    "capacity": 18,
    "openDays": [
      "平日",
      "祝日"
    ],
    "openDaysNote": ""
  },
  {
    "id": "4270402425",
    "name": "株式会社　アイプラン",
    "kana": "カブシキガイシャ　アイプラン",
    "address": "長崎県雲仙市小浜町北本町612-9",
    "lat": 32.7310332397792,
    "lng": 130.213376743623,
    "tel": "0957-76-0373",
    "url": "",
    "pref": "長崎県",
    "city": "雲仙市",
    "category": "community_day_service",
    "serviceType": "地域密着型通所介護",
    "capacity": 9,
    "openDays": [
      "平日",
      "土曜日",
      "祝日"
    ],
    "openDaysNote": "１２月３１日～１月２日、８月１４日～８月１５日は休日。"
  },
  {
    "id": "4271400667",
    "name": "吾妻デイサービスセンター",
    "kana": "アヅマデイサービスセンター",
    "address": "長崎県雲仙市吾妻町栗林名438番地",
    "lat": 32.8302866,
    "lng": 130.1901467,
    "tel": "0957-38-6529",
    "url": "http://aduma.or.jp/",
    "pref": "長崎県",
    "city": "雲仙市",
    "category": "community_day_service",
    "serviceType": "地域密着型通所介護",
    "capacity": 0,
    "openDays": [
      "平日",
      "祝日"
    ],
    "openDaysNote": ""
  },
  {
    "id": "4271600449",
    "name": "たまんなゆうゆう",
    "kana": "タマンナユウユウ",
    "address": "長崎県五島市玉之浦町玉之浦１３７１－１",
    "lat": 32.6167594,
    "lng": 128.6145149,
    "tel": "0959-75-6023",
    "url": "http://www.u-u-sato.com/",
    "pref": "長崎県",
    "city": "五島市",
    "category": "community_day_service",
    "serviceType": "地域密着型通所介護",
    "capacity": 0,
    "openDays": [
      "平日",
      "祝日"
    ],
    "openDaysNote": "自然災害等による営業中止日もあり。（台風・積雪等安全に送迎が出来ない場合に限る）（改行）感染症等蔓延時併設部署への応援要請対応。"
  },
  {
    "id": "4292200104",
    "name": "デイサービス　のち",
    "kana": "デイサービス　ノチ",
    "address": "長崎県五島市富江町狩立481番地1",
    "lat": 32.6139413,
    "lng": 128.764521,
    "tel": "0959-86-0705",
    "url": "",
    "pref": "長崎県",
    "city": "五島市",
    "category": "community_day_service",
    "serviceType": "地域密着型通所介護",
    "capacity": 15,
    "openDays": [
      "平日",
      "祝日"
    ],
    "openDaysNote": "1月1日を除く"
  },
  {
    "id": "4270600556",
    "name": "デイサービスあすか",
    "kana": "デイサービスアスカ",
    "address": "長崎県五島市吉田町７４０番",
    "lat": 32.6767091,
    "lng": 128.8233058,
    "tel": "0959-75-0350",
    "url": "",
    "pref": "長崎県",
    "city": "五島市",
    "category": "community_day_service",
    "serviceType": "地域密着型通所介護",
    "capacity": 10,
    "openDays": [
      "平日"
    ],
    "openDaysNote": "8/13-15（改行）12/29/-1/3（改行）上記の営業ありません"
  },
  {
    "id": "4272200710",
    "name": "デイサービスセンター　大浜",
    "kana": "デイサービスセンターオオハマ",
    "address": "長崎県五島市浜町142-1",
    "lat": 32.6529091,
    "lng": 128.8134253,
    "tel": "0959-75-5155",
    "url": "",
    "pref": "長崎県",
    "city": "五島市",
    "category": "community_day_service",
    "serviceType": "地域密着型通所介護",
    "capacity": 0,
    "openDays": [
      "平日",
      "土曜日",
      "祝日"
    ],
    "openDaysNote": ""
  },
  {
    "id": "4272200686",
    "name": "デイサービスセンター清風",
    "kana": "デイサービスセンターセイフウ",
    "address": "長崎県五島市武家屋敷1丁目５番地４７号",
    "lat": 32.691341,
    "lng": 128.8450957,
    "tel": "0959-88-9320",
    "url": "http://syuhoukai.jp/",
    "pref": "長崎県",
    "city": "五島市",
    "category": "community_day_service",
    "serviceType": "地域密着型通所介護",
    "capacity": 0,
    "openDays": [
      "平日",
      "祝日"
    ],
    "openDaysNote": ""
  },
  {
    "id": "4272200611",
    "name": "デイサービスセンター太陽",
    "kana": "デイサービスセンタータイヨウ",
    "address": "長崎県五島市奈留町船廻879番地1特別養護老人ホームなるの里併設 特別養護老人ホームなるの里併設",
    "lat": 32.8441665,
    "lng": 128.943155,
    "tel": "0959-64-4848",
    "url": "http://narunosato.or.jp/",
    "pref": "長崎県",
    "city": "五島市",
    "category": "community_day_service",
    "serviceType": "地域密着型通所介護",
    "capacity": 0,
    "openDays": [
      "平日",
      "土曜日",
      "日曜日",
      "祝日"
    ],
    "openDaysNote": ""
  },
  {
    "id": "4292200179",
    "name": "デイサービス城岳",
    "kana": "デイサービスシロタケ",
    "address": "長崎県五島市岐宿町岐宿2683番地2デイサービス城岳 デイサービス城岳",
    "lat": 32.745326474802,
    "lng": 128.755090213933,
    "tel": "0959-82-0138",
    "url": "",
    "pref": "長崎県",
    "city": "五島市",
    "category": "community_day_service",
    "serviceType": "地域密着型通所介護",
    "capacity": 0,
    "openDays": [
      "平日",
      "土曜日",
      "祝日"
    ],
    "openDaysNote": ""
  },
  {
    "id": "4272200884",
    "name": "ひだまりの舎　デイサービスセンター",
    "kana": "ヒダマリノイエ　デイサービスセンター",
    "address": "長崎県五島市下大津町550番地4ひだまりの舎 ひだまりの舎",
    "lat": 32.6857229942202,
    "lng": 128.856413009123,
    "tel": "0959-75-0356",
    "url": "https://sayurikai.jp/pages/44/",
    "pref": "長崎県",
    "city": "五島市",
    "category": "community_day_service",
    "serviceType": "地域密着型通所介護",
    "capacity": 0,
    "openDays": [
      "平日",
      "土曜日",
      "祝日"
    ],
    "openDaysNote": ""
  },
  {
    "id": "4292200146",
    "name": "リハビリ型デイサービスkametokura",
    "kana": "リハビリガタデイサービスカメトクラ",
    "address": "長崎県五島市上大津町304番地1",
    "lat": 32.6895552430506,
    "lng": 128.844621997623,
    "tel": "959742901",
    "url": "",
    "pref": "長崎県",
    "city": "五島市",
    "category": "community_day_service",
    "serviceType": "地域密着型通所介護",
    "capacity": 0,
    "openDays": [
      "平日",
      "土曜日",
      "祝日"
    ],
    "openDaysNote": ""
  },
  {
    "id": "4272200306",
    "name": "健友会　五島ふれあいデイサービス",
    "kana": "ケンユウカイ　ゴトウフレアイデイサービス",
    "address": "五島市三尾野２－１－２９",
    "lat": 32.6924604,
    "lng": 128.8410709,
    "tel": "0959-75-0717",
    "url": "http://www.h6.dion.ne.jp/^fureai",
    "pref": "長崎県",
    "city": "五島市",
    "category": "community_day_service",
    "serviceType": "地域密着型通所介護",
    "capacity": 15,
    "openDays": [
      "平日"
    ],
    "openDaysNote": ""
  },
  {
    "id": "4292200096",
    "name": "社会福祉法人　五島市社会福祉協議会　デイサービスセンターはまゆう",
    "kana": "シャカイフクシホウジン　ゴトウシシャカイフクシキョウギカイ　デイサービスセンターハマユウ",
    "address": "長崎県五島市三尾野一丁目７番１号",
    "lat": 32.6913521,
    "lng": 128.8376822,
    "tel": "0959-74-6086",
    "url": "http://www.goto-shakyo.or.jp",
    "pref": "長崎県",
    "city": "五島市",
    "category": "community_day_service",
    "serviceType": "地域密着型通所介護",
    "capacity": 0,
    "openDays": [
      "平日",
      "祝日"
    ],
    "openDaysNote": ""
  },
  {
    "id": "4271600852",
    "name": "社会福祉法人　五島市社会福祉協議会　岐宿支所　通所介護事業所",
    "kana": "シャカイフクシホウジン　ゴトウシシャカイフクシキョウギカイキシクシショツウショカイゴジギョウショ",
    "address": "長崎県五島市岐宿町岐宿３９６番地１",
    "lat": 32.7562192000005,
    "lng": 128.756161357672,
    "tel": "0959-82-1525",
    "url": "http://www.goto-shakyo.or.jp",
    "pref": "長崎県",
    "city": "五島市",
    "category": "community_day_service",
    "serviceType": "地域密着型通所介護",
    "capacity": 0,
    "openDays": [
      "平日",
      "祝日"
    ],
    "openDaysNote": ""
  },
  {
    "id": "4271600902",
    "name": "社会福祉法人　五島市社会福祉協議会　三井楽支所　通所介護事業所",
    "kana": "シャカイフクシホウジンゴトウシシャカイフクシキョウギカイミイラクシショツウショカイゴジギョウショ",
    "address": "長崎県五島市三井楽町濱ノ畔１０４６番地１",
    "lat": 32.7467115,
    "lng": 128.6916304,
    "tel": "0959-84-2254",
    "url": "http://www.goto-shakyo.or.jp/",
    "pref": "長崎県",
    "city": "五島市",
    "category": "community_day_service",
    "serviceType": "地域密着型通所介護",
    "capacity": 0,
    "openDays": [
      "平日",
      "土曜日",
      "祝日"
    ],
    "openDaysNote": ""
  },
  {
    "id": "4270600085",
    "name": "社会福祉法人さゆり会　デイサービスセンターみはらし荘",
    "kana": "シャカイフクシホウジンサユリカイ　デイサービスセンターミハラシソウ",
    "address": "長崎県五島市下崎山町７２２番地",
    "lat": 32.6692459,
    "lng": 128.8786923,
    "tel": "0959-73-6930",
    "url": "http://sayurikai.jp/",
    "pref": "長崎県",
    "city": "五島市",
    "category": "community_day_service",
    "serviceType": "地域密着型通所介護",
    "capacity": 0,
    "openDays": [
      "平日",
      "土曜日",
      "祝日"
    ],
    "openDaysNote": ""
  },
  {
    "id": "4271600811",
    "name": "社会福祉法人五島市社会福祉協議会　玉之浦支所　通所介護事業所",
    "kana": "シャカイフクシホウジン　ゴトウシシャカイフクシキョウギカイ　タマノウラシショ　ツウショカイゴジギョウショ",
    "address": "長崎県五島市玉之浦町荒川130番地2地域福祉センター　荒川温泉 地域福祉センター　荒川温泉",
    "lat": 32.6672956,
    "lng": 128.6707174,
    "tel": "0959-88-2200",
    "url": "http://goto-shakyo.or.jp",
    "pref": "長崎県",
    "city": "五島市",
    "category": "community_day_service",
    "serviceType": "地域密着型通所介護",
    "capacity": 0,
    "openDays": [
      "平日",
      "土曜日",
      "祝日"
    ],
    "openDaysNote": ""
  },
  {
    "id": "4292200120",
    "name": "只狩荘デイサービスセンター",
    "kana": "タダカリソウデイサービスセンター",
    "address": "長崎県五島市富江町黒瀬585番地",
    "lat": 32.6054481,
    "lng": 128.7459513,
    "tel": "0959-86-2426",
    "url": "http://sayurikai.jp/",
    "pref": "長崎県",
    "city": "五島市",
    "category": "community_day_service",
    "serviceType": "地域密着型通所介護",
    "capacity": 18,
    "openDays": [
      "平日",
      "祝日"
    ],
    "openDaysNote": "早朝７時からの受入、及び夕方１９時までの受入は可能です。"
  },
  {
    "id": "4292200161",
    "name": "地域密着型通所介護事業所　聖マリアの園",
    "kana": "チイキミッチャクガタツウショカイゴジギョウショ　セイマリアノソノ",
    "address": "長崎県五島市松山町706番地3",
    "lat": 32.7057972,
    "lng": 128.8377843,
    "tel": "0959-72-6129",
    "url": "https://www.seimarianosono.jp/",
    "pref": "長崎県",
    "city": "五島市",
    "category": "community_day_service",
    "serviceType": "地域密着型通所介護",
    "capacity": 0,
    "openDays": [
      "平日",
      "土曜日",
      "祝日"
    ],
    "openDaysNote": ""
  },
  {
    "id": "4272200751",
    "name": "通いの家　ゆるり",
    "kana": "カヨイノイエ　ユルリ",
    "address": "長崎県五島市吉田町3287-16",
    "lat": 32.6867851,
    "lng": 128.8045195,
    "tel": "0959-74-5678",
    "url": "",
    "pref": "長崎県",
    "city": "五島市",
    "category": "community_day_service",
    "serviceType": "地域密着型通所介護",
    "capacity": 0,
    "openDays": [
      "平日"
    ],
    "openDaysNote": ""
  },
  {
    "id": "4271600076",
    "name": "通所介護事業所　きじの里",
    "kana": "ツウショカイゴジギョウショ　キジノサト",
    "address": "長崎県五島市岐宿町二本楠３７５番地",
    "lat": 32.6737041,
    "lng": 128.72382,
    "tel": "0959-83-1246",
    "url": "http://syuhoukai.jp/",
    "pref": "長崎県",
    "city": "五島市",
    "category": "community_day_service",
    "serviceType": "地域密着型通所介護",
    "capacity": 0,
    "openDays": [
      "平日",
      "土曜日",
      "祝日"
    ],
    "openDaysNote": "ただし、特別な需要がある場合はこの限りでない。"
  },
  {
    "id": "4272200603",
    "name": "通所介護事業所イータウン",
    "kana": "ツウショカイゴジギョウショイータウン",
    "address": "長崎県五島市木場町１５６－２",
    "lat": 32.6905545,
    "lng": 128.8101027,
    "tel": "0959-72-7188",
    "url": "http://mahoroba-e-town.jp/",
    "pref": "長崎県",
    "city": "五島市",
    "category": "community_day_service",
    "serviceType": "地域密着型通所介護",
    "capacity": 0,
    "openDays": [
      "平日",
      "祝日"
    ],
    "openDaysNote": ""
  },
  {
    "id": "4271600282",
    "name": "通所介護事業所みみらくの里",
    "kana": "ツウショカイゴジギョウショミミラクノサト",
    "address": "長崎県五島市三井楽町濱ノ畔1046番地2",
    "lat": 32.7468726,
    "lng": 128.6911221,
    "tel": "0959-84-3942",
    "url": "https://mimiraku.info",
    "pref": "長崎県",
    "city": "五島市",
    "category": "community_day_service",
    "serviceType": "地域密着型通所介護",
    "capacity": 14,
    "openDays": [
      "平日",
      "祝日"
    ],
    "openDaysNote": ""
  },
  {
    "id": "4292200153",
    "name": "未来ごとう",
    "kana": "ミライゴトウ",
    "address": "長崎県五島市吉久木町731五島シティモール2F 五島シティモール2F",
    "lat": 32.6954275,
    "lng": 128.8135179,
    "tel": "0959-72-8430",
    "url": "",
    "pref": "長崎県",
    "city": "五島市",
    "category": "community_day_service",
    "serviceType": "地域密着型通所介護",
    "capacity": 60,
    "openDays": [
      "平日",
      "祝日"
    ],
    "openDaysNote": "その他の休業日　お盆（8月13日～8月15日）年末年始（12月30日～1月3日）"
  },
  {
    "id": "4292200112",
    "name": "緑乃園デイサービスセンター",
    "kana": "ミドリノソノデイサービスセンター",
    "address": "長崎県五島市野々切町2035番地2",
    "lat": 32.6488802387078,
    "lng": 128.832848950777,
    "tel": "0959-73-5560",
    "url": "http://gotowakokai.jp/",
    "pref": "長崎県",
    "city": "五島市",
    "category": "community_day_service",
    "serviceType": "地域密着型通所介護",
    "capacity": null,
    "openDays": [
      "平日",
      "土曜日",
      "祝日"
    ],
    "openDaysNote": "営業日は、天災その他やむを得ず業務を遂行できない日を除き、通常月曜日から土曜日まで、予め指定された通所介護等を行う。但し、理事長は営業日を変更することができるものとする。"
  },
  {
    "id": "4270200985",
    "name": "いちょうクリニックデイサービス",
    "kana": "イチョウクリニックデイサービス",
    "address": "長崎県佐世保市赤崎町２９８番地いちょうクリニック いちょうクリニック",
    "lat": 33.1595089,
    "lng": 129.6937377,
    "tel": "0956-26-8181",
    "url": "",
    "pref": "長崎県",
    "city": "佐世保市",
    "category": "community_day_service",
    "serviceType": "地域密着型通所介護",
    "capacity": 0,
    "openDays": [
      "平日",
      "土曜日",
      "祝日"
    ],
    "openDaysNote": "なし"
  },
  {
    "id": "4270204045",
    "name": "ことぶきデイサービスセンター桜馬場",
    "kana": "コトブキデイサービスセンターサクラババ",
    "address": "長崎県佐世保市日宇町2618－2",
    "lat": 33.1598989,
    "lng": 129.7638677,
    "tel": "0956-33-8088",
    "url": "http://kaigo-kotobuki.com",
    "pref": "長崎県",
    "city": "佐世保市",
    "category": "community_day_service",
    "serviceType": "地域密着型通所介護",
    "capacity": 2,
    "openDays": [
      "平日",
      "土曜日",
      "祝日"
    ],
    "openDaysNote": ""
  },
  {
    "id": "4290201534",
    "name": "だんらんの家上相浦",
    "kana": "ダンランノイエカミアイノウラ",
    "address": "上相浦町8番1号",
    "lat": 33.1941756,
    "lng": 129.6678016,
    "tel": "0956-59-8930",
    "url": "",
    "pref": "長崎県",
    "city": "佐世保市",
    "category": "community_day_service",
    "serviceType": "地域密着型通所介護",
    "capacity": 0,
    "openDays": [
      "平日",
      "土曜日",
      "日曜日",
      "祝日"
    ],
    "openDaysNote": ""
  },
  {
    "id": "4270204565",
    "name": "デイサービス　サポート福寿　花高",
    "kana": "デイサービス　サポートフクジュ　ハナタカ",
    "address": "花高４丁目７－１２",
    "lat": 33.1390356,
    "lng": 129.812133,
    "tel": "0956-59-8551",
    "url": "",
    "pref": "長崎県",
    "city": "佐世保市",
    "category": "community_day_service",
    "serviceType": "地域密着型通所介護",
    "capacity": 30,
    "openDays": [
      "平日",
      "土曜日",
      "祝日"
    ],
    "openDaysNote": "営業時間は利用者様希望により必要な場合は相談に応じます。"
  },
  {
    "id": "4290201286",
    "name": "デイサービス　ピース",
    "kana": "デイサービス　ピース",
    "address": "長崎県佐世保市原分町1798-5",
    "lat": 33.2163732,
    "lng": 129.7251031,
    "tel": "0956-42-8080",
    "url": "http://allblue-fukushi.co.jp/",
    "pref": "長崎県",
    "city": "佐世保市",
    "category": "community_day_service",
    "serviceType": "地域密着型通所介護",
    "capacity": 18,
    "openDays": [
      "平日",
      "土曜日"
    ],
    "openDaysNote": "定休日の利用をされたい方は、前もってご相談いただき、検討させていただきます。"
  },
  {
    "id": "4270204375",
    "name": "デイサービス　澄海",
    "kana": "デイサービス　スカイ",
    "address": "長崎県佐世保市小佐世保町415-8",
    "lat": 33.1733775,
    "lng": 129.7379944,
    "tel": "0956-42-5151",
    "url": "http://allblue-fukushi.co.jp/",
    "pref": "長崎県",
    "city": "佐世保市",
    "category": "community_day_service",
    "serviceType": "地域密着型通所介護",
    "capacity": 0,
    "openDays": [
      "平日",
      "祝日"
    ],
    "openDaysNote": "定休日での御利用を御希望の場合は、話し合いにより、御検討させていただきます。"
  },
  {
    "id": "4270203468",
    "name": "デイサービス　楠の木",
    "kana": "デイサービス　クスノキ",
    "address": "長崎県佐世保市楠木町609番地8",
    "lat": 33.2194034,
    "lng": 129.7222004,
    "tel": "0956-40-6065",
    "url": "",
    "pref": "長崎県",
    "city": "佐世保市",
    "category": "community_day_service",
    "serviceType": "地域密着型通所介護",
    "capacity": 0,
    "openDays": [
      "平日",
      "祝日"
    ],
    "openDaysNote": ""
  },
  {
    "id": "4290201450",
    "name": "デイサービスくろしま",
    "kana": "デイサービスクロシマ",
    "address": "長崎県佐世保市黒島町1137番地",
    "lat": 33.1444516,
    "lng": 129.5376101,
    "tel": "956562026",
    "url": "",
    "pref": "長崎県",
    "city": "佐世保市",
    "category": "community_day_service",
    "serviceType": "地域密着型通所介護",
    "capacity": 0,
    "openDays": [
      "平日",
      "土曜日"
    ],
    "openDaysNote": ""
  },
  {
    "id": "4270204128",
    "name": "デイサービスセンター　千ノ花",
    "kana": "デイサービスセンター　センノハナ",
    "address": "長崎県佐世保市天神3丁目600番地20",
    "lat": 33.1476336741485,
    "lng": 129.7425761784,
    "tel": "0956-46-5516",
    "url": "https://www.senka-sasebo.com/60017092/wp-admin/index.php",
    "pref": "長崎県",
    "city": "佐世保市",
    "category": "community_day_service",
    "serviceType": "地域密着型通所介護",
    "capacity": 0,
    "openDays": [
      "平日",
      "土曜日",
      "日曜日",
      "祝日"
    ],
    "openDaysNote": ""
  },
  {
    "id": "4290201542",
    "name": "デイサービスセンター　名切の里",
    "kana": "デイサービスセンター　ナキリノサト",
    "address": "長崎県佐世保市名切町313番地1",
    "lat": 33.1813267,
    "lng": 129.7282541,
    "tel": "080-4273-5516",
    "url": "https://www.senka-sasebo.com.//60017092/wp-admin/index.php",
    "pref": "長崎県",
    "city": "佐世保市",
    "category": "community_day_service",
    "serviceType": "地域密着型通所介護",
    "capacity": null,
    "openDays": [
      "平日",
      "土曜日",
      "日曜日",
      "祝日"
    ],
    "openDaysNote": ""
  },
  {
    "id": "4290201260",
    "name": "デイサービスセンターさくらプレイス広田",
    "kana": "デイサービスセンターサクラプレイスヒロタ",
    "address": "長崎県佐世保市広田4丁目3番１号",
    "lat": 33.1248752,
    "lng": 129.7948891,
    "tel": "0956-56-6100",
    "url": "",
    "pref": "長崎県",
    "city": "佐世保市",
    "category": "community_day_service",
    "serviceType": "地域密着型通所介護",
    "capacity": 0,
    "openDays": [
      "平日",
      "土曜日",
      "祝日"
    ],
    "openDaysNote": ""
  },
  {
    "id": "4270202486",
    "name": "デイサービスセンターひろた",
    "kana": "デイサービスセンターヒロタ",
    "address": "長崎県佐世保市広田１丁目４番７号",
    "lat": 33.1303166,
    "lng": 129.8000679,
    "tel": "0956-27-5710",
    "url": "",
    "pref": "長崎県",
    "city": "佐世保市",
    "category": "community_day_service",
    "serviceType": "地域密着型通所介護",
    "capacity": 0,
    "openDays": [
      "平日",
      "土曜日",
      "祝日"
    ],
    "openDaysNote": "悪天候などの理由により、利用に支障をきたす事が予測される場合は休業させて頂くことがあります。"
  },
  {
    "id": "4270204730",
    "name": "デイサービスセンター輪",
    "kana": "デイサービスセンターリン",
    "address": "長崎県佐世保市早岐１丁目5-10",
    "lat": 33.1354931158849,
    "lng": 129.797424055225,
    "tel": "0956-55-4103",
    "url": "",
    "pref": "長崎県",
    "city": "佐世保市",
    "category": "community_day_service",
    "serviceType": "地域密着型通所介護",
    "capacity": 0,
    "openDays": [
      "平日",
      "土曜日",
      "日曜日",
      "祝日"
    ],
    "openDaysNote": ""
  },
  {
    "id": "4290201559",
    "name": "デイサービスセンター老福荘",
    "kana": "デイサービスセンターロウフクソウ",
    "address": "長崎県佐世保市江迎町赤坂282-24",
    "lat": 33.2968998,
    "lng": 129.640445,
    "tel": "0956-65-2277",
    "url": "https://hakujukai.com/emukae/pages/37/",
    "pref": "長崎県",
    "city": "佐世保市",
    "category": "community_day_service",
    "serviceType": "地域密着型通所介護",
    "capacity": 15,
    "openDays": [
      "平日",
      "土曜日",
      "祝日"
    ],
    "openDaysNote": ""
  },
  {
    "id": "4270202734",
    "name": "デイサービスなごやか",
    "kana": "デイサービスナゴヤカ",
    "address": "長崎県佐世保市藤原町12-19",
    "lat": 33.1635924,
    "lng": 129.7398166,
    "tel": "0956-20-1156",
    "url": "",
    "pref": "長崎県",
    "city": "佐世保市",
    "category": "community_day_service",
    "serviceType": "地域密着型通所介護",
    "capacity": 10,
    "openDays": [
      "平日",
      "土曜日",
      "祝日"
    ],
    "openDaysNote": "ゴールデンウィーク、お盆、年末に長期休暇あり。"
  },
  {
    "id": "4270203476",
    "name": "デイサービスゆうゆう",
    "kana": "デイサービスユウユウ",
    "address": "長崎県佐世保市広田1-8-27",
    "lat": 33.1293806,
    "lng": 129.8017094,
    "tel": "0956-39-4333",
    "url": "http://hp.kaipoke.biz/gp5/",
    "pref": "長崎県",
    "city": "佐世保市",
    "category": "community_day_service",
    "serviceType": "地域密着型通所介護",
    "capacity": 10,
    "openDays": [
      "平日",
      "土曜日",
      "祝日"
    ],
    "openDaysNote": ""
  },
  {
    "id": "4270203054",
    "name": "デイホーム　はなとき（花時間）",
    "kana": "デイホーム　ハナトキ",
    "address": "長崎県佐世保市針尾北町７４２ー６",
    "lat": 33.0983543,
    "lng": 129.7578081,
    "tel": "0956-58-2419",
    "url": "http://www.sakanaba.com/dayservice.html",
    "pref": "長崎県",
    "city": "佐世保市",
    "category": "community_day_service",
    "serviceType": "地域密着型通所介護",
    "capacity": 0,
    "openDays": [
      "平日",
      "土曜日",
      "祝日"
    ],
    "openDaysNote": ""
  },
  {
    "id": "4270203799",
    "name": "トータルデイサービス　安心院",
    "kana": "トータルデイサービス　アジム",
    "address": "長崎県佐世保市有福町4178-1",
    "lat": 33.1349881,
    "lng": 129.79083,
    "tel": "0956-80-4028",
    "url": "",
    "pref": "長崎県",
    "city": "佐世保市",
    "category": "community_day_service",
    "serviceType": "地域密着型通所介護",
    "capacity": 0,
    "openDays": [
      "平日",
      "土曜日",
      "日曜日",
      "祝日"
    ],
    "openDaysNote": ""
  },
  {
    "id": "4270204110",
    "name": "トータルデイサービス安心院Ⅱ",
    "kana": "トータルデイサービスアジムツゥ",
    "address": "長崎県佐世保市広田町718番地1",
    "lat": 33.1235396,
    "lng": 129.8059173,
    "tel": "0956-76-8730",
    "url": "",
    "pref": "長崎県",
    "city": "佐世保市",
    "category": "community_day_service",
    "serviceType": "地域密着型通所介護",
    "capacity": 0,
    "openDays": [
      "平日",
      "土曜日",
      "日曜日",
      "祝日"
    ],
    "openDaysNote": ""
  },
  {
    "id": "4290201336",
    "name": "トレーニング・リハ相浦",
    "kana": "トレーニングリハアイノウラ",
    "address": "長崎県佐世保市川下町165番地1",
    "lat": 33.188928,
    "lng": 129.6677257,
    "tel": "0956-37-6220",
    "url": "",
    "pref": "長崎県",
    "city": "佐世保市",
    "category": "community_day_service",
    "serviceType": "地域密着型通所介護",
    "capacity": null,
    "openDays": [
      "平日"
    ],
    "openDaysNote": ""
  },
  {
    "id": "4290201377",
    "name": "トレーニング型デイサービスセンターLULU",
    "kana": "トレーニングガタデイサービスセンター　ルル",
    "address": "長崎県佐世保市野中町62-34",
    "lat": 33.2118569,
    "lng": 129.7067104,
    "tel": "0956-55-4961",
    "url": "https://day-lulu.com",
    "pref": "長崎県",
    "city": "佐世保市",
    "category": "community_day_service",
    "serviceType": "地域密着型通所介護",
    "capacity": 0,
    "openDays": [
      "平日",
      "土曜日",
      "祝日"
    ],
    "openDaysNote": ""
  },
  {
    "id": "4290201435",
    "name": "トレーニング特化型　元気になるデイサービス",
    "kana": "トレーニングトッカガタ　ゲンキニナルデイサービス",
    "address": "長崎県佐世保市横尾町2395－1",
    "lat": 33.2002637,
    "lng": 129.7196084,
    "tel": "0956-59-8686",
    "url": "",
    "pref": "長崎県",
    "city": "佐世保市",
    "category": "community_day_service",
    "serviceType": "地域密着型通所介護",
    "capacity": null,
    "openDays": [
      "平日",
      "土曜日"
    ],
    "openDaysNote": ""
  },
  {
    "id": "4290201575",
    "name": "ほのほのの家",
    "kana": "ホノボノノウチ",
    "address": "長崎県佐世保市横尾長1676-2",
    "lat": 33.1970235,
    "lng": 129.7111401,
    "tel": "956371661",
    "url": "",
    "pref": "長崎県",
    "city": "佐世保市",
    "category": "community_day_service",
    "serviceType": "地域密着型通所介護",
    "capacity": null,
    "openDays": [
      "平日",
      "土曜日",
      "祝日"
    ],
    "openDaysNote": ""
  },
  {
    "id": "4270203690",
    "name": "ほのぼのの家",
    "kana": "ホノボノノウチ",
    "address": "長崎県佐世保市横尾町１６７６",
    "lat": 33.1979776,
    "lng": 129.7171847,
    "tel": "0956-37-1661",
    "url": "",
    "pref": "長崎県",
    "city": "佐世保市",
    "category": "community_day_service",
    "serviceType": "地域密着型通所介護",
    "capacity": 10,
    "openDays": [
      "平日",
      "土曜日",
      "祝日"
    ],
    "openDaysNote": "上記定休日のほか、大雨、台風、地震、積雪、その他の天災地変の場合は利用者の安全を考慮して臨時休業とする。"
  },
  {
    "id": "4290201526",
    "name": "ポラリスデイサービスセンター佐世保",
    "kana": "ポラリスデイサービスセンターサセボ",
    "address": "長崎県佐世保市早岐1丁目3-14",
    "lat": 33.1342587,
    "lng": 129.7976245,
    "tel": "0956-59-6642",
    "url": "https://www.polaris.care/office/detail.php?no=MTE4",
    "pref": "長崎県",
    "city": "佐世保市",
    "category": "community_day_service",
    "serviceType": "地域密着型通所介護",
    "capacity": 0,
    "openDays": [
      "平日",
      "祝日"
    ],
    "openDaysNote": ""
  },
  {
    "id": "4270204557",
    "name": "リハプライド佐世保天満",
    "kana": "リハプライドサセボテンマ",
    "address": "長崎県佐世保市天満町３番２３号ル・モント・ジョリ天満１０１号室 ル・モント・ジョリ天満１０１号室",
    "lat": 33.1772628,
    "lng": 129.7151962,
    "tel": "0956-76-7450",
    "url": "www.rehapride.com/sasebo/",
    "pref": "長崎県",
    "city": "佐世保市",
    "category": "community_day_service",
    "serviceType": "地域密着型通所介護",
    "capacity": 180,
    "openDays": [
      "平日",
      "祝日"
    ],
    "openDaysNote": ""
  },
  {
    "id": "4270204615",
    "name": "リハプライド佐世保日宇",
    "kana": "リハプライドサセボヒウ",
    "address": "長崎県佐世保市日宇町695-6大久保第二ビル１階 大久保第二ビル１階",
    "lat": 33.1586125,
    "lng": 129.7587548,
    "tel": "0956-31-7944",
    "url": "http://www.rehapride.co.jp/sasebohiu/",
    "pref": "長崎県",
    "city": "佐世保市",
    "category": "community_day_service",
    "serviceType": "地域密着型通所介護",
    "capacity": 170,
    "openDays": [
      "平日",
      "土曜日",
      "祝日"
    ],
    "openDaysNote": ""
  },
  {
    "id": "4270204029",
    "name": "医療法人　梶田医院　デイサービス大塔",
    "kana": "イリョウホウジン　カジタイイン　デイサービスダイトウ",
    "address": "長崎県佐世保市田の浦町5番41号",
    "lat": 33.1435705,
    "lng": 129.7855858,
    "tel": "0956-39-9580",
    "url": "http://daitohome.ec-net.jp/",
    "pref": "長崎県",
    "city": "佐世保市",
    "category": "community_day_service",
    "serviceType": "地域密着型通所介護",
    "capacity": 18,
    "openDays": [
      "平日",
      "土曜日",
      "日曜日",
      "祝日"
    ],
    "openDaysNote": ""
  },
  {
    "id": "4270202841",
    "name": "医療法人社団真友会藤井医院　デイサービスみどり",
    "kana": "イリョウホウジンシャダンシンユウカイフジイイイン　デイサービスミドリ",
    "address": "長崎県佐世保市中通町１７番地２２",
    "lat": 33.186137,
    "lng": 129.711952,
    "tel": "0956-37-2003",
    "url": "",
    "pref": "長崎県",
    "city": "佐世保市",
    "category": "community_day_service",
    "serviceType": "地域密着型通所介護",
    "capacity": 0,
    "openDays": [
      "平日",
      "土曜日",
      "祝日"
    ],
    "openDaysNote": ""
  },
  {
    "id": "4290201419",
    "name": "共生型サービス事業所　ウィズ・ユー",
    "kana": "キョウセイガタサービスジギョウショ　ウィズ・ユー",
    "address": "長崎県佐世保市三浦町4-30松蔵ビル1F",
    "lat": 33.1656116,
    "lng": 129.726556,
    "tel": "080-3486-4301",
    "url": "https://withyou.ltd",
    "pref": "長崎県",
    "city": "佐世保市",
    "category": "community_day_service",
    "serviceType": "地域密着型通所介護",
    "capacity": 15,
    "openDays": [
      "平日",
      "祝日"
    ],
    "openDaysNote": "※イベント時は土曜日・日曜日も開所する。"
  },
  {
    "id": "4290201245",
    "name": "合同会社あかり",
    "kana": "ゴウドウカイシャアカリ",
    "address": "吉井町橋川内４０５－８",
    "lat": 33.2692361049216,
    "lng": 129.712421522186,
    "tel": "0956-64-2655",
    "url": "",
    "pref": "長崎県",
    "city": "佐世保市",
    "category": "community_day_service",
    "serviceType": "地域密着型通所介護",
    "capacity": 0,
    "openDays": [
      "平日",
      "土曜日",
      "祝日"
    ],
    "openDaysNote": ""
  },
  {
    "id": "4290201484",
    "name": "社会福祉法人寛寿会（海南荘）",
    "kana": "シャカイフクシホウジンカンジュカイ（カイナンソウ）",
    "address": "長崎県佐世保市俵ヶ浦町２１０",
    "lat": 33.1179489,
    "lng": 129.6800537,
    "tel": "０９５６－２８－３０３８",
    "url": "http://www.kainansou.com/",
    "pref": "長崎県",
    "city": "佐世保市",
    "category": "community_day_service",
    "serviceType": "地域密着型通所介護",
    "capacity": 0,
    "openDays": [
      "平日",
      "土曜日",
      "祝日"
    ],
    "openDaysNote": ""
  },
  {
    "id": "4270204623",
    "name": "通所介護事業所えびす",
    "kana": "ツウショカイゴジギョウショエビス",
    "address": "長崎県佐世保市天神5丁目9番25号幼老統合ケア施設えびす 幼老統合ケア施設えびす",
    "lat": 33.1448840360727,
    "lng": 129.737269482821,
    "tel": "0956-76-8590",
    "url": "https://ks-ebisu.co.jp/",
    "pref": "長崎県",
    "city": "佐世保市",
    "category": "community_day_service",
    "serviceType": "地域密着型通所介護",
    "capacity": 0,
    "openDays": [
      "平日",
      "土曜日",
      "祝日"
    ],
    "openDaysNote": ""
  },
  {
    "id": "4270201074",
    "name": "特定非営利活動法人つくも福祉グループみはらし",
    "kana": "トクテイヒエイリカツドウホウジンツクモフクシグループミハラシ",
    "address": "長崎県佐世保市大和町1507-2",
    "lat": 33.1657536,
    "lng": 129.7533352,
    "tel": "0956-32-7337",
    "url": "",
    "pref": "長崎県",
    "city": "佐世保市",
    "category": "community_day_service",
    "serviceType": "地域密着型通所介護",
    "capacity": 10,
    "openDays": [
      "平日",
      "祝日"
    ],
    "openDaysNote": "定休日、時間外（１７時以降）営業する場合もあります。"
  },
  {
    "id": "4271103089",
    "name": "デイサービス　クローバー・ガーデン時津",
    "kana": "デイサービス　クローバー・ガーデントギツ",
    "address": "長崎県西彼杵郡時津町浦郷440-10",
    "lat": 32.8311406,
    "lng": 129.8467302,
    "tel": "095-882-2507",
    "url": "http://www.fujimoto-group.jp/",
    "pref": "長崎県",
    "city": "時津町",
    "category": "community_day_service",
    "serviceType": "地域密着型通所介護",
    "capacity": 18,
    "openDays": [
      "平日",
      "土曜日",
      "祝日"
    ],
    "openDaysNote": ""
  },
  {
    "id": "4291100131",
    "name": "デイサービス詩歌",
    "kana": "デイサービスウタ",
    "address": "長崎県西彼杵郡時津町浦郷260-4",
    "lat": 32.8290462,
    "lng": 129.8472725,
    "tel": "095-865-8294",
    "url": "",
    "pref": "長崎県",
    "city": "時津町",
    "category": "community_day_service",
    "serviceType": "地域密着型通所介護",
    "capacity": 10,
    "openDays": [
      "平日",
      "土曜日"
    ],
    "openDaysNote": "１月１日.１月２日休み"
  },
  {
    "id": "4271102776",
    "name": "デイサービス茶の間",
    "kana": "デイサービスチャノマ",
    "address": "長崎県西彼杵郡時津町浦郷260-4",
    "lat": 32.8290491,
    "lng": 129.8472969,
    "tel": "095-865-8294",
    "url": "http://care-meigetsudou.jp/",
    "pref": "長崎県",
    "city": "時津町",
    "category": "community_day_service",
    "serviceType": "地域密着型通所介護",
    "capacity": 10,
    "openDays": [
      "平日",
      "土曜日",
      "日曜日",
      "祝日"
    ],
    "openDaysNote": ""
  },
  {
    "id": "4270800560",
    "name": "ディサービス　えん樹",
    "kana": "デイサービス　エンジュ",
    "address": "長崎県松浦市調川町下免740-57",
    "lat": 33.3522275958775,
    "lng": 129.72921330846,
    "tel": "956730555",
    "url": "https://care-net.biz/42/enju.soyokaze/",
    "pref": "長崎県",
    "city": "松浦市",
    "category": "community_day_service",
    "serviceType": "地域密着型通所介護",
    "capacity": 15,
    "openDays": [
      "平日",
      "土曜日",
      "祝日"
    ],
    "openDaysNote": ""
  },
  {
    "id": "4290800046",
    "name": "デイサービス　だんだん",
    "kana": "デイサービス　ダンダン",
    "address": "長崎県松浦市志佐町高野免８７７番地５",
    "lat": 33.3291694748463,
    "lng": 129.715357959525,
    "tel": "０８０－６４０４－２４５４",
    "url": "",
    "pref": "長崎県",
    "city": "松浦市",
    "category": "community_day_service",
    "serviceType": "地域密着型通所介護",
    "capacity": 0,
    "openDays": [
      "平日",
      "祝日"
    ],
    "openDaysNote": "年末年始等の長期休業については、臨時的に営業日を設ける場合がある。"
  },
  {
    "id": "4270800354",
    "name": "株式会社　心友　介護保険事業所　デイサービス「ふえふき」",
    "kana": "カブシキガイシャ　シンユウ　カイゴホケンジギョウショ　デイサービス　フエフキ",
    "address": "長崎県松浦市志佐町笛吹免218",
    "lat": 33.3089815609056,
    "lng": 129.728278234255,
    "tel": "0956-73-0388",
    "url": "",
    "pref": "長崎県",
    "city": "松浦市",
    "category": "community_day_service",
    "serviceType": "地域密着型通所介護",
    "capacity": 0,
    "openDays": [
      "平日",
      "土曜日",
      "祝日"
    ],
    "openDaysNote": ""
  },
  {
    "id": "4290800087",
    "name": "松浦市志佐町浦免270番地",
    "kana": "シテイチイキミッチャクガタツウショカイゴジギョウショ　アイコウエン",
    "address": "松浦市志佐町浦免270番地",
    "lat": 33.3454101,
    "lng": 129.7174935,
    "tel": "0956-72-0863",
    "url": "",
    "pref": "長崎県",
    "city": "松浦市",
    "category": "community_day_service",
    "serviceType": "地域密着型通所介護",
    "capacity": 0,
    "openDays": [
      "平日",
      "祝日"
    ],
    "openDaysNote": ""
  },
  {
    "id": "4270800164",
    "name": "通所介護事業所　春風荘",
    "kana": "ツウショカイゴジギョウショ　シュンプウソウ",
    "address": "長崎県松浦市御厨町里免384番地1",
    "lat": 33.3641525645419,
    "lng": 129.664252041139,
    "tel": "0956-75-2889",
    "url": "https://seizanso-matsuurashi.net",
    "pref": "長崎県",
    "city": "松浦市",
    "category": "community_day_service",
    "serviceType": "地域密着型通所介護",
    "capacity": 0,
    "openDays": [
      "平日",
      "土曜日",
      "祝日"
    ],
    "openDaysNote": ""
  },
  {
    "id": "4270800149",
    "name": "老人デイサ－ビスセンタ－あおしま",
    "kana": "ロウジンデイサ-ビスセンタ-アオシマ",
    "address": "長崎県松浦市星鹿町青島免483-1",
    "lat": 33.4129628,
    "lng": 129.6873351,
    "tel": "0956-75-2674",
    "url": "https://seiun-aoshima.webnode.jp/",
    "pref": "長崎県",
    "city": "松浦市",
    "category": "community_day_service",
    "serviceType": "地域密着型通所介護",
    "capacity": 0,
    "openDays": [
      "平日"
    ],
    "openDaysNote": ""
  },
  {
    "id": "4291600130",
    "name": "デイサービスえんち",
    "kana": "デイサービスエンチ",
    "address": "長崎県南松浦郡新上五島町阿瀬津郷４５６番地１６",
    "lat": 32.9533496,
    "lng": 129.1205434,
    "tel": "0959-42-2860",
    "url": "",
    "pref": "長崎県",
    "city": "新上五島町",
    "category": "community_day_service",
    "serviceType": "地域密着型通所介護",
    "capacity": 0,
    "openDays": [
      "平日",
      "土曜日"
    ],
    "openDaysNote": "月曜日、水曜日、金曜日、土曜日の週に４日間の営業です。"
  },
  {
    "id": "4271601249",
    "name": "デイサービスセンターｎａｇｏｍｉ",
    "kana": "デイサービスセンターナゴミ",
    "address": "長崎県南松浦郡新上五島町奈摩郷910番地44",
    "lat": 33.0179055,
    "lng": 129.0736647,
    "tel": "0959-43-1197",
    "url": "http：//www.shinkamigoto.net/",
    "pref": "長崎県",
    "city": "新上五島町",
    "category": "community_day_service",
    "serviceType": "地域密着型通所介護",
    "capacity": 0,
    "openDays": [
      "平日",
      "土曜日",
      "日曜日",
      "祝日"
    ],
    "openDaysNote": "なし"
  },
  {
    "id": "4291600098",
    "name": "デイサービスセンターわかまつ",
    "kana": "デイサービスセンターワカマツ",
    "address": "長崎県南松浦郡新上五島町若松郷288番地特別養護老人ホームわかまつ 特別養護老人ホームわかまつ",
    "lat": 32.8872339,
    "lng": 129.0220728,
    "tel": "０９５９－４６－３５３３",
    "url": "https://www.tokuwaka.net",
    "pref": "長崎県",
    "city": "新上五島町",
    "category": "community_day_service",
    "serviceType": "地域密着型通所介護",
    "capacity": null,
    "openDays": [
      "平日",
      "土曜日",
      "祝日"
    ],
    "openDaysNote": ""
  },
  {
    "id": "4291600106",
    "name": "地域密着型通所介護ひろんた村居間",
    "kana": "チイキミッチャクガタツウショカイゴヒロンタムライマ",
    "address": "長崎県南松浦郡新上五島町鯛ノ浦郷８７番地６５８ひろんた村母屋 ひろんた村母屋",
    "lat": 32.952423,
    "lng": 129.100732,
    "tel": "0959-42-0363",
    "url": "http://www.hironta.com/",
    "pref": "長崎県",
    "city": "新上五島町",
    "category": "community_day_service",
    "serviceType": "地域密着型通所介護",
    "capacity": 0,
    "openDays": [
      "平日"
    ],
    "openDaysNote": ""
  },
  {
    "id": "4271600266",
    "name": "地域密着型通所介護事業所　つばきの里",
    "kana": "チイキミッチャクガタツウショカイゴジギョウショ　ツバキノサト",
    "address": "南松浦郡新上五島町浦桑郷１００８－５",
    "lat": 32.9876421,
    "lng": 129.0892314,
    "tel": "0959-54-2411",
    "url": "http://syuhoukai.jp/",
    "pref": "長崎県",
    "city": "新上五島町",
    "category": "community_day_service",
    "serviceType": "地域密着型通所介護",
    "capacity": 0,
    "openDays": [
      "平日",
      "祝日"
    ],
    "openDaysNote": ""
  },
  {
    "id": "4271601017",
    "name": "北魚目デイサービスセンター",
    "kana": "キタウオノメデイサービスセンター",
    "address": "長崎県南松浦郡新上五島町小串郷１４４８番地",
    "lat": 33.0546328,
    "lng": 129.097095,
    "tel": "0959-55-2607",
    "url": "",
    "pref": "長崎県",
    "city": "新上五島町",
    "category": "community_day_service",
    "serviceType": "地域密着型通所介護",
    "capacity": 0,
    "openDays": [
      "平日",
      "土曜日",
      "祝日"
    ],
    "openDaysNote": ""
  },
  {
    "id": "4291600114",
    "name": "有川デイサービスセンターふれあい",
    "kana": "アリカワデイサービスセンターフレアイ",
    "address": "有川郷2360番地8有川地域福祉センターふれあい 有川地域福祉センターふれあい",
    "lat": 32.9794062,
    "lng": 129.1101536,
    "tel": "0959-42-1359",
    "url": "",
    "pref": "長崎県",
    "city": "新上五島町",
    "category": "community_day_service",
    "serviceType": "地域密着型通所介護",
    "capacity": null,
    "openDays": [
      "平日",
      "祝日"
    ],
    "openDaysNote": ""
  },
  {
    "id": "4292300052",
    "name": "デイサービス　さいかい",
    "kana": "デイサービス　サイカイ",
    "address": "長崎県西海市西彼町小迎郷2517-3",
    "lat": 33.0437622585716,
    "lng": 129.742274923161,
    "tel": "0959-36-7878",
    "url": "http://www.fukuikai.com",
    "pref": "長崎県",
    "city": "西海市",
    "category": "community_day_service",
    "serviceType": "地域密着型通所介護",
    "capacity": 10,
    "openDays": [
      "平日",
      "土曜日",
      "祝日"
    ],
    "openDaysNote": "転送電話にて２４時間連絡可能としています。"
  },
  {
    "id": "4292300078",
    "name": "ほっとハウス",
    "kana": "ホットハウス",
    "address": "長崎県西海市大島町１７６５番地",
    "lat": 33.041248,
    "lng": 129.6204051,
    "tel": "0959－34－2905",
    "url": "",
    "pref": "長崎県",
    "city": "西海市",
    "category": "community_day_service",
    "serviceType": "地域密着型通所介護",
    "capacity": 0,
    "openDays": [
      "平日",
      "土曜日",
      "祝日"
    ],
    "openDaysNote": ""
  },
  {
    "id": "4271100119",
    "name": "海風荘デイサービスセンター",
    "kana": "カイフウソウデイサービスセンター",
    "address": "長崎県西海市大瀬戸町瀬戸板浦郷１１２３番地１４",
    "lat": 32.9437934,
    "lng": 129.6382213,
    "tel": "0959-23-3320",
    "url": "https://www.kaifuso.com/",
    "pref": "長崎県",
    "city": "西海市",
    "category": "community_day_service",
    "serviceType": "地域密着型通所介護",
    "capacity": 18,
    "openDays": [
      "平日",
      "祝日"
    ],
    "openDaysNote": "お正月やお盆も営業いたしております。（土曜、日曜以外は営業）"
  },
  {
    "id": "4251180032",
    "name": "元亀の里",
    "kana": "ゲンキノサト",
    "address": "長崎県西海市中山郷2088番地1",
    "lat": 32.9931123,
    "lng": 129.7953405,
    "tel": "0959-29-5100",
    "url": "https://www.seihikai.jp/",
    "pref": "長崎県",
    "city": "西海市",
    "category": "community_day_service",
    "serviceType": "地域密着型通所介護",
    "capacity": 0,
    "openDays": [
      "平日",
      "土曜日",
      "祝日"
    ],
    "openDaysNote": ""
  },
  {
    "id": "4271101109",
    "name": "瀬戸広域デイサービスセンター",
    "kana": "セトコウイキデイサービスセンター",
    "address": "長崎県西海市大瀬戸町瀬戸西浜郷１６０３－１２",
    "lat": 32.9488825,
    "lng": 129.6654324,
    "tel": "0959-23-3111",
    "url": "http://ryokuyokai.jp/",
    "pref": "長崎県",
    "city": "西海市",
    "category": "community_day_service",
    "serviceType": "地域密着型通所介護",
    "capacity": 10,
    "openDays": [
      "平日",
      "土曜日",
      "祝日"
    ],
    "openDaysNote": "8/13～15（夏期休暇）、12/31～1/3（冬期休暇）"
  },
  {
    "id": "4271200398",
    "name": "くじゃくの家デイサービスセンター",
    "kana": "クジャクノイエデイサービスセンター",
    "address": "長崎県東彼杵郡川棚町小串郷３５８番地１",
    "lat": 33.0554103,
    "lng": 129.8329308,
    "tel": "0956-82-5181",
    "url": "http://www.nagasaki-kouseifukushidan.or.jp",
    "pref": "長崎県",
    "city": "川棚町",
    "category": "community_day_service",
    "serviceType": "地域密着型通所介護",
    "capacity": 0,
    "openDays": [
      "平日",
      "土曜日",
      "日曜日",
      "祝日"
    ],
    "openDaysNote": ""
  },
  {
    "id": "4272000086",
    "name": "対馬市社会福祉協議会　上県町通所介護事業所（喜多の苑）",
    "kana": "ツシマシシャカイフクシキョウギカイ　カミアガタマチツウショカイゴジギョウショ（キタノエン）",
    "address": "長崎県対馬市上県町佐須奈乙３３９番地",
    "lat": 34.6412859,
    "lng": 129.4000534,
    "tel": "0920-84-2168",
    "url": "",
    "pref": "長崎県",
    "city": "対馬市",
    "category": "community_day_service",
    "serviceType": "地域密着型通所介護",
    "capacity": 18,
    "openDays": [
      "平日",
      "土曜日",
      "祝日"
    ],
    "openDaysNote": ""
  },
  {
    "id": "4292000116",
    "name": "通所介護サービス事業所　御嶽の里",
    "kana": "ツウショカイゴサービスジギョウショ　ミタケノサト",
    "address": "長崎県対馬市上県町樫滝1061-1",
    "lat": 34.5307586,
    "lng": 129.3493489,
    "tel": "0920-85-1818",
    "url": "",
    "pref": "長崎県",
    "city": "対馬市",
    "category": "community_day_service",
    "serviceType": "地域密着型通所介護",
    "capacity": 0,
    "openDays": [
      "平日",
      "祝日"
    ],
    "openDaysNote": ""
  },
  {
    "id": "4292000090",
    "name": "有明山　福祉の郷　健寿園",
    "kana": "アリアケヤマ　フクシノサト　ケンジュエン",
    "address": "長崎県対馬市厳原町西里201番地６",
    "lat": 34.2039202,
    "lng": 129.2849058,
    "tel": "0920-52-0075",
    "url": "",
    "pref": "長崎県",
    "city": "対馬市",
    "category": "community_day_service",
    "serviceType": "地域密着型通所介護",
    "capacity": 18,
    "openDays": [
      "平日",
      "土曜日",
      "祝日"
    ],
    "openDaysNote": "年末年始の１２月３０日～１月３日はお休みです。"
  },
  {
    "id": "4270501705",
    "name": "あいたすデイサービス",
    "kana": "アイタスデイサービス",
    "address": "長崎県大村市西本町478番地3",
    "lat": 32.9044787,
    "lng": 129.9585386,
    "tel": "0957-53-8028",
    "url": "",
    "pref": "長崎県",
    "city": "大村市",
    "category": "community_day_service",
    "serviceType": "地域密着型通所介護",
    "capacity": 15,
    "openDays": [
      "平日",
      "土曜日",
      "祝日"
    ],
    "openDaysNote": ""
  },
  {
    "id": "4270501473",
    "name": "うたしデイサービス",
    "kana": "ウタシデイサービス",
    "address": "長崎県大村市杭出津2-794-5",
    "lat": 32.9123223,
    "lng": 129.9514083,
    "tel": "0957-47-8222",
    "url": "",
    "pref": "長崎県",
    "city": "大村市",
    "category": "community_day_service",
    "serviceType": "地域密着型通所介護",
    "capacity": 15,
    "openDays": [
      "平日",
      "土曜日",
      "日曜日",
      "祝日"
    ],
    "openDaysNote": "保険外での延長サービスもしており、送迎を朝8：00から夕方は18：45まで施設に滞在もできます。"
  },
  {
    "id": "4270501051",
    "name": "サンライフデイサービスセンター",
    "kana": "サンライフデイサービスセンター",
    "address": "長崎県大村市荒平町１２５０",
    "lat": 32.9197887,
    "lng": 129.9770337,
    "tel": "0957-53-3110",
    "url": "http://www.nagasaki-kouseifukushidan.or.jp/",
    "pref": "長崎県",
    "city": "大村市",
    "category": "community_day_service",
    "serviceType": "地域密着型通所介護",
    "capacity": 0,
    "openDays": [
      "平日",
      "土曜日",
      "祝日"
    ],
    "openDaysNote": ""
  },
  {
    "id": "4270501671",
    "name": "てあーて・ながさき",
    "kana": "テアーテ・ナガサキ",
    "address": "大川田町418番4",
    "lat": 32.9434804,
    "lng": 129.9467133,
    "tel": "0957-51-5179",
    "url": "http://www.octp-net.ne.jp/~te-arte/",
    "pref": "長崎県",
    "city": "大村市",
    "category": "community_day_service",
    "serviceType": "地域密着型通所介護",
    "capacity": 10,
    "openDays": [
      "平日",
      "祝日"
    ],
    "openDaysNote": ""
  },
  {
    "id": "4270501549",
    "name": "デイサービス　楽々園",
    "kana": "デイサービス　ラクラクエン",
    "address": "長崎県大村市宮小路3丁目1394-2",
    "lat": 32.9303431,
    "lng": 129.9595183,
    "tel": "0957-42-4116",
    "url": "",
    "pref": "長崎県",
    "city": "大村市",
    "category": "community_day_service",
    "serviceType": "地域密着型通所介護",
    "capacity": 12,
    "openDays": [
      "平日",
      "土曜日",
      "祝日"
    ],
    "openDaysNote": "時間延長の利用についてはご相談ください。"
  },
  {
    "id": "4270501580",
    "name": "デイサービスいきいき日和",
    "kana": "デイサービスイキイキビヨリ",
    "address": "長崎県大村市松山町613-1",
    "lat": 32.914933,
    "lng": 129.9454086,
    "tel": "0957-47-9339",
    "url": "http://ikiikibiyori.net",
    "pref": "長崎県",
    "city": "大村市",
    "category": "community_day_service",
    "serviceType": "地域密着型通所介護",
    "capacity": 10,
    "openDays": [
      "平日",
      "土曜日",
      "祝日"
    ],
    "openDaysNote": ""
  },
  {
    "id": "4270501101",
    "name": "デイサービスしんり",
    "kana": "デイサービスシンリ",
    "address": "長崎県大村市上諏訪町８８０－１",
    "lat": 32.9227494,
    "lng": 129.9650236,
    "tel": "0957-48-6042",
    "url": "",
    "pref": "長崎県",
    "city": "大村市",
    "category": "community_day_service",
    "serviceType": "地域密着型通所介護",
    "capacity": 0,
    "openDays": [
      "平日",
      "土曜日",
      "日曜日",
      "祝日"
    ],
    "openDaysNote": ""
  },
  {
    "id": "4270501291",
    "name": "デイサービスセンター　なごみの郷",
    "kana": "デイサービスセンター　ナゴミノサト",
    "address": "長崎県大村市松原１丁目472-8ワールドビル別館1Ｆ ワールドビル別館1Ｆ",
    "lat": 32.975083,
    "lng": 129.9471348,
    "tel": "0957-56-8181",
    "url": "https://yamada-gp.main.jp/%e3%82%b5%e3%83%b3%e3%82%af%e3%83%95%e3%82%a3%e3%83%ab%e3%83%89%e6%a0%aa%e5%bc%8f%e4%bc%9a%e7%a4%be/%e3%81%aa%e3%81%94%e3%81%bf%e3%81%ae%e9%83%b7/",
    "pref": "長崎県",
    "city": "大村市",
    "category": "community_day_service",
    "serviceType": "地域密着型通所介護",
    "capacity": 0,
    "openDays": [
      "平日",
      "土曜日",
      "祝日"
    ],
    "openDaysNote": "お盆（8/13～15）・年末年始（12/30～1/3）はお休みしています。"
  },
  {
    "id": "4270500194",
    "name": "デイサービスセンター　まりも倶楽部",
    "kana": "デイサービスセンター　マリモクラブ",
    "address": "長崎県大村市本町４３６－１２デイサービスセンターまりも倶楽部 デイサービスセンターまりも倶楽部",
    "lat": 32.9074367,
    "lng": 129.9576497,
    "tel": "0957-54-9144",
    "url": "https://fukusihouraikai.com",
    "pref": "長崎県",
    "city": "大村市",
    "category": "community_day_service",
    "serviceType": "地域密着型通所介護",
    "capacity": 10,
    "openDays": [
      "平日",
      "祝日"
    ],
    "openDaysNote": ""
  },
  {
    "id": "4270501663",
    "name": "デイサービスセンターあぐりハウス",
    "kana": "デイサービスセンターアグリハウス",
    "address": "長崎県大村市原口町617-6",
    "lat": 32.9371589,
    "lng": 129.950941,
    "tel": "0957-42-3119",
    "url": "http://agri-house.wix.com/agrihouse",
    "pref": "長崎県",
    "city": "大村市",
    "category": "community_day_service",
    "serviceType": "地域密着型通所介護",
    "capacity": 12,
    "openDays": [
      "平日",
      "土曜日",
      "祝日"
    ],
    "openDaysNote": "天災等による臨時休業あり（台風・積雪時の警報発令時等、送迎時に危険が伴う場合）"
  },
  {
    "id": "4270500921",
    "name": "デイサービスセンタースマイルケア",
    "kana": "デイサービスセンタースマイルケア",
    "address": "長崎県大村市宮小路1丁目281-2",
    "lat": 32.9470258067174,
    "lng": 129.945273152779,
    "tel": "0957-56-8787",
    "url": "http://www.tsukasa-co.jp/",
    "pref": "長崎県",
    "city": "大村市",
    "category": "community_day_service",
    "serviceType": "地域密着型通所介護",
    "capacity": 18,
    "openDays": [
      "平日",
      "土曜日",
      "日曜日",
      "祝日"
    ],
    "openDaysNote": "特になし"
  },
  {
    "id": "4270501523",
    "name": "デイサービス小さな家",
    "kana": "デイサービスチイサナイエ",
    "address": "長崎県大村市富の原2-81-1",
    "lat": 32.9473216,
    "lng": 129.940397,
    "tel": "0957-55-5133",
    "url": "http://www.tanpopoen.npo-jp.net/",
    "pref": "長崎県",
    "city": "大村市",
    "category": "community_day_service",
    "serviceType": "地域密着型通所介護",
    "capacity": 2,
    "openDays": [
      "平日",
      "土曜日",
      "祝日"
    ],
    "openDaysNote": "ただし、12月29日から1月3日のうち緊急に営業を必要とされると当事業所にて判断される場合は営業を行うことができる。月曜日、土曜日を除く祝日（火曜日から金曜日に当たる祝日）は休業。"
  },
  {
    "id": "4270501192",
    "name": "合同会社　優倫会　デイサービス絆（きずな）",
    "kana": "ゴウドウカイシャユウリンカイデイサービスキズナ（キズナ）",
    "address": "長崎県大村市坂口町413番地3",
    "lat": 32.9370648,
    "lng": 129.961293,
    "tel": "0957-20-8055",
    "url": "http://care-net.biz/42/kizuna/",
    "pref": "長崎県",
    "city": "大村市",
    "category": "community_day_service",
    "serviceType": "地域密着型通所介護",
    "capacity": 14,
    "openDays": [
      "平日",
      "土曜日",
      "祝日"
    ],
    "openDaysNote": "延長時間サービス対応可能（改行）お盆や年末年始の休業は期日の変更もあり、その際は事前に各利用者様に案内し了承を得る。"
  },
  {
    "id": "4270501317",
    "name": "通所介護施設　オムズ",
    "kana": "ツウショカイゴシセツ　オムズ",
    "address": "長崎県大村市富の原2丁目３２１－１",
    "lat": 32.9432358,
    "lng": 129.939386,
    "tel": "0957-56-8811",
    "url": "https://www.t-omuzuhome.com/",
    "pref": "長崎県",
    "city": "大村市",
    "category": "community_day_service",
    "serviceType": "地域密着型通所介護",
    "capacity": 0,
    "openDays": [
      "平日",
      "土曜日",
      "祝日"
    ],
    "openDaysNote": ""
  },
  {
    "id": "4290101841",
    "name": "SARUKU小ヶ倉",
    "kana": "サルクコガクラ",
    "address": "長崎県長崎市小ヶ倉町３丁目１２８",
    "lat": 32.7030089,
    "lng": 129.8479261,
    "tel": "095-895-7436",
    "url": "",
    "pref": "長崎県",
    "city": "長崎市",
    "category": "community_day_service",
    "serviceType": "地域密着型通所介護",
    "capacity": 0,
    "openDays": [
      "平日",
      "祝日"
    ],
    "openDaysNote": "12/31～1/03　年末年始休み"
  },
  {
    "id": "4290102096",
    "name": "SARUKU城栄",
    "kana": "サルクジョウエイ",
    "address": "長崎県長崎市城栄町１７－１４",
    "lat": 32.7749662,
    "lng": 129.8576506,
    "tel": "095‐894-7567",
    "url": "https://sa-japan.co.jp/",
    "pref": "長崎県",
    "city": "長崎市",
    "category": "community_day_service",
    "serviceType": "地域密着型通所介護",
    "capacity": 90,
    "openDays": [
      "平日",
      "祝日"
    ],
    "openDaysNote": ""
  },
  {
    "id": "4270108295",
    "name": "あさひデイサービスセンター",
    "kana": "アサヒデイサービスセンター",
    "address": "長崎県長崎市旭町２１-１３",
    "lat": 32.7517378,
    "lng": 129.8626792,
    "tel": "095-861-1110",
    "url": "",
    "pref": "長崎県",
    "city": "長崎市",
    "category": "community_day_service",
    "serviceType": "地域密着型通所介護",
    "capacity": 0,
    "openDays": [
      "平日",
      "土曜日",
      "祝日"
    ],
    "openDaysNote": ""
  },
  {
    "id": "4270110218",
    "name": "アルファデイサービスセンター諏訪の杜",
    "kana": "アルファデイサービスセンタースワノモリ",
    "address": "長崎県長崎市勝山町41番地アルファリビング長崎諏訪の杜 アルファリビング長崎諏訪の杜",
    "lat": 32.7516634,
    "lng": 129.8806667,
    "tel": "095-895-7101",
    "url": "http://a-living.jp/nagasaki-s/",
    "pref": "長崎県",
    "city": "長崎市",
    "category": "community_day_service",
    "serviceType": "地域密着型通所介護",
    "capacity": 15,
    "openDays": [
      "平日",
      "土曜日"
    ],
    "openDaysNote": "午前・午後3時間10分の一日二単位制です。（改行）定休日：土・日・祝日ただし祝日のある週は土曜日を営業日とする。　年末年始（12月31日～1月3日まで）"
  },
  {
    "id": "4270135470",
    "name": "かいごの花みずき　機能別対応型　デイサービス",
    "kana": "カイゴノハナミズキ　キノウベツタイオウガタ　デイサービス",
    "address": "長崎県長崎市平和町１７－７",
    "lat": 32.7752023,
    "lng": 129.8653341,
    "tel": "095-842-8754",
    "url": "http://www.kaigo-8732.com/",
    "pref": "長崎県",
    "city": "長崎市",
    "category": "community_day_service",
    "serviceType": "地域密着型通所介護",
    "capacity": 0,
    "openDays": [
      "平日",
      "土曜日",
      "祝日"
    ],
    "openDaysNote": ""
  },
  {
    "id": "4290101296",
    "name": "シニアフィットネス長崎西山",
    "kana": "シニアフィットネスナガサキニシヤマ",
    "address": "長崎県長崎市西山2-12-14リハテックビル1階 リハテックビル1階",
    "lat": 32.7587601,
    "lng": 129.8864383,
    "tel": "095-801-0390",
    "url": "",
    "pref": "長崎県",
    "city": "長崎市",
    "category": "community_day_service",
    "serviceType": "地域密着型通所介護",
    "capacity": 180,
    "openDays": [
      "平日",
      "祝日"
    ],
    "openDaysNote": "お盆は営業しています"
  },
  {
    "id": "4290101858",
    "name": "デイサービス　きんぎょ家",
    "kana": "デイサービス　キンギョヤ",
    "address": "長崎県長崎市小ヶ倉町1丁目607番地",
    "lat": 32.7063537,
    "lng": 129.8514819,
    "tel": "095-898--5922",
    "url": "http://h-well.co.jp",
    "pref": "長崎県",
    "city": "長崎市",
    "category": "community_day_service",
    "serviceType": "地域密着型通所介護",
    "capacity": 0,
    "openDays": [
      "平日",
      "土曜日",
      "祝日"
    ],
    "openDaysNote": ""
  },
  {
    "id": "4270107198",
    "name": "デイサービス　グリーン",
    "kana": "デイサービス　グリーン",
    "address": "長崎県長崎市江川町68番5リエゾン長崎南館 リエゾン長崎南館",
    "lat": 32.6818333183878,
    "lng": 129.840773280977,
    "tel": "095-832-5500",
    "url": "https://liaison.gr.jp/",
    "pref": "長崎県",
    "city": "長崎市",
    "category": "community_day_service",
    "serviceType": "地域密着型通所介護",
    "capacity": 18,
    "openDays": [
      "平日",
      "土曜日",
      "祝日"
    ],
    "openDaysNote": ""
  },
  {
    "id": "4290102039",
    "name": "デイサービス　クローバー・ガーデンよつば",
    "kana": "デイサービス　クローバー・ガーデンヨツバ",
    "address": "長崎県長崎市滑石5丁目9番38号",
    "lat": 32.8041739,
    "lng": 129.8333136,
    "tel": "095-857-4848",
    "url": "https://www.fujimoto-group.jp/",
    "pref": "長崎県",
    "city": "長崎市",
    "category": "community_day_service",
    "serviceType": "地域密着型通所介護",
    "capacity": 0,
    "openDays": [
      "平日",
      "土曜日"
    ],
    "openDaysNote": ""
  },
  {
    "id": "4270135546",
    "name": "デイサービス　クローバー・ガーデン滑石",
    "kana": "デイサービス　クローバー・ガーデンナメシ",
    "address": "長崎県長崎市滑石6丁目5番33号",
    "lat": 32.8013136,
    "lng": 129.8527177,
    "tel": "095-855-9608",
    "url": "http://www.fujimoto-group.jp",
    "pref": "長崎県",
    "city": "長崎市",
    "category": "community_day_service",
    "serviceType": "地域密着型通所介護",
    "capacity": 0,
    "openDays": [
      "平日",
      "土曜日",
      "祝日"
    ],
    "openDaysNote": ""
  },
  {
    "id": "4270110168",
    "name": "デイサービス　クローバー・ガーデン田上",
    "kana": "デイサービス　クローバー・ガーデンタガミ",
    "address": "長崎県長崎市田上1丁目4番11号ＭＡＴＳＵＯテナント1号室 ＭＡＴＳＵＯテナント1号室",
    "lat": 32.7246498,
    "lng": 129.8930836,
    "tel": "095-821-9608",
    "url": "http://www.fujimoto-group.jp/",
    "pref": "長崎県",
    "city": "長崎市",
    "category": "community_day_service",
    "serviceType": "地域密着型通所介護",
    "capacity": 0,
    "openDays": [
      "平日",
      "土曜日"
    ],
    "openDaysNote": ""
  },
  {
    "id": "4290101668",
    "name": "デイサービス　クローバー・ガーデン福田",
    "kana": "デイサービス　クローバー・ガーデンフクダ",
    "address": "長崎県長崎市大浜町846-22　小曽根ビル1階小曽根ビル　１階 小曽根ビル　１階",
    "lat": 32.7454190052885,
    "lng": 129.832020505496,
    "tel": "０９５－８６５－０００９",
    "url": "fujimoto-group.jp",
    "pref": "長崎県",
    "city": "長崎市",
    "category": "community_day_service",
    "serviceType": "地域密着型通所介護",
    "capacity": 0,
    "openDays": [
      "平日",
      "土曜日"
    ],
    "openDaysNote": "お盆休み８月１４日、８月１５日　年末年始休み　１２月３０日～１月３日"
  },
  {
    "id": "4270109699",
    "name": "デイサービス　クローバー・ガーデン矢上",
    "kana": "デイサービス　クローバー・ガーデンヤガミ",
    "address": "長崎県長崎市矢上町23番11号",
    "lat": 32.776229,
    "lng": 129.9516773,
    "tel": "095-839-9608",
    "url": "http://www.fujimoto-group.jp",
    "pref": "長崎県",
    "city": "長崎市",
    "category": "community_day_service",
    "serviceType": "地域密着型通所介護",
    "capacity": 0,
    "openDays": [
      "平日",
      "土曜日"
    ],
    "openDaysNote": ""
  },
  {
    "id": "4270104963",
    "name": "デイサービス　ののはは",
    "kana": "デイサービス　ノノハハ",
    "address": "長崎県長崎市高浜町3203-38",
    "lat": 32.6047182,
    "lng": 129.785349,
    "tel": "095-895-3557",
    "url": "",
    "pref": "長崎県",
    "city": "長崎市",
    "category": "community_day_service",
    "serviceType": "地域密着型通所介護",
    "capacity": 18,
    "openDays": [
      "平日",
      "土曜日",
      "祝日"
    ],
    "openDaysNote": "お盆と年末年始期間を除く通年において、日曜以外は祝祭日に係わらず営業いたしております。"
  },
  {
    "id": "4270107743",
    "name": "デイサービス　はまゆう",
    "kana": "デイサービス　ハマユウ",
    "address": "長崎県長崎市田中町８４５－１",
    "lat": 32.7687360398794,
    "lng": 129.951871377817,
    "tel": "095-839-5888",
    "url": "",
    "pref": "長崎県",
    "city": "長崎市",
    "category": "community_day_service",
    "serviceType": "地域密着型通所介護",
    "capacity": 15,
    "openDays": [
      "平日"
    ],
    "openDaysNote": "特記なし"
  },
  {
    "id": "4270107628",
    "name": "デイサービス　ひまわり",
    "kana": "デイサービス　ヒマワリ",
    "address": "長崎県長崎市高浜町２４７０番地",
    "lat": 32.6112483,
    "lng": 129.7890958,
    "tel": "095-895-3355",
    "url": "",
    "pref": "長崎県",
    "city": "長崎市",
    "category": "community_day_service",
    "serviceType": "地域密着型通所介護",
    "capacity": 14,
    "openDays": [
      "平日",
      "土曜日",
      "祝日"
    ],
    "openDaysNote": "日曜・時間外連絡先　８９５－３８８３"
  },
  {
    "id": "4290102104",
    "name": "デイサービス　まごころ",
    "kana": "デイサービス　マゴコロ",
    "address": "長崎県長崎市京泊３丁目31-9松尾ビル　102号 松尾ビル　102号",
    "lat": 32.8239312,
    "lng": 129.7725538,
    "tel": "095-865-9120",
    "url": "https://www.sanctuary-stc-2023.com",
    "pref": "長崎県",
    "city": "長崎市",
    "category": "community_day_service",
    "serviceType": "地域密着型通所介護",
    "capacity": 18,
    "openDays": [
      "平日"
    ],
    "openDaysNote": ""
  },
  {
    "id": "4270103445",
    "name": "デイサービス　リエゾン長崎",
    "kana": "デイサービス　リエゾンナガサキ",
    "address": "長崎県長崎市江川町92番地",
    "lat": 32.6823242,
    "lng": 129.8410266,
    "tel": "095-879-7640",
    "url": "http://www.liaison.gr.jp",
    "pref": "長崎県",
    "city": "長崎市",
    "category": "community_day_service",
    "serviceType": "地域密着型通所介護",
    "capacity": 0,
    "openDays": [
      "平日",
      "土曜日",
      "祝日"
    ],
    "openDaysNote": ""
  },
  {
    "id": "4270107560",
    "name": "デイサービス　花いちもんめ",
    "kana": "デイサービス　ハナイチモンメ",
    "address": "長崎県長崎市布巻町５３４番地１サービス付き高齢者向け住宅　ラピナスの園 サービス付き高齢者向け住宅　ラピナスの園",
    "lat": 32.6544254901047,
    "lng": 129.834924071015,
    "tel": "095-895-5871",
    "url": "http://www.hanaichi-monme.com",
    "pref": "長崎県",
    "city": "長崎市",
    "category": "community_day_service",
    "serviceType": "地域密着型通所介護",
    "capacity": 18,
    "openDays": [
      "平日",
      "土曜日",
      "祝日"
    ],
    "openDaysNote": "利用者の転倒予防及び怪我や病気に注意すること。（改行）利用者が楽しく過ごせるようにレクリエーションを充実すること。"
  },
  {
    "id": "4270110887",
    "name": "デイサービス　裕庵。。",
    "kana": "デイサービス　ユウアン",
    "address": "長崎県長崎市松原町2535番地2",
    "lat": 32.7961189,
    "lng": 129.9548571,
    "tel": "095-801-2353",
    "url": "",
    "pref": "長崎県",
    "city": "長崎市",
    "category": "community_day_service",
    "serviceType": "地域密着型通所介護",
    "capacity": 0,
    "openDays": [
      "平日",
      "土曜日",
      "日曜日",
      "祝日"
    ],
    "openDaysNote": ""
  },
  {
    "id": "4270110705",
    "name": "デイサービスあいばね",
    "kana": "デイサービスアイバネ",
    "address": "長崎県長崎市東町1753番地",
    "lat": 32.7781774409212,
    "lng": 129.955680509842,
    "tel": "095-808-0761",
    "url": "",
    "pref": "長崎県",
    "city": "長崎市",
    "category": "community_day_service",
    "serviceType": "地域密着型通所介護",
    "capacity": 10,
    "openDays": [
      "平日",
      "土曜日",
      "祝日"
    ],
    "openDaysNote": "8月15日、12月30日～1月2日は休みます。"
  },
  {
    "id": "4270109590",
    "name": "デイサービスあおい",
    "kana": "デイサービスアオイ",
    "address": "長崎市柳谷町41番2号",
    "lat": 32.7917808108801,
    "lng": 129.853024720238,
    "tel": "095-800-1080",
    "url": "https://r.goope.jp/aoi-nagasaki/",
    "pref": "長崎県",
    "city": "長崎市",
    "category": "community_day_service",
    "serviceType": "地域密着型通所介護",
    "capacity": 10,
    "openDays": [
      "平日",
      "土曜日",
      "祝日"
    ],
    "openDaysNote": ""
  },
  {
    "id": "4290101536",
    "name": "デイサービスあづまや。。",
    "kana": "デイサービスアヅマヤ",
    "address": "東町1732-1１F １F",
    "lat": 32.7770657102722,
    "lng": 129.954803779464,
    "tel": "095-801-3690",
    "url": "",
    "pref": "長崎県",
    "city": "長崎市",
    "category": "community_day_service",
    "serviceType": "地域密着型通所介護",
    "capacity": 0,
    "openDays": [
      "平日",
      "土曜日",
      "日曜日",
      "祝日"
    ],
    "openDaysNote": ""
  },
  {
    "id": "4270110143",
    "name": "デイサービスうぇるずらいふ上小島",
    "kana": "デイサービスウェルズライフカミコシマ",
    "address": "長崎県長崎市上小島５丁目２番１３号",
    "lat": 32.729945400195,
    "lng": 129.887133567041,
    "tel": "095-816-2800",
    "url": "https://wellslife.jp/",
    "pref": "長崎県",
    "city": "長崎市",
    "category": "community_day_service",
    "serviceType": "地域密着型通所介護",
    "capacity": 15,
    "openDays": [
      "平日",
      "土曜日",
      "祝日"
    ],
    "openDaysNote": "お盆8/14～15、年末年始12/31、1/1～3は休み。"
  },
  {
    "id": "4270100375",
    "name": "デイサービスきらり",
    "kana": "デイサービスキラリ",
    "address": "長崎県長崎市星取2丁目2番43号ケアホーム星取 ケアホーム星取",
    "lat": 32.721319,
    "lng": 129.8828757,
    "tel": "095-811-3520",
    "url": "kenyukai-kaigo.com",
    "pref": "長崎県",
    "city": "長崎市",
    "category": "community_day_service",
    "serviceType": "地域密着型通所介護",
    "capacity": 0,
    "openDays": [
      "平日",
      "土曜日",
      "祝日"
    ],
    "openDaysNote": ""
  },
  {
    "id": "4270105770",
    "name": "デイサービスセンター　グリーンピース",
    "kana": "デイサービスセンター　グリーンピース",
    "address": "長崎県長崎市下西山町13-22",
    "lat": 32.757637173752,
    "lng": 129.886403635972,
    "tel": "095-818-2330",
    "url": "http://fukushimori.co.jp/",
    "pref": "長崎県",
    "city": "長崎市",
    "category": "community_day_service",
    "serviceType": "地域密着型通所介護",
    "capacity": 15,
    "openDays": [
      "平日",
      "土曜日",
      "祝日"
    ],
    "openDaysNote": "8/15日、12/30～1/3日はお休み"
  },
  {
    "id": "4290101791",
    "name": "デイサービスセンター　すまいる",
    "kana": "デイサービスセンター　スマイル",
    "address": "宿町729-1",
    "lat": 32.7596789542605,
    "lng": 129.933476662415,
    "tel": "095-832-0707",
    "url": "https://www.assist-group.net/day.html",
    "pref": "長崎県",
    "city": "長崎市",
    "category": "community_day_service",
    "serviceType": "地域密着型通所介護",
    "capacity": 0,
    "openDays": [
      "平日",
      "土曜日",
      "祝日"
    ],
    "openDaysNote": ""
  },
  {
    "id": "4290101429",
    "name": "デイサービスセンター　なでしこ荘",
    "kana": "デイサービスセンター　ナデシコソウ",
    "address": "長崎県長崎市西山台２丁目３２番４７号",
    "lat": 32.7829049,
    "lng": 129.8943897,
    "tel": "095-814-0221",
    "url": "http://www.nadeshikosou.com/",
    "pref": "長崎県",
    "city": "長崎市",
    "category": "community_day_service",
    "serviceType": "地域密着型通所介護",
    "capacity": 0,
    "openDays": [
      "平日",
      "土曜日",
      "祝日"
    ],
    "openDaysNote": ""
  },
  {
    "id": "4270110978",
    "name": "デイサービスセンター　フラワー",
    "kana": "デイサービスセンター　フラワー",
    "address": "長崎県長崎市琴海村松町1591",
    "lat": 32.8636422,
    "lng": 129.7860867,
    "tel": "095－865－7741",
    "url": "",
    "pref": "長崎県",
    "city": "長崎市",
    "category": "community_day_service",
    "serviceType": "地域密着型通所介護",
    "capacity": 0,
    "openDays": [
      "平日",
      "祝日"
    ],
    "openDaysNote": "お盆休み・正月休み有り"
  },
  {
    "id": "4270108188",
    "name": "デイサービスセンター　プレジールの丘",
    "kana": "デイサービスセンター　プレジールノオカ",
    "address": "長崎県長崎市立山２丁目１６番５号",
    "lat": 32.754913,
    "lng": 129.8766281,
    "tel": "095-829-3270",
    "url": "http://juyoukai.com/",
    "pref": "長崎県",
    "city": "長崎市",
    "category": "community_day_service",
    "serviceType": "地域密着型通所介護",
    "capacity": 0,
    "openDays": [
      "平日",
      "土曜日",
      "祝日"
    ],
    "openDaysNote": ""
  },
  {
    "id": "4290101270",
    "name": "デイサービスセンター　鶴舞苑Ⅱ",
    "kana": "デイサービスセンター　カクブエンツー",
    "address": "長崎県長崎市大谷町４１８番地１",
    "lat": 32.7486322,
    "lng": 129.8513522,
    "tel": "095-862-8881",
    "url": "kakubuen2day@nagasaki-kouseifukushidann.or.jp",
    "pref": "長崎県",
    "city": "長崎市",
    "category": "community_day_service",
    "serviceType": "地域密着型通所介護",
    "capacity": 0,
    "openDays": [
      "平日",
      "土曜日",
      "日曜日",
      "祝日"
    ],
    "openDaysNote": "天候によっては営業休止する場合もあります。（台風・積雪等の場合）"
  },
  {
    "id": "4270107164",
    "name": "デイサービスセンター　日見やすらぎ荘",
    "kana": "デイサービスセンター　ヒミヤスラギソウ",
    "address": "長崎県長崎市宿町６１６番地養護老人ホーム　日見やすらぎ荘 養護老人ホーム　日見やすらぎ荘",
    "lat": 32.7601939,
    "lng": 129.9370259,
    "tel": "095-838-2308",
    "url": "http://www.heisei-kai.or.jp/",
    "pref": "長崎県",
    "city": "長崎市",
    "category": "community_day_service",
    "serviceType": "地域密着型通所介護",
    "capacity": 18,
    "openDays": [
      "平日",
      "土曜日",
      "祝日"
    ],
    "openDaysNote": ""
  },
  {
    "id": "4270106810",
    "name": "デイサービスセンター　風の丘",
    "kana": "デイサービスセンター　カゼノオカ",
    "address": "長崎県長崎市三京町１９６２",
    "lat": 32.8271483,
    "lng": 129.7554173,
    "tel": "095-850-4275",
    "url": "http://kaze-group.com",
    "pref": "長崎県",
    "city": "長崎市",
    "category": "community_day_service",
    "serviceType": "地域密着型通所介護",
    "capacity": 10,
    "openDays": [
      "平日",
      "土曜日",
      "日曜日",
      "祝日"
    ],
    "openDaysNote": ""
  },
  {
    "id": "4270105903",
    "name": "デイサービスセンター　福陽の里",
    "kana": "デイサ-ビスセンター　フクヨウノサト",
    "address": "長崎県長崎市大浜町934番地１ケアハウス大浜1階 ケアハウス大浜1階",
    "lat": 32.7467152,
    "lng": 129.8330588,
    "tel": "095-865-5865",
    "url": "https://kouranosato.com/workplace/fukuyonosato",
    "pref": "長崎県",
    "city": "長崎市",
    "category": "community_day_service",
    "serviceType": "地域密着型通所介護",
    "capacity": 0,
    "openDays": [
      "平日",
      "土曜日",
      "祝日"
    ],
    "openDaysNote": ""
  },
  {
    "id": "4290101825",
    "name": "デイサービスセンターアスカ立神",
    "kana": "デイサービスセンターアスカタテガミ",
    "address": "長崎県長崎市東立神町１６番２２号デイサービスセンターアスカ立神 デイサービスセンターアスカ立神",
    "lat": 32.7362347,
    "lng": 129.8509137,
    "tel": "095-818-0021",
    "url": "https://asukafukushikai.jp/smarts/index/0/",
    "pref": "長崎県",
    "city": "長崎市",
    "category": "community_day_service",
    "serviceType": "地域密着型通所介護",
    "capacity": 10,
    "openDays": [
      "平日",
      "土曜日",
      "祝日"
    ],
    "openDaysNote": "※年末年始は12/31～1/2までです。"
  },
  {
    "id": "4270109277",
    "name": "デイサービスセンターグリーンピースＥＡＳＴ",
    "kana": "デイサービスセンターグリーンピースＥＡＳＴ",
    "address": "長崎県長崎市東町1873-8福祉の杜グリンピース 福祉の杜グリンピース",
    "lat": 32.780217130352,
    "lng": 129.955368701852,
    "tel": "958302070",
    "url": "http://fukushimori.co.jp/",
    "pref": "長崎県",
    "city": "長崎市",
    "category": "community_day_service",
    "serviceType": "地域密着型通所介護",
    "capacity": 0,
    "openDays": [
      "平日",
      "土曜日",
      "祝日"
    ],
    "openDaysNote": ""
  },
  {
    "id": "4270106943",
    "name": "デイサービスセンターけやき",
    "kana": "デイサービスセンターケヤキ",
    "address": "長崎県長崎市旭町16－9",
    "lat": 32.7522128,
    "lng": 129.8631569,
    "tel": "095-861-3478",
    "url": "",
    "pref": "長崎県",
    "city": "長崎市",
    "category": "community_day_service",
    "serviceType": "地域密着型通所介護",
    "capacity": 15,
    "openDays": [
      "平日",
      "土曜日",
      "祝日"
    ],
    "openDaysNote": ""
  },
  {
    "id": "4290101635",
    "name": "デイサービスセンターコム",
    "kana": "デイサービスセンターコム",
    "address": "長崎市旭町6番1号　タワーコート303A",
    "lat": 32.7502505,
    "lng": 129.8650191,
    "tel": "894-7311",
    "url": "",
    "pref": "長崎県",
    "city": "長崎市",
    "category": "community_day_service",
    "serviceType": "地域密着型通所介護",
    "capacity": 5,
    "openDays": [
      "平日",
      "土曜日",
      "祝日"
    ],
    "openDaysNote": ""
  },
  {
    "id": "4290101734",
    "name": "デイサービスセンターささえ愛",
    "kana": "デイサービスセンターササエ愛",
    "address": "長崎市手熊町312番地",
    "lat": 32.7793210726941,
    "lng": 129.800421601886,
    "tel": "095-841-1480",
    "url": "https://musashi.link/",
    "pref": "長崎県",
    "city": "長崎市",
    "category": "community_day_service",
    "serviceType": "地域密着型通所介護",
    "capacity": 0,
    "openDays": [
      "平日",
      "祝日"
    ],
    "openDaysNote": "年末年始の休日は変更になる事があります。"
  },
  {
    "id": "4270106836",
    "name": "デイサービスセンターサンハイツ城山",
    "kana": "デイサービスセンターサンハイツシロヤマ",
    "address": "長崎県長崎市城山町29番1号",
    "lat": 32.7730606,
    "lng": 129.8562045,
    "tel": "095-818-0002",
    "url": "http://www.sanhaitsu.jp/",
    "pref": "長崎県",
    "city": "長崎市",
    "category": "community_day_service",
    "serviceType": "地域密着型通所介護",
    "capacity": 18,
    "openDays": [
      "平日",
      "土曜日",
      "祝日"
    ],
    "openDaysNote": ""
  },
  {
    "id": "4270105457",
    "name": "デイサービスセンターサンハイツ大浜",
    "kana": "デイサービスセンターサンハイツオオハマ",
    "address": "長崎県長崎市大浜町1053番地１",
    "lat": 32.7489344,
    "lng": 129.8337671,
    "tel": "095-832-9300",
    "url": "http://www.sanhaitsu.jp/",
    "pref": "長崎県",
    "city": "長崎市",
    "category": "community_day_service",
    "serviceType": "地域密着型通所介護",
    "capacity": 0,
    "openDays": [
      "平日",
      "土曜日",
      "祝日"
    ],
    "openDaysNote": ""
  },
  {
    "id": "4270107719",
    "name": "デイサービスセンターサンハイツ竹の久保",
    "kana": "デイサービスセンターサンハイツタケノクボ",
    "address": "長崎県長崎市竹の久保町１９－１２",
    "lat": 32.7677391,
    "lng": 129.8589961,
    "tel": "095-818-1700",
    "url": "http://www.sanhaitsu.jp/",
    "pref": "長崎県",
    "city": "長崎市",
    "category": "community_day_service",
    "serviceType": "地域密着型通所介護",
    "capacity": 16,
    "openDays": [
      "平日",
      "土曜日",
      "祝日"
    ],
    "openDaysNote": ""
  },
  {
    "id": "4270135231",
    "name": "デイサービスセンターサンハイツ宝栄",
    "kana": "デイサービスセンターサンハイツホウエイ",
    "address": "長崎県長崎市宝栄町12番6号",
    "lat": 32.7685362,
    "lng": 129.8591461,
    "tel": "095-832-1511",
    "url": "http://www.sanhaitsu.jp/",
    "pref": "長崎県",
    "city": "長崎市",
    "category": "community_day_service",
    "serviceType": "地域密着型通所介護",
    "capacity": 0,
    "openDays": [
      "平日",
      "土曜日",
      "祝日"
    ],
    "openDaysNote": ""
  },
  {
    "id": "4290101361",
    "name": "デイサービスセンターサンハイツ夢が丘",
    "kana": "デイサービスセンターサンハイツユメガオカ",
    "address": "長崎県長崎市小江原5丁目25-10",
    "lat": 32.7797869,
    "lng": 129.8210562,
    "tel": "095-842-9866",
    "url": "http://www.sanhaitsu.jp/",
    "pref": "長崎県",
    "city": "長崎市",
    "category": "community_day_service",
    "serviceType": "地域密着型通所介護",
    "capacity": 0,
    "openDays": [
      "平日",
      "土曜日",
      "祝日"
    ],
    "openDaysNote": ""
  },
  {
    "id": "4270110721",
    "name": "デイサービスセンターしらゆり",
    "kana": "デイサービスセンターシラユリ",
    "address": "長崎県長崎市三重町461番地4",
    "lat": 32.8239152924814,
    "lng": 129.745779921674,
    "tel": "095-894-1900",
    "url": "",
    "pref": "長崎県",
    "city": "長崎市",
    "category": "community_day_service",
    "serviceType": "地域密着型通所介護",
    "capacity": 15,
    "openDays": [
      "平日",
      "祝日"
    ],
    "openDaysNote": ""
  },
  {
    "id": "4290101965",
    "name": "デイサービスセンターねいろ",
    "kana": "デイサービスセンターネイロ",
    "address": "三原一丁目７番３２号",
    "lat": 32.7814967,
    "lng": 129.876729,
    "tel": "095-801-1881",
    "url": "",
    "pref": "長崎県",
    "city": "長崎市",
    "category": "community_day_service",
    "serviceType": "地域密着型通所介護",
    "capacity": null,
    "openDays": [
      "平日",
      "土曜日",
      "祝日"
    ],
    "openDaysNote": ""
  },
  {
    "id": "4270108642",
    "name": "デイサービスセンター和庵",
    "kana": "デイサービスセンターナゴミアン",
    "address": "長崎県長崎市住吉町16番7号",
    "lat": 32.7940731066181,
    "lng": 129.861684730519,
    "tel": "095-842-0008",
    "url": "http://minatsuki.jp/",
    "pref": "長崎県",
    "city": "長崎市",
    "category": "community_day_service",
    "serviceType": "地域密着型通所介護",
    "capacity": 0,
    "openDays": [
      "平日",
      "祝日"
    ],
    "openDaysNote": ""
  },
  {
    "id": "4290101320",
    "name": "デイサービスもみの木",
    "kana": "デイサービス　モミノキ",
    "address": "長崎県長崎市片淵1-13-27",
    "lat": 32.7547327,
    "lng": 129.8867523,
    "tel": "095-895-7781",
    "url": "http://www.shirayukikai.jp",
    "pref": "長崎県",
    "city": "長崎市",
    "category": "community_day_service",
    "serviceType": "地域密着型通所介護",
    "capacity": 0,
    "openDays": [
      "平日",
      "土曜日",
      "祝日"
    ],
    "openDaysNote": "年末年始(12/31・1/1)はお休み"
  },
  {
    "id": "4270110234",
    "name": "デイサービスらぶゆ西浜",
    "kana": "デイサービスラブユニシハマ",
    "address": "長崎県長崎市銅座町４－１３リブラビル１階 リブラビル１階",
    "lat": 32.7433168,
    "lng": 129.876145,
    "tel": "095-895-7841",
    "url": "http://blog.livedoor.jp/loveyounishihama/",
    "pref": "長崎県",
    "city": "長崎市",
    "category": "community_day_service",
    "serviceType": "地域密着型通所介護",
    "capacity": 15,
    "openDays": [
      "平日",
      "土曜日",
      "祝日"
    ],
    "openDaysNote": ""
  },
  {
    "id": "4290101486",
    "name": "デイサービスりらいふ",
    "kana": "デイサービスリライフ",
    "address": "長崎市琴海戸根町2925",
    "lat": 32.8881234,
    "lng": 129.7872331,
    "tel": "095-801-1414",
    "url": "",
    "pref": "長崎県",
    "city": "長崎市",
    "category": "community_day_service",
    "serviceType": "地域密着型通所介護",
    "capacity": 10,
    "openDays": [
      "平日",
      "祝日"
    ],
    "openDaysNote": "12/31∼1/3は休み"
  },
  {
    "id": "4290101205",
    "name": "デイサービス小菅",
    "kana": "デイサービスコスゲ",
    "address": "長崎県長崎市小菅町15番1号",
    "lat": 32.7259791,
    "lng": 129.8630268,
    "tel": "095-823-3730",
    "url": "",
    "pref": "長崎県",
    "city": "長崎市",
    "category": "community_day_service",
    "serviceType": "地域密着型通所介護",
    "capacity": 10,
    "openDays": [
      "平日",
      "土曜日",
      "日曜日",
      "祝日"
    ],
    "openDaysNote": ""
  },
  {
    "id": "4270108246",
    "name": "デイサービス暖らんリビング",
    "kana": "デイサービスダンランリビング",
    "address": "長崎県長崎市川平町１１９９番地",
    "lat": 32.7939311,
    "lng": 129.8800183,
    "tel": "095-847-2248",
    "url": "http://rakuten-care.jp",
    "pref": "長崎県",
    "city": "長崎市",
    "category": "community_day_service",
    "serviceType": "地域密着型通所介護",
    "capacity": 18,
    "openDays": [
      "平日",
      "土曜日"
    ],
    "openDaysNote": ""
  },
  {
    "id": "4290101916",
    "name": "デイサービス南越",
    "kana": "デイサービスナンゴシ",
    "address": "長崎県長崎市南越町685番地",
    "lat": 32.5924236,
    "lng": 129.7636262,
    "tel": "095-801-0551",
    "url": "http://nagasaki-omiyaclinic.com/",
    "pref": "長崎県",
    "city": "長崎市",
    "category": "community_day_service",
    "serviceType": "地域密着型通所介護",
    "capacity": 30,
    "openDays": [
      "平日",
      "土曜日"
    ],
    "openDaysNote": ""
  },
  {
    "id": "4270107396",
    "name": "デイサービス虹",
    "kana": "デイサービスニジ",
    "address": "長崎県長崎市鳴見台2丁目34番23号",
    "lat": 32.8230521,
    "lng": 129.8108968,
    "tel": "095-850-1730",
    "url": "",
    "pref": "長崎県",
    "city": "長崎市",
    "category": "community_day_service",
    "serviceType": "地域密着型通所介護",
    "capacity": 0,
    "openDays": [
      "平日",
      "土曜日",
      "祝日"
    ],
    "openDaysNote": ""
  },
  {
    "id": "4270108196",
    "name": "デイサービス風夢",
    "kana": "デイサービスフウム",
    "address": "京泊2丁目４－３７",
    "lat": 32.8229764,
    "lng": 129.7742274,
    "tel": "095-860-9040",
    "url": "http://www.fumu.jp/",
    "pref": "長崎県",
    "city": "長崎市",
    "category": "community_day_service",
    "serviceType": "地域密着型通所介護",
    "capacity": 10,
    "openDays": [
      "平日",
      "土曜日",
      "日曜日",
      "祝日"
    ],
    "openDaysNote": ""
  },
  {
    "id": "4270106471",
    "name": "デイサービス平和町",
    "kana": "デイサービスヘイワマチ",
    "address": "長崎県長崎市平和町11-16",
    "lat": 32.7756606,
    "lng": 129.8655591,
    "tel": "095-801-5250",
    "url": "http://www.footcare-morita.com",
    "pref": "長崎県",
    "city": "長崎市",
    "category": "community_day_service",
    "serviceType": "地域密着型通所介護",
    "capacity": 10,
    "openDays": [
      "平日",
      "土曜日",
      "祝日"
    ],
    "openDaysNote": ""
  },
  {
    "id": "4290101692",
    "name": "デイサロン結",
    "kana": "デイサロン　ムスビ",
    "address": "為石町2524さんとぴあ21 さんとぴあ21",
    "lat": 32.6394227,
    "lng": 129.8380914,
    "tel": "095-801-1981",
    "url": "",
    "pref": "長崎県",
    "city": "長崎市",
    "category": "community_day_service",
    "serviceType": "地域密着型通所介護",
    "capacity": 18,
    "openDays": [
      "平日",
      "土曜日"
    ],
    "openDaysNote": "国民の祝日については休みになる可能性もあります"
  },
  {
    "id": "4290101700",
    "name": "デイスパエール",
    "kana": "デイスパエール",
    "address": "長崎県長崎市岩屋１９番１５号",
    "lat": 32.8008935996522,
    "lng": 129.852860103705,
    "tel": "095-894-4126",
    "url": "",
    "pref": "長崎県",
    "city": "長崎市",
    "category": "community_day_service",
    "serviceType": "地域密着型通所介護",
    "capacity": 0,
    "openDays": [
      "平日",
      "土曜日",
      "祝日"
    ],
    "openDaysNote": ""
  },
  {
    "id": "4270108105",
    "name": "みえ愛の郷デイサービスセンター",
    "kana": "ミエアイノサトデイサービスセンター",
    "address": "長崎県長崎市三京町８１１番地１６",
    "lat": 32.8221626,
    "lng": 129.7569674,
    "tel": "095-865-8573",
    "url": "",
    "pref": "長崎県",
    "city": "長崎市",
    "category": "community_day_service",
    "serviceType": "地域密着型通所介護",
    "capacity": 10,
    "openDays": [
      "平日",
      "土曜日",
      "日曜日",
      "祝日"
    ],
    "openDaysNote": ""
  },
  {
    "id": "4290101767",
    "name": "リハデイ　ココリ",
    "kana": "リハデイ　ココリ",
    "address": "長崎県長崎市田中町1546-2",
    "lat": 32.7724831,
    "lng": 129.9471169,
    "tel": "095-839-5616",
    "url": "",
    "pref": "長崎県",
    "city": "長崎市",
    "category": "community_day_service",
    "serviceType": "地域密着型通所介護",
    "capacity": 0,
    "openDays": [
      "平日",
      "祝日"
    ],
    "openDaysNote": ""
  },
  {
    "id": "4270107206",
    "name": "りはびりデイなかぞの",
    "kana": "リハビリデイナカゾノ",
    "address": "長崎県長崎市中園町８番１０号サントピア中園201 サントピア中園201",
    "lat": 32.7912752,
    "lng": 129.8587282,
    "tel": "095-847-8500",
    "url": "http://e-reset.co.jp",
    "pref": "長崎県",
    "city": "長崎市",
    "category": "community_day_service",
    "serviceType": "地域密着型通所介護",
    "capacity": 10,
    "openDays": [
      "平日",
      "土曜日",
      "祝日"
    ],
    "openDaysNote": ""
  },
  {
    "id": "4290101932",
    "name": "リハビリテーション　ラシクル",
    "kana": "リハビリテーション　ラシクル",
    "address": "長崎県長崎市エミネント葉山町4-6",
    "lat": 32.7999525,
    "lng": 129.8453687,
    "tel": "095-840-8080",
    "url": "https://lifecreate.info/",
    "pref": "長崎県",
    "city": "長崎市",
    "category": "community_day_service",
    "serviceType": "地域密着型通所介護",
    "capacity": 0,
    "openDays": [
      "平日"
    ],
    "openDaysNote": "夏季・冬季休業の場合あり。（事前に通知を行う）"
  },
  {
    "id": "4290101676",
    "name": "レッツ俱楽部深堀",
    "kana": "レッツクラブフカホリ",
    "address": "長崎県長崎市深堀町１丁目２９３番１９",
    "lat": 32.6826576,
    "lng": 129.8295647,
    "tel": "095-895-9385",
    "url": "",
    "pref": "長崎県",
    "city": "長崎市",
    "category": "community_day_service",
    "serviceType": "地域密着型通所介護",
    "capacity": 0,
    "openDays": [
      "平日",
      "土曜日",
      "祝日"
    ],
    "openDaysNote": ""
  },
  {
    "id": "4270103692",
    "name": "医療法人　秋桜会　デイサービスコスモス",
    "kana": "イリョウホウジン　シュウオウカイ　デイサービスコスモス",
    "address": "長崎県長崎市京泊3丁目10-5",
    "lat": 32.8228348,
    "lng": 129.7708887,
    "tel": "095-850-0100",
    "url": "http://www.cosmos-garden.com/",
    "pref": "長崎県",
    "city": "長崎市",
    "category": "community_day_service",
    "serviceType": "地域密着型通所介護",
    "capacity": 0,
    "openDays": [
      "平日",
      "土曜日",
      "祝日"
    ],
    "openDaysNote": ""
  },
  {
    "id": "4270108147",
    "name": "医療法人宏友会　デイサービスセンター　城山クラブ",
    "kana": "イリョホウジン　コウユウカイ　デイサービスセンターシロヤマクラブ",
    "address": "長崎県長崎市城山町１８番１９号",
    "lat": 32.7717969,
    "lng": 129.8569906,
    "tel": "095-865-7070",
    "url": "http://www.kouyukai.com",
    "pref": "長崎県",
    "city": "長崎市",
    "category": "community_day_service",
    "serviceType": "地域密着型通所介護",
    "capacity": 15,
    "openDays": [
      "平日",
      "土曜日"
    ],
    "openDaysNote": "お盆、年末年始に休みあり"
  },
  {
    "id": "4270100862",
    "name": "医療法人社団　博生会　大久保医院　出島デイサービスセンター",
    "kana": "イリョウホウジンシャダン　ハクセイカイ　オオクボイイン　デジマデイサービスセンター",
    "address": "長崎県長崎市新地町4番5号",
    "lat": 32.7412224,
    "lng": 129.8736813,
    "tel": "095-823-5996",
    "url": "",
    "pref": "長崎県",
    "city": "長崎市",
    "category": "community_day_service",
    "serviceType": "地域密着型通所介護",
    "capacity": 18,
    "openDays": [
      "平日",
      "土曜日",
      "祝日"
    ],
    "openDaysNote": ""
  },
  {
    "id": "4290102054",
    "name": "介護支援センターながさき　デイサービス・ステーションうつつ川",
    "kana": "カイゴシエンセンターナガサキ　デイサービスステーションウツツガワ",
    "address": "長崎市現川町342-1",
    "lat": 32.7927893,
    "lng": 129.9305542,
    "tel": "095-801-4477",
    "url": "https:/www.human-nw.com",
    "pref": "長崎県",
    "city": "長崎市",
    "category": "community_day_service",
    "serviceType": "地域密着型通所介護",
    "capacity": 0,
    "openDays": [
      "平日",
      "土曜日",
      "祝日"
    ],
    "openDaysNote": ""
  },
  {
    "id": "4290101981",
    "name": "介護支援センターながさき　リハステーションやよい",
    "kana": "カイゴシエンセンターナガサキ　リハステーションヤヨイ",
    "address": "長崎県長崎市弥生町3番33号ヒューマンコミュニティやよい3階 ヒューマンコミュニティやよい3階",
    "lat": 32.730839,
    "lng": 129.8930398,
    "tel": "095-893-6222",
    "url": "https://www.human-nw.com",
    "pref": "長崎県",
    "city": "長崎市",
    "category": "community_day_service",
    "serviceType": "地域密着型通所介護",
    "capacity": 0,
    "openDays": [
      "平日",
      "土曜日",
      "祝日"
    ],
    "openDaysNote": "提供時間：1単位目9：00～12：10・2単位目13：20～16：30"
  },
  {
    "id": "4290101403",
    "name": "介護予防デイサービス　クローバー・ガーデン",
    "kana": "カイゴヨボウデイサービス　クローバーガーデン",
    "address": "長崎県長崎市岩屋町26-21",
    "lat": 32.8024265,
    "lng": 129.8505086,
    "tel": "095-857-2345",
    "url": "http://www.fujimoto‐group.jp",
    "pref": "長崎県",
    "city": "長崎市",
    "category": "community_day_service",
    "serviceType": "地域密着型通所介護",
    "capacity": 0,
    "openDays": [
      "平日",
      "土曜日"
    ],
    "openDaysNote": ""
  },
  {
    "id": "4270107693",
    "name": "介護予防デイサービス　クローバー・ガーデン江川",
    "kana": "カイゴヨボウデイサービス　クローバーガーデンエガワ",
    "address": "長崎県長崎市江川町120番15号",
    "lat": 32.684149,
    "lng": 129.8400572,
    "tel": "095-878-2227",
    "url": "http://www.fujimoto-group.jp/",
    "pref": "長崎県",
    "city": "長崎市",
    "category": "community_day_service",
    "serviceType": "地域密着型通所介護",
    "capacity": 0,
    "openDays": [
      "平日",
      "土曜日"
    ],
    "openDaysNote": ""
  },
  {
    "id": "4290101593",
    "name": "介護予防デイサービス　クローバー・ガーデン昭和町",
    "kana": "カイゴヨボウデイサービス　クローバー・ガーデンショウワマチ",
    "address": "昭和1-8-21",
    "lat": 32.7903027,
    "lng": 129.8688483,
    "tel": "095-847-9608",
    "url": "https://www.fujimoto-group.jp",
    "pref": "長崎県",
    "city": "長崎市",
    "category": "community_day_service",
    "serviceType": "地域密着型通所介護",
    "capacity": 0,
    "openDays": [
      "平日",
      "土曜日"
    ],
    "openDaysNote": ""
  },
  {
    "id": "4270106794",
    "name": "介護予防デイサービス　クローバー・ガーデン城栄",
    "kana": "カイゴヨボウデイサービス　クローバーガーデンジョウエイ",
    "address": "長崎県長崎市城栄町31-12階 2階",
    "lat": 32.7748715,
    "lng": 129.8550989,
    "tel": "095-845-9608",
    "url": "http://www.fujimoto-group.jp/",
    "pref": "長崎県",
    "city": "長崎市",
    "category": "community_day_service",
    "serviceType": "地域密着型通所介護",
    "capacity": 0,
    "openDays": [
      "平日",
      "土曜日"
    ],
    "openDaysNote": ""
  },
  {
    "id": "4270108303",
    "name": "介護予防デイサービス　クローバー・ガーデン新戸町",
    "kana": "カイゴヨボウデイサービス　クローバー・ガーデンシントマチ",
    "address": "長崎県長崎市新小が倉2丁目1番1号ハイツ新戸町1階 ハイツ新戸町1階",
    "lat": 32.7088834,
    "lng": 129.862694,
    "tel": "095-833-5678",
    "url": "http://www.fujimoto-group.jp",
    "pref": "長崎県",
    "city": "長崎市",
    "category": "community_day_service",
    "serviceType": "地域密着型通所介護",
    "capacity": 0,
    "openDays": [
      "平日",
      "土曜日"
    ],
    "openDaysNote": ""
  },
  {
    "id": "4270106950",
    "name": "介護予防デイサービス　リハビリデイ小ヶ倉",
    "kana": "カイゴヨボウデイサービス　リハビリデイコガクラ",
    "address": "長崎県長崎市小ヶ倉町3丁目92番1",
    "lat": 32.7035122199797,
    "lng": 129.847466220238,
    "tel": "095-879-1230",
    "url": "http://seikotsu109.com/access.html",
    "pref": "長崎県",
    "city": "長崎市",
    "category": "community_day_service",
    "serviceType": "地域密着型通所介護",
    "capacity": 180,
    "openDays": [
      "平日",
      "土曜日",
      "祝日"
    ],
    "openDaysNote": "台風や大雪による天候状況等でお休みさせていただく事が有ります。"
  },
  {
    "id": "4290101940",
    "name": "株式会社　倫風館　ひばり苑　デイサービス戸町",
    "kana": "カブシキガイシャ　リンプウカン　ヒバリエン　デイサービストマチ",
    "address": "長崎県長崎市上戸町2-17-11",
    "lat": 32.7144787,
    "lng": 129.8679372,
    "tel": "095-893-8308",
    "url": "https://hibarien.jp/",
    "pref": "長崎県",
    "city": "長崎市",
    "category": "community_day_service",
    "serviceType": "地域密着型通所介護",
    "capacity": null,
    "openDays": [
      "平日",
      "土曜日",
      "日曜日",
      "祝日"
    ],
    "openDaysNote": "365日営業しています。"
  },
  {
    "id": "4290101171",
    "name": "丸山デイサービスセンターむかーし、昔。",
    "kana": "マルヤマデイサービスセンタームカーシ、ムカシ。",
    "address": "長崎県長崎市丸山町2-6-4F4階 4階",
    "lat": 32.7408423438107,
    "lng": 129.880338894443,
    "tel": "095-821-0888",
    "url": "",
    "pref": "長崎県",
    "city": "長崎市",
    "category": "community_day_service",
    "serviceType": "地域密着型通所介護",
    "capacity": 18,
    "openDays": [
      "平日",
      "土曜日",
      "祝日"
    ],
    "openDaysNote": "年末年始、お盆（8/15）も休ませていただいております。"
  },
  {
    "id": "4270106612",
    "name": "恵珠苑　指定通所介護事業所Ⅱ",
    "kana": "ケイジュエン　シテイツウショカイゴジギョウショツー",
    "address": "長崎県長崎市田上２丁目２番７号",
    "lat": 32.7266961122384,
    "lng": 129.891443631912,
    "tel": "095-828-2910",
    "url": "http://yuukikai.jp/",
    "pref": "長崎県",
    "city": "長崎市",
    "category": "community_day_service",
    "serviceType": "地域密着型通所介護",
    "capacity": null,
    "openDays": [
      "平日",
      "土曜日",
      "祝日"
    ],
    "openDaysNote": "営業時間外は留守番電話での対応となっており、翌営業日に折り返しご連絡をさせていただきます。"
  },
  {
    "id": "4290102062",
    "name": "自立支援特化型デイサービス　リハステージ矢上",
    "kana": "ジリツシエントッカガタデイサービス　リハステージヤガミ",
    "address": "長崎県長崎市矢上町２５-５ハイグランデ矢上1階 ハイグランデ矢上1階",
    "lat": 32.7767435,
    "lng": 129.9518318,
    "tel": "095-894-1341",
    "url": "https://preview.studio.site/live/EjOQyDrXOJ/",
    "pref": "長崎県",
    "city": "長崎市",
    "category": "community_day_service",
    "serviceType": "地域密着型通所介護",
    "capacity": 2,
    "openDays": [
      "平日",
      "土曜日",
      "祝日"
    ],
    "openDaysNote": ""
  },
  {
    "id": "4270100920",
    "name": "社会福祉法人　はづき会　オレンジの丘",
    "kana": "シャカイフクシホウジン　ハヅキカイ　オレンジノオカ",
    "address": "長崎県長崎市ダイヤランド3丁目31番8号",
    "lat": 32.7026198,
    "lng": 129.8550919,
    "tel": "095-879-3661",
    "url": "http://hazukikai.hp.gogo.jp/pc/",
    "pref": "長崎県",
    "city": "長崎市",
    "category": "community_day_service",
    "serviceType": "地域密着型通所介護",
    "capacity": 0,
    "openDays": [
      "平日",
      "祝日"
    ],
    "openDaysNote": "台風、降雪時など状況に応じ臨時休みあり"
  },
  {
    "id": "4270103809",
    "name": "社会福祉法人　新生会　デイサービス　望星",
    "kana": "シャカイフクシホウジン　シンセイカイ　デイサービス　ボウセイ",
    "address": "長崎県長崎市岩屋町７４５番地４",
    "lat": 32.7948607,
    "lng": 129.8452677,
    "tel": "095-856-2081",
    "url": "https://bouseisou.jp/",
    "pref": "長崎県",
    "city": "長崎市",
    "category": "community_day_service",
    "serviceType": "地域密着型通所介護",
    "capacity": 0,
    "openDays": [
      "平日",
      "土曜日",
      "祝日"
    ],
    "openDaysNote": "雪や台風などで安全にサービスを提供することが困難な場合には、営業中止又は、短時間営業になることがあります。"
  },
  {
    "id": "4270109160",
    "name": "社会福祉法人グリーンコープデイサービスセンターありすの家",
    "kana": "シャカイフクシホウジングリーンコープデイサービスセンターアリスノイエ",
    "address": "長崎県長崎市鶴見台2丁目28番16号",
    "lat": 32.6924762,
    "lng": 129.8433956,
    "tel": "095-898-5105",
    "url": "ｆｕｋｕｓｈｉ－ｇｒｅｅｎｃｏｏｐ．ｏｒ．ｊｐ/ｐｒｏｇ/ｄｂｓ/94",
    "pref": "長崎県",
    "city": "長崎市",
    "category": "community_day_service",
    "serviceType": "地域密着型通所介護",
    "capacity": 10,
    "openDays": [
      "平日",
      "土曜日",
      "祝日"
    ],
    "openDaysNote": ""
  },
  {
    "id": "4270108238",
    "name": "社会福祉法人春幸会　デイサービス　なの花",
    "kana": "シャカイフクシホウジンシュンコウカイ　デイサービス　ナノハナ",
    "address": "長崎県長崎市さくらの里２丁目２７番２２号",
    "lat": 32.8351976,
    "lng": 129.7643332,
    "tel": "095-840-1777",
    "url": "http://www.syunkoukai.com/",
    "pref": "長崎県",
    "city": "長崎市",
    "category": "community_day_service",
    "serviceType": "地域密着型通所介護",
    "capacity": 10,
    "openDays": [
      "平日",
      "土曜日",
      "祝日"
    ],
    "openDaysNote": ""
  },
  {
    "id": "4270106406",
    "name": "生活総合支援センターおたくさ",
    "kana": "セイカツソウゴウシエンセンターオタクサ",
    "address": "長崎県長崎市毛井首町１－８７",
    "lat": 32.6926122,
    "lng": 129.8374432,
    "tel": "095-893-8083",
    "url": "",
    "pref": "長崎県",
    "city": "長崎市",
    "category": "community_day_service",
    "serviceType": "地域密着型通所介護",
    "capacity": 10,
    "openDays": [
      "平日",
      "祝日"
    ],
    "openDaysNote": ""
  },
  {
    "id": "4290101726",
    "name": "青葉苑　通所介護事業所",
    "kana": "アオバエンツウショカイゴジギョウショ",
    "address": "長崎県長崎市戸町4丁目7番17号",
    "lat": 32.7196392,
    "lng": 129.8612495,
    "tel": "095-898-5557",
    "url": "http://aoba-en.jp/",
    "pref": "長崎県",
    "city": "長崎市",
    "category": "community_day_service",
    "serviceType": "地域密着型通所介護",
    "capacity": 0,
    "openDays": [
      "平日",
      "土曜日",
      "祝日"
    ],
    "openDaysNote": "特になし"
  },
  {
    "id": "4270109061",
    "name": "太陽デイ吠えろ",
    "kana": "タイヨウデイホエロ",
    "address": "長崎市住吉町10-3宮崎興産ビル 宮崎興産ビル",
    "lat": 32.7923211742759,
    "lng": 129.860153478049,
    "tel": "095-894-8910",
    "url": "http://www.helper-taiyo.com/",
    "pref": "長崎県",
    "city": "長崎市",
    "category": "community_day_service",
    "serviceType": "地域密着型通所介護",
    "capacity": 0,
    "openDays": [
      "平日",
      "土曜日",
      "祝日"
    ],
    "openDaysNote": ""
  },
  {
    "id": "4290101510",
    "name": "短時間デイサービスまごころ",
    "kana": "タンジカンデイサービスマゴコロ",
    "address": "長崎県長崎市布巻町88番地3",
    "lat": 32.6524084,
    "lng": 129.8273832,
    "tel": "095-895-9592",
    "url": "http://hp.kaipoke.biz/zkm/",
    "pref": "長崎県",
    "city": "長崎市",
    "category": "community_day_service",
    "serviceType": "地域密着型通所介護",
    "capacity": 0,
    "openDays": [
      "平日",
      "土曜日"
    ],
    "openDaysNote": ""
  },
  {
    "id": "4270110416",
    "name": "短時間型介護予防センターサンハイツ銭座",
    "kana": "タンジカンガタカイゴヨボウセンターサンハイツゼンザ",
    "address": "長崎県長崎市銭座町2番6号",
    "lat": 32.7598928,
    "lng": 129.8674065,
    "tel": "095-847-8787",
    "url": "http://www.sanhaitsu.jp/",
    "pref": "長崎県",
    "city": "長崎市",
    "category": "community_day_service",
    "serviceType": "地域密着型通所介護",
    "capacity": 0,
    "openDays": [
      "平日",
      "土曜日",
      "祝日"
    ],
    "openDaysNote": ""
  },
  {
    "id": "4290101866",
    "name": "地域デイサービスにじのいろ",
    "kana": "チイキデイサービスニジノイロ",
    "address": "長崎県長崎市戸石町２５４０－６",
    "lat": 32.7622893,
    "lng": 129.9824678,
    "tel": "095-894-9876",
    "url": "",
    "pref": "長崎県",
    "city": "長崎市",
    "category": "community_day_service",
    "serviceType": "地域密着型通所介護",
    "capacity": 18,
    "openDays": [
      "平日",
      "土曜日",
      "祝日"
    ],
    "openDaysNote": ""
  },
  {
    "id": "4270109533",
    "name": "地域密着型通所介護　デイサービスはるか",
    "kana": "チイキミッチャクガタツウショカイゴ　デイサービスハルカ",
    "address": "長崎県長崎市高尾町46番33号",
    "lat": 32.7803731,
    "lng": 129.8766757,
    "tel": "095-848-0151",
    "url": "http://yuujyu-m.jp/",
    "pref": "長崎県",
    "city": "長崎市",
    "category": "community_day_service",
    "serviceType": "地域密着型通所介護",
    "capacity": 18,
    "openDays": [
      "平日",
      "土曜日",
      "祝日"
    ],
    "openDaysNote": ""
  },
  {
    "id": "4270110556",
    "name": "長崎ケアハートガーデン　デイサービス南長崎",
    "kana": "ナガサキケアハートガーデン　デイサービスミナミナガサキ",
    "address": "長崎県長崎市竿浦町754番地1",
    "lat": 32.6752521313593,
    "lng": 129.839615655988,
    "tel": "095-893-8218",
    "url": "http://www.mdlife.co.jp/",
    "pref": "長崎県",
    "city": "長崎市",
    "category": "community_day_service",
    "serviceType": "地域密着型通所介護",
    "capacity": 18,
    "openDays": [
      "平日",
      "土曜日",
      "祝日"
    ],
    "openDaysNote": "日曜日は定休日とする。（改行）※年末年始の12/29～1/3までは、利用者から利用の要望ない場合、休止する。（改行）※宿泊サービスは、提供なし。"
  },
  {
    "id": "4270104831",
    "name": "長崎市社会福祉協議会さんわデイサービスセンター",
    "kana": "ナガサキシシャカイフクシキョウギカイサンワデイサービスセンター",
    "address": "長崎県長崎市布巻町67番地1",
    "lat": 32.6495848,
    "lng": 129.82877,
    "tel": "095-892-2075",
    "url": "",
    "pref": "長崎県",
    "city": "長崎市",
    "category": "community_day_service",
    "serviceType": "地域密着型通所介護",
    "capacity": 8,
    "openDays": [
      "平日",
      "土曜日",
      "祝日"
    ],
    "openDaysNote": ""
  },
  {
    "id": "4270104682",
    "name": "長崎市社会福祉協議会香焼ひまわりデイサービスセンター",
    "kana": "ナガサキシシャカイフクシキョウギカイ　コウヤギヒマワリデイサービスセンター",
    "address": "長崎県長崎市香焼町１０７０番地4",
    "lat": 32.6875481,
    "lng": 129.809473,
    "tel": "095-871-4112",
    "url": "http://www.nagasakishi-shakyou.or.jp/",
    "pref": "長崎県",
    "city": "長崎市",
    "category": "community_day_service",
    "serviceType": "地域密着型通所介護",
    "capacity": 0,
    "openDays": [
      "平日",
      "土曜日",
      "祝日"
    ],
    "openDaysNote": "ただし、１２月２９日～１月３日までを除く"
  },
  {
    "id": "4270109723",
    "name": "通所介護　マイルドハート",
    "kana": "ツウショカイゴ　マイルドハート",
    "address": "長崎県長崎市蚊焼町649番地１",
    "lat": 32.6615987889783,
    "lng": 129.824498813492,
    "tel": "095-832-5100",
    "url": "http://www.nanyoukai.com/",
    "pref": "長崎県",
    "city": "長崎市",
    "category": "community_day_service",
    "serviceType": "地域密着型通所介護",
    "capacity": 0,
    "openDays": [
      "平日",
      "土曜日",
      "祝日"
    ],
    "openDaysNote": ""
  },
  {
    "id": "4270109772",
    "name": "通所介護事業所　琴の浦荘",
    "kana": "ツウショカイゴジギョウショ　コトノウラソウ",
    "address": "長崎県長崎市琴海戸根町743番地47特別養護老人ホーム　琴の浦荘 特別養護老人ホーム　琴の浦荘",
    "lat": 32.8878887528892,
    "lng": 129.791694977246,
    "tel": "095-884-3530",
    "url": "http://www.gounkai.or.jp/kotonoura/",
    "pref": "長崎県",
    "city": "長崎市",
    "category": "community_day_service",
    "serviceType": "地域密着型通所介護",
    "capacity": 0,
    "openDays": [
      "平日",
      "土曜日",
      "日曜日",
      "祝日"
    ],
    "openDaysNote": "定休日に関しては利用希望人数が多い場合、営業を検討する。"
  },
  {
    "id": "4270100391",
    "name": "通所介護事業所　女の都",
    "kana": "ツウショカイゴジギョウショ　メノト",
    "address": "長崎県長崎市女の都１丁目1592-7",
    "lat": 32.8005917996873,
    "lng": 129.88037812209,
    "tel": "095-848-8890",
    "url": "https://www.rakuroukai.or.jp",
    "pref": "長崎県",
    "city": "長崎市",
    "category": "community_day_service",
    "serviceType": "地域密着型通所介護",
    "capacity": 0,
    "openDays": [
      "平日",
      "土曜日",
      "祝日"
    ],
    "openDaysNote": ""
  },
  {
    "id": "4270108717",
    "name": "通所介護事業所すまいるはぁと",
    "kana": "ツウショカイゴジギョウショスマイルハァト",
    "address": "長崎県長崎市平瀬町76-4",
    "lat": 32.6881459,
    "lng": 129.8386349,
    "tel": "095-895-7601",
    "url": "http://www.sinkamigoto.net/",
    "pref": "長崎県",
    "city": "長崎市",
    "category": "community_day_service",
    "serviceType": "地域密着型通所介護",
    "capacity": 0,
    "openDays": [
      "平日",
      "土曜日",
      "日曜日",
      "祝日"
    ],
    "openDaysNote": ""
  },
  {
    "id": "4270106620",
    "name": "通所介護事業所れもん",
    "kana": "ツウショカイゴジギョウショレモン",
    "address": "長崎県長崎市小ヶ倉町2丁目667-19",
    "lat": 32.704703,
    "lng": 129.8544807,
    "tel": "095-898-4800",
    "url": "http://h-well.co.jp",
    "pref": "長崎県",
    "city": "長崎市",
    "category": "community_day_service",
    "serviceType": "地域密着型通所介護",
    "capacity": 18,
    "openDays": [
      "平日",
      "土曜日",
      "祝日"
    ],
    "openDaysNote": "月曜日から土曜日まで営業（改行）祝日も通常営業（改行）受診や私用等にて休んだ場合、別曜日に振替利用可能"
  },
  {
    "id": "4270109418",
    "name": "八坂町デイサービスぬくもり",
    "kana": "ヤサカマチデイサービスヌクモリ",
    "address": "長崎県長崎市油屋町2-15雄貴ビル1F 雄貴ビル1F",
    "lat": 32.7431114,
    "lng": 129.8812197,
    "tel": "095-800-2636",
    "url": "http://www.a-nukumori.com/",
    "pref": "長崎県",
    "city": "長崎市",
    "category": "community_day_service",
    "serviceType": "地域密着型通所介護",
    "capacity": 13,
    "openDays": [
      "平日",
      "土曜日",
      "祝日"
    ],
    "openDaysNote": "年に６回、土曜日に不定休日があります。"
  },
  {
    "id": "4270107842",
    "name": "油屋町デイサービスぬくもり",
    "kana": "アブラヤマチデイサービスヌクモリ",
    "address": "長崎県長崎市油屋町５－２ナカムラビル１Ｆ ナカムラビル１Ｆ",
    "lat": 32.7414227,
    "lng": 129.8825891,
    "tel": "095-870-7276",
    "url": "http://www.a-nukumori.com/",
    "pref": "長崎県",
    "city": "長崎市",
    "category": "community_day_service",
    "serviceType": "地域密着型通所介護",
    "capacity": 0,
    "openDays": [
      "平日",
      "土曜日",
      "祝日"
    ],
    "openDaysNote": ""
  },
  {
    "id": "4270105606",
    "name": "有限会社　トモメディカルサービス　デイサービスむつみの森",
    "kana": "ユウゲンガイシャ　トモメディカルサービスデイサービス",
    "address": "長崎県長崎市長浦町2584番地",
    "lat": 32.9103767,
    "lng": 129.7853881,
    "tel": "095-886-3366",
    "url": "",
    "pref": "長崎県",
    "city": "長崎市",
    "category": "community_day_service",
    "serviceType": "地域密着型通所介護",
    "capacity": 18,
    "openDays": [
      "平日",
      "土曜日",
      "祝日"
    ],
    "openDaysNote": "積雪・台風・その他天災時には状況により営業を中止する場合があります。"
  },
  {
    "id": "4270102769",
    "name": "有明の園デイサービスセンター",
    "kana": "アリアケノソノデイサービスセンター",
    "address": "界2丁目4番15号住宅型有料老人ホーム　アシストリビング有明の園 住宅型有料老人ホーム　アシストリビング有明の園",
    "lat": 32.7577943,
    "lng": 129.9428562,
    "tel": "095-813-3710",
    "url": "",
    "pref": "長崎県",
    "city": "長崎市",
    "category": "community_day_service",
    "serviceType": "地域密着型通所介護",
    "capacity": 4,
    "openDays": [
      "平日",
      "土曜日",
      "祝日"
    ],
    "openDaysNote": "定休日、時間外でも、併設の住宅型有料老人ホーム職員在中により、24時間、常時連絡が可能な体制となります。（改行）（改行）利用者様の目線に立ったサービス提供（改行）残存能力の低下を防ぎ、認知症予防のプログラムの充実を図る。"
  },
  {
    "id": "4291100115",
    "name": "エフ・ステージイオンタウン長与daydream",
    "kana": "エフステージイオンタウンナガヨデイドリーム",
    "address": "長崎県西彼杵郡長与町北陽台1丁目2番1号イオンタウン長与内店舗 イオンタウン長与内店舗",
    "lat": 32.8223459897904,
    "lng": 129.872465634918,
    "tel": "095-894-1104",
    "url": "entowa.co.jp",
    "pref": "長崎県",
    "city": "長与町",
    "category": "community_day_service",
    "serviceType": "地域密着型通所介護",
    "capacity": 2,
    "openDays": [
      "平日",
      "土曜日",
      "祝日"
    ],
    "openDaysNote": "お盆と年末年始以外の祝祭日は全て営業しています。"
  },
  {
    "id": "4271103147",
    "name": "クローバー・ガーデン長与",
    "kana": "クローバーガーデンナガヨ",
    "address": "長崎県西彼杵郡長与町高田郷1240コーポはるよし1Ｆ コーポはるよし1Ｆ",
    "lat": 32.819371142715,
    "lng": 129.870479583349,
    "tel": "095-887-0003",
    "url": "http://www.fujimoto-group.jp",
    "pref": "長崎県",
    "city": "長与町",
    "category": "community_day_service",
    "serviceType": "地域密着型通所介護",
    "capacity": 0,
    "openDays": [
      "平日",
      "土曜日"
    ],
    "openDaysNote": "8月14日・15日　お盆休み（改行）12月30～1月3日　年末年始（改行）休み"
  },
  {
    "id": "4271102917",
    "name": "デイサービス　アーネスト",
    "kana": "デイサービス　アーネスト",
    "address": "長崎県西彼杵郡長与町岡郷1474-18アーネスト アーネスト",
    "lat": 32.8486619,
    "lng": 129.8689255,
    "tel": "095-883-8080",
    "url": "",
    "pref": "長崎県",
    "city": "長与町",
    "category": "community_day_service",
    "serviceType": "地域密着型通所介護",
    "capacity": 0,
    "openDays": [
      "平日",
      "土曜日",
      "祝日"
    ],
    "openDaysNote": ""
  },
  {
    "id": "4271102792",
    "name": "デイサービスセンターおかもと",
    "kana": "デイサービスセンターオカモト",
    "address": "長崎県西彼杵郡長与町吉無田郷２０３３－１０",
    "lat": 32.8168649,
    "lng": 129.8821979,
    "tel": "095-883-1532",
    "url": "",
    "pref": "長崎県",
    "city": "長与町",
    "category": "community_day_service",
    "serviceType": "地域密着型通所介護",
    "capacity": 10,
    "openDays": [
      "平日",
      "祝日"
    ],
    "openDaysNote": "祝祭日（通常営業）　　　　年末年始お休み（12月３１日～1月２日）"
  },
  {
    "id": "4271102750",
    "name": "デイサービスセンターのぞみの杜　スヨさん家",
    "kana": "デイサービスセンターノゾミノモリ　スヨサンチ",
    "address": "長崎県西彼杵郡長与町吉無田郷1646-2",
    "lat": 32.8178371,
    "lng": 129.8850172,
    "tel": "095-883-7138",
    "url": "http://www.nozominomori.or.jp",
    "pref": "長崎県",
    "city": "長与町",
    "category": "community_day_service",
    "serviceType": "地域密着型通所介護",
    "capacity": 10,
    "openDays": [
      "平日",
      "祝日"
    ],
    "openDaysNote": ""
  },
  {
    "id": "4271102719",
    "name": "健康増進デイサービスぴーぷる長崎",
    "kana": "ケンコウゾウシンデイサービスピープルナガサキ",
    "address": "長崎県西彼杵郡長与町岡郷１６５７番地１",
    "lat": 32.8520923,
    "lng": 129.8748167,
    "tel": "095-885-7117",
    "url": "http://peapl-nagasaki.co.jp/",
    "pref": "長崎県",
    "city": "長与町",
    "category": "community_day_service",
    "serviceType": "地域密着型通所介護",
    "capacity": 0,
    "openDays": [
      "平日",
      "土曜日",
      "祝日"
    ],
    "openDaysNote": "積雪等止むを得ない場合は、サービスを中止する時があります。"
  },
  {
    "id": "4270300967",
    "name": "デイサービス美笑",
    "kana": "デイサービスミエ",
    "address": "長崎県島原市山寺町丙３５５－３",
    "lat": 32.8081673,
    "lng": 130.3520499,
    "tel": "0957-64-4518",
    "url": "",
    "pref": "長崎県",
    "city": "島原市",
    "category": "community_day_service",
    "serviceType": "地域密着型通所介護",
    "capacity": 17,
    "openDays": [
      "平日",
      "土曜日",
      "祝日"
    ],
    "openDaysNote": ""
  },
  {
    "id": "4270300991",
    "name": "デイサービス和心",
    "kana": "デイサービスワゴコロ",
    "address": "長崎県島原市緑町9178-1",
    "lat": 32.7673822,
    "lng": 130.3621179,
    "tel": "0957-63-1118",
    "url": "",
    "pref": "長崎県",
    "city": "島原市",
    "category": "community_day_service",
    "serviceType": "地域密着型通所介護",
    "capacity": 0,
    "openDays": [
      "平日",
      "土曜日",
      "祝日"
    ],
    "openDaysNote": ""
  },
  {
    "id": "4270301098",
    "name": "デイサロン葵",
    "kana": "デイサロンアオイ",
    "address": "長崎県島原市新湊２丁目丙１７１３番地３２",
    "lat": 32.7605247,
    "lng": 130.3617682,
    "tel": "0957-65-0192",
    "url": "http://www.shimabara.jp/kinedukanosato/",
    "pref": "長崎県",
    "city": "島原市",
    "category": "community_day_service",
    "serviceType": "地域密着型通所介護",
    "capacity": 0,
    "openDays": [
      "平日",
      "土曜日",
      "祝日"
    ],
    "openDaysNote": ""
  },
  {
    "id": "4270301080",
    "name": "デイホーム輪が家",
    "kana": "デイホームワガヤ",
    "address": "長崎県島原市浜の町丁182番地",
    "lat": 32.7677349,
    "lng": 130.3666926,
    "tel": "0957-73-9230",
    "url": "",
    "pref": "長崎県",
    "city": "島原市",
    "category": "community_day_service",
    "serviceType": "地域密着型通所介護",
    "capacity": 10,
    "openDays": [
      "平日",
      "土曜日",
      "祝日"
    ],
    "openDaysNote": ""
  },
  {
    "id": "4290300989",
    "name": "医療法人　重眞会　通所介護ひかり",
    "kana": "イリョウホウジン　ジュウシンカイ　ツウショカイゴヒカリ",
    "address": "長崎県島原市中野町丙３０番地７",
    "lat": 32.8274684,
    "lng": 130.3500418,
    "tel": "0957-63-5509",
    "url": "",
    "pref": "長崎県",
    "city": "島原市",
    "category": "community_day_service",
    "serviceType": "地域密着型通所介護",
    "capacity": 0,
    "openDays": [
      "平日"
    ],
    "openDaysNote": ""
  },
  {
    "id": "4270300900",
    "name": "医療法人社団東洋会　リハサポート２",
    "kana": "イリョウホウジンシャダントウヨウカイ　リハサポートツー",
    "address": "長崎県島原市加美町９９９番地",
    "lat": 32.7848946,
    "lng": 130.3681945,
    "tel": "0957-62-1210",
    "url": "http://www.ikeda-hp.or.jp/",
    "pref": "長崎県",
    "city": "島原市",
    "category": "community_day_service",
    "serviceType": "地域密着型通所介護",
    "capacity": 0,
    "openDays": [
      "平日",
      "土曜日",
      "祝日"
    ],
    "openDaysNote": ""
  },
  {
    "id": "4290301029",
    "name": "健康生活サポート事業ひととき。",
    "kana": "ケンコウセイカツサポートジギョウヒトトキ。",
    "address": "長崎県島原市白土町1071-4",
    "lat": 32.7802890942915,
    "lng": 130.367526221585,
    "tel": "0957-73-6555",
    "url": "https://footcare-nagasaki.com/",
    "pref": "長崎県",
    "city": "島原市",
    "category": "community_day_service",
    "serviceType": "地域密着型通所介護",
    "capacity": 100,
    "openDays": [
      "平日",
      "土曜日",
      "祝日"
    ],
    "openDaysNote": ""
  },
  {
    "id": "4290301011",
    "name": "個別リハビリ特化型ディサービスがんばReha",
    "kana": "コベツリハビリトッカガタディサービスガンバリハ",
    "address": "長崎県島原市桜門町2681-3",
    "lat": 32.7942724,
    "lng": 130.3613861,
    "tel": "0957-71-3555",
    "url": "http://hp.kaipoke.biz/yyw",
    "pref": "長崎県",
    "city": "島原市",
    "category": "community_day_service",
    "serviceType": "地域密着型通所介護",
    "capacity": 18,
    "openDays": [
      "平日"
    ],
    "openDaysNote": "①午前：9時～12時15分（改行）②午後：13時30分～16時45分（改行）③1日型：9時～16時45分（要相談）"
  },
  {
    "id": "4272500481",
    "name": "デイサービス　けやき",
    "kana": "デイサービス　ケヤキ",
    "address": "長崎県南島原市南有馬町乙1220-2",
    "lat": 32.6314901,
    "lng": 130.2457416,
    "tel": "0957-85-3990",
    "url": "",
    "pref": "長崎県",
    "city": "南島原市",
    "category": "community_day_service",
    "serviceType": "地域密着型通所介護",
    "capacity": null,
    "openDays": [
      "平日",
      "土曜日",
      "日曜日",
      "祝日"
    ],
    "openDaysNote": ""
  },
  {
    "id": "4271400402",
    "name": "デイサービスセンター　鮎の里",
    "kana": "デイサービスセンター　　アユノサト",
    "address": "長崎県南島原市有家町尾上4083",
    "lat": 32.70394,
    "lng": 130.3027861,
    "tel": "0957-82-5700",
    "url": "http://www.yuhoso.jp/",
    "pref": "長崎県",
    "city": "南島原市",
    "category": "community_day_service",
    "serviceType": "地域密着型通所介護",
    "capacity": 18,
    "openDays": [
      "平日",
      "祝日"
    ],
    "openDaysNote": ""
  },
  {
    "id": "4272500457",
    "name": "デイサービスセンターげんき",
    "kana": "デイサービスセンターゲンキ",
    "address": "長崎県南島原市加津佐町己2829-1",
    "lat": 32.6258245,
    "lng": 130.1649946,
    "tel": "0957-87-5778",
    "url": "",
    "pref": "長崎県",
    "city": "南島原市",
    "category": "community_day_service",
    "serviceType": "地域密着型通所介護",
    "capacity": 0,
    "openDays": [
      "平日",
      "祝日"
    ],
    "openDaysNote": ""
  },
  {
    "id": "4272500523",
    "name": "デイサービスセンター心春",
    "kana": "デイサービスセンターコハル",
    "address": "長崎県南島原市口之津町乙841番地2",
    "lat": 32.5959888,
    "lng": 130.1755145,
    "tel": "0957-86-5556",
    "url": "",
    "pref": "長崎県",
    "city": "南島原市",
    "category": "community_day_service",
    "serviceType": "地域密着型通所介護",
    "capacity": 0,
    "openDays": [
      "平日",
      "祝日"
    ],
    "openDaysNote": ""
  },
  {
    "id": "4292500206",
    "name": "デイサービスセンター弥生の里",
    "kana": "デイサービスセンターヤヨイノサト",
    "address": "長崎県南島原市加津佐町乙1180番地4",
    "lat": 32.6371074,
    "lng": 130.1553909,
    "tel": "0957-87-3209",
    "url": "",
    "pref": "長崎県",
    "city": "南島原市",
    "category": "community_day_service",
    "serviceType": "地域密着型通所介護",
    "capacity": null,
    "openDays": [
      "平日",
      "土曜日",
      "祝日"
    ],
    "openDaysNote": ""
  },
  {
    "id": "4292500180",
    "name": "デイサービスにじいろ",
    "kana": "デイサービスニジイロ",
    "address": "長崎県南島原市加津佐町丙１５６９番地",
    "lat": 32.6352609,
    "lng": 130.167717,
    "tel": "0957-87-2454",
    "url": "",
    "pref": "長崎県",
    "city": "南島原市",
    "category": "community_day_service",
    "serviceType": "地域密着型通所介護",
    "capacity": 0,
    "openDays": [
      "平日",
      "祝日"
    ],
    "openDaysNote": ""
  },
  {
    "id": "4292500172",
    "name": "リハビリケアステーションきらら",
    "kana": "リハビリケアステーションキララ",
    "address": "長崎県南島原市西有家町慈恩寺502",
    "lat": 32.7017195,
    "lng": 130.27567,
    "tel": "0957-82-1448",
    "url": "",
    "pref": "長崎県",
    "city": "南島原市",
    "category": "community_day_service",
    "serviceType": "地域密着型通所介護",
    "capacity": 0,
    "openDays": [
      "平日",
      "祝日"
    ],
    "openDaysNote": ""
  },
  {
    "id": "4292500149",
    "name": "リハプライド　南島原",
    "kana": "リハプライド　ミナミシマバラ",
    "address": "南有馬町乙1220-1",
    "lat": 32.6311488716435,
    "lng": 130.245168893254,
    "tel": "0957-85-3339",
    "url": "minamishimabara@rehapride.co.jp",
    "pref": "長崎県",
    "city": "南島原市",
    "category": "community_day_service",
    "serviceType": "地域密着型通所介護",
    "capacity": 0,
    "openDays": [
      "平日",
      "祝日"
    ],
    "openDaysNote": ""
  },
  {
    "id": "4272500556",
    "name": "三和リハトレセンター",
    "kana": "サンワリハトレセンター",
    "address": "長崎県南島原市深江町丁2021-3JA深江テナントビル1F JA深江テナントビル1F",
    "lat": 32.7197013,
    "lng": 130.3539727,
    "tel": "0957-72-5215",
    "url": "",
    "pref": "長崎県",
    "city": "南島原市",
    "category": "community_day_service",
    "serviceType": "地域密着型通所介護",
    "capacity": 0,
    "openDays": [
      "平日",
      "土曜日",
      "祝日"
    ],
    "openDaysNote": ""
  },
  {
    "id": "4271200786",
    "name": "介護サービス和株式会社",
    "kana": "カイゴサービスナゴミカブシキガイシャ",
    "address": "長崎県東彼杵郡波佐見町湯無田郷９３３－６",
    "lat": 33.1416935247798,
    "lng": 129.918403250926,
    "tel": "0956-85-8753",
    "url": "http://www.nagomi0753.jp",
    "pref": "長崎県",
    "city": "波佐見町",
    "category": "community_day_service",
    "serviceType": "地域密着型通所介護",
    "capacity": 0,
    "openDays": [
      "平日",
      "土曜日",
      "日曜日",
      "祝日"
    ],
    "openDaysNote": "定休日以外に、利用する利用者様がいない日は、休日とする。"
  },
  {
    "id": "4290700113",
    "name": "デイサービス　ひだまり",
    "kana": "デイサービス　ヒダマリ",
    "address": "長崎県平戸市度島町730-10",
    "lat": 33.4386603,
    "lng": 129.5288566,
    "tel": "0950-22-7023",
    "url": "https://www.facebook.com/profile.php?id=100063565331715",
    "pref": "長崎県",
    "city": "平戸市",
    "category": "community_day_service",
    "serviceType": "地域密着型通所介護",
    "capacity": 0,
    "openDays": [
      "平日",
      "日曜日"
    ],
    "openDaysNote": ""
  },
  {
    "id": "4271500847",
    "name": "デイサービスいなほ",
    "kana": "デイサービスイナホ",
    "address": "長崎県平戸市生月町山田免1074番地1",
    "lat": 33.3700284,
    "lng": 129.4335154,
    "tel": "0950-53-3012",
    "url": "http://inaho-group.jp/",
    "pref": "長崎県",
    "city": "平戸市",
    "category": "community_day_service",
    "serviceType": "地域密着型通所介護",
    "capacity": 0,
    "openDays": [
      "平日",
      "土曜日",
      "祝日"
    ],
    "openDaysNote": "ご利用者が0になる曜日は、休む事もあります。"
  },
  {
    "id": "4290700121",
    "name": "医療法人医理会　リハビリ特化型　通所介護毎快",
    "kana": "イリョウホウジンイリカイ　リハビリトッカガタ　ツウショカイゴマイカイ",
    "address": "長崎県平戸市木引田町414番地木引田介護スクエア 木引田介護スクエア",
    "lat": 33.3664943,
    "lng": 129.5516224,
    "tel": "0950-22-7154",
    "url": "",
    "pref": "長崎県",
    "city": "平戸市",
    "category": "community_day_service",
    "serviceType": "地域密着型通所介護",
    "capacity": 0,
    "openDays": [
      "平日",
      "祝日"
    ],
    "openDaysNote": "年末年始（12月29日～1月3日）休業あり。"
  },
  {
    "id": "4270700414",
    "name": "平戸市社協通所介護大島事業所",
    "kana": "ヒラドシシャキョウツウショカイゴオオシマジギョウショ",
    "address": "長崎県平戸市大島村前平2727番地",
    "lat": 33.4803171,
    "lng": 129.5476912,
    "tel": "0950-55-2100",
    "url": "",
    "pref": "長崎県",
    "city": "平戸市",
    "category": "community_day_service",
    "serviceType": "地域密着型通所介護",
    "capacity": 0,
    "openDays": [
      "平日",
      "祝日"
    ],
    "openDaysNote": ""
  },
  {
    "id": "4290400326",
    "name": "PARK　くるむ",
    "kana": "パーク　クルム",
    "address": "長崎県諫早市福田町357-4",
    "lat": 32.8537365,
    "lng": 130.0603865,
    "tel": "0957-22-2644（",
    "url": "http://www.airinkai.or.jp/",
    "pref": "長崎県",
    "city": "諫早市",
    "category": "community_day_service",
    "serviceType": "地域密着型通所介護",
    "capacity": 0,
    "openDays": [
      "平日",
      "土曜日",
      "祝日"
    ],
    "openDaysNote": ""
  },
  {
    "id": "4290400508",
    "name": "あいのわLabデイサービス",
    "kana": "アイノワラボデイサービス",
    "address": "長崎県諫早市幸町52-7",
    "lat": 32.8389639,
    "lng": 130.0682968,
    "tel": "0957-47-6869",
    "url": "https://www.reha-ainowa.co.jp/top/",
    "pref": "長崎県",
    "city": "諫早市",
    "category": "community_day_service",
    "serviceType": "地域密着型通所介護",
    "capacity": 18,
    "openDays": [
      "平日",
      "祝日"
    ],
    "openDaysNote": "12月31-1月3日は休業"
  },
  {
    "id": "4290400466",
    "name": "デイサービス　アイ-フィット",
    "kana": "デイサービス　アイ-フィット",
    "address": "長崎県諫早市福田町38-51",
    "lat": 32.8515162,
    "lng": 130.0614227,
    "tel": "0957-47-6896",
    "url": "ai-fit-nagasaki.com",
    "pref": "長崎県",
    "city": "諫早市",
    "category": "community_day_service",
    "serviceType": "地域密着型通所介護",
    "capacity": null,
    "openDays": [
      "平日",
      "祝日"
    ],
    "openDaysNote": ""
  },
  {
    "id": "4270403092",
    "name": "デイサービス　こもれび",
    "kana": "デイサービス　コモレビ",
    "address": "長崎県　諫早市　小船越町　792-2",
    "lat": 32.8452622,
    "lng": 130.0298714,
    "tel": "0957-47-8201",
    "url": "day.k5151@gmail.com",
    "pref": "長崎県",
    "city": "諫早市",
    "category": "community_day_service",
    "serviceType": "地域密着型通所介護",
    "capacity": 0,
    "openDays": [
      "平日",
      "土曜日",
      "祝日"
    ],
    "openDaysNote": ""
  },
  {
    "id": "4290400433",
    "name": "デイサービス　ニュートラル・グランド",
    "kana": "デイサービス　ニュートラルグランド",
    "address": "長崎県諫早市天満町19番14号　ﾘﾊﾞｰｻｲﾄﾞﾏﾝｼｮﾝ101リバーサイドマンション101 リバーサイドマンション101",
    "lat": 32.8493307,
    "lng": 130.045586,
    "tel": "0957-21-9608",
    "url": "https://day-neutral-ground.business.site/",
    "pref": "長崎県",
    "city": "諫早市",
    "category": "community_day_service",
    "serviceType": "地域密着型通所介護",
    "capacity": null,
    "openDays": [
      "平日",
      "土曜日"
    ],
    "openDaysNote": ""
  },
  {
    "id": "4290400490",
    "name": "デイサービス　ヒスイ",
    "kana": "デイサービス　ヒスイ",
    "address": "長崎県諫早市小船越町６８０番１",
    "lat": 32.8417285,
    "lng": 130.0286402,
    "tel": "０９５７－２０－９８７０",
    "url": "",
    "pref": "長崎県",
    "city": "諫早市",
    "category": "community_day_service",
    "serviceType": "地域密着型通所介護",
    "capacity": null,
    "openDays": [
      "平日",
      "土曜日"
    ],
    "openDaysNote": "原則、毎月最終土曜日、祝祭日及びお盆・年末年始を休業日とし、具体的には各年度の年間スケジュール表に定めています。"
  },
  {
    "id": "4290400219",
    "name": "デイサービス　ほたる",
    "kana": "デイサービス　ホタル",
    "address": "長崎県諫早市高来町黒崎79番地-3住宅型有料老人ホーム　ひまわり 住宅型有料老人ホーム　ひまわり",
    "lat": 32.9040362,
    "lng": 130.1321849,
    "tel": "0957-32-6022",
    "url": "https://wakeikai.jp/",
    "pref": "長崎県",
    "city": "諫早市",
    "category": "community_day_service",
    "serviceType": "地域密着型通所介護",
    "capacity": 15,
    "openDays": [
      "平日",
      "土曜日",
      "祝日"
    ],
    "openDaysNote": ""
  },
  {
    "id": "4290400441",
    "name": "デイサービス　ヤマト",
    "kana": "デイサービス　ヤマト",
    "address": "長崎県諌早市久山台60－7",
    "lat": 32.8258947,
    "lng": 129.9944873,
    "tel": "0957－51－5563",
    "url": "http://hp.kaipoke.biz/4pm/",
    "pref": "長崎県",
    "city": "諫早市",
    "category": "community_day_service",
    "serviceType": "地域密着型通所介護",
    "capacity": 10,
    "openDays": [
      "平日",
      "祝日"
    ],
    "openDaysNote": "年末年始休み　12月31日～1月3日（変更あり）"
  },
  {
    "id": "4270402797",
    "name": "デイサービス　小江の里",
    "kana": "デイサービス　オエノサト",
    "address": "長崎県諫早市高来町下与４３３番地",
    "lat": 32.8942844,
    "lng": 130.1138681,
    "tel": "0957-32-2224",
    "url": "http://oenosato.daa.jp/",
    "pref": "長崎県",
    "city": "諫早市",
    "category": "community_day_service",
    "serviceType": "地域密着型通所介護",
    "capacity": 0,
    "openDays": [
      "平日",
      "土曜日",
      "日曜日",
      "祝日"
    ],
    "openDaysNote": ""
  },
  {
    "id": "4270402672",
    "name": "デイサービス　絆",
    "kana": "デイサービス　キズナ",
    "address": "長崎県諫早市貝津町2334-2",
    "lat": 32.8402252350116,
    "lng": 130.016110482671,
    "tel": "0957-47-5427",
    "url": "",
    "pref": "長崎県",
    "city": "諫早市",
    "category": "community_day_service",
    "serviceType": "地域密着型通所介護",
    "capacity": 15,
    "openDays": [
      "平日",
      "土曜日"
    ],
    "openDaysNote": ""
  },
  {
    "id": "4290400185",
    "name": "デイサービスささえあい",
    "kana": "デイサービスササエアイ",
    "address": "長崎県諫早市福田町2729番地3",
    "lat": 32.8567136380397,
    "lng": 130.055204986508,
    "tel": "0957-47-8849",
    "url": "",
    "pref": "長崎県",
    "city": "諫早市",
    "category": "community_day_service",
    "serviceType": "地域密着型通所介護",
    "capacity": 0,
    "openDays": [
      "平日",
      "祝日"
    ],
    "openDaysNote": "年末年始休業12月30日～1月3日"
  },
  {
    "id": "4270401765",
    "name": "デイサービスセンター　しあわせ",
    "kana": "デイサービスセンター　シアワセ",
    "address": "長崎県諫早市堂崎町１５－１４",
    "lat": 32.844512,
    "lng": 130.015789,
    "tel": "0957-26-2993",
    "url": "http://www.joya.or.jp/siawase/",
    "pref": "長崎県",
    "city": "諫早市",
    "category": "community_day_service",
    "serviceType": "地域密着型通所介護",
    "capacity": 15,
    "openDays": [
      "平日",
      "土曜日",
      "祝日"
    ],
    "openDaysNote": "但し、年末年始（12月31日～1月3日）は休業日とする。"
  },
  {
    "id": "4270402326",
    "name": "デイサービスセンター　ひなたぼっこ",
    "kana": "デイサービスセンター　ヒナタボッコ",
    "address": "長崎県諫早市八天町１７番３３号102号 102号",
    "lat": 32.8472600976784,
    "lng": 130.058583149099,
    "tel": "0957-22-9000",
    "url": "",
    "pref": "長崎県",
    "city": "諫早市",
    "category": "community_day_service",
    "serviceType": "地域密着型通所介護",
    "capacity": 15,
    "openDays": [
      "平日",
      "土曜日",
      "日曜日",
      "祝日"
    ],
    "openDaysNote": ""
  },
  {
    "id": "4270401401",
    "name": "デイサービスセンター　ゆるり",
    "kana": "デイサービスセンター　ユルリ",
    "address": "長崎県諫早市栗面町810番地2",
    "lat": 32.831939,
    "lng": 130.047615,
    "tel": "0957-24-2818",
    "url": "H.P:http://hp.kaipoke.biz/zp3/",
    "pref": "長崎県",
    "city": "諫早市",
    "category": "community_day_service",
    "serviceType": "地域密着型通所介護",
    "capacity": 10,
    "openDays": [
      "平日",
      "土曜日",
      "祝日"
    ],
    "openDaysNote": ""
  },
  {
    "id": "4290400474",
    "name": "デイサービスセンタースリーサポート",
    "kana": "デイサービスセンタースリーサポート",
    "address": "長崎県諫早市真崎町1738番地1",
    "lat": 32.8534336,
    "lng": 130.0300411,
    "tel": "0957-51-0685",
    "url": "https://isahaya-3sk.org",
    "pref": "長崎県",
    "city": "諫早市",
    "category": "community_day_service",
    "serviceType": "地域密着型通所介護",
    "capacity": 7,
    "openDays": [
      "平日",
      "土曜日"
    ],
    "openDaysNote": ""
  },
  {
    "id": "4270401468",
    "name": "デイサービスセンターたかき",
    "kana": "デイサービスセンタータカキ",
    "address": "長崎県諫早市高来町峰179番地",
    "lat": 32.8933704,
    "lng": 130.1080801,
    "tel": "0957-32-6619",
    "url": "",
    "pref": "長崎県",
    "city": "諫早市",
    "category": "community_day_service",
    "serviceType": "地域密着型通所介護",
    "capacity": 15,
    "openDays": [
      "平日",
      "土曜日",
      "祝日"
    ],
    "openDaysNote": ""
  },
  {
    "id": "4270402706",
    "name": "デイサービスセンターひだまりの里aim",
    "kana": "デイサービスセンター　ヒダマリノサトエイム",
    "address": "長崎県諫早市小豆崎町５４７",
    "lat": 32.8548786321206,
    "lng": 130.068060250154,
    "tel": "0957-47-5853",
    "url": "",
    "pref": "長崎県",
    "city": "諫早市",
    "category": "community_day_service",
    "serviceType": "地域密着型通所介護",
    "capacity": 18,
    "openDays": [
      "平日",
      "土曜日"
    ],
    "openDaysNote": ""
  },
  {
    "id": "4290400458",
    "name": "デイサービスセンターひだまりの里吉荘",
    "kana": "デイサービスセンターヒダマリノサトキッソウ",
    "address": "諫早市小豆崎町351",
    "lat": 32.8557957979209,
    "lng": 130.069441576721,
    "tel": "0957-47-8603",
    "url": "",
    "pref": "長崎県",
    "city": "諫早市",
    "category": "community_day_service",
    "serviceType": "地域密着型通所介護",
    "capacity": 10,
    "openDays": [
      "平日",
      "土曜日"
    ],
    "openDaysNote": "その他、天災等やむをえない場合には臨時休業をする場合もあります。"
  },
  {
    "id": "4290400318",
    "name": "デイサービスヒラキ",
    "kana": "デイサービスヒラキ",
    "address": "長崎県諫早市飯盛町開1368番地1",
    "lat": 32.7802897,
    "lng": 130.0156735,
    "tel": "0957-48-2678",
    "url": "https://www.yuinohama.com",
    "pref": "長崎県",
    "city": "諫早市",
    "category": "community_day_service",
    "serviceType": "地域密着型通所介護",
    "capacity": 2,
    "openDays": [
      "平日",
      "土曜日",
      "日曜日",
      "祝日"
    ],
    "openDaysNote": "台風や地震等の天災・コロナやインフルエンザ感染等の可能性によりお休みさせて頂くことがあります。"
  },
  {
    "id": "4270402946",
    "name": "デイサービスみすず",
    "kana": "デイサービスミスズ",
    "address": "長崎県諫早市多良見町中里1738番地1",
    "lat": 32.8282137040968,
    "lng": 129.974467294057,
    "tel": "0957-51-6206",
    "url": "",
    "pref": "長崎県",
    "city": "諫早市",
    "category": "community_day_service",
    "serviceType": "地域密着型通所介護",
    "capacity": 18,
    "openDays": [
      "平日",
      "土曜日",
      "祝日"
    ],
    "openDaysNote": ""
  },
  {
    "id": "4290400417",
    "name": "デイサービス洗心庵",
    "kana": "デイサービス　センシンアン",
    "address": "長崎県諫早市森山町慶師野793番地",
    "lat": 32.8238161,
    "lng": 130.1196519,
    "tel": "0975-35-2384",
    "url": "",
    "pref": "長崎県",
    "city": "諫早市",
    "category": "community_day_service",
    "serviceType": "地域密着型通所介護",
    "capacity": 18,
    "openDays": [
      "平日",
      "土曜日"
    ],
    "openDaysNote": ""
  },
  {
    "id": "4290400367",
    "name": "デイサービス椿寿荘",
    "kana": "デイサービスチンジュソウ",
    "address": "長崎県諫早市栄田町582番9",
    "lat": 32.8664527,
    "lng": 130.0320328,
    "tel": "0957-28-9510",
    "url": "https://fuyounet.jp/",
    "pref": "長崎県",
    "city": "諫早市",
    "category": "community_day_service",
    "serviceType": "地域密着型通所介護",
    "capacity": 0,
    "openDays": [
      "平日",
      "祝日"
    ],
    "openDaysNote": ""
  },
  {
    "id": "4290400300",
    "name": "デイサービス福の家",
    "kana": "デイサービスフクノイエ",
    "address": "諫早市福田町38-41",
    "lat": 32.8515708,
    "lng": 130.0624278,
    "tel": "0957-46-3681",
    "url": "",
    "pref": "長崎県",
    "city": "諫早市",
    "category": "community_day_service",
    "serviceType": "地域密着型通所介護",
    "capacity": 5,
    "openDays": [
      "平日",
      "土曜日",
      "日曜日",
      "祝日"
    ],
    "openDaysNote": "年始(1/1,1/2)"
  },
  {
    "id": "4270402979",
    "name": "デイサービス未來（みらい）",
    "kana": "デイサービスミライ（ミライ）",
    "address": "長崎県諫早市白岩町35番地3",
    "lat": 32.8498423,
    "lng": 130.0222161,
    "tel": "0957-25-5100",
    "url": "",
    "pref": "長崎県",
    "city": "諫早市",
    "category": "community_day_service",
    "serviceType": "地域密着型通所介護",
    "capacity": 9,
    "openDays": [
      "平日",
      "土曜日",
      "日曜日",
      "祝日"
    ],
    "openDaysNote": "週3～4日程度サービス提供中。"
  },
  {
    "id": "4270401260",
    "name": "まごころデイサービス事業所",
    "kana": "マゴコロデイサービスジギョウショ",
    "address": "長崎県諫早市福田町23番3号",
    "lat": 32.8504488,
    "lng": 130.0629527,
    "tel": "0957-24-0202",
    "url": "",
    "pref": "長崎県",
    "city": "諫早市",
    "category": "community_day_service",
    "serviceType": "地域密着型通所介護",
    "capacity": 0,
    "openDays": [
      "平日",
      "土曜日",
      "祝日"
    ],
    "openDaysNote": ""
  },
  {
    "id": "4270402961",
    "name": "ミニデイサービス　かめの家",
    "kana": "ミニデイサービス　カメノイエ",
    "address": "長崎県諫早市久山町1751番地",
    "lat": 32.8330629,
    "lng": 130.002599,
    "tel": "0957-47-6515",
    "url": "",
    "pref": "長崎県",
    "city": "諫早市",
    "category": "community_day_service",
    "serviceType": "地域密着型通所介護",
    "capacity": 0,
    "openDays": [
      "平日",
      "土曜日",
      "祝日"
    ],
    "openDaysNote": ""
  },
  {
    "id": "4270402748",
    "name": "リハビリコミュニティリラク",
    "kana": "リハビリコミュニティリラク",
    "address": "長崎県諫早市馬渡町7番地6",
    "lat": 32.8419051405274,
    "lng": 130.022534349074,
    "tel": "0957-25-8200",
    "url": "http://rihabirinoki.jp",
    "pref": "長崎県",
    "city": "諫早市",
    "category": "community_day_service",
    "serviceType": "地域密着型通所介護",
    "capacity": 5,
    "openDays": [
      "平日",
      "祝日"
    ],
    "openDaysNote": ""
  },
  {
    "id": "4290400292",
    "name": "リハビリセンター　ハイタッチ",
    "kana": "リハビリセンター　ハイタッチ",
    "address": "長崎県諫早市永昌町42-33みたちやまハウス１F みたちやまハウス１F",
    "lat": 32.8490025421438,
    "lng": 130.036856848421,
    "tel": "0957-41-4097",
    "url": "",
    "pref": "長崎県",
    "city": "諫早市",
    "category": "community_day_service",
    "serviceType": "地域密着型通所介護",
    "capacity": 15,
    "openDays": [
      "平日",
      "祝日"
    ],
    "openDaysNote": "祝日は変則。（改行）お盆、年末年始はお休み。"
  },
  {
    "id": "4270402938",
    "name": "リハビリテーション　あいのわ　デイサービス",
    "kana": "リハビリテーション　アイノワ　デイサービス",
    "address": "長崎県諫早市東小路町12-8リハビリテーション　あいのわ　デイサービス リハビリテーション　あいのわ　デイサービス",
    "lat": 32.8421103,
    "lng": 130.0548756,
    "tel": "0957-56-8669",
    "url": "http://www.reha-ainowa.co.jp",
    "pref": "長崎県",
    "city": "諫早市",
    "category": "community_day_service",
    "serviceType": "地域密着型通所介護",
    "capacity": 18,
    "openDays": [
      "平日",
      "土曜日",
      "祝日"
    ],
    "openDaysNote": "12/31～1/3は正月休み"
  },
  {
    "id": "4290400334",
    "name": "リハビリテーションあいのわupデイサービス",
    "kana": "リハビリテーションアイノワアップデイサービス",
    "address": "長崎県諫早市大さこ町３００番地イオンタウン諫早西武台 イオンタウン諫早西武台",
    "lat": 32.8582357757267,
    "lng": 130.024153687697,
    "tel": "０９５７－５６－８０３４",
    "url": "",
    "pref": "長崎県",
    "city": "諫早市",
    "category": "community_day_service",
    "serviceType": "地域密着型通所介護",
    "capacity": 0,
    "openDays": [
      "平日",
      "土曜日",
      "祝日"
    ],
    "openDaysNote": ""
  },
  {
    "id": "4270402417",
    "name": "リハビリテーションケア　デイサービス利楽",
    "kana": "リハビリテーションケア　デイサービスリラク",
    "address": "長崎県諫早市白岩町27番地3",
    "lat": 32.8498784,
    "lng": 130.019033,
    "tel": "0957－25－7225",
    "url": "http://rihabirinoki.jp/",
    "pref": "長崎県",
    "city": "諫早市",
    "category": "community_day_service",
    "serviceType": "地域密着型通所介護",
    "capacity": 18,
    "openDays": [
      "平日",
      "土曜日",
      "祝日"
    ],
    "openDaysNote": ""
  },
  {
    "id": "4290400284",
    "name": "リハビリプラス",
    "kana": "リハビリプラス",
    "address": "長崎県諌早市多良見町化屋３２１－２５",
    "lat": 32.8340155,
    "lng": 129.9882391,
    "tel": "０９５７－４９ー２６６６",
    "url": "rihabiripurasu@ebony.plala.or.jp",
    "pref": "長崎県",
    "city": "諫早市",
    "category": "community_day_service",
    "serviceType": "地域密着型通所介護",
    "capacity": 10,
    "openDays": [
      "平日"
    ],
    "openDaysNote": ""
  },
  {
    "id": "4270402813",
    "name": "株式会社　優愛福祉サービス　デイサービス　やまぶき",
    "kana": "カブシキガイシャ　ユウアイフクシサービス　デイサービスヤマブキ",
    "address": "長崎県諫早市白岩町15番地21",
    "lat": 32.8478869,
    "lng": 130.0206135,
    "tel": "0957-25-7958",
    "url": "",
    "pref": "長崎県",
    "city": "諫早市",
    "category": "community_day_service",
    "serviceType": "地域密着型通所介護",
    "capacity": 11,
    "openDays": [
      "平日",
      "土曜日",
      "日曜日",
      "祝日"
    ],
    "openDaysNote": "但し年始（1/1～1/2）は休みです。"
  },
  {
    "id": "4270401740",
    "name": "株式会社優愛福祉サービス　デイサービスさくら草",
    "kana": "カブシキカイシャユウアイフクシサービス　デイサービスサクラソウ",
    "address": "長崎県諫早市小豆崎町530-1",
    "lat": 32.8546316154117,
    "lng": 130.069873963209,
    "tel": "0957-47-9430",
    "url": "なし",
    "pref": "長崎県",
    "city": "諫早市",
    "category": "community_day_service",
    "serviceType": "地域密着型通所介護",
    "capacity": 14,
    "openDays": [
      "平日",
      "土曜日",
      "日曜日",
      "祝日"
    ],
    "openDaysNote": "但し年始1/1~1/2は休み"
  },
  {
    "id": "4270402607",
    "name": "地域密着型デイサービス　あかり",
    "kana": "チイキミッチャクガタデイサービス　アカリ",
    "address": "長崎県諫早市栗面町８１４番地",
    "lat": 32.8322334,
    "lng": 130.0488788,
    "tel": "0957-47-9094",
    "url": "http://isahaya-akari.jimdo.com/",
    "pref": "長崎県",
    "city": "諫早市",
    "category": "community_day_service",
    "serviceType": "地域密着型通所介護",
    "capacity": 12,
    "openDays": [
      "平日",
      "土曜日",
      "日曜日",
      "祝日"
    ],
    "openDaysNote": "上記営業時間以外も、ご相談に応じます。（改行）正月・お盆も営業します。"
  },
  {
    "id": "4270400718",
    "name": "特定非営利活動法人諌早なかよし村２１このゆびとまれ",
    "kana": "トクテイヒエイリカツドウホウジンイサハヤナカヨシムラ２１コノユビトマレ",
    "address": "長崎県諫早市福田町４４３－１",
    "lat": 32.854254000976,
    "lng": 130.061315072214,
    "tel": "0957-21-6050",
    "url": "http://www.isahaya-konoyubitomare.com/",
    "pref": "長崎県",
    "city": "諫早市",
    "category": "community_day_service",
    "serviceType": "地域密着型通所介護",
    "capacity": 18,
    "openDays": [
      "平日",
      "土曜日"
    ],
    "openDaysNote": "特になし"
  }
]