[
  {
    "id": "2072501352",
    "name": "阿智村社協デイサービスセンターひだまり",
    "kana": "アチムラシャキョウデイサービスセンターヒダマリ",
    "address": "長野県下伊那郡阿智村清内路７６２番地１",
    "lat": 35.4961977871599,
    "lng": 137.704052733958,
    "tel": "0265-46-2617",
    "url": "http://www.achi-syakyo.or.jp/",
    "pref": "長野県",
    "city": "阿智村",
    "category": "community_day_service",
    "serviceType": "地域密着型通所介護",
    "capacity": 0,
    "openDays": [
      "平日",
      "土曜日",
      "祝日"
    ],
    "openDaysNote": ""
  },
  {
    "id": "2072500990",
    "name": "介護ホームそら",
    "kana": "カイゴホームソラ",
    "address": "長野県下伊那郡阿智村伍和3158-1",
    "lat": 35.4356779,
    "lng": 137.7564683,
    "tel": "0265-45-2310",
    "url": "",
    "pref": "長野県",
    "city": "阿智村",
    "category": "community_day_service",
    "serviceType": "地域密着型通所介護",
    "capacity": 0,
    "openDays": [
      "平日",
      "土曜日",
      "祝日"
    ],
    "openDaysNote": ""
  },
  {
    "id": "2092500178",
    "name": "新野デイサービスセンターはなのき荘",
    "kana": "ニイノデイサービスセンターハナノキソウ",
    "address": "長野県下伊那郡阿南町新野28-1",
    "lat": 35.2723494,
    "lng": 137.7607501,
    "tel": "0260-24-2368",
    "url": "http://kayagakikai.or.jp/",
    "pref": "長野県",
    "city": "阿南町",
    "category": "community_day_service",
    "serviceType": "地域密着型通所介護",
    "capacity": 0,
    "openDays": [
      "平日",
      "土曜日"
    ],
    "openDaysNote": "通常サービス提供時間は「7時間以上8時間未満」（改行）延長サービスの提供時間は18:00から23時までの最長5時間までです。"
  },
  {
    "id": "2094000466",
    "name": "Family",
    "kana": "ファミリー",
    "address": "長野県安曇野市穂高8111-3",
    "lat": 36.3320014,
    "lng": 137.860227,
    "tel": "0263-87-8456",
    "url": "",
    "pref": "長野県",
    "city": "安曇野市",
    "category": "community_day_service",
    "serviceType": "地域密着型通所介護",
    "capacity": 0,
    "openDays": [
      "平日",
      "祝日"
    ],
    "openDaysNote": "休業の場合は、前もってお知らせをします。"
  },
  {
    "id": "2094000425",
    "name": "アトリエつむぎ",
    "kana": "アトリエ　ツムギ",
    "address": "長野県安曇野市堀金烏川703-9",
    "lat": 36.2964744,
    "lng": 137.7736217,
    "tel": "0263-88-5182",
    "url": "",
    "pref": "長野県",
    "city": "安曇野市",
    "category": "community_day_service",
    "serviceType": "地域密着型通所介護",
    "capacity": null,
    "openDays": [
      "平日",
      "土曜日",
      "祝日"
    ],
    "openDaysNote": "法人が休日と定めた日（12月30日～翌年1月3日・8月13日～16日、悪天候・台風・大雪・ウイルス感染拡大防止対策・地域住民との会合など）"
  },
  {
    "id": "2074000213",
    "name": "いやしろ地　えんじゅ",
    "kana": "イヤシロチ　エンジュ",
    "address": "長野県安曇野市穂高有明2181－13",
    "lat": 36.3617903199089,
    "lng": 137.830159398673,
    "tel": "0263-83-7069",
    "url": "https://www.kikou2007.co.jp/index.html",
    "pref": "長野県",
    "city": "安曇野市",
    "category": "community_day_service",
    "serviceType": "地域密着型通所介護",
    "capacity": 0,
    "openDays": [
      "平日",
      "土曜日",
      "祝日"
    ],
    "openDaysNote": "祝日は営業は行っていますが、提供時間が平日より1時間短く、入浴介助、個別機能訓練は行っておりません。"
  },
  {
    "id": "2074000502",
    "name": "サンクスデイサービスさいわい",
    "kana": "サンクスデイサービスサイワイ",
    "address": "長野県安曇野市穂高有明9990-1",
    "lat": 36.3461260939893,
    "lng": 137.861565297609,
    "tel": "0263-88-6868",
    "url": "http://thanks-saiwainomachi.com",
    "pref": "長野県",
    "city": "安曇野市",
    "category": "community_day_service",
    "serviceType": "地域密着型通所介護",
    "capacity": 18,
    "openDays": [
      "平日",
      "土曜日",
      "祝日"
    ],
    "openDaysNote": ""
  },
  {
    "id": "2094000201",
    "name": "シャルールサロンさらん",
    "kana": "シャルールサロンサラン",
    "address": "長野県安曇野市穂高有明3131-3",
    "lat": 36.3504572,
    "lng": 137.8432496,
    "tel": "0263-83-4877",
    "url": "",
    "pref": "長野県",
    "city": "安曇野市",
    "category": "community_day_service",
    "serviceType": "地域密着型通所介護",
    "capacity": 10,
    "openDays": [
      "平日"
    ],
    "openDaysNote": ""
  },
  {
    "id": "2072800556",
    "name": "すずらん",
    "kana": "スズラン",
    "address": "長野県安曇野市穂高５６２０－１",
    "lat": 36.3428623,
    "lng": 137.8825829,
    "tel": "0263-81-3700",
    "url": "http://nanatsunokane.or.jp",
    "pref": "長野県",
    "city": "安曇野市",
    "category": "community_day_service",
    "serviceType": "地域密着型通所介護",
    "capacity": null,
    "openDays": [
      "平日",
      "土曜日",
      "祝日"
    ],
    "openDaysNote": "特になし"
  },
  {
    "id": "2072800739",
    "name": "ちえの和デイサービス",
    "kana": "チエノワデイサービス",
    "address": "長野県安曇野市豊科５１７９-１",
    "lat": 36.3020675,
    "lng": 137.8946185,
    "tel": "0263-71-6844",
    "url": "",
    "pref": "長野県",
    "city": "安曇野市",
    "category": "community_day_service",
    "serviceType": "地域密着型通所介護",
    "capacity": 18,
    "openDays": [
      "平日",
      "土曜日",
      "祝日"
    ],
    "openDaysNote": ""
  },
  {
    "id": "2094000474",
    "name": "デイサービス　ちゃお",
    "kana": "デイサービス　チャオ",
    "address": "長野県安曇野市明科中川手4458・4460-1",
    "lat": 36.3445184,
    "lng": 137.9366629,
    "tel": "0263-31-5872",
    "url": "",
    "pref": "長野県",
    "city": "安曇野市",
    "category": "community_day_service",
    "serviceType": "地域密着型通所介護",
    "capacity": null,
    "openDays": [
      "平日",
      "祝日"
    ],
    "openDaysNote": ""
  },
  {
    "id": "2094000433",
    "name": "デイサービスいいせ新宅",
    "kana": "デイサービスイイセシンタク",
    "address": "長野県安曇野市豊科高家5809-1",
    "lat": 36.263872,
    "lng": 137.9123854,
    "tel": "0263‐71‐2525",
    "url": "",
    "pref": "長野県",
    "city": "安曇野市",
    "category": "community_day_service",
    "serviceType": "地域密着型通所介護",
    "capacity": null,
    "openDays": [
      "平日",
      "土曜日",
      "日曜日",
      "祝日"
    ],
    "openDaysNote": ""
  },
  {
    "id": "2074000825",
    "name": "デイサービスきたえる～む安曇野",
    "kana": "デイサービスキタエルームアズミノ",
    "address": "長野県安曇野市豊科4260-1",
    "lat": 36.3007792193132,
    "lng": 137.909177382803,
    "tel": "0263-87-0191",
    "url": "",
    "pref": "長野県",
    "city": "安曇野市",
    "category": "community_day_service",
    "serviceType": "地域密着型通所介護",
    "capacity": 15,
    "openDays": [
      "平日",
      "土曜日"
    ],
    "openDaysNote": "お盆、年末年始は休業"
  },
  {
    "id": "2094000409",
    "name": "デイサービスきたえるーむ安曇野穂高",
    "kana": "デイサービスキタエルームアズミノホタカテン",
    "address": "長野県安曇野市穂高6670",
    "lat": 36.3378172,
    "lng": 137.887339,
    "tel": "0263-87-6270",
    "url": "",
    "pref": "長野県",
    "city": "安曇野市",
    "category": "community_day_service",
    "serviceType": "地域密着型通所介護",
    "capacity": 0,
    "openDays": [
      "平日",
      "土曜日"
    ],
    "openDaysNote": ""
  },
  {
    "id": "2094000383",
    "name": "デイサービスクローバー安曇野",
    "kana": "デイサービスクローバーアヅミノ",
    "address": "長野県安曇野市三郷温4898-8",
    "lat": 36.2448089,
    "lng": 137.8717958,
    "tel": "0263-88-3993",
    "url": "https://day-clover.com/dayservice/office/azumino",
    "pref": "長野県",
    "city": "安曇野市",
    "category": "community_day_service",
    "serviceType": "地域密着型通所介護",
    "capacity": null,
    "openDays": [
      "平日",
      "土曜日",
      "日曜日",
      "祝日"
    ],
    "openDaysNote": "24時間365日営業しております。（改行）ぜひ一度、ご相談ください。"
  },
  {
    "id": "2094000441",
    "name": "デイサービスはるあ",
    "kana": "デイサービスハルア",
    "address": "安曇野市穂高有明2099－30",
    "lat": 36.3707039,
    "lng": 137.8501202,
    "tel": "0263－31－6836",
    "url": "",
    "pref": "長野県",
    "city": "安曇野市",
    "category": "community_day_service",
    "serviceType": "地域密着型通所介護",
    "capacity": null,
    "openDays": [
      "平日",
      "土曜日",
      "祝日"
    ],
    "openDaysNote": ""
  },
  {
    "id": "2072800754",
    "name": "デイサービスまがりっと太田屋",
    "kana": "デイサービスマガリットオオタヤ",
    "address": "長野県安曇野市三郷温2193-1",
    "lat": 36.2556226645035,
    "lng": 137.88326688768,
    "tel": "0263-50-8775",
    "url": "",
    "pref": "長野県",
    "city": "安曇野市",
    "category": "community_day_service",
    "serviceType": "地域密着型通所介護",
    "capacity": 0,
    "openDays": [
      "平日",
      "土曜日",
      "祝日"
    ],
    "openDaysNote": "状況に応じ定休日であってもサービスを提供します。"
  },
  {
    "id": "2072800614",
    "name": "デイサービスむらやま",
    "kana": "デイサービスムラヤマ",
    "address": "長野県安曇野市穂高4563-7",
    "lat": 36.3429981466677,
    "lng": 137.886149872353,
    "tel": "0263-82-2612",
    "url": "http://www.e-office.gr.jp/i-you-hotaka/daycare.html",
    "pref": "長野県",
    "city": "安曇野市",
    "category": "community_day_service",
    "serviceType": "地域密着型通所介護",
    "capacity": 15,
    "openDays": [
      "平日",
      "土曜日",
      "祝日"
    ],
    "openDaysNote": ""
  },
  {
    "id": "2094000318",
    "name": "デイサービス七彩",
    "kana": "デイサービス　ナナイロ",
    "address": "長野県穂高有明7794-1",
    "lat": 36.344921,
    "lng": 137.8358773,
    "tel": "0263-87-2995",
    "url": "",
    "pref": "長野県",
    "city": "安曇野市",
    "category": "community_day_service",
    "serviceType": "地域密着型通所介護",
    "capacity": 15,
    "openDays": [
      "平日",
      "土曜日",
      "祝日"
    ],
    "openDaysNote": "支援の方のサービス時間は９：００～１５：１５までとなっております。　（改行）（改行）お盆、年末年始はお休みになります。"
  },
  {
    "id": "2074000403",
    "name": "デイサービス風彩",
    "kana": "デイサービス　カゼイロ",
    "address": "長野県安曇野市豊科南穂高４４２番地７",
    "lat": 36.3008165863353,
    "lng": 137.910666150926,
    "tel": "0263-71-3278",
    "url": "https://kazewoyomu.com/",
    "pref": "長野県",
    "city": "安曇野市",
    "category": "community_day_service",
    "serviceType": "地域密着型通所介護",
    "capacity": 10,
    "openDays": [
      "平日",
      "土曜日",
      "祝日"
    ],
    "openDaysNote": "留守の場合、留守番電話及び事業所に緊急連絡先を掲示してあり、法人代表電話番号にて、留守番電話は法人理事長の携帯電話に転送され２４時間の連絡がとれるようになっています。"
  },
  {
    "id": "2094000391",
    "name": "トレーニングと整体の「りふろぎ」",
    "kana": "トレーニングトセイタイノ「リフロギ」",
    "address": "長野県安曇野市穂高996-3",
    "lat": 36.3262816,
    "lng": 137.8930167,
    "tel": "0263-74-2612",
    "url": "https://sites.google.com/view/refrogi",
    "pref": "長野県",
    "city": "安曇野市",
    "category": "community_day_service",
    "serviceType": "地域密着型通所介護",
    "capacity": 15,
    "openDays": [
      "平日",
      "祝日"
    ],
    "openDaysNote": ""
  },
  {
    "id": "2094000276",
    "name": "よりどころ　うらら",
    "kana": "ヨリドコロ　ウララ",
    "address": "長野県安曇野市明科七貴５６４５－５",
    "lat": 36.3628441,
    "lng": 137.9168738,
    "tel": "0263-31-3979",
    "url": "",
    "pref": "長野県",
    "city": "安曇野市",
    "category": "community_day_service",
    "serviceType": "地域密着型通所介護",
    "capacity": 0,
    "openDays": [
      "平日",
      "祝日"
    ],
    "openDaysNote": ""
  },
  {
    "id": "2094000235",
    "name": "リハビリセンター　アライブ",
    "kana": "リハビリセンター　アライブ",
    "address": "長野県安曇野市穂高451-1",
    "lat": 36.3204082370538,
    "lng": 137.893622448692,
    "tel": "0263-50-4139",
    "url": "http://acelive.co.jp",
    "pref": "長野県",
    "city": "安曇野市",
    "category": "community_day_service",
    "serviceType": "地域密着型通所介護",
    "capacity": 4,
    "openDays": [
      "平日",
      "祝日"
    ],
    "openDaysNote": "年末年始、お盆等"
  },
  {
    "id": "2074000718",
    "name": "リハビリデイサービスぽっかぽか豊科",
    "kana": "リハビリデイサービスポッカポカトヨシナ",
    "address": "長野県安曇野市豊科南穂高1228-2",
    "lat": 36.3004765065468,
    "lng": 137.925991634357,
    "tel": "0263-88-7122",
    "url": "",
    "pref": "長野県",
    "city": "安曇野市",
    "category": "community_day_service",
    "serviceType": "地域密着型通所介護",
    "capacity": 0,
    "openDays": [
      "平日",
      "祝日"
    ],
    "openDaysNote": "祝日も営業しております。年末年始はお休みです。(12月30日～1月3日)"
  },
  {
    "id": "2074000338",
    "name": "株式会社デイサービスきらく",
    "kana": "デイサービスキラク",
    "address": "長野県安曇野市豊科457-9番地",
    "lat": 36.2694987,
    "lng": 137.9097994,
    "tel": "0263-72-3213",
    "url": "",
    "pref": "長野県",
    "city": "安曇野市",
    "category": "community_day_service",
    "serviceType": "地域密着型通所介護",
    "capacity": 9,
    "openDays": [
      "平日",
      "土曜日",
      "祝日"
    ],
    "openDaysNote": "ご家庭の都合で時間延長あるいは休日の利用もあり得る。（原則としては送迎は行わない）"
  },
  {
    "id": "2094000482",
    "name": "古民家デイサービスにじいろ",
    "kana": "コミンカデイサービスニジイロ",
    "address": "長野県安曇野市豊科４４８２－１",
    "lat": 36.2972134,
    "lng": 137.9055196,
    "tel": "０２６３－８７－５５８６",
    "url": "https://hnt-bokko.com/",
    "pref": "長野県",
    "city": "安曇野市",
    "category": "community_day_service",
    "serviceType": "地域密着型通所介護",
    "capacity": 40,
    "openDays": [
      "平日",
      "土曜日",
      "日曜日",
      "祝日"
    ],
    "openDaysNote": ""
  },
  {
    "id": "2074000791",
    "name": "古民家デイサービス匠",
    "kana": "コミンカデイサービスタクミ",
    "address": "長野県安曇野市穂高有明１８３６番地２",
    "lat": 36.3530633,
    "lng": 137.863997,
    "tel": "0263-87-8443",
    "url": "",
    "pref": "長野県",
    "city": "安曇野市",
    "category": "community_day_service",
    "serviceType": "地域密着型通所介護",
    "capacity": 17,
    "openDays": [
      "平日",
      "土曜日",
      "祝日"
    ],
    "openDaysNote": ""
  },
  {
    "id": "2094000342",
    "name": "宅幼老所　なかむら",
    "kana": "タクヨウロウショ　ナカムラ",
    "address": "長野県安曇野市穂高柏原1425-1",
    "lat": 36.323761,
    "lng": 137.8812313,
    "tel": "0263-82-3533",
    "url": "",
    "pref": "長野県",
    "city": "安曇野市",
    "category": "community_day_service",
    "serviceType": "地域密着型通所介護",
    "capacity": 2,
    "openDays": [
      "平日",
      "土曜日",
      "日曜日",
      "祝日"
    ],
    "openDaysNote": "定休日は、日曜日としますが、利用希望があれば、営業します。また、お盆休み、年末年始は、休みます。期間は、その年によって変わります。"
  },
  {
    "id": "2074000783",
    "name": "宅老所笑楽",
    "kana": "タクロウショショウラク",
    "address": "長野県安曇野市穂高有明460－5",
    "lat": 36.3529078,
    "lng": 137.8649784,
    "tel": "0263－31－6737",
    "url": "",
    "pref": "長野県",
    "city": "安曇野市",
    "category": "community_day_service",
    "serviceType": "地域密着型通所介護",
    "capacity": 0,
    "openDays": [
      "平日",
      "土曜日",
      "祝日"
    ],
    "openDaysNote": "年末年始休業（12月30日～1月3日まで）"
  },
  {
    "id": "2074000817",
    "name": "有限会社設備工業　宅老所　ななきの里",
    "kana": "ユウゲンガイシャセツビコウギョウ　タクロウジョ　ナナキノサト",
    "address": "長野県安曇野市明科七貴９０５２－４",
    "lat": 36.3706227454209,
    "lng": 137.927281521179,
    "tel": "０２６３－８８－５４３５",
    "url": "",
    "pref": "長野県",
    "city": "安曇野市",
    "category": "community_day_service",
    "serviceType": "地域密着型通所介護",
    "capacity": 18,
    "openDays": [
      "平日",
      "祝日"
    ],
    "openDaysNote": "※令和２年１月１日～定休日変更（改行）（土曜日・日曜日・GW5/3～5、お盆8/13～16、年末年始12/31～1/3）（改行）12月30日が土曜日・日曜日の場合は休みとする。"
  },
  {
    "id": "2090900222",
    "name": "ふれ愛センターつどい",
    "kana": "フレアイセンターツドイ",
    "address": "長野県伊那市御園2318",
    "lat": 35.8534600496258,
    "lng": 137.959615526706,
    "tel": "0265-71-8080",
    "url": "",
    "pref": "長野県",
    "city": "伊那市",
    "category": "community_day_service",
    "serviceType": "地域密着型通所介護",
    "capacity": 0,
    "openDays": [
      "平日",
      "土曜日",
      "日曜日",
      "祝日"
    ],
    "openDaysNote": "12月30日〜1月3日、8月13日〜15日までは休み"
  },
  {
    "id": "2070900200",
    "name": "ふれ愛センター伊那北",
    "kana": "フレアイセンターイナキタ",
    "address": "長野県伊那市御園1407-1",
    "lat": 35.85354621897,
    "lng": 137.960114827478,
    "tel": "0265-72-2072",
    "url": "",
    "pref": "長野県",
    "city": "伊那市",
    "category": "community_day_service",
    "serviceType": "地域密着型通所介護",
    "capacity": 5,
    "openDays": [
      "平日",
      "土曜日",
      "日曜日",
      "祝日"
    ],
    "openDaysNote": ""
  },
  {
    "id": "2090900206",
    "name": "伊那市デイサービスセンターくつろぎの家",
    "kana": "イナシデイサービスセンタークツロギノイエ",
    "address": "長野県伊那市高遠町長藤１８４１",
    "lat": 35.8609581,
    "lng": 138.0883847,
    "tel": "０２６５－９４－３１７１",
    "url": "",
    "pref": "長野県",
    "city": "伊那市",
    "category": "community_day_service",
    "serviceType": "地域密着型通所介護",
    "capacity": 18,
    "openDays": [
      "平日",
      "土曜日",
      "祝日"
    ],
    "openDaysNote": "特になし"
  },
  {
    "id": "2090900214",
    "name": "元気リハ　デイサービス",
    "kana": "ゲンキリハ　デイサービス",
    "address": "長野県伊那市美篶下川手9632元気リハデイサービス 元気リハデイサービス",
    "lat": 35.8371938,
    "lng": 137.9894877,
    "tel": "0265-98-8614",
    "url": "",
    "pref": "長野県",
    "city": "伊那市",
    "category": "community_day_service",
    "serviceType": "地域密着型通所介護",
    "capacity": 10,
    "openDays": [
      "平日",
      "祝日"
    ],
    "openDaysNote": "年末年始　12月31日～1月5日の間お休みです。"
  },
  {
    "id": "2070900762",
    "name": "生協宅幼老所みなみ",
    "kana": "セイキョウタクヨウロウジョミナミ",
    "address": "長野県伊那市長谷溝口423",
    "lat": 35.795685,
    "lng": 138.0858121,
    "tel": "265967432",
    "url": "",
    "pref": "長野県",
    "city": "伊那市",
    "category": "community_day_service",
    "serviceType": "地域密着型通所介護",
    "capacity": null,
    "openDays": [
      "平日",
      "土曜日",
      "祝日"
    ],
    "openDaysNote": ""
  },
  {
    "id": "2070900192",
    "name": "宅幼老所　おらほ",
    "kana": "タクヨウロウショ　オラホ",
    "address": "長野県伊那市東春近960番地",
    "lat": 35.8131701888358,
    "lng": 137.957277866226,
    "tel": "0265-76-0031",
    "url": "https://www.day-oraho.info/",
    "pref": "長野県",
    "city": "伊那市",
    "category": "community_day_service",
    "serviceType": "地域密着型通所介護",
    "capacity": 18,
    "openDays": [
      "平日",
      "祝日"
    ],
    "openDaysNote": ""
  },
  {
    "id": "2072400852",
    "name": "宅幼老所ＳＡＬＡ",
    "kana": "タクヨウロウショサラ",
    "address": "長野県伊那市高遠町下山田727",
    "lat": 35.8264886,
    "lng": 138.0391869,
    "tel": "0265-94-1130",
    "url": "https://www.npo-sala.com/",
    "pref": "長野県",
    "city": "伊那市",
    "category": "community_day_service",
    "serviceType": "地域密着型通所介護",
    "capacity": 10,
    "openDays": [
      "平日",
      "土曜日",
      "祝日"
    ],
    "openDaysNote": "年末年始　12月29日～1月3日（改行）お盆休み　8月13日～8月15日　　お休み"
  },
  {
    "id": "2070900648",
    "name": "宅幼老所きらきら福地",
    "kana": "タクヨウロウショキラキラフクチ",
    "address": "長野県伊那市富県7658番地1宅幼老所きらきら福地 宅幼老所きらきら福地",
    "lat": 35.8065484,
    "lng": 137.9933133,
    "tel": "０２６５－７３－５７０７",
    "url": "https://www.kirakiraf.com/",
    "pref": "長野県",
    "city": "伊那市",
    "category": "community_day_service",
    "serviceType": "地域密着型通所介護",
    "capacity": 18,
    "openDays": [
      "平日",
      "土曜日",
      "祝日"
    ],
    "openDaysNote": ""
  },
  {
    "id": "2070900531",
    "name": "宅幼老所たんぽぽみすず",
    "kana": "タクヨウロウジョタンポポミスズ",
    "address": "長野県伊那市美篶9201-3",
    "lat": 35.8351631,
    "lng": 137.9933938,
    "tel": "0265-96-0298",
    "url": "http://tanpopo-iina.com/",
    "pref": "長野県",
    "city": "伊那市",
    "category": "community_day_service",
    "serviceType": "地域密着型通所介護",
    "capacity": null,
    "openDays": [
      "平日",
      "土曜日",
      "祝日"
    ],
    "openDaysNote": ""
  },
  {
    "id": "2070900564",
    "name": "宅幼老所やよい",
    "kana": "タクヨウロウショヤヨイ",
    "address": "長野県伊那市西町５７４１番地１２",
    "lat": 35.8388323,
    "lng": 137.9496774,
    "tel": "0265-77-0810",
    "url": "",
    "pref": "長野県",
    "city": "伊那市",
    "category": "community_day_service",
    "serviceType": "地域密着型通所介護",
    "capacity": null,
    "openDays": [
      "平日",
      "土曜日",
      "祝日"
    ],
    "openDaysNote": "時間外については、応相談"
  },
  {
    "id": "2070900440",
    "name": "宅老所たんぽぽ",
    "kana": "タクロウショタンポポ",
    "address": "長野県伊那市東春近7734-2",
    "lat": 35.8142914,
    "lng": 137.9742287,
    "tel": "265717328",
    "url": "tanpopo-iina.com",
    "pref": "長野県",
    "city": "伊那市",
    "category": "community_day_service",
    "serviceType": "地域密着型通所介護",
    "capacity": 0,
    "openDays": [
      "平日"
    ],
    "openDaysNote": ""
  },
  {
    "id": "2090900180",
    "name": "宅老所花うた",
    "kana": "タクロウジョハナウタ",
    "address": "長野県伊那市西春近3308-3",
    "lat": 35.8159065,
    "lng": 137.9240693,
    "tel": "0265-96-7678",
    "url": "http://gururi-hanauta.com/",
    "pref": "長野県",
    "city": "伊那市",
    "category": "community_day_service",
    "serviceType": "地域密着型通所介護",
    "capacity": 3,
    "openDays": [
      "平日",
      "土曜日",
      "祝日"
    ],
    "openDaysNote": "現在、日曜日の利用は見合わせ中。"
  },
  {
    "id": "2090900198",
    "name": "長谷デイサービスセンターやすらぎ",
    "kana": "ハセデイサービスセンターヤスラギ",
    "address": "長野県伊那市長谷非持５４３－３",
    "lat": 35.8086918,
    "lng": 138.0816813,
    "tel": "0265-98-2969",
    "url": "https://ina-shakyo.jp/",
    "pref": "長野県",
    "city": "伊那市",
    "category": "community_day_service",
    "serviceType": "地域密着型通所介護",
    "capacity": 0,
    "openDays": [
      "平日",
      "祝日"
    ],
    "openDaysNote": "特になし"
  },
  {
    "id": "2093500029",
    "name": "栄村高齢者生きがいセンター",
    "kana": "サカエムラコウレイシャイキガイセンター",
    "address": "長野県下水内郡栄村堺18174-1",
    "lat": 36.8629345,
    "lng": 138.6355992,
    "tel": "025-761-5008",
    "url": "",
    "pref": "長野県",
    "city": "栄村",
    "category": "community_day_service",
    "serviceType": "地域密着型通所介護",
    "capacity": null,
    "openDays": [
      "平日"
    ],
    "openDaysNote": "週2回の営業（火曜日・金曜日）"
  },
  {
    "id": "2091500203",
    "name": "カイフクデイサービスなるかみ",
    "kana": "カイフクデイサービスナルカミ",
    "address": "長野県塩尻市大字宗賀1641-2",
    "lat": 36.0995558,
    "lng": 137.9356742,
    "tel": "0263-87-2590",
    "url": "https://kaifuku-day.com/",
    "pref": "長野県",
    "city": "塩尻市",
    "category": "community_day_service",
    "serviceType": "地域密着型通所介護",
    "capacity": null,
    "openDays": [
      "平日",
      "祝日"
    ],
    "openDaysNote": "特になし"
  },
  {
    "id": "2091500153",
    "name": "カイフクデイサービス塩尻",
    "kana": "カイフクデイサービス　シオジリ",
    "address": "長野県塩尻市大門幸町5-201階",
    "lat": 36.1177815,
    "lng": 137.9569876,
    "tel": "0263-87-3639",
    "url": "https://kaifuku-day.com/",
    "pref": "長野県",
    "city": "塩尻市",
    "category": "community_day_service",
    "serviceType": "地域密着型通所介護",
    "capacity": 0,
    "openDays": [
      "平日",
      "祝日"
    ],
    "openDaysNote": "特になし"
  },
  {
    "id": "2071500447",
    "name": "さくら苑",
    "kana": "サクラエン",
    "address": "長野県塩尻市広丘高出1892-2",
    "lat": 36.1326066,
    "lng": 137.9634748,
    "tel": "0263-51-0640",
    "url": "",
    "pref": "長野県",
    "city": "塩尻市",
    "category": "community_day_service",
    "serviceType": "地域密着型通所介護",
    "capacity": 10,
    "openDays": [
      "平日",
      "土曜日",
      "祝日"
    ],
    "openDaysNote": ""
  },
  {
    "id": "2071500223",
    "name": "デイサービスセンター百寿荘",
    "kana": "デイサービスセンターヒャクジュソウ",
    "address": "長野県塩尻市大字片丘６７７８ー３",
    "lat": 36.1521467,
    "lng": 137.9983571,
    "tel": "0263-87-1516",
    "url": "http；//www.enrei.or.jp/",
    "pref": "長野県",
    "city": "塩尻市",
    "category": "community_day_service",
    "serviceType": "地域密着型通所介護",
    "capacity": 0,
    "openDays": [
      "平日",
      "土曜日",
      "祝日"
    ],
    "openDaysNote": ""
  },
  {
    "id": "2071500769",
    "name": "マンボほほえみ",
    "kana": "マンボホホエミ",
    "address": "塩尻市広丘吉田６２２－３",
    "lat": 36.1650718,
    "lng": 137.9519358,
    "tel": "0263-57-8821",
    "url": "",
    "pref": "長野県",
    "city": "塩尻市",
    "category": "community_day_service",
    "serviceType": "地域密着型通所介護",
    "capacity": 15,
    "openDays": [
      "平日"
    ],
    "openDaysNote": ""
  },
  {
    "id": "2071500900",
    "name": "リハビリデイサービスぽっかぽか塩尻",
    "kana": "リハビリデイサービスポッカポカシオジリ",
    "address": "長野県塩尻市大門七番町8－12",
    "lat": 36.1158639,
    "lng": 137.9525407,
    "tel": "0263－31－3271",
    "url": "http://www.reha-pokkapoka.com/index.html",
    "pref": "長野県",
    "city": "塩尻市",
    "category": "community_day_service",
    "serviceType": "地域密着型通所介護",
    "capacity": 0,
    "openDays": [
      "平日",
      "祝日"
    ],
    "openDaysNote": ""
  },
  {
    "id": "2072600402",
    "name": "王滝村デイサービスセンター",
    "kana": "オウタキムラデイサービスセンター",
    "address": "長野県木曽郡王滝村２８３０",
    "lat": 35.8093945,
    "lng": 137.5509691,
    "tel": "0264-48-2008",
    "url": "",
    "pref": "長野県",
    "city": "王滝村",
    "category": "community_day_service",
    "serviceType": "地域密着型通所介護",
    "capacity": null,
    "openDays": [
      "平日",
      "祝日"
    ],
    "openDaysNote": ""
  },
  {
    "id": "2070400607",
    "name": "デイサービスセンター　なごやか岡谷",
    "kana": "デイサービスセンター　ナゴヤカオカヤ",
    "address": "長野県岡谷市神明町1丁目4番10号",
    "lat": 36.0744877598366,
    "lng": 138.044175449561,
    "tel": "0266-75-5780",
    "url": "https://kanaya-group.jp",
    "pref": "長野県",
    "city": "岡谷市",
    "category": "community_day_service",
    "serviceType": "地域密着型通所介護",
    "capacity": 0,
    "openDays": [
      "平日",
      "土曜日",
      "祝日"
    ],
    "openDaysNote": ""
  },
  {
    "id": "2090400223",
    "name": "デイサービスセンター由楽里ハウス",
    "kana": "デイサービスセンターユラリハウス",
    "address": "長野県岡谷市御倉町2-21由楽里ハウス 由楽里ハウス",
    "lat": 36.0568476,
    "lng": 138.0417798,
    "tel": "266555516",
    "url": "",
    "pref": "長野県",
    "city": "岡谷市",
    "category": "community_day_service",
    "serviceType": "地域密着型通所介護",
    "capacity": 18,
    "openDays": [
      "平日",
      "土曜日",
      "日曜日",
      "祝日"
    ],
    "openDaysNote": ""
  },
  {
    "id": "2070400599",
    "name": "パセオおかや",
    "kana": "パセオオカヤ",
    "address": "長野県岡谷市赤羽３丁目２番１５号",
    "lat": 36.0792517,
    "lng": 138.0513055,
    "tel": "0266-22-4155",
    "url": "",
    "pref": "長野県",
    "city": "岡谷市",
    "category": "community_day_service",
    "serviceType": "地域密着型通所介護",
    "capacity": 0,
    "openDays": [
      "平日",
      "土曜日",
      "祝日"
    ],
    "openDaysNote": ""
  },
  {
    "id": "2090400199",
    "name": "ひかりサロンwagaya",
    "kana": "ヒカリサロンワガヤ",
    "address": "長野県岡谷市中央町1-11-1イルフプラザ2F イルフプラザ2F",
    "lat": 36.0598,
    "lng": 138.048,
    "tel": "0266-24-0837",
    "url": "https://wagaya.co.jp/",
    "pref": "長野県",
    "city": "岡谷市",
    "category": "community_day_service",
    "serviceType": "地域密着型通所介護",
    "capacity": 0,
    "openDays": [
      "平日"
    ],
    "openDaysNote": "休み　8月13日～15日（改行）休み　12月31日～1月3日（改行）第2火曜日"
  },
  {
    "id": "2070400680",
    "name": "ホープ　岡谷",
    "kana": "ホープ　オカヤ",
    "address": "長野県岡谷市山下町二丁目13-10特定非営利活動法人　ホープ 特定非営利活動法人　ホープ",
    "lat": 36.0682528,
    "lng": 138.0434121,
    "tel": "0266-78-7979",
    "url": "http://www.hope-okaya.com",
    "pref": "長野県",
    "city": "岡谷市",
    "category": "community_day_service",
    "serviceType": "地域密着型通所介護",
    "capacity": 15,
    "openDays": [
      "平日",
      "土曜日",
      "祝日"
    ],
    "openDaysNote": ""
  },
  {
    "id": "2070400573",
    "name": "ほがら家　南宮",
    "kana": "ホガラカ　ナングウ",
    "address": "岡谷市南宮１－５－１６",
    "lat": 36.0666453,
    "lng": 138.0641269,
    "tel": "0266-21-1230",
    "url": "",
    "pref": "長野県",
    "city": "岡谷市",
    "category": "community_day_service",
    "serviceType": "地域密着型通所介護",
    "capacity": 0,
    "openDays": [
      "平日",
      "土曜日",
      "祝日"
    ],
    "openDaysNote": ""
  },
  {
    "id": "2090400264",
    "name": "リハビリスタジオなないろ",
    "kana": "リハビリスタジオナナイロ",
    "address": "長野県岡谷市長地小萩2-8-28",
    "lat": 36.0846717,
    "lng": 138.0594896,
    "tel": "0266-63-1021",
    "url": "",
    "pref": "長野県",
    "city": "岡谷市",
    "category": "community_day_service",
    "serviceType": "地域密着型通所介護",
    "capacity": 0,
    "openDays": [
      "平日",
      "祝日"
    ],
    "openDaysNote": "夏季休暇　8/13～8/16（改行）（改行）年末年始休暇　12/30～1/3"
  },
  {
    "id": "2070400649",
    "name": "リハビリデイサービスwagaya岡谷店",
    "kana": "リハビリデイサービスワガヤオカヤテン",
    "address": "長野県岡谷市若宮1-7-35",
    "lat": 36.0625846,
    "lng": 138.0610912,
    "tel": "0266-75-5370",
    "url": "http://www.my-nagomi.com",
    "pref": "長野県",
    "city": "岡谷市",
    "category": "community_day_service",
    "serviceType": "地域密着型通所介護",
    "capacity": 0,
    "openDays": [
      "平日"
    ],
    "openDaysNote": "休み　8月15日（改行）休み　12月31日～1月3日"
  },
  {
    "id": "2070400540",
    "name": "リハビリデイサービスいずみ橋原",
    "kana": "リハビリデイサービスイズミハシバラ",
    "address": "長野県岡谷市川岸東2-7-25",
    "lat": 36.0468333,
    "lng": 138.0298778,
    "tel": "0266-24-1044",
    "url": "",
    "pref": "長野県",
    "city": "岡谷市",
    "category": "community_day_service",
    "serviceType": "地域密着型通所介護",
    "capacity": 10,
    "openDays": [
      "平日",
      "祝日"
    ],
    "openDaysNote": ""
  },
  {
    "id": "2070400292",
    "name": "在宅介護てまり",
    "kana": "ザイタクカイゴテマリ",
    "address": "長野県岡谷市神明町１－２－２",
    "lat": 36.071994,
    "lng": 138.0434953,
    "tel": "0266-23-8827",
    "url": "",
    "pref": "長野県",
    "city": "岡谷市",
    "category": "community_day_service",
    "serviceType": "地域密着型通所介護",
    "capacity": 30,
    "openDays": [
      "平日",
      "土曜日",
      "祝日"
    ],
    "openDaysNote": "携帯転送により、いつでも連絡可能です。"
  },
  {
    "id": "2090400116",
    "name": "私をデイに連れてって",
    "kana": "ワタシヲデイニツレテッテ",
    "address": "長野県岡谷市湊五丁目９番１号みなとスクエア みなとスクエア",
    "lat": 36.0316308730122,
    "lng": 138.074646601436,
    "tel": "０２６６－７８－８０８９",
    "url": "area-star.jp",
    "pref": "長野県",
    "city": "岡谷市",
    "category": "community_day_service",
    "serviceType": "地域密着型通所介護",
    "capacity": 10,
    "openDays": [
      "平日",
      "土曜日",
      "日曜日",
      "祝日"
    ],
    "openDaysNote": "年末年始(12月29日～1月3日)、お盆(8月13日～8月16日)（改行）サービス提供時間は9時15分～16時15分"
  },
  {
    "id": "2090400215",
    "name": "宅老所　たんぽぽの家　長地出早",
    "kana": "タクロウショ　タンポポノイエ　オサチイズハヤ",
    "address": "長野県岡谷市長地出早1-15-24",
    "lat": 36.0866117,
    "lng": 138.0536336,
    "tel": "0266-75-5865",
    "url": "",
    "pref": "長野県",
    "city": "岡谷市",
    "category": "community_day_service",
    "serviceType": "地域密着型通所介護",
    "capacity": 18,
    "openDays": [
      "平日",
      "土曜日",
      "祝日"
    ],
    "openDaysNote": ""
  },
  {
    "id": "2070400383",
    "name": "特定非営利活動法人めだかの学校",
    "kana": "トクテイヒエイリカツドウホウジンメダカノガッコウ",
    "address": "長野県岡谷市天竜町二丁目３番２０号",
    "lat": 36.055499,
    "lng": 138.0471177,
    "tel": "0266-22-7062",
    "url": "",
    "pref": "長野県",
    "city": "岡谷市",
    "category": "community_day_service",
    "serviceType": "地域密着型通所介護",
    "capacity": 0,
    "openDays": [
      "平日",
      "土曜日",
      "祝日"
    ],
    "openDaysNote": "定休日のご利用を希望される場合は応相談"
  },
  {
    "id": "2092300256",
    "name": "デイサービス　春うらら",
    "kana": "デイサービス　ハルウララ",
    "address": "長野県諏訪郡下諏訪町9125-1",
    "lat": 36.0695678,
    "lng": 138.0801295,
    "tel": "0266-78-7884",
    "url": "https://www.haru-urara.info",
    "pref": "長野県",
    "city": "下諏訪町",
    "category": "community_day_service",
    "serviceType": "地域密着型通所介護",
    "capacity": 0,
    "openDays": [
      "平日",
      "土曜日",
      "祝日"
    ],
    "openDaysNote": ""
  },
  {
    "id": "2072300581",
    "name": "デイサービスセンター「陽だまり横丁」",
    "kana": "デイサービスセンター「ヒダマリヨコチョウ」",
    "address": "長野県諏訪郡下諏訪町東山田６６７２番地15",
    "lat": 36.0820298,
    "lng": 138.079614,
    "tel": "0266-24-3734",
    "url": "",
    "pref": "長野県",
    "city": "下諏訪町",
    "category": "community_day_service",
    "serviceType": "地域密着型通所介護",
    "capacity": 0,
    "openDays": [
      "平日",
      "土曜日",
      "祝日"
    ],
    "openDaysNote": "祝日及び8/11から8/16、12/29から1/4は原則として休みだがサービスを行う場合あり"
  },
  {
    "id": "2072300227",
    "name": "デイサービスセンターグレイスフル下諏訪",
    "kana": "デイサービスセンターグレイスフルシモスワ",
    "address": "長野県諏訪郡下諏訪町高木9375番地１",
    "lat": 36.0672207,
    "lng": 138.1067947,
    "tel": "0266-26-7001",
    "url": "https://sun-vision.or.jp/facility/400/",
    "pref": "長野県",
    "city": "下諏訪町",
    "category": "community_day_service",
    "serviceType": "地域密着型通所介護",
    "capacity": 18,
    "openDays": [
      "平日",
      "土曜日",
      "日曜日",
      "祝日"
    ],
    "openDaysNote": ""
  },
  {
    "id": "2072300276",
    "name": "デイサービスセンタースマイル",
    "kana": "デイサービスセンタースマイル",
    "address": "長野県諏訪郡下諏訪町大門121-5",
    "lat": 36.0793991321312,
    "lng": 138.079655958722,
    "tel": "0266-27-0084",
    "url": "http://www.lcv.ne.jp/~ghtakao/smile/index_smile.htm",
    "pref": "長野県",
    "city": "下諏訪町",
    "category": "community_day_service",
    "serviceType": "地域密着型通所介護",
    "capacity": 0,
    "openDays": [
      "平日",
      "土曜日",
      "日曜日",
      "祝日"
    ],
    "openDaysNote": ""
  },
  {
    "id": "2072300540",
    "name": "ほがら家",
    "kana": "ホガラカ",
    "address": "長野県下諏訪町西赤砂4415",
    "lat": 36.0646931,
    "lng": 138.0753937,
    "tel": "0266-78-1581",
    "url": "",
    "pref": "長野県",
    "city": "下諏訪町",
    "category": "community_day_service",
    "serviceType": "地域密着型通所介護",
    "capacity": null,
    "openDays": [
      "平日",
      "土曜日",
      "祝日"
    ],
    "openDaysNote": ""
  },
  {
    "id": "2072300409",
    "name": "みんなの家紙風船",
    "kana": "ミンナノイエカミフウセン",
    "address": "長野県諏訪郡下諏訪町6175-3",
    "lat": 36.066136835609,
    "lng": 138.092298265421,
    "tel": "0266-28-7005",
    "url": "",
    "pref": "長野県",
    "city": "下諏訪町",
    "category": "community_day_service",
    "serviceType": "地域密着型通所介護",
    "capacity": 0,
    "openDays": [
      "平日",
      "祝日"
    ],
    "openDaysNote": ""
  },
  {
    "id": "2072501600",
    "name": "デイサービスセンター幸齢館",
    "kana": "デイサービスセンターコウレイカン",
    "address": "長野県下伊那郡下條村睦沢8817-1",
    "lat": 35.3967836,
    "lng": 137.7875823,
    "tel": "0260-27-2271",
    "url": "https://hikari-sono.com/aboutus/koreikan",
    "pref": "長野県",
    "city": "下條村",
    "category": "community_day_service",
    "serviceType": "地域密着型通所介護",
    "capacity": 0,
    "openDays": [
      "平日",
      "土曜日",
      "祝日"
    ],
    "openDaysNote": "12/30から1/2までを休館にする場合があります。"
  },
  {
    "id": "2072501386",
    "name": "光の園デイサービスセンター",
    "kana": "ヒカリノソノデイサービスセンター",
    "address": "長野県下伊那郡下條村睦沢7105番地",
    "lat": 35.3943078,
    "lng": 137.7544653,
    "tel": "0260-27-2219",
    "url": "https://hikari-sono.com",
    "pref": "長野県",
    "city": "下條村",
    "category": "community_day_service",
    "serviceType": "地域密着型通所介護",
    "capacity": 0,
    "openDays": [
      "平日",
      "祝日"
    ],
    "openDaysNote": "年末年始（12/30～1/2までを休館にする場合がある）"
  },
  {
    "id": "2071400481",
    "name": "デイサービスセンター白駒の森",
    "kana": "デイサービスセンターシラコマノモリ",
    "address": "長野県茅野市ちの3000-1",
    "lat": 35.9921235,
    "lng": 138.151455,
    "tel": "0266-82-7500",
    "url": "http://www.lcv.ne.jp/~komakusa/index.html",
    "pref": "長野県",
    "city": "茅野市",
    "category": "community_day_service",
    "serviceType": "地域密着型通所介護",
    "capacity": 10,
    "openDays": [
      "平日",
      "土曜日",
      "祝日"
    ],
    "openDaysNote": "希望により延長有り。"
  },
  {
    "id": "2071400853",
    "name": "デイサービスゆるり",
    "kana": "デイサービスユルリ",
    "address": "長野県茅野市ちの3502-1ベルビア西１階 ベルビア西１階",
    "lat": 35.9937170517066,
    "lng": 138.151546606538,
    "tel": "0266-78-3730",
    "url": "http://ds-yururi.com/",
    "pref": "長野県",
    "city": "茅野市",
    "category": "community_day_service",
    "serviceType": "地域密着型通所介護",
    "capacity": 20,
    "openDays": [
      "平日",
      "土曜日",
      "日曜日",
      "祝日"
    ],
    "openDaysNote": ""
  },
  {
    "id": "2091400123",
    "name": "デイサービス茶の間",
    "kana": "デイサービス　チャノマ",
    "address": "長野県茅野市米沢4133-2",
    "lat": 36.0311053472303,
    "lng": 138.184862964418,
    "tel": "0266-55-7967",
    "url": "",
    "pref": "長野県",
    "city": "茅野市",
    "category": "community_day_service",
    "serviceType": "地域密着型通所介護",
    "capacity": 1,
    "openDays": [
      "平日",
      "祝日"
    ],
    "openDaysNote": ""
  },
  {
    "id": "2091400164",
    "name": "パワーリハビリかいき茅野",
    "kana": "パワーリハビリカイキチノ",
    "address": "長野県茅野市玉川4617",
    "lat": 35.9904472366866,
    "lng": 138.171753621165,
    "tel": "0266-78-3501",
    "url": "https://kaiki.jp/",
    "pref": "長野県",
    "city": "茅野市",
    "category": "community_day_service",
    "serviceType": "地域密着型通所介護",
    "capacity": null,
    "openDays": [
      "平日",
      "祝日"
    ],
    "openDaysNote": "年末年始及びお盆の定休日は変更する可能性がある（改行）自然災害等によって、通常の営業時間または営業日を定休日または縮小する可能性がある"
  },
  {
    "id": "2071400846",
    "name": "ゆうもあ",
    "kana": "ユウモア",
    "address": "長野県茅野市塚原二丁目１番１号",
    "lat": 35.9944916402086,
    "lng": 138.155636788361,
    "tel": "0266-72-1010",
    "url": "http://www.care-concier.co.jp",
    "pref": "長野県",
    "city": "茅野市",
    "category": "community_day_service",
    "serviceType": "地域密着型通所介護",
    "capacity": null,
    "openDays": [
      "平日",
      "土曜日",
      "祝日"
    ],
    "openDaysNote": ""
  },
  {
    "id": "2091400099",
    "name": "宅幼老所しらかば",
    "kana": "タクヨウロウショシラカバ",
    "address": "長野県茅野市北山3419-10",
    "lat": 36.1037170111293,
    "lng": 138.239289653967,
    "tel": "0266-68-2085",
    "url": "",
    "pref": "長野県",
    "city": "茅野市",
    "category": "community_day_service",
    "serviceType": "地域密着型通所介護",
    "capacity": 0,
    "openDays": [
      "平日"
    ],
    "openDaysNote": ""
  },
  {
    "id": "2071400879",
    "name": "宅老所みみずく玉川",
    "kana": "タクロウショミミズクタマガワ",
    "address": "長野県茅野市玉川３２５５－１",
    "lat": 35.9919408749321,
    "lng": 138.189568152332,
    "tel": "０２６６-７８-３８７５",
    "url": "",
    "pref": "長野県",
    "city": "茅野市",
    "category": "community_day_service",
    "serviceType": "地域密着型通所介護",
    "capacity": 0,
    "openDays": [
      "平日",
      "土曜日"
    ],
    "openDaysNote": ""
  },
  {
    "id": "2091400149",
    "name": "和デイサービス",
    "kana": "ナゴミデイサービス",
    "address": "長野県茅野市城山5-15",
    "lat": 36.0036841,
    "lng": 138.1697524,
    "tel": "0266-55-2918",
    "url": "",
    "pref": "長野県",
    "city": "茅野市",
    "category": "community_day_service",
    "serviceType": "地域密着型通所介護",
    "capacity": null,
    "openDays": [
      "平日"
    ],
    "openDaysNote": ""
  },
  {
    "id": "2072501345",
    "name": "喬木村社協宅老所ふれ愛",
    "kana": "タカギムラシャキョウタクロウジョフレアイ",
    "address": "長野県下伊那郡喬木村６５１４番地４１",
    "lat": 35.5163322,
    "lng": 137.8711202,
    "tel": "0265-33-1130",
    "url": "takagi-shakyo.coｍ",
    "pref": "長野県",
    "city": "喬木村",
    "category": "community_day_service",
    "serviceType": "地域密着型通所介護",
    "capacity": 0,
    "openDays": [
      "平日",
      "土曜日",
      "祝日"
    ],
    "openDaysNote": ""
  },
  {
    "id": "2071000174",
    "name": "きどころ宅幼老所",
    "kana": "キドコロタクヨウロウショ",
    "address": "長野県駒ヶ根市北町31番地4号",
    "lat": 35.7442466666131,
    "lng": 137.939102538601,
    "tel": "0265-81-6173",
    "url": "",
    "pref": "長野県",
    "city": "駒ヶ根市",
    "category": "community_day_service",
    "serviceType": "地域密着型通所介護",
    "capacity": 0,
    "openDays": [
      "平日",
      "土曜日",
      "祝日"
    ],
    "openDaysNote": "12/31.1/1～3"
  },
  {
    "id": "2071000182",
    "name": "こまネット梨の木",
    "kana": "コマネットナシノキ",
    "address": "長野県駒ヶ根市梨の木5-34",
    "lat": 35.7329111,
    "lng": 137.9423507,
    "tel": "0265-83-6976",
    "url": "http://www001.upp.so-net.ne.jp",
    "pref": "長野県",
    "city": "駒ヶ根市",
    "category": "community_day_service",
    "serviceType": "地域密着型通所介護",
    "capacity": 18,
    "openDays": [
      "平日",
      "土曜日",
      "祝日"
    ],
    "openDaysNote": "日曜日は要相談"
  },
  {
    "id": "2071000257",
    "name": "サポートハウスぽぷり",
    "kana": "サポートハウスポプリ",
    "address": "長野県駒ヶ根市赤穂２４-５４",
    "lat": 35.7336959,
    "lng": 137.9023099,
    "tel": "0265-81-1651",
    "url": "http://www.lnag.jp/popuri.html",
    "pref": "長野県",
    "city": "駒ヶ根市",
    "category": "community_day_service",
    "serviceType": "地域密着型通所介護",
    "capacity": 18,
    "openDays": [
      "平日",
      "祝日"
    ],
    "openDaysNote": "時間外サービスは相談に応じます。"
  },
  {
    "id": "2091000089",
    "name": "サポートハウス悠々",
    "kana": "サポートハウスユウユウ",
    "address": "長野県駒ヶ根市飯坂1-17-12",
    "lat": 35.7389199,
    "lng": 137.9441824,
    "tel": "0265-96-0556",
    "url": "",
    "pref": "長野県",
    "city": "駒ヶ根市",
    "category": "community_day_service",
    "serviceType": "地域密着型通所介護",
    "capacity": 0,
    "openDays": [
      "平日"
    ],
    "openDaysNote": "営業曜日は月、水、金曜日"
  },
  {
    "id": "2091000097",
    "name": "伊南訪問看護ステーション",
    "kana": "イナンホウモンカンゴステーション",
    "address": "長野県駒ケ根市赤穂３２１３番地1",
    "lat": 35.7353971,
    "lng": 137.9195255,
    "tel": "0265－81－6620",
    "url": "https://inanfukushi.or.jp",
    "pref": "長野県",
    "city": "駒ヶ根市",
    "category": "community_day_service",
    "serviceType": "地域密着型通所介護",
    "capacity": null,
    "openDays": [
      "平日"
    ],
    "openDaysNote": ""
  },
  {
    "id": "2071000380",
    "name": "花の道デイサービスセンター",
    "kana": "ハナノミチデイサービスセンター",
    "address": "長野県駒ケ根市赤穂１６６２１番地５",
    "lat": 35.7063749,
    "lng": 137.9156207,
    "tel": "0265-81-8171",
    "url": "https://www.hanamichi-clinic.com/",
    "pref": "長野県",
    "city": "駒ヶ根市",
    "category": "community_day_service",
    "serviceType": "地域密着型通所介護",
    "capacity": 0,
    "openDays": [
      "平日",
      "祝日"
    ],
    "openDaysNote": "サービス利用中の医療機関への受診は、緊急時を除いて実施しない。緊急時は原則として家族に対応していただくが、キーパーソンが遠方にいるなどで急な対応が困難であれば事業所スタッフが対応する。また感染症罹患の可能性がある一人暮らし利用者の場合には、キーパーソンおよび担当介護支援専門員、主治医と連携を図り受診や往診など次へつながるまで連携を図る。必要であれば新型コロナウイルスの簡易抗原検査キットでの検査も実施。"
  },
  {
    "id": "2071000091",
    "name": "駒ヶ根市デイサービスセンター大原こだま園",
    "kana": "コマガネシデイサービスセンターオオハラコダマエン",
    "address": "長野県駒ヶ根市赤穂１４番地３６４駒ヶ根市デイサービスセンター大原こだま園 駒ヶ根市デイサービスセンター大原こだま園",
    "lat": 35.708836,
    "lng": 137.9272472,
    "tel": "0265-83-6986",
    "url": "http//www.kmshakyo.server-shared.com/",
    "pref": "長野県",
    "city": "駒ヶ根市",
    "category": "community_day_service",
    "serviceType": "地域密着型通所介護",
    "capacity": 0,
    "openDays": [
      "平日",
      "土曜日",
      "祝日"
    ],
    "openDaysNote": "特になし"
  },
  {
    "id": "2071000232",
    "name": "宅幼老所アルプスの郷いすず",
    "kana": "タクヨウロウジョアルプスノサトイスズ",
    "address": "長野県駒ヶ根市赤穂2789番地",
    "lat": 35.7370622,
    "lng": 137.9214191,
    "tel": "0265-83-0833",
    "url": "http://www.cek.ne.jp/~project2789/",
    "pref": "長野県",
    "city": "駒ヶ根市",
    "category": "community_day_service",
    "serviceType": "地域密着型通所介護",
    "capacity": 10,
    "openDays": [
      "平日",
      "土曜日",
      "祝日"
    ],
    "openDaysNote": "土曜日・祝日は営業"
  },
  {
    "id": "2071000216",
    "name": "宅幼老所こころ",
    "kana": "タクヨウロウショココロ",
    "address": "長野県駒ヶ根市中澤２４６４番地",
    "lat": 35.7255377,
    "lng": 137.9839594,
    "tel": "0265-81-1502",
    "url": "",
    "pref": "長野県",
    "city": "駒ヶ根市",
    "category": "community_day_service",
    "serviceType": "地域密着型通所介護",
    "capacity": 10,
    "openDays": [
      "平日",
      "土曜日",
      "祝日"
    ],
    "openDaysNote": "特になし"
  },
  {
    "id": "2071000372",
    "name": "宅老所こまネット東伊那",
    "kana": "タクロウジョコマネットヒガシイナ",
    "address": "長野県駒ヶ根市東伊那2395-1",
    "lat": 35.752146,
    "lng": 137.9784527,
    "tel": "0265-83-7131",
    "url": "http://www001.upp.so-net.ne.jp",
    "pref": "長野県",
    "city": "駒ヶ根市",
    "category": "community_day_service",
    "serviceType": "地域密着型通所介護",
    "capacity": 12,
    "openDays": [
      "平日",
      "土曜日",
      "祝日"
    ],
    "openDaysNote": "祝日も営業しています"
  },
  {
    "id": "2072100510",
    "name": "宅老所ふらりとみかさ",
    "kana": "タクロウショフラリトミカサ",
    "address": "長野県北佐久郡軽井沢町大字軽井沢１９９－５",
    "lat": 36.3583688405065,
    "lng": 138.633452299367,
    "tel": "0267-42-9631",
    "url": "http://www.karuizawa-seizanso.com",
    "pref": "長野県",
    "city": "軽井沢町",
    "category": "community_day_service",
    "serviceType": "地域密着型通所介護",
    "capacity": 0,
    "openDays": [
      "平日",
      "土曜日",
      "日曜日",
      "祝日"
    ],
    "openDaysNote": ""
  },
  {
    "id": "2073200277",
    "name": "リハライフ須高",
    "kana": "リハライフスコウ",
    "address": "大字高井４８９４－１",
    "lat": 36.6805259,
    "lng": 138.3691243,
    "tel": "026-248-9860",
    "url": "",
    "pref": "長野県",
    "city": "高山村",
    "category": "community_day_service",
    "serviceType": "地域密着型通所介護",
    "capacity": 0,
    "openDays": [
      "平日"
    ],
    "openDaysNote": ""
  },
  {
    "id": "2073200269",
    "name": "宅老所おひさま",
    "kana": "タクロウショオヒサマ",
    "address": "長野県上高井郡高山村大字高井4119",
    "lat": 36.6742627,
    "lng": 138.373613,
    "tel": "026-214-7278",
    "url": "",
    "pref": "長野県",
    "city": "高山村",
    "category": "community_day_service",
    "serviceType": "地域密着型通所介護",
    "capacity": 12,
    "openDays": [
      "平日",
      "祝日"
    ],
    "openDaysNote": "施設整備や研修等により臨時休業する場合があります。"
  },
  {
    "id": "2072501162",
    "name": "宅幼老所びすけっとさくら亭",
    "kana": "タクヨウロウショビスケットサクラテイ",
    "address": "長野県下伊那郡高森町下市田2235-6",
    "lat": 35.5507358,
    "lng": 137.8743959,
    "tel": "0265-35-9202",
    "url": "http://bisukettonpo.wixsite.com/home",
    "pref": "長野県",
    "city": "高森町",
    "category": "community_day_service",
    "serviceType": "地域密着型通所介護",
    "capacity": 13,
    "openDays": [
      "平日",
      "土曜日",
      "祝日"
    ],
    "openDaysNote": "12月29日・1月4日・5日が日曜日に限り営業する"
  },
  {
    "id": "2072501451",
    "name": "宅老所びすけっと　やまぶき亭",
    "kana": "タクロウショ　ビスケット　ヤマブキテイ",
    "address": "長野県下伊那郡高森町山吹3637-8",
    "lat": 35.5810291,
    "lng": 137.8895665,
    "tel": "0265-35-9200",
    "url": "yamabukitei@ap.wakwak.com",
    "pref": "長野県",
    "city": "高森町",
    "category": "community_day_service",
    "serviceType": "地域密着型通所介護",
    "capacity": 18,
    "openDays": [
      "平日",
      "土曜日",
      "日曜日",
      "祝日"
    ],
    "openDaysNote": "定休日12/30～翌年1/3"
  },
  {
    "id": "2092500160",
    "name": "宅老所ふらっと",
    "kana": "タクロウショフラット",
    "address": "長野県下伊那郡高森町大島山1129-1",
    "lat": 35.5594675191539,
    "lng": 137.863454708529,
    "tel": "265493475",
    "url": "",
    "pref": "長野県",
    "city": "高森町",
    "category": "community_day_service",
    "serviceType": "地域密着型通所介護",
    "capacity": 0,
    "openDays": [
      "平日",
      "土曜日",
      "祝日"
    ],
    "openDaysNote": ""
  },
  {
    "id": "2092500145",
    "name": "「なごみ」通所介護事業所",
    "kana": "ナゴミ　ツウショカイゴジギョウショ",
    "address": "長野県下伊那郡根羽村3015番地362",
    "lat": 35.2554936,
    "lng": 137.5820416,
    "tel": "0265-49-2022",
    "url": "http://iful-jikeikai.com",
    "pref": "長野県",
    "city": "根羽村",
    "category": "community_day_service",
    "serviceType": "地域密着型通所介護",
    "capacity": 15,
    "openDays": [
      "平日",
      "祝日"
    ],
    "openDaysNote": "12月29日～1月3日までを除く月曜日から金曜日までの営業"
  },
  {
    "id": "2072501295",
    "name": "有閑荘",
    "kana": "ユウカンソウ",
    "address": "長野県下伊那郡根羽村125番地",
    "lat": 35.2530774,
    "lng": 137.5812605,
    "tel": "0265-49-1050",
    "url": "",
    "pref": "長野県",
    "city": "根羽村",
    "category": "community_day_service",
    "serviceType": "地域密着型通所介護",
    "capacity": null,
    "openDays": [
      "平日"
    ],
    "openDaysNote": ""
  },
  {
    "id": "2071701383",
    "name": "デイサービスセンターあいわ中込原",
    "kana": "デイサービスセンターアイワナカゴミハラ",
    "address": "長野県佐久市中込２９５５番地デイサービスセンターあいわ中込原 デイサービスセンターあいわ中込原",
    "lat": 36.2502939,
    "lng": 138.4794872,
    "tel": "０２６７－７７－７８５５",
    "url": "http://aiwa-saku.jp/",
    "pref": "長野県",
    "city": "佐久市",
    "category": "community_day_service",
    "serviceType": "地域密着型通所介護",
    "capacity": 0,
    "openDays": [
      "平日",
      "土曜日",
      "祝日"
    ],
    "openDaysNote": "サービス提供時間は９：００～１６：３０"
  },
  {
    "id": "2071701417",
    "name": "ホームケアセンター慈温",
    "kana": "ホームケアセンタージオン",
    "address": "長野県佐久市協和295",
    "lat": 36.2626077946242,
    "lng": 138.345475609956,
    "tel": "0267-88-7417",
    "url": "http://www.ymmd-hcc.jp/location/慈温/",
    "pref": "長野県",
    "city": "佐久市",
    "category": "community_day_service",
    "serviceType": "地域密着型通所介護",
    "capacity": 16,
    "openDays": [
      "平日",
      "土曜日",
      "祝日"
    ],
    "openDaysNote": "特になし"
  },
  {
    "id": "2071701052",
    "name": "マリーゴールド宅幼老所",
    "kana": "マリーゴールドタクヨウロウショ",
    "address": "長野県佐久市印内１３３－１",
    "lat": 36.2912358,
    "lng": 138.3529296,
    "tel": "0267-53-9855",
    "url": "",
    "pref": "長野県",
    "city": "佐久市",
    "category": "community_day_service",
    "serviceType": "地域密着型通所介護",
    "capacity": 10,
    "openDays": [
      "平日",
      "土曜日",
      "祝日"
    ],
    "openDaysNote": ""
  },
  {
    "id": "2091700142",
    "name": "リハプライド佐久",
    "kana": "リハプライドサク",
    "address": "長野県佐久市中込3125番地",
    "lat": 36.2518986,
    "lng": 138.4766691,
    "tel": "0267-77-7654",
    "url": "https://www.rehapride.co.jp/saku/",
    "pref": "長野県",
    "city": "佐久市",
    "category": "community_day_service",
    "serviceType": "地域密着型通所介護",
    "capacity": 150,
    "openDays": [
      "平日"
    ],
    "openDaysNote": ""
  },
  {
    "id": "2071701045",
    "name": "猿久保デイサービスセンター",
    "kana": "サルクボデイサービスセンター",
    "address": "長野県佐久市猿久保４７０番地８",
    "lat": 36.2598311,
    "lng": 138.4747582,
    "tel": "0267-78-5312",
    "url": "",
    "pref": "長野県",
    "city": "佐久市",
    "category": "community_day_service",
    "serviceType": "地域密着型通所介護",
    "capacity": 18,
    "openDays": [
      "平日",
      "土曜日",
      "祝日"
    ],
    "openDaysNote": ""
  },
  {
    "id": "2071701367",
    "name": "寄り合い処　ふらっと聖",
    "kana": "ヨリアイドコロ　フラットヒジリ",
    "address": "長野県佐久市長土呂908‐１",
    "lat": 36.2908827962607,
    "lng": 138.469915240061,
    "tel": "0267-66-7867",
    "url": "http://blog.goo.ne.jp/fb-kaigo_hijiri",
    "pref": "長野県",
    "city": "佐久市",
    "category": "community_day_service",
    "serviceType": "地域密着型通所介護",
    "capacity": 0,
    "openDays": [
      "平日",
      "土曜日",
      "祝日"
    ],
    "openDaysNote": ""
  },
  {
    "id": "2072100403",
    "name": "寄合所文ちゃん家",
    "kana": "ヨリアイジョブンチャンチ",
    "address": "長野県佐久市布施４８９番地",
    "lat": 36.2622726,
    "lng": 138.3743265,
    "tel": "0267-51-1038",
    "url": "",
    "pref": "長野県",
    "city": "佐久市",
    "category": "community_day_service",
    "serviceType": "地域密着型通所介護",
    "capacity": 12,
    "openDays": [
      "平日",
      "土曜日",
      "祝日"
    ],
    "openDaysNote": "利用者の希望により、利用時間の延長、休日の利用も可能"
  },
  {
    "id": "2071701425",
    "name": "結の里　千曲　デイサービスセンター",
    "kana": "ユイノサト　チクマ　デイサービスセンター",
    "address": "長野県佐久市大字伴野2024-2",
    "lat": 36.2473397,
    "lng": 138.4260713,
    "tel": "0267-77-7308",
    "url": "",
    "pref": "長野県",
    "city": "佐久市",
    "category": "community_day_service",
    "serviceType": "地域密着型通所介護",
    "capacity": 0,
    "openDays": [
      "平日"
    ],
    "openDaysNote": ""
  },
  {
    "id": "2091700225",
    "name": "佐久市みついデイサービスセンター",
    "kana": "サクシミツイデイサービスセンター",
    "address": "長野県佐久市新子田８６６番地",
    "lat": 36.2578814,
    "lng": 138.5052784,
    "tel": "0267-66-6800",
    "url": "https://naganosaiseikai.jp",
    "pref": "長野県",
    "city": "佐久市",
    "category": "community_day_service",
    "serviceType": "地域密着型通所介護",
    "capacity": 0,
    "openDays": [
      "平日",
      "土曜日",
      "祝日"
    ],
    "openDaysNote": ""
  },
  {
    "id": "2091700209",
    "name": "宅幼老所いちわ",
    "kana": "タクヨウロウジョイチワ",
    "address": "長野県佐久市臼田２１７７－１",
    "lat": 36.1975772,
    "lng": 138.4791502,
    "tel": "0267-88-8102",
    "url": "",
    "pref": "長野県",
    "city": "佐久市",
    "category": "community_day_service",
    "serviceType": "地域密着型通所介護",
    "capacity": 0,
    "openDays": [
      "平日",
      "土曜日",
      "祝日"
    ],
    "openDaysNote": "１２月３１日～１月３日は休業"
  },
  {
    "id": "2071701318",
    "name": "宅老所　野菊",
    "kana": "タクロウショ　ノギク",
    "address": "長野県佐久市中込1133-14",
    "lat": 36.2446488,
    "lng": 138.460796,
    "tel": "0267-64-8042",
    "url": "",
    "pref": "長野県",
    "city": "佐久市",
    "category": "community_day_service",
    "serviceType": "地域密着型通所介護",
    "capacity": 0,
    "openDays": [
      "平日",
      "土曜日",
      "祝日"
    ],
    "openDaysNote": "ただし、緊急の場合は相談に応じます。"
  },
  {
    "id": "2071700419",
    "name": "宅老所およりなんし",
    "kana": "タクロウショオヨリナンシ",
    "address": "長野県佐久市野沢３２３-３１",
    "lat": 36.2264202,
    "lng": 138.4640129,
    "tel": "0267-63-9553",
    "url": "",
    "pref": "長野県",
    "city": "佐久市",
    "category": "community_day_service",
    "serviceType": "地域密着型通所介護",
    "capacity": 10,
    "openDays": [
      "平日",
      "土曜日",
      "祝日"
    ],
    "openDaysNote": "１２/３１～１/３（年末年始休暇）"
  },
  {
    "id": "2071700856",
    "name": "宅老所若草",
    "kana": "タクロウショワカクサ",
    "address": "長野県佐久市中込１１３３－１",
    "lat": 36.2447571,
    "lng": 138.4607516,
    "tel": "0267-62-3338",
    "url": "",
    "pref": "長野県",
    "city": "佐久市",
    "category": "community_day_service",
    "serviceType": "地域密着型通所介護",
    "capacity": 18,
    "openDays": [
      "平日",
      "土曜日",
      "祝日"
    ],
    "openDaysNote": "営業時間を含め緊急の場合は相談に応じます。"
  },
  {
    "id": "2072100494",
    "name": "宅老所和楽",
    "kana": "タクロウショワラク",
    "address": "長野県佐久市春日2700-1",
    "lat": 36.2224827,
    "lng": 138.3533323,
    "tel": "0267-53-3286",
    "url": "",
    "pref": "長野県",
    "city": "佐久市",
    "category": "community_day_service",
    "serviceType": "地域密着型通所介護",
    "capacity": 10,
    "openDays": [
      "平日",
      "土曜日",
      "祝日"
    ],
    "openDaysNote": "緊急時は自費にて利用可"
  },
  {
    "id": "2072000629",
    "name": "佐久穂町社会福祉協議会指定地域密着型通所介護事業所宅老所よりあい亭",
    "kana": "サクホマチシャカイフクシキョウギカイシテイツウショカイゴジギョウショタクロウショヨリアイテイ",
    "address": "長野県南佐久郡佐久穂町高野町1700-23",
    "lat": 36.1628059,
    "lng": 138.4765359,
    "tel": "0267-86-5911",
    "url": "https://www.sakuhotown-shakyo.or.jp",
    "pref": "長野県",
    "city": "佐久穂町",
    "category": "community_day_service",
    "serviceType": "地域密着型通所介護",
    "capacity": 11,
    "openDays": [
      "平日",
      "土曜日",
      "祝日"
    ],
    "openDaysNote": "特になし"
  },
  {
    "id": "2072000546",
    "name": "長野県厚生農業協同組合連合会佐久総合病院宅老所やちほの家",
    "kana": "サクソウゴウビョウインタクロウショヤチホノウチ",
    "address": "長野県南佐久郡佐久穂町大字畑９９６番地１やちほの家 やちほの家",
    "lat": 36.1635755,
    "lng": 138.4873822,
    "tel": "0267-88-2317",
    "url": "",
    "pref": "長野県",
    "city": "佐久穂町",
    "category": "community_day_service",
    "serviceType": "地域密着型通所介護",
    "capacity": 0,
    "openDays": [
      "平日",
      "土曜日",
      "祝日"
    ],
    "openDaysNote": "利用時間は利用者の要望に応じて、柔軟な対応を致します。"
  },
  {
    "id": "2073100113",
    "name": "さかき美山園デイサービスセンター",
    "kana": "サカキミヤマエンデイサービスセンター",
    "address": "長野県埴科郡坂城町大字南条2725ｰ2",
    "lat": 36.4372679,
    "lng": 138.2037165,
    "tel": "0268-82-8182",
    "url": "http://www.sakakifukushikai.or.jp",
    "pref": "長野県",
    "city": "坂城町",
    "category": "community_day_service",
    "serviceType": "地域密着型通所介護",
    "capacity": 0,
    "openDays": [
      "平日",
      "土曜日",
      "祝日"
    ],
    "openDaysNote": ""
  },
  {
    "id": "2093100069",
    "name": "運動型デイ　チェリーガーデン",
    "kana": "ウンドウガタデイ　チェリーガーデン",
    "address": "長野県埴科郡坂城町中之条872",
    "lat": 36.4493293,
    "lng": 138.1894405,
    "tel": "0268-75-7493",
    "url": "https://www.koujin-kai.or.jp/",
    "pref": "長野県",
    "city": "坂城町",
    "category": "community_day_service",
    "serviceType": "地域密着型通所介護",
    "capacity": 0,
    "openDays": [
      "平日",
      "土曜日",
      "祝日"
    ],
    "openDaysNote": ""
  },
  {
    "id": "2073300374",
    "name": "デイサービス　ぬくもり",
    "kana": "デイサービス　ヌクモリ",
    "address": "長野県下高井郡山ノ内町大字平穏欠端４３８７－１",
    "lat": 36.7494135,
    "lng": 138.4048829,
    "tel": "0269-31-3511",
    "url": "",
    "pref": "長野県",
    "city": "山ノ内町",
    "category": "community_day_service",
    "serviceType": "地域密着型通所介護",
    "capacity": 14,
    "openDays": [
      "平日",
      "土曜日",
      "祝日"
    ],
    "openDaysNote": ""
  },
  {
    "id": "2073300309",
    "name": "通所介護事業所たかやしろ",
    "kana": "ツウショカイゴジギョウショタカヤシロ",
    "address": "長野県下高井郡山ノ内町大字夜間瀬２４４９－２",
    "lat": 36.7620257,
    "lng": 138.3993302,
    "tel": "0269-33-1992",
    "url": "",
    "pref": "長野県",
    "city": "山ノ内町",
    "category": "community_day_service",
    "serviceType": "地域密着型通所介護",
    "capacity": 0,
    "openDays": [
      "平日",
      "祝日"
    ],
    "openDaysNote": ""
  },
  {
    "id": "2072000181",
    "name": "社会福祉法人小海町社会福祉協議会",
    "kana": "シャカイフクシホウジンコウミマチシャカイフクシキョウギカイ",
    "address": "長野県南佐久郡小海町豊里８０５番地",
    "lat": 36.0836964,
    "lng": 138.4802842,
    "tel": "0267-92-4107",
    "url": "",
    "pref": "長野県",
    "city": "小海町",
    "category": "community_day_service",
    "serviceType": "地域密着型通所介護",
    "capacity": null,
    "openDays": [
      "平日",
      "土曜日",
      "祝日"
    ],
    "openDaysNote": ""
  },
  {
    "id": "2072000637",
    "name": "小海町宅老所「なごみ」",
    "kana": "コウミマチタクロウショ「ナゴミ」",
    "address": "長野県南佐久郡小海町大字豊里８１３番地",
    "lat": 36.0835874422963,
    "lng": 138.480285901465,
    "tel": "0267-92-0753",
    "url": "https://koumi-syakyo.jp/",
    "pref": "長野県",
    "city": "小海町",
    "category": "community_day_service",
    "serviceType": "地域密着型通所介護",
    "capacity": 0,
    "openDays": [
      "平日",
      "土曜日",
      "祝日"
    ],
    "openDaysNote": ""
  },
  {
    "id": "2072000660",
    "name": "宅老所ねむの木",
    "kana": "タクロウショネムノキ",
    "address": "長野県南佐久郡小海町大字千代里3006番地5",
    "lat": 36.1176315022128,
    "lng": 138.472953937048,
    "tel": "0267-92-2620",
    "url": "",
    "pref": "長野県",
    "city": "小海町",
    "category": "community_day_service",
    "serviceType": "地域密着型通所介護",
    "capacity": 17,
    "openDays": [
      "平日",
      "土曜日",
      "祝日"
    ],
    "openDaysNote": "生活相談員等は、通所介護を実施中に利用者の病状に急変やその他緊急事態が生じた時は、速やかに主治医又は関係医療機関へ連絡する等の措置を講ずるとともに管理者に報告。管理者は必要に応じ利用者の在住する市町村の地域包括支援センターへ報告を行う。"
  },
  {
    "id": "2070800749",
    "name": "さんえいコモンズ小諸",
    "kana": "サンエイコモンズコモロ",
    "address": "長野県小諸市大字市字藤塚337-1",
    "lat": 36.3338194,
    "lng": 138.460811,
    "tel": "0267-31-6560",
    "url": "http://www.carehouse-sakudaira.com/",
    "pref": "長野県",
    "city": "小諸市",
    "category": "community_day_service",
    "serviceType": "地域密着型通所介護",
    "capacity": 10,
    "openDays": [
      "平日",
      "祝日"
    ],
    "openDaysNote": ""
  },
  {
    "id": "2070800566",
    "name": "デイサービス桜花",
    "kana": "デイサービスオウカ",
    "address": "長野県小諸市八満６８番１",
    "lat": 36.3215512,
    "lng": 138.454973,
    "tel": "0267-26-0807",
    "url": "http://www.fb-kaigo.co.jp/service/daycare.php",
    "pref": "長野県",
    "city": "小諸市",
    "category": "community_day_service",
    "serviceType": "地域密着型通所介護",
    "capacity": 18,
    "openDays": [
      "平日",
      "土曜日",
      "祝日"
    ],
    "openDaysNote": ""
  },
  {
    "id": "2070800715",
    "name": "寄り合い処　ふらっとこもろ",
    "kana": "ヨリアイドコロ　フラットコモロ",
    "address": "長野県小諸市御幸町１-10-6",
    "lat": 36.3169104834222,
    "lng": 138.434395783012,
    "tel": "0267-26-0233",
    "url": "http://www.fb-kaigo.co.jp",
    "pref": "長野県",
    "city": "小諸市",
    "category": "community_day_service",
    "serviceType": "地域密着型通所介護",
    "capacity": 18,
    "openDays": [
      "平日",
      "土曜日",
      "祝日"
    ],
    "openDaysNote": ""
  },
  {
    "id": "2070800574",
    "name": "宅幼老所　いずみ",
    "kana": "タクヨウロウショ　イズミ",
    "address": "長野県小諸市諸２４５-２宅幼老所いずみ 宅幼老所いずみ",
    "lat": 36.3410506,
    "lng": 138.4176137,
    "tel": "0267-25-6860",
    "url": "http://www.yanagibashi.or.jp/page18.html",
    "pref": "長野県",
    "city": "小諸市",
    "category": "community_day_service",
    "serviceType": "地域密着型通所介護",
    "capacity": 15,
    "openDays": [
      "平日",
      "祝日"
    ],
    "openDaysNote": "お盆、年末年始はお休みします。"
  },
  {
    "id": "2070800400",
    "name": "宅幼老所あんだんて",
    "kana": "タクヨウロウショアンダンテ",
    "address": "長野県小諸市相生町3-1-7",
    "lat": 36.3284662,
    "lng": 138.4254635,
    "tel": "0267-22-4079",
    "url": "",
    "pref": "長野県",
    "city": "小諸市",
    "category": "community_day_service",
    "serviceType": "地域密着型通所介護",
    "capacity": 0,
    "openDays": [
      "平日",
      "土曜日",
      "日曜日",
      "祝日"
    ],
    "openDaysNote": ""
  },
  {
    "id": "2070800426",
    "name": "宅幼老所野いちご",
    "kana": "タクヨウロウジョノイチゴ",
    "address": "小諸市大字御影新田字池ノ上2238-6",
    "lat": 36.3001495,
    "lng": 138.462739,
    "tel": "0267-25-1815",
    "url": "https://sites.google.com/view/noichigo-komoro/",
    "pref": "長野県",
    "city": "小諸市",
    "category": "community_day_service",
    "serviceType": "地域密着型通所介護",
    "capacity": 0,
    "openDays": [
      "平日",
      "土曜日",
      "祝日"
    ],
    "openDaysNote": "特になし"
  },
  {
    "id": "2070800137",
    "name": "通所介護事業所愛灯園",
    "kana": "ツウショカイゴジギョウショアイトウエン",
    "address": "長野県小諸市己字高峯143番地1",
    "lat": 36.3457105584405,
    "lng": 138.452752771858,
    "tel": "0267-24-0056",
    "url": "http://www.aitouen.org/",
    "pref": "長野県",
    "city": "小諸市",
    "category": "community_day_service",
    "serviceType": "地域密着型通所介護",
    "capacity": 15,
    "openDays": [
      "平日",
      "土曜日",
      "祝日"
    ],
    "openDaysNote": ""
  },
  {
    "id": "2073200335",
    "name": "宅幼老所　お福星",
    "kana": "タクヨウロウショ　オフセ",
    "address": "長野県上高井郡小布施町大字小布施627番地36",
    "lat": 36.6993225,
    "lng": 138.31927,
    "tel": "026-274-5115",
    "url": "https://kabushikigaisyai00.wixsite.com/ohuse",
    "pref": "長野県",
    "city": "小布施町",
    "category": "community_day_service",
    "serviceType": "地域密着型通所介護",
    "capacity": 0,
    "openDays": [
      "平日",
      "土曜日",
      "祝日"
    ],
    "openDaysNote": "施設整備、行事等により休館日を設ける場合があります。"
  },
  {
    "id": "2072900752",
    "name": "小規模デイサービス花こころ",
    "kana": "ショウキボデイサービスハナココロ",
    "address": "長野県北安曇郡松川村５９６０番地１６５",
    "lat": 40.7308291,
    "lng": -81.2976894,
    "tel": "０２６１－８５－０２０４",
    "url": "office-hana@peach.ocn.ne.jp",
    "pref": "長野県",
    "city": "松川村",
    "category": "community_day_service",
    "serviceType": "地域密着型通所介護",
    "capacity": 0,
    "openDays": [
      "平日",
      "土曜日",
      "日曜日",
      "祝日"
    ],
    "openDaysNote": ""
  },
  {
    "id": "2072900505",
    "name": "松川村社協デイサービスセンター",
    "kana": "マツカワムラシャキョウデイサービスセンター",
    "address": "長野県北安曇郡松川村５６５０－１９福祉プラザゆうあい館",
    "lat": 36.403264,
    "lng": 137.8665836,
    "tel": "0261-62-9000",
    "url": "http://www.matsukawa-shakyo.jp/",
    "pref": "長野県",
    "city": "松川村",
    "category": "community_day_service",
    "serviceType": "地域密着型通所介護",
    "capacity": 0,
    "openDays": [
      "平日",
      "祝日"
    ],
    "openDaysNote": ""
  },
  {
    "id": "2072900356",
    "name": "宅老所花・HANA",
    "kana": "タクロウショハナハナ",
    "address": "長野県北安曇郡松川村5960番地165",
    "lat": 36.3928060172531,
    "lng": 137.855740335221,
    "tel": "0261-85-7810",
    "url": "",
    "pref": "長野県",
    "city": "松川村",
    "category": "community_day_service",
    "serviceType": "地域密着型通所介護",
    "capacity": 15,
    "openDays": [
      "平日",
      "土曜日",
      "日曜日",
      "祝日"
    ],
    "openDaysNote": "ご家族・ご利用者の要望に応じ（時間延長・休日）に対応する"
  },
  {
    "id": "2072501519",
    "name": "デイサービスセンター福本",
    "kana": "デイサービスセンターフクモト",
    "address": "長野県下伊那郡松川町上片桐368",
    "lat": 35.6172831,
    "lng": 137.9048613,
    "tel": "0265-49-8607",
    "url": "",
    "pref": "長野県",
    "city": "松川町",
    "category": "community_day_service",
    "serviceType": "地域密着型通所介護",
    "capacity": null,
    "openDays": [
      "平日",
      "土曜日",
      "祝日"
    ],
    "openDaysNote": ""
  },
  {
    "id": "2070202755",
    "name": "KARADARAK（からだ・楽）",
    "kana": "カラダラク（カラダ・ラク）",
    "address": "長野県松本市城東1-4-6",
    "lat": 36.2384964581254,
    "lng": 137.974900209349,
    "tel": "0263-33-0073",
    "url": "http://www.karadarak.jp/",
    "pref": "長野県",
    "city": "松本市",
    "category": "community_day_service",
    "serviceType": "地域密着型通所介護",
    "capacity": null,
    "openDays": [
      "平日"
    ],
    "openDaysNote": ""
  },
  {
    "id": "2070201443",
    "name": "かがやきデイサービス晴の家",
    "kana": "カガヤキデイサービスハルノイエ",
    "address": "長野県松本市里山辺１４０１番地",
    "lat": 36.2418956134866,
    "lng": 137.993971598122,
    "tel": "0263-39-7336",
    "url": "http://www.nagano-koureikyo.jp/",
    "pref": "長野県",
    "city": "松本市",
    "category": "community_day_service",
    "serviceType": "地域密着型通所介護",
    "capacity": 10,
    "openDays": [
      "平日",
      "土曜日",
      "祝日"
    ],
    "openDaysNote": "年末年始休業は、12月31日から1月3日"
  },
  {
    "id": "2090200615",
    "name": "カモミールハウスばらの湯",
    "kana": "カモミールハウスバラノユ",
    "address": "長野県松本市蟻ケ崎2丁目2-18カモミールハウスばらの湯 カモミールハウスばらの湯",
    "lat": 36.2415006,
    "lng": 137.9660309,
    "tel": "0263-31-5141",
    "url": "https://camomile-house.com/",
    "pref": "長野県",
    "city": "松本市",
    "category": "community_day_service",
    "serviceType": "地域密着型通所介護",
    "capacity": 0,
    "openDays": [
      "平日",
      "土曜日",
      "祝日"
    ],
    "openDaysNote": "カモミールハウス北栗・カモミールハウス野溝は12/30まで営業しております。"
  },
  {
    "id": "2070202037",
    "name": "くわの実",
    "kana": "クワノミ",
    "address": "長野県松本市梓川梓498-3",
    "lat": 36.234174,
    "lng": 137.8732422,
    "tel": "0263-76-1860",
    "url": "http://www.kuwanomi.net",
    "pref": "長野県",
    "city": "松本市",
    "category": "community_day_service",
    "serviceType": "地域密着型通所介護",
    "capacity": 10,
    "openDays": [
      "平日",
      "祝日"
    ],
    "openDaysNote": "事業所が必要と認めた場合は上記時間の限りでない"
  },
  {
    "id": "2070202722",
    "name": "こころとからだの健康回復センター　デイサービス優ケア村井",
    "kana": "ココロトカラダノケンコウカイフクセンター　デイサービスユウケアムライ",
    "address": "長野県松本市村井町南4-2-7",
    "lat": 36.1742097,
    "lng": 137.9624745,
    "tel": "0263-88-6938",
    "url": "http://yu-care.fem.jp/",
    "pref": "長野県",
    "city": "松本市",
    "category": "community_day_service",
    "serviceType": "地域密着型通所介護",
    "capacity": 0,
    "openDays": [
      "平日",
      "土曜日"
    ],
    "openDaysNote": "お盆休み、年末年始休みあり"
  },
  {
    "id": "2090200375",
    "name": "デイサービス　きたえる～む松本寿",
    "kana": "デイサービス　キタエルームマツモトコトブキ",
    "address": "長野県松本市寿北6丁目27番17号",
    "lat": 36.1945466,
    "lng": 137.972372,
    "tel": "0263-55-6054",
    "url": "",
    "pref": "長野県",
    "city": "松本市",
    "category": "community_day_service",
    "serviceType": "地域密着型通所介護",
    "capacity": 0,
    "openDays": [
      "平日",
      "土曜日"
    ],
    "openDaysNote": ""
  },
  {
    "id": "2090200458",
    "name": "デイサービス　ハルニレの杜",
    "kana": "デイサービス　ハルニレノモリ",
    "address": "長野県松本市島立3541-4",
    "lat": 36.2212801,
    "lng": 137.9457289,
    "tel": "0263-88-1077",
    "url": "",
    "pref": "長野県",
    "city": "松本市",
    "category": "community_day_service",
    "serviceType": "地域密着型通所介護",
    "capacity": 0,
    "openDays": [
      "平日",
      "土曜日",
      "祝日"
    ],
    "openDaysNote": ""
  },
  {
    "id": "2070202995",
    "name": "デイサービスあがた",
    "kana": "デイサービスアガタ",
    "address": "長野県松本市県2-4-7三沢医院併設 三沢医院併設",
    "lat": 36.2336228,
    "lng": 137.985255,
    "tel": "0263-34-4710",
    "url": "http://www.drmisawa.com",
    "pref": "長野県",
    "city": "松本市",
    "category": "community_day_service",
    "serviceType": "地域密着型通所介護",
    "capacity": 60,
    "openDays": [
      "平日",
      "土曜日",
      "祝日"
    ],
    "openDaysNote": ""
  },
  {
    "id": "2070203696",
    "name": "デイサービスここたいむ",
    "kana": "デイサービスココタイム",
    "address": "長野県松本市小屋北1丁目16番35号",
    "lat": 36.1864786849921,
    "lng": 137.958615471828,
    "tel": "0263-87-5514",
    "url": "http://temari.naganoblog.jp/",
    "pref": "長野県",
    "city": "松本市",
    "category": "community_day_service",
    "serviceType": "地域密着型通所介護",
    "capacity": 0,
    "openDays": [
      "平日"
    ],
    "openDaysNote": "お盆（8月14日～8月16日）、年末年始（12月29日～1月3日）"
  },
  {
    "id": "2090200441",
    "name": "デイサービスしろにし",
    "kana": "デイサービスシロニシ",
    "address": "長野県松本市城西1-5-16城西病院 城西病院",
    "lat": 36.2394851,
    "lng": 137.9624723,
    "tel": "0263-33-3301",
    "url": "http://www.shironishi.or.jp/",
    "pref": "長野県",
    "city": "松本市",
    "category": "community_day_service",
    "serviceType": "地域密着型通所介護",
    "capacity": 18,
    "openDays": [
      "平日"
    ],
    "openDaysNote": "8月14日～16日、12月30日～1月3日は休業日"
  },
  {
    "id": "2070202698",
    "name": "デイサービスセンター　かえでの木",
    "kana": "デイサービスセンター　カエデノキ",
    "address": "長野県松本市笹部1-3-3-2",
    "lat": 36.2198702,
    "lng": 137.9504453,
    "tel": "0263-25-8940",
    "url": "http://www.c-hakuyou.co.jp/kaedenoki.html",
    "pref": "長野県",
    "city": "松本市",
    "category": "community_day_service",
    "serviceType": "地域密着型通所介護",
    "capacity": 0,
    "openDays": [
      "平日",
      "土曜日",
      "日曜日",
      "祝日"
    ],
    "openDaysNote": ""
  },
  {
    "id": "2070203381",
    "name": "デイサービスセンター　カモミールハウス北栗",
    "kana": "デイサービスセンター　カモミールハウス　キタクリ",
    "address": "長野県松本市大字島立３８０３番地１",
    "lat": 36.2163926,
    "lng": 137.9382545,
    "tel": "0263-88-3906",
    "url": "http://www.camomile-house.com/",
    "pref": "長野県",
    "city": "松本市",
    "category": "community_day_service",
    "serviceType": "地域密着型通所介護",
    "capacity": 0,
    "openDays": [
      "平日",
      "土曜日",
      "祝日"
    ],
    "openDaysNote": ""
  },
  {
    "id": "2090200334",
    "name": "デイサービスセンターカモミールハウス島立",
    "kana": "デイサービスセンターカモミールハウスシマダチ",
    "address": "長野県松本市大字島立3129",
    "lat": 36.2231416,
    "lng": 137.9372321,
    "tel": "0263-31-3690",
    "url": "www.camomile-house.com",
    "pref": "長野県",
    "city": "松本市",
    "category": "community_day_service",
    "serviceType": "地域密着型通所介護",
    "capacity": 0,
    "openDays": [
      "平日",
      "土曜日",
      "祝日"
    ],
    "openDaysNote": ""
  },
  {
    "id": "2090200540",
    "name": "デイサービスセンターカモミールハウス野溝",
    "kana": "デイサービスセンターカモミールハウスノミゾ",
    "address": "長野県松本市野溝木工２丁目２番４８号",
    "lat": 36.2052374,
    "lng": 137.9562467,
    "tel": "0263-87-1619",
    "url": "www.camomile-house.com",
    "pref": "長野県",
    "city": "松本市",
    "category": "community_day_service",
    "serviceType": "地域密着型通所介護",
    "capacity": 0,
    "openDays": [
      "平日",
      "土曜日",
      "祝日"
    ],
    "openDaysNote": ""
  },
  {
    "id": "2070201468",
    "name": "デイサービスセンターてんじん",
    "kana": "デイサービスセンターテンジン",
    "address": "長野県松本市深志３－６－１７安心ホームてんじん 安心ホームてんじん",
    "lat": 36.2291088,
    "lng": 137.9726511,
    "tel": "0263-39-8940",
    "url": "http://www.c-hakuyou.co.jp/daycare/index.htm",
    "pref": "長野県",
    "city": "松本市",
    "category": "community_day_service",
    "serviceType": "地域密着型通所介護",
    "capacity": 0,
    "openDays": [
      "平日",
      "土曜日",
      "日曜日",
      "祝日"
    ],
    "openDaysNote": "年末年始は短縮営業。"
  },
  {
    "id": "2070203613",
    "name": "デイサービスセンター明かり",
    "kana": "デイサービスセンターアカリ",
    "address": "長野県松本市野溝東1-14-3",
    "lat": 36.1980727,
    "lng": 137.9595919,
    "tel": "0263-87-0551",
    "url": "http://aki-kaigo.co.jp",
    "pref": "長野県",
    "city": "松本市",
    "category": "community_day_service",
    "serviceType": "地域密着型通所介護",
    "capacity": 0,
    "openDays": [
      "平日",
      "土曜日",
      "日曜日",
      "祝日"
    ],
    "openDaysNote": ""
  },
  {
    "id": "2070202870",
    "name": "ふくろうの家",
    "kana": "フクロウノイエ",
    "address": "長野県松本市横田4-27-19",
    "lat": 36.2481230361093,
    "lng": 137.988498596805,
    "tel": "0263-87-5452",
    "url": "http://www.fukurou-home.jp",
    "pref": "長野県",
    "city": "松本市",
    "category": "community_day_service",
    "serviceType": "地域密着型通所介護",
    "capacity": 108,
    "openDays": [
      "平日",
      "土曜日",
      "祝日"
    ],
    "openDaysNote": "利用者様の病状急変、その他緊急事態が生じたときは、緊急事態のマニュアルに従い行動を取る。"
  },
  {
    "id": "2070203605",
    "name": "ホームケアセンター城山",
    "kana": "ホームケアセンタージョウヤマ",
    "address": "長野県松本市宮渕３－８－２",
    "lat": 36.2432055,
    "lng": 137.9549319,
    "tel": "0263-87-6211",
    "url": "",
    "pref": "長野県",
    "city": "松本市",
    "category": "community_day_service",
    "serviceType": "地域密着型通所介護",
    "capacity": 1,
    "openDays": [
      "平日",
      "土曜日",
      "祝日"
    ],
    "openDaysNote": ""
  },
  {
    "id": "2090200474",
    "name": "リハビリデイサービス　うご工房",
    "kana": "リハビリデイサービス　ウゴコウボウ",
    "address": "長野県松本市南原2-6-16",
    "lat": 36.2104242,
    "lng": 137.944871,
    "tel": "0263-88-7863",
    "url": "https://ugoko.jp",
    "pref": "長野県",
    "city": "松本市",
    "category": "community_day_service",
    "serviceType": "地域密着型通所介護",
    "capacity": 10,
    "openDays": [
      "平日",
      "土曜日",
      "祝日"
    ],
    "openDaysNote": ""
  },
  {
    "id": "2070203365",
    "name": "リハビリデイサービスぽっかぽか島内",
    "kana": "リハビリデイサービスポッカポカシマウチ",
    "address": "長野県松本市島内4578-1コンチェルト１F コンチェルト１F",
    "lat": 36.2468886,
    "lng": 137.9457196,
    "tel": "0263-87-5082",
    "url": "http://www.reha-pokkapoka.com/",
    "pref": "長野県",
    "city": "松本市",
    "category": "community_day_service",
    "serviceType": "地域密着型通所介護",
    "capacity": 10,
    "openDays": [
      "平日",
      "祝日"
    ],
    "openDaysNote": "祝日は営業いたします。"
  },
  {
    "id": "2070203043",
    "name": "リハビリデイサービスぽっかぽか南浅間",
    "kana": "リハビリデイサービスポッカポカミナミアサマ",
    "address": "長野県松本市南浅間506－3",
    "lat": 36.254878,
    "lng": 137.9838099,
    "tel": "0263－87－2495",
    "url": "http://www.daishin-japan.jp",
    "pref": "長野県",
    "city": "松本市",
    "category": "community_day_service",
    "serviceType": "地域密着型通所介護",
    "capacity": 18,
    "openDays": [
      "平日",
      "祝日"
    ],
    "openDaysNote": "祝日は営業いたします。"
  },
  {
    "id": "2070203001",
    "name": "リハビリデイサービスぽっかぽか芳川",
    "kana": "リハビリデイサービスポッカポカヨシカワ",
    "address": "長野県松本市小屋南1-14-2",
    "lat": 36.1821532,
    "lng": 137.9574932,
    "tel": "0263-87-7378",
    "url": "http://www.reha-pokkapoka.com/",
    "pref": "長野県",
    "city": "松本市",
    "category": "community_day_service",
    "serviceType": "地域密着型通所介護",
    "capacity": 20,
    "openDays": [
      "平日",
      "祝日"
    ],
    "openDaysNote": "祝日は営業いたします。"
  },
  {
    "id": "2070203225",
    "name": "リハビリ専門デイサービス　常念望",
    "kana": "リハビリセンモンデイサービス　ジョウネンボウ",
    "address": "長野県松本市島立674-1",
    "lat": 36.23634,
    "lng": 137.952067,
    "tel": "0263-87-8252",
    "url": "",
    "pref": "長野県",
    "city": "松本市",
    "category": "community_day_service",
    "serviceType": "地域密着型通所介護",
    "capacity": 15,
    "openDays": [
      "平日",
      "祝日"
    ],
    "openDaysNote": ""
  },
  {
    "id": "2070202177",
    "name": "運動・体操デイサービス柏木",
    "kana": "ウンドウ・タイソウデイサービスカシワギ",
    "address": "長野県松本市小屋南一丁目43番7号",
    "lat": 36.1753558,
    "lng": 137.9534255,
    "tel": "0263－57-3206",
    "url": "paradigm-shift1031.com",
    "pref": "長野県",
    "city": "松本市",
    "category": "community_day_service",
    "serviceType": "地域密着型通所介護",
    "capacity": 10,
    "openDays": [
      "平日"
    ],
    "openDaysNote": "午前9:00～12:00"
  },
  {
    "id": "2070200932",
    "name": "御殿の湯",
    "kana": "ゴテンノユ",
    "address": "長野県松本市浅間温泉３－３１－２８",
    "lat": 36.2658379,
    "lng": 137.991942,
    "tel": "0263-46-6010",
    "url": "https://www.caretown.org",
    "pref": "長野県",
    "city": "松本市",
    "category": "community_day_service",
    "serviceType": "地域密着型通所介護",
    "capacity": 0,
    "openDays": [
      "平日",
      "土曜日"
    ],
    "openDaysNote": ""
  },
  {
    "id": "2090200524",
    "name": "口腔支援ステーション　虹テラス　和合の里",
    "kana": "コウクウシエンステーション　ニジテラス　ワゴウノサト",
    "address": "長野県松本市高宮南9-7",
    "lat": 36.2091451120482,
    "lng": 137.957151809822,
    "tel": "0263-31-6367",
    "url": "https://nijiwagou.livedoor.blog/",
    "pref": "長野県",
    "city": "松本市",
    "category": "community_day_service",
    "serviceType": "地域密着型通所介護",
    "capacity": 10,
    "openDays": [
      "平日",
      "祝日"
    ],
    "openDaysNote": "水曜日の午前中は保険外サービスを提供。"
  },
  {
    "id": "2070203589",
    "name": "幸の家　神林",
    "kana": "シアワセノイエ　カンバヤシ",
    "address": "長野県松本市大字神林　3830番地4",
    "lat": 36.1977063,
    "lng": 137.9362135,
    "tel": "0263-87-6027",
    "url": "",
    "pref": "長野県",
    "city": "松本市",
    "category": "community_day_service",
    "serviceType": "地域密着型通所介護",
    "capacity": 10,
    "openDays": [
      "平日",
      "土曜日",
      "日曜日",
      "祝日"
    ],
    "openDaysNote": ""
  },
  {
    "id": "2070203258",
    "name": "集まってみま専科　まゆ",
    "kana": "アツマッテミマセンカ　マユ",
    "address": "長野県松本市和田1104-2",
    "lat": 36.2099178,
    "lng": 137.9161367,
    "tel": "0263-31-3931",
    "url": "",
    "pref": "長野県",
    "city": "松本市",
    "category": "community_day_service",
    "serviceType": "地域密着型通所介護",
    "capacity": 9,
    "openDays": [
      "平日",
      "祝日"
    ],
    "openDaysNote": ""
  },
  {
    "id": "2070201112",
    "name": "小規模デイサービス　結いの家",
    "kana": "ショウキボデイサービス　ユイノウチ",
    "address": "長野県松本市笹部2丁目６番６０－５号",
    "lat": 36.21431,
    "lng": 137.9521482,
    "tel": "0263-24-2799",
    "url": "http://yuinomati.org/sasabe/index.html",
    "pref": "長野県",
    "city": "松本市",
    "category": "community_day_service",
    "serviceType": "地域密着型通所介護",
    "capacity": 10,
    "openDays": [
      "平日",
      "祝日"
    ],
    "openDaysNote": "事業所が必要と認めた場合は、上記営業時間・定休日の限りでない。"
  },
  {
    "id": "2090200573",
    "name": "松本市安曇デイサービスセンターいいら",
    "kana": "マツモトシアズミデイサービスセンターイイラ",
    "address": "長野県松本市安曇88番地1安曇福祉センター1階 安曇福祉センター1階",
    "lat": 36.1842331591019,
    "lng": 137.801193357008,
    "tel": "0263-94-1130",
    "url": "",
    "pref": "長野県",
    "city": "松本市",
    "category": "community_day_service",
    "serviceType": "地域密着型通所介護",
    "capacity": null,
    "openDays": [
      "平日",
      "土曜日",
      "祝日"
    ],
    "openDaysNote": "定休日・時間外は留守番電話にて対応している。"
  },
  {
    "id": "2090200565",
    "name": "松本市社会福祉協議会松本市奈川デイサービスセンター心和荘",
    "kana": "シャカイフクシホウジン　マツモトシナガワデイサービスセンターシンワソウ",
    "address": "長野県松本市奈川1575",
    "lat": 36.0582121,
    "lng": 137.6849586,
    "tel": "0263-79-2001",
    "url": "http://nagawa-zaitaku@syakyo-matsumoto.or.jp",
    "pref": "長野県",
    "city": "松本市",
    "category": "community_day_service",
    "serviceType": "地域密着型通所介護",
    "capacity": null,
    "openDays": [
      "平日"
    ],
    "openDaysNote": "年末年始の休業日については、当事業所へお尋ねください。"
  },
  {
    "id": "2090200607",
    "name": "松本神林デイサービス",
    "kana": "マツモトカンバヤシデイサービス",
    "address": "長野県松本市神林5096-1",
    "lat": 36.1802388,
    "lng": 137.9295706,
    "tel": "0263-87-7540",
    "url": "https//kanaya-group.jp",
    "pref": "長野県",
    "city": "松本市",
    "category": "community_day_service",
    "serviceType": "地域密着型通所介護",
    "capacity": 14,
    "openDays": [
      "平日",
      "土曜日",
      "祝日"
    ],
    "openDaysNote": "12/30～1/3は休業"
  },
  {
    "id": "2090200508",
    "name": "生活介護センターあおば",
    "kana": "セイカツカイゴセンターアオバ",
    "address": "長野県松本市小屋北1丁目16番35号",
    "lat": 36.1863007,
    "lng": 137.958335,
    "tel": "0263-50-7405",
    "url": "meditowntemari+aoba@gmail.com",
    "pref": "長野県",
    "city": "松本市",
    "category": "community_day_service",
    "serviceType": "地域密着型通所介護",
    "capacity": 5,
    "openDays": [
      "平日"
    ],
    "openDaysNote": "年末年始（12月29日～1月3日）、お盆（8月14日～16日）"
  },
  {
    "id": "2070203027",
    "name": "爽快デイサービス",
    "kana": "ソウカイデイサービス",
    "address": "長野県松本市中山３７１０番地",
    "lat": 36.1942725,
    "lng": 138.0021329,
    "tel": "０２６３-８６-１２９４",
    "url": "www.npoacross.or.jp",
    "pref": "長野県",
    "city": "松本市",
    "category": "community_day_service",
    "serviceType": "地域密着型通所介護",
    "capacity": 100,
    "openDays": [
      "平日",
      "祝日"
    ],
    "openDaysNote": "年末年始・ゴールデンウイーク・お盆休暇あり"
  },
  {
    "id": "2070202854",
    "name": "相澤デイサービス「結」本庄",
    "kana": "アイザワデイサービス「ユイ」ホンジョウ",
    "address": "長野県松本市本庄2丁目10番21号サービス付き高齢者向け住宅「結」本庄　１Ｆ サービス付き高齢者向け住宅「結」本庄　１Ｆ",
    "lat": 36.2277674,
    "lng": 137.9751342,
    "tel": "0263-38-1320",
    "url": "",
    "pref": "長野県",
    "city": "松本市",
    "category": "community_day_service",
    "serviceType": "地域密着型通所介護",
    "capacity": 0,
    "openDays": [
      "平日",
      "祝日"
    ],
    "openDaysNote": "年末年始等休みとなる場合は別途連絡する"
  },
  {
    "id": "2070202573",
    "name": "宅老所けやき",
    "kana": "タクロウジョケヤキ",
    "address": "長野県松本市大字神林３８３４番地２",
    "lat": 36.1973490497451,
    "lng": 137.936316472105,
    "tel": "0263-88-8935",
    "url": "",
    "pref": "長野県",
    "city": "松本市",
    "category": "community_day_service",
    "serviceType": "地域密着型通所介護",
    "capacity": 0,
    "openDays": [
      "平日",
      "土曜日",
      "祝日"
    ],
    "openDaysNote": ""
  },
  {
    "id": "2072700707",
    "name": "宅老所もみじの家",
    "kana": "タクロウショモミジノイエ",
    "address": "長野県松本市会田701",
    "lat": 36.3510814,
    "lng": 137.9976554,
    "tel": "0263-64-4665",
    "url": "",
    "pref": "長野県",
    "city": "松本市",
    "category": "community_day_service",
    "serviceType": "地域密着型通所介護",
    "capacity": 15,
    "openDays": [
      "平日",
      "土曜日",
      "祝日"
    ],
    "openDaysNote": "年末年始12月31日～1月3日は休業"
  },
  {
    "id": "2070201476",
    "name": "特定非営利活動法人峠茶屋",
    "kana": "トクテイヒエイリカツドウホウジントウゲチャヤ",
    "address": "長野県松本市刈谷原町531-1",
    "lat": 36.3173320155994,
    "lng": 137.991871330719,
    "tel": "0263-64-1141",
    "url": "http://www.touge.or.jp",
    "pref": "長野県",
    "city": "松本市",
    "category": "community_day_service",
    "serviceType": "地域密着型通所介護",
    "capacity": 18,
    "openDays": [
      "平日",
      "祝日"
    ],
    "openDaysNote": "なし"
  },
  {
    "id": "2090200581",
    "name": "半日リハビリデイ　　よはく",
    "kana": "ハンニチリハビリデイ　ヨハク",
    "address": "長野県松本市岡田下岡田キャピタルメゾンウメムラ１階",
    "lat": 36.2661125,
    "lng": 137.9770949,
    "tel": "0263-31-6902",
    "url": "http://yohaku-wo-tanoshiku.com/",
    "pref": "長野県",
    "city": "松本市",
    "category": "community_day_service",
    "serviceType": "地域密着型通所介護",
    "capacity": null,
    "openDays": [
      "平日"
    ],
    "openDaysNote": ""
  },
  {
    "id": "2090200409",
    "name": "療養通所介護あおいそら",
    "kana": "リョウヨウツウショカイゴアオイソラ",
    "address": "長野県松本市笹賀2975-1",
    "lat": 36.1717493,
    "lng": 137.9329419,
    "tel": "0263-57-5954",
    "url": "",
    "pref": "長野県",
    "city": "松本市",
    "category": "community_day_service",
    "serviceType": "地域密着型通所介護",
    "capacity": 0,
    "openDays": [
      "平日"
    ],
    "openDaysNote": ""
  },
  {
    "id": "2090300423",
    "name": "アースサポート上田",
    "kana": "アースサポートウエダ",
    "address": "長野県上田市常盤城5丁目1番26号",
    "lat": 36.4106939,
    "lng": 138.2420221,
    "tel": "0268－25－2911",
    "url": "http://www.earthsupport.co.jp",
    "pref": "長野県",
    "city": "上田市",
    "category": "community_day_service",
    "serviceType": "地域密着型通所介護",
    "capacity": 0,
    "openDays": [
      "平日",
      "土曜日",
      "祝日"
    ],
    "openDaysNote": "なし"
  },
  {
    "id": "2070301946",
    "name": "あさがお上田",
    "kana": "アサガオウエダ",
    "address": "長野県上田市下之条636-1",
    "lat": 36.4029308,
    "lng": 138.2195462,
    "tel": "0268-71-5788",
    "url": "",
    "pref": "長野県",
    "city": "上田市",
    "category": "community_day_service",
    "serviceType": "地域密着型通所介護",
    "capacity": 0,
    "openDays": [
      "平日",
      "土曜日",
      "祝日"
    ],
    "openDaysNote": "年末年始休業12/31～1/2"
  },
  {
    "id": "2070301284",
    "name": "あすか苑デイサービスセンター",
    "kana": "アスカエンデイサービスセンター",
    "address": "長野県上田市前山３９７番地８",
    "lat": 36.3460223,
    "lng": 138.1959684,
    "tel": "0268-39-2943",
    "url": "http://www.e-asukaen.com",
    "pref": "長野県",
    "city": "上田市",
    "category": "community_day_service",
    "serviceType": "地域密着型通所介護",
    "capacity": 15,
    "openDays": [
      "平日",
      "祝日"
    ],
    "openDaysNote": "上記定休日以外は、祝祭日も対応する。"
  },
  {
    "id": "2090300662",
    "name": "アトリエウララ",
    "kana": "アトリエウララ",
    "address": "長野県上田市神畑乙105番地1",
    "lat": 36.3772451,
    "lng": 138.2172451,
    "tel": "0268-75-7120",
    "url": "http://lifturara.sakura.ne.jp/index.html",
    "pref": "長野県",
    "city": "上田市",
    "category": "community_day_service",
    "serviceType": "地域密着型通所介護",
    "capacity": null,
    "openDays": [
      "平日",
      "祝日"
    ],
    "openDaysNote": ""
  },
  {
    "id": "2070301508",
    "name": "オーダーメイド　デイリハ　おひさま",
    "kana": "オーダーメイド　デイリハ　オヒサマ",
    "address": "長野県上田市住吉３１１－６",
    "lat": 36.4069387,
    "lng": 138.2787971,
    "tel": "0268-71-0507",
    "url": "http://www.archms.com/ohisama.html",
    "pref": "長野県",
    "city": "上田市",
    "category": "community_day_service",
    "serviceType": "地域密着型通所介護",
    "capacity": 2,
    "openDays": [
      "平日",
      "祝日"
    ],
    "openDaysNote": ""
  },
  {
    "id": "2070301680",
    "name": "コープながの福祉センター　宅老所こーぷの家国分",
    "kana": "コープナガノフクシセンタータクロウジョコープノイエコクブ",
    "address": "長野県上田市国分813-2",
    "lat": 36.3834857,
    "lng": 138.2699659,
    "tel": "0268-75-5471",
    "url": "http://nagano.coopnet.jp/",
    "pref": "長野県",
    "city": "上田市",
    "category": "community_day_service",
    "serviceType": "地域密着型通所介護",
    "capacity": 10,
    "openDays": [
      "平日",
      "土曜日",
      "祝日"
    ],
    "openDaysNote": ""
  },
  {
    "id": "2070301771",
    "name": "コープながの福祉センター　宅老所こーぷの家保野",
    "kana": "コープナガノ　フクシセンター　タクロウジョ　コープノイエ　ホヤ",
    "address": "長野県上田市保野398",
    "lat": 36.3834857,
    "lng": 138.2699659,
    "tel": "0268-39-2071",
    "url": "",
    "pref": "長野県",
    "city": "上田市",
    "category": "community_day_service",
    "serviceType": "地域密着型通所介護",
    "capacity": 10,
    "openDays": [
      "平日",
      "土曜日",
      "祝日"
    ],
    "openDaysNote": ""
  },
  {
    "id": "2070301615",
    "name": "たくろうじょおおら",
    "kana": "宅老所オオラ",
    "address": "長野県上田市古里167-2",
    "lat": 36.4017116,
    "lng": 138.2900325,
    "tel": "0268-75-8450",
    "url": "http://nakaobi.jp",
    "pref": "長野県",
    "city": "上田市",
    "category": "community_day_service",
    "serviceType": "地域密着型通所介護",
    "capacity": 0,
    "openDays": [
      "平日",
      "土曜日",
      "祝日"
    ],
    "openDaysNote": ""
  },
  {
    "id": "2090300464",
    "name": "デイサービスSora",
    "kana": "デイサービスソラ",
    "address": "長野県上田市中央二丁目12-12",
    "lat": 35.6800533,
    "lng": 139.7752721,
    "tel": "0268-75-7707",
    "url": "https://day-service-sora.com",
    "pref": "長野県",
    "city": "上田市",
    "category": "community_day_service",
    "serviceType": "地域密着型通所介護",
    "capacity": 0,
    "openDays": [
      "平日",
      "土曜日"
    ],
    "openDaysNote": "なし"
  },
  {
    "id": "2090300373",
    "name": "デイサービスセンターはるかぜ",
    "kana": "デイサービスセンターハルカゼ",
    "address": "長野県上田市小島227-1",
    "lat": 36.3722502032867,
    "lng": 138.207758296681,
    "tel": "0268-75-8625",
    "url": "",
    "pref": "長野県",
    "city": "上田市",
    "category": "community_day_service",
    "serviceType": "地域密着型通所介護",
    "capacity": 0,
    "openDays": [
      "平日",
      "土曜日",
      "祝日"
    ],
    "openDaysNote": ""
  },
  {
    "id": "2070301227",
    "name": "デイサービス古里",
    "kana": "デイサービスコサト",
    "address": "長野県上田市古里914番地6",
    "lat": 36.392246,
    "lng": 138.2832892,
    "tel": "0268-29-0717",
    "url": "http://www.fb-kaigo.co.jp/service/daycare.php",
    "pref": "長野県",
    "city": "上田市",
    "category": "community_day_service",
    "serviceType": "地域密着型通所介護",
    "capacity": 0,
    "openDays": [
      "平日",
      "土曜日",
      "日曜日",
      "祝日"
    ],
    "openDaysNote": ""
  },
  {
    "id": "2090300670",
    "name": "はつらつ俱楽部　しろがね",
    "kana": "ハツラツクラブ　シロガネ",
    "address": "長野県上田市仁古田357-1",
    "lat": 36.3790303,
    "lng": 138.1729251,
    "tel": "0268-31-1411",
    "url": "",
    "pref": "長野県",
    "city": "上田市",
    "category": "community_day_service",
    "serviceType": "地域密着型通所介護",
    "capacity": null,
    "openDays": [
      "平日"
    ],
    "openDaysNote": "祝日に関しては、職員体制が整った場合臨時営業する場合もあり"
  },
  {
    "id": "2070301359",
    "name": "ふれあいデイサービスうらら",
    "kana": "フレアイデイサービスウララ",
    "address": "長野県上田市神畑乙７５－３M－２２KANAZAWA M－２２KANAZAWA",
    "lat": 36.3771526,
    "lng": 138.2177124,
    "tel": "0268-71-0657",
    "url": "http://www.lifturara.com",
    "pref": "長野県",
    "city": "上田市",
    "category": "community_day_service",
    "serviceType": "地域密着型通所介護",
    "capacity": 18,
    "openDays": [
      "平日",
      "土曜日",
      "祝日"
    ],
    "openDaysNote": "１２／３１～１／２まではお休み"
  },
  {
    "id": "2070301599",
    "name": "ほほ笑みホーム福田",
    "kana": "ホホエミホーム　フクタ",
    "address": "長野県上田市福田50－3",
    "lat": 36.3874959,
    "lng": 138.2019074,
    "tel": "0268－71－5871",
    "url": "http://hohoemikaigo.com",
    "pref": "長野県",
    "city": "上田市",
    "category": "community_day_service",
    "serviceType": "地域密着型通所介護",
    "capacity": 0,
    "openDays": [
      "平日",
      "土曜日",
      "日曜日",
      "祝日"
    ],
    "openDaysNote": "特になし"
  },
  {
    "id": "2070301706",
    "name": "やまがデイサービス",
    "kana": "ヤマガデイサービス",
    "address": "長野県上田市大字古里135-1",
    "lat": 36.3992369,
    "lng": 138.2868051,
    "tel": "0268-75-5497",
    "url": "https://yamaga-day.wixsite.com/site",
    "pref": "長野県",
    "city": "上田市",
    "category": "community_day_service",
    "serviceType": "地域密着型通所介護",
    "capacity": 15,
    "openDays": [
      "平日",
      "祝日"
    ],
    "openDaysNote": "年末年始の１２月３０日（PM）～１月３日と夏期８月１３日～１５日は休日"
  },
  {
    "id": "2090300647",
    "name": "リハビリテーションらく",
    "kana": "リハビリテーションラク",
    "address": "長野県上田市常磐城4-13-17",
    "lat": 36.4123613,
    "lng": 138.2379562,
    "tel": "0268-71-6081",
    "url": "",
    "pref": "長野県",
    "city": "上田市",
    "category": "community_day_service",
    "serviceType": "地域密着型通所介護",
    "capacity": null,
    "openDays": [
      "平日"
    ],
    "openDaysNote": ""
  },
  {
    "id": "2090300548",
    "name": "リハビリテーション颯　うえだ",
    "kana": "リハビリテーションソウ　ウエダ",
    "address": "長野県上田市小島268-4",
    "lat": 36.3766131,
    "lng": 138.2088912,
    "tel": "0268-71-7261",
    "url": "",
    "pref": "長野県",
    "city": "上田市",
    "category": "community_day_service",
    "serviceType": "地域密着型通所介護",
    "capacity": 0,
    "openDays": [
      "平日"
    ],
    "openDaysNote": ""
  },
  {
    "id": "2070301870",
    "name": "リハビリ特化型デイサービス　わら福",
    "kana": "リハビリトッカガタデイサービス　ワラフク",
    "address": "長野県上田市常田3-2-25グランピアトーワ1B グランピアトーワ1B",
    "lat": 36.3969731,
    "lng": 138.2615492,
    "tel": "0268-28-5621",
    "url": "",
    "pref": "長野県",
    "city": "上田市",
    "category": "community_day_service",
    "serviceType": "地域密着型通所介護",
    "capacity": 0,
    "openDays": [
      "平日"
    ],
    "openDaysNote": ""
  },
  {
    "id": "2070301805",
    "name": "株式会社　アーチ・メディカルサポート",
    "kana": "カブシキガイシャアーチ・メディカルサポート",
    "address": "長野県上田市材木町2-14-63",
    "lat": 36.3936874657639,
    "lng": 138.269843886308,
    "tel": "0268-75-5981",
    "url": "naka@archms.com",
    "pref": "長野県",
    "city": "上田市",
    "category": "community_day_service",
    "serviceType": "地域密着型通所介護",
    "capacity": 0,
    "openDays": [
      "平日",
      "土曜日",
      "祝日"
    ],
    "openDaysNote": "年末年始（12月30日、1月1日、2日、3日は休業）"
  },
  {
    "id": "2070300963",
    "name": "株式会社　デルトラウム　健康道場さくら",
    "kana": "ケンコウドウジョウサクラ",
    "address": "長野県上田市材木町２丁目１２番１",
    "lat": 36.3943484,
    "lng": 138.2664739,
    "tel": "0268-21-0055",
    "url": "http://www.dertraum-care.net/",
    "pref": "長野県",
    "city": "上田市",
    "category": "community_day_service",
    "serviceType": "地域密着型通所介護",
    "capacity": 18,
    "openDays": [
      "平日",
      "土曜日",
      "祝日"
    ],
    "openDaysNote": "年末年始には臨時休暇あり（基本12/30～1/3）"
  },
  {
    "id": "2090300605",
    "name": "寄り合い処ふらっと腰越",
    "kana": "ヨリアイドコロフラットコシゴエ",
    "address": "長野県上田市腰越1527-1",
    "lat": 36.314183,
    "lng": 138.2640931,
    "tel": "0268-43-9271",
    "url": "http://www.fb-kaigo.co.jp/",
    "pref": "長野県",
    "city": "上田市",
    "category": "community_day_service",
    "serviceType": "地域密着型通所介護",
    "capacity": 0,
    "openDays": [
      "平日",
      "土曜日",
      "祝日"
    ],
    "openDaysNote": ""
  },
  {
    "id": "2070301219",
    "name": "元気倶楽部まゆ",
    "kana": "ゲンキクラブマユ",
    "address": "長野県上田市上塩尻　２４３－１",
    "lat": 36.4165208,
    "lng": 138.2163767,
    "tel": "0268-22-3248",
    "url": "https://www.toshin-iryou.com/",
    "pref": "長野県",
    "city": "上田市",
    "category": "community_day_service",
    "serviceType": "地域密着型通所介護",
    "capacity": 0,
    "openDays": [
      "平日",
      "祝日"
    ],
    "openDaysNote": "8月14日～16日・12月30日～1月3日は休業"
  },
  {
    "id": "2090300340",
    "name": "上田デイサービスセンター　とりい",
    "kana": "ウエダデイサービスセンター　トリイ",
    "address": "長野県上田市住吉鳥居町２４７－１",
    "lat": 36.406795,
    "lng": 138.2732043,
    "tel": "０２６８－２１－２０１１",
    "url": "uedatorii@yahoo.co.jp",
    "pref": "長野県",
    "city": "上田市",
    "category": "community_day_service",
    "serviceType": "地域密着型通所介護",
    "capacity": 18,
    "openDays": [
      "平日",
      "祝日"
    ],
    "openDaysNote": ""
  },
  {
    "id": "2090300530",
    "name": "諏訪形デイサービスセンター",
    "kana": "スワガタデイサービスセンター",
    "address": "長野県上田市諏訪形1694-4",
    "lat": 36.384399,
    "lng": 138.241571,
    "tel": "0268-75-9300",
    "url": "http://carehouse-sakudaira.com/",
    "pref": "長野県",
    "city": "上田市",
    "category": "community_day_service",
    "serviceType": "地域密着型通所介護",
    "capacity": 10,
    "openDays": [
      "平日",
      "土曜日",
      "祝日"
    ],
    "openDaysNote": ""
  },
  {
    "id": "2070300682",
    "name": "宅幼老所のどか",
    "kana": "タクヨウロウショノドカ",
    "address": "長野県上田市上田原６５６－２４",
    "lat": 36.3942411573382,
    "lng": 138.218615219743,
    "tel": "0268-29-2215",
    "url": "",
    "pref": "長野県",
    "city": "上田市",
    "category": "community_day_service",
    "serviceType": "地域密着型通所介護",
    "capacity": 15,
    "openDays": [
      "平日",
      "土曜日",
      "祝日"
    ],
    "openDaysNote": ""
  },
  {
    "id": "2070300518",
    "name": "宅老所あっといーず上田",
    "kana": "タクロウショアットイーズウエダ",
    "address": "長野県上田市常磐城６－１－２０",
    "lat": 36.4144601,
    "lng": 138.2397193,
    "tel": "０２６８－２９－００９６",
    "url": "www.at-ease-care.com",
    "pref": "長野県",
    "city": "上田市",
    "category": "community_day_service",
    "serviceType": "地域密着型通所介護",
    "capacity": 0,
    "openDays": [
      "平日",
      "土曜日",
      "日曜日",
      "祝日"
    ],
    "openDaysNote": "時間延長受け付けています。"
  },
  {
    "id": "2072200666",
    "name": "宅老所腰越庵",
    "kana": "タクロウジョコシゴエアン",
    "address": "長野県上田市腰越１５８７－５",
    "lat": 36.3163331,
    "lng": 138.2667661,
    "tel": "0268-43-8808",
    "url": "",
    "pref": "長野県",
    "city": "上田市",
    "category": "community_day_service",
    "serviceType": "地域密着型通所介護",
    "capacity": 10,
    "openDays": [
      "平日",
      "土曜日"
    ],
    "openDaysNote": "なし"
  },
  {
    "id": "2090300365",
    "name": "宅老所遊子舎",
    "kana": "タクロウジョユウシシャ",
    "address": "長野県上田市武石沖２５０",
    "lat": 36.2959798,
    "lng": 138.2520319,
    "tel": "0268-43-6130",
    "url": "https://lifecare-shinsuy.com/",
    "pref": "長野県",
    "city": "上田市",
    "category": "community_day_service",
    "serviceType": "地域密着型通所介護",
    "capacity": 11,
    "openDays": [
      "平日",
      "土曜日",
      "日曜日",
      "祝日"
    ],
    "openDaysNote": ""
  },
  {
    "id": "2073400646",
    "name": "宅幼老所ひなたぼっこの家",
    "kana": "タクヨウロウショヒナタボッコノイエ",
    "address": "長野県上水内郡信濃町大字大井４５２－１",
    "lat": 36.7737976,
    "lng": 138.1881769,
    "tel": "026-254-8111",
    "url": "https://www.hinatabokkonoie.com",
    "pref": "長野県",
    "city": "信濃町",
    "category": "community_day_service",
    "serviceType": "地域密着型通所介護",
    "capacity": 0,
    "openDays": [
      "平日"
    ],
    "openDaysNote": "上記定休日以外の祝日は営業しています。"
  },
  {
    "id": "2073400562",
    "name": "宅老所こころ",
    "kana": "タクロウショココロ",
    "address": "長野県上水内郡信濃町大字柏原６４－５",
    "lat": 36.805565350139,
    "lng": 138.204726803444,
    "tel": "026-255-5663",
    "url": "https://v-c-shinano.or.jp",
    "pref": "長野県",
    "city": "信濃町",
    "category": "community_day_service",
    "serviceType": "地域密着型通所介護",
    "capacity": 0,
    "openDays": [
      "平日",
      "土曜日",
      "日曜日",
      "祝日"
    ],
    "openDaysNote": "時間外緊急時留守番電話利用（改行）社協事務所連絡可能"
  },
  {
    "id": "2070600842",
    "name": "アストレ城南",
    "kana": "アストレジョウナン",
    "address": "長野県諏訪市高島一丁目１７－６",
    "lat": 36.0368892,
    "lng": 138.1115513,
    "tel": "0266-56-6060",
    "url": "http://suwacity-shakyo.com/asutore.html",
    "pref": "長野県",
    "city": "諏訪市",
    "category": "community_day_service",
    "serviceType": "地域密着型通所介護",
    "capacity": 0,
    "openDays": [
      "平日"
    ],
    "openDaysNote": ""
  },
  {
    "id": "2070600263",
    "name": "かりんの里デイサービスセンターあおぞら",
    "kana": "カリンノサトデイサービスセンターアオゾラ",
    "address": "長野県諏訪市四賀桑原８６１",
    "lat": 36.0222567,
    "lng": 138.1390889,
    "tel": "0266-54-2210",
    "url": "http://suwafukushi.com/005_tsuusho/005_ao_01_gaiyou.html",
    "pref": "長野県",
    "city": "諏訪市",
    "category": "community_day_service",
    "serviceType": "地域密着型通所介護",
    "capacity": 18,
    "openDays": [
      "平日",
      "土曜日",
      "祝日"
    ],
    "openDaysNote": ""
  },
  {
    "id": "2090600210",
    "name": "かりんの里デイサービスセンターうららか",
    "kana": "カリンノサトデイサービスセンターウララカ",
    "address": "長野県諏訪市中州下金子3838-4",
    "lat": 36.013453,
    "lng": 138.115516,
    "tel": "0266-54-3361",
    "url": "https://suwafukushi.com/",
    "pref": "長野県",
    "city": "諏訪市",
    "category": "community_day_service",
    "serviceType": "地域密着型通所介護",
    "capacity": null,
    "openDays": [
      "平日",
      "土曜日",
      "祝日"
    ],
    "openDaysNote": ""
  },
  {
    "id": "2070600255",
    "name": "かりんの里デイサービスセンターきずな",
    "kana": "カリンノサトデイサービスセンターキズナ",
    "address": "長野県諏訪市高島1-1-11",
    "lat": 36.0419152,
    "lng": 138.1105953,
    "tel": "0266-52-7111",
    "url": "http://suwafukushi.com/005_tsuusho/005_komo_01_gaiyou.html",
    "pref": "長野県",
    "city": "諏訪市",
    "category": "community_day_service",
    "serviceType": "地域密着型通所介護",
    "capacity": 0,
    "openDays": [
      "平日",
      "土曜日",
      "祝日"
    ],
    "openDaysNote": ""
  },
  {
    "id": "2090600160",
    "name": "デイサービス湖岸通り",
    "kana": "デイサービス　コガンドオリ",
    "address": "長野県諏訪市湖岸通り2-305-1",
    "lat": 36.0530397,
    "lng": 138.1140479,
    "tel": "0266-54-5100",
    "url": "https://kanaya-group.jp/",
    "pref": "長野県",
    "city": "諏訪市",
    "category": "community_day_service",
    "serviceType": "地域密着型通所介護",
    "capacity": 0,
    "openDays": [
      "平日",
      "土曜日",
      "祝日"
    ],
    "openDaysNote": ""
  },
  {
    "id": "2090600129",
    "name": "パセオとよだ",
    "kana": "パセオトヨダ",
    "address": "長野県諏訪市豊田３０４０－１",
    "lat": 36.0262952,
    "lng": 138.0819907,
    "tel": "0266-55-2507",
    "url": "",
    "pref": "長野県",
    "city": "諏訪市",
    "category": "community_day_service",
    "serviceType": "地域密着型通所介護",
    "capacity": 0,
    "openDays": [
      "平日",
      "土曜日",
      "祝日"
    ],
    "openDaysNote": ""
  },
  {
    "id": "2090600236",
    "name": "パワーリハビリかいき諏訪",
    "kana": "パワーリハビリカイキスワ",
    "address": "長野県諏訪市四賀122-1",
    "lat": 36.0288514,
    "lng": 138.1267612,
    "tel": "0266-78-3308",
    "url": "https://kaiki.jp/",
    "pref": "長野県",
    "city": "諏訪市",
    "category": "community_day_service",
    "serviceType": "地域密着型通所介護",
    "capacity": null,
    "openDays": [
      "平日",
      "祝日"
    ],
    "openDaysNote": "年末年始及びお盆の定休日は変更する可能性がある（改行）自然災害等によって、通常の営業時間または営業日を定休日または縮小する可能性がある"
  },
  {
    "id": "2070600412",
    "name": "リハビリデイサービスいずみ",
    "kana": "リハビリデイサービスイズミ",
    "address": "長野県諏訪市上川1-1544",
    "lat": 36.0353004,
    "lng": 138.1083073,
    "tel": "0266-52-1677",
    "url": "http://izumigrups.com",
    "pref": "長野県",
    "city": "諏訪市",
    "category": "community_day_service",
    "serviceType": "地域密着型通所介護",
    "capacity": 10,
    "openDays": [
      "平日",
      "祝日"
    ],
    "openDaysNote": ""
  },
  {
    "id": "2090600251",
    "name": "合同会社元気作りジムおれんじ",
    "kana": "ゴウドウガイシャゲンキヅクリオレンジ",
    "address": "長野県諏訪市豊田2009番地",
    "lat": 36.0216885851824,
    "lng": 138.096631839359,
    "tel": "0266-84-0976",
    "url": "https://www.orange-genkidukuri.com/",
    "pref": "長野県",
    "city": "諏訪市",
    "category": "community_day_service",
    "serviceType": "地域密着型通所介護",
    "capacity": 0,
    "openDays": [
      "平日",
      "土曜日"
    ],
    "openDaysNote": ""
  },
  {
    "id": "2070600248",
    "name": "宅幼老所あやとり",
    "kana": "タクヨウロウショアヤトリ",
    "address": "長野県諏訪市小和田９番6号",
    "lat": 36.0401222,
    "lng": 138.1185951,
    "tel": "0266-52-6229",
    "url": "",
    "pref": "長野県",
    "city": "諏訪市",
    "category": "community_day_service",
    "serviceType": "地域密着型通所介護",
    "capacity": 0,
    "openDays": [
      "平日",
      "土曜日",
      "祝日"
    ],
    "openDaysNote": "９月第１土曜日新作花火大会の中止により、臨時営業をしております。花火大会が復活すれば道路事情により定休とします。"
  },
  {
    "id": "2070600495",
    "name": "通所介護事業所こころ高島",
    "kana": "ツウショカイゴジギョウショココロタカシマ",
    "address": "長野県諏訪市高島三丁目1300番1号",
    "lat": 36.0395249,
    "lng": 138.1091098,
    "tel": "0266-54-5564",
    "url": "http://www.kokoro5560.or.jp",
    "pref": "長野県",
    "city": "諏訪市",
    "category": "community_day_service",
    "serviceType": "地域密着型通所介護",
    "capacity": 0,
    "openDays": [
      "平日",
      "土曜日",
      "日曜日",
      "祝日"
    ],
    "openDaysNote": ""
  },
  {
    "id": "2070700568",
    "name": "デイサービスセンター陽だまり",
    "kana": "デイサービスセンターヒダマリ",
    "address": "長野県須坂市大字小河原3339-1",
    "lat": 36.6797025165388,
    "lng": 138.317213046003,
    "tel": "026-248-3791",
    "url": "",
    "pref": "長野県",
    "city": "須坂市",
    "category": "community_day_service",
    "serviceType": "地域密着型通所介護",
    "capacity": 2,
    "openDays": [
      "平日",
      "土曜日",
      "祝日"
    ],
    "openDaysNote": ""
  },
  {
    "id": "2070700501",
    "name": "なずな豊丘",
    "kana": "ナズナトヨオカ",
    "address": "長野県須坂市大字豊丘町２７５５",
    "lat": 36.6370967,
    "lng": 138.3439164,
    "tel": "026-274-5747",
    "url": "nazuna727.jp",
    "pref": "長野県",
    "city": "須坂市",
    "category": "community_day_service",
    "serviceType": "地域密着型通所介護",
    "capacity": 2,
    "openDays": [
      "平日",
      "土曜日",
      "日曜日",
      "祝日"
    ],
    "openDaysNote": "基本的なご利用時間は9：00～16：30となります。朝8時30分～9時30分、夕16時30分～17時25分は送迎対応時間となります。施設整備、行事等で休館日を設ける場合があります。"
  },
  {
    "id": "2090700101",
    "name": "ハビリス",
    "kana": "ハビリス",
    "address": "長野県須坂市大字須坂164-1クラージュすざか105 クラージュすざか105",
    "lat": 36.6542865,
    "lng": 138.3134397,
    "tel": "080-7530-6661",
    "url": "",
    "pref": "長野県",
    "city": "須坂市",
    "category": "community_day_service",
    "serviceType": "地域密着型通所介護",
    "capacity": null,
    "openDays": [
      "平日"
    ],
    "openDaysNote": ""
  },
  {
    "id": "2070700535",
    "name": "宅老所　さかたの家",
    "kana": "タクロウショ　サカタノイエ",
    "address": "長野県須坂市大字坂田103",
    "lat": 36.6435515,
    "lng": 138.3228094,
    "tel": "026-246-2564",
    "url": "",
    "pref": "長野県",
    "city": "須坂市",
    "category": "community_day_service",
    "serviceType": "地域密着型通所介護",
    "capacity": 10,
    "openDays": [
      "平日",
      "土曜日",
      "祝日"
    ],
    "openDaysNote": "毎年12月31日～１月3日までは休みます"
  },
  {
    "id": "2070700428",
    "name": "宅老所たつまち",
    "kana": "タクロウショタツマチ",
    "address": "長野県須坂市大字須坂1525－3",
    "lat": 36.650878,
    "lng": 138.3080361,
    "tel": "026-246-0027",
    "url": "",
    "pref": "長野県",
    "city": "須坂市",
    "category": "community_day_service",
    "serviceType": "地域密着型通所介護",
    "capacity": 12,
    "openDays": [
      "平日",
      "祝日"
    ],
    "openDaysNote": ""
  },
  {
    "id": "2070700311",
    "name": "宅老所たのし家",
    "kana": "タクロウショタノシヤ",
    "address": "長野県須坂市大字野辺６６番地１１",
    "lat": 36.6343185,
    "lng": 138.2947655,
    "tel": "026-246-5377",
    "url": "tanotano@sko.janis.or.jp",
    "pref": "長野県",
    "city": "須坂市",
    "category": "community_day_service",
    "serviceType": "地域密着型通所介護",
    "capacity": 0,
    "openDays": [
      "平日",
      "土曜日"
    ],
    "openDaysNote": ""
  },
  {
    "id": "2070700295",
    "name": "特定非営利活動法人宅老所赤とんぼ",
    "kana": "トクテイヒエイリ活動ホウジンタクロウショアカトンボ",
    "address": "長野県須坂市大字小河原１８９６番地8",
    "lat": 36.6771362,
    "lng": 138.3163015,
    "tel": "026-248-3627",
    "url": "",
    "pref": "長野県",
    "city": "須坂市",
    "category": "community_day_service",
    "serviceType": "地域密着型通所介護",
    "capacity": 0,
    "openDays": [
      "平日",
      "土曜日",
      "日曜日",
      "祝日"
    ],
    "openDaysNote": ""
  },
  {
    "id": "2071800581",
    "name": "あさがお千曲",
    "kana": "アサガオチクマ",
    "address": "長野県千曲市上徳間606-3",
    "lat": 36.5004732,
    "lng": 138.140447,
    "tel": "026-214-8707",
    "url": "",
    "pref": "長野県",
    "city": "千曲市",
    "category": "community_day_service",
    "serviceType": "地域密着型通所介護",
    "capacity": 0,
    "openDays": [
      "平日",
      "土曜日",
      "祝日"
    ],
    "openDaysNote": "年末年始12/31～1/2まで休みます。"
  },
  {
    "id": "2071600205",
    "name": "あっといーず更埴",
    "kana": "アットイーズコウショク",
    "address": "長野県千曲市稲荷山1993-3",
    "lat": 36.5351763,
    "lng": 138.10254,
    "tel": "026-274-9474",
    "url": "www.at-ease-care.com",
    "pref": "長野県",
    "city": "千曲市",
    "category": "community_day_service",
    "serviceType": "地域密着型通所介護",
    "capacity": 0,
    "openDays": [
      "平日",
      "土曜日",
      "祝日"
    ],
    "openDaysNote": ""
  },
  {
    "id": "2091800165",
    "name": "ﾃﾞｲｻｰﾋﾞｽココカラ",
    "kana": "デイサービス　ココカラ",
    "address": "長野県千曲市杭瀬下5丁目203",
    "lat": 36.5353223754295,
    "lng": 138.115890173402,
    "tel": "026-272-2560",
    "url": "https://rehadaykokokara.wixsite.com/kokokara",
    "pref": "長野県",
    "city": "千曲市",
    "category": "community_day_service",
    "serviceType": "地域密着型通所介護",
    "capacity": 60,
    "openDays": [
      "平日"
    ],
    "openDaysNote": "年末年始（12/30～1/3）、お盆（8/13～8/16）"
  },
  {
    "id": "2091800132",
    "name": "デイサービス森と人と",
    "kana": "デイサービスモリトヒトト",
    "address": "長野県千曲市八幡985-6",
    "lat": 36.5115414,
    "lng": 138.0827351,
    "tel": "026-274-5255",
    "url": "",
    "pref": "長野県",
    "city": "千曲市",
    "category": "community_day_service",
    "serviceType": "地域密着型通所介護",
    "capacity": null,
    "openDays": [
      "平日"
    ],
    "openDaysNote": ""
  },
  {
    "id": "2091800199",
    "name": "デイサポートこまち　千曲",
    "kana": "デイサポートコマチ　チクマ",
    "address": "長野県千曲市大字戸倉1978-1",
    "lat": 36.4897234,
    "lng": 138.1487907,
    "tel": "026-214-3901",
    "url": "",
    "pref": "長野県",
    "city": "千曲市",
    "category": "community_day_service",
    "serviceType": "地域密着型通所介護",
    "capacity": 0,
    "openDays": [
      "平日",
      "祝日"
    ],
    "openDaysNote": ""
  },
  {
    "id": "2071800276",
    "name": "ほほえみ",
    "kana": "ホホエミ",
    "address": "長野県千曲市大字雨宮８１８番地３",
    "lat": 36.5492289,
    "lng": 138.151437,
    "tel": "026-274-2305",
    "url": "",
    "pref": "長野県",
    "city": "千曲市",
    "category": "community_day_service",
    "serviceType": "地域密着型通所介護",
    "capacity": 10,
    "openDays": [
      "平日",
      "祝日"
    ],
    "openDaysNote": ""
  },
  {
    "id": "2071800847",
    "name": "リハビリ特化型デイサービスカラダラボ千曲いもじや",
    "kana": "リハビリトッカガタデイサービスカラダラボチクマイモジヤ",
    "address": "長野県千曲市鋳物師屋384-6",
    "lat": 36.5163725095096,
    "lng": 138.124167420238,
    "tel": "026-214-5388",
    "url": "",
    "pref": "長野県",
    "city": "千曲市",
    "category": "community_day_service",
    "serviceType": "地域密着型通所介護",
    "capacity": 0,
    "openDays": [
      "平日",
      "祝日"
    ],
    "openDaysNote": ""
  },
  {
    "id": "2071800540",
    "name": "戸倉デイサービスゆいっこ",
    "kana": "トグラデイサービスユイッコ",
    "address": "千曲市戸倉2060番地1",
    "lat": 36.4862249,
    "lng": 138.1529201,
    "tel": "026-261-5226",
    "url": "http://www.healthcoop-nagano.or.jp/office/map10.html",
    "pref": "長野県",
    "city": "千曲市",
    "category": "community_day_service",
    "serviceType": "地域密着型通所介護",
    "capacity": 10,
    "openDays": [
      "平日",
      "祝日"
    ],
    "openDaysNote": "休日に営業すること有り"
  },
  {
    "id": "2071800417",
    "name": "第二ささえ愛",
    "kana": "ダイニササエアイ",
    "address": "長野県千曲市大字鋳物師屋３５６番地１",
    "lat": 36.5177844021365,
    "lng": 138.127351128342,
    "tel": "026-273-6288",
    "url": "https://care-net.biz/20/sasaeai.info/",
    "pref": "長野県",
    "city": "千曲市",
    "category": "community_day_service",
    "serviceType": "地域密着型通所介護",
    "capacity": 0,
    "openDays": [
      "平日",
      "土曜日",
      "祝日"
    ],
    "openDaysNote": "特になし"
  },
  {
    "id": "2071800730",
    "name": "宅老所潤",
    "kana": "タクロウショウルオイ",
    "address": "長野県千曲市大字上徳間636-1",
    "lat": 36.5026831449151,
    "lng": 138.14023235582,
    "tel": "026-214-7321",
    "url": "",
    "pref": "長野県",
    "city": "千曲市",
    "category": "community_day_service",
    "serviceType": "地域密着型通所介護",
    "capacity": 0,
    "openDays": [
      "平日",
      "土曜日",
      "祝日"
    ],
    "openDaysNote": ""
  },
  {
    "id": "2071800300",
    "name": "宅老所千曲の里",
    "kana": "タクロウショチクマノサト",
    "address": "長野県千曲市大字雨宮178",
    "lat": 36.5459597,
    "lng": 138.1458462,
    "tel": "026-273-2515",
    "url": "http://www.taishikai.or.jp/kaigo/sub05-3.html",
    "pref": "長野県",
    "city": "千曲市",
    "category": "community_day_service",
    "serviceType": "地域密着型通所介護",
    "capacity": 12,
    "openDays": [
      "平日",
      "祝日"
    ],
    "openDaysNote": ""
  },
  {
    "id": "2091800116",
    "name": "有限会社くすのき学園",
    "kana": "ユウゲンガイシャクスノキガクエン",
    "address": "長野県千曲市大字戸倉2119番地4",
    "lat": 36.482839,
    "lng": 138.1500231,
    "tel": "026-261-0518",
    "url": "http://www.kusunokigakuen.com/",
    "pref": "長野県",
    "city": "千曲市",
    "category": "community_day_service",
    "serviceType": "地域密着型通所介護",
    "capacity": null,
    "openDays": [
      "平日",
      "土曜日",
      "日曜日",
      "祝日"
    ],
    "openDaysNote": ""
  },
  {
    "id": "2071800334",
    "name": "有限会社くすのき学園",
    "kana": "ユウゲンガイシャクスノキガクエン",
    "address": "長野県千曲市大字2119番地4",
    "lat": 36.482839,
    "lng": 138.1500231,
    "tel": "026-261-0518",
    "url": "http://www.kusunokigakuen.com/",
    "pref": "長野県",
    "city": "千曲市",
    "category": "community_day_service",
    "serviceType": "地域密着型通所介護",
    "capacity": 0,
    "openDays": [
      "平日",
      "土曜日",
      "日曜日",
      "祝日"
    ],
    "openDaysNote": ""
  },
  {
    "id": "2071800193",
    "name": "有限会社ハートケアあわさ",
    "kana": "ユウゲンガイシャハートケアアワサ",
    "address": "長野県千曲市大字粟佐１４１２-１",
    "lat": 36.5404213,
    "lng": 138.123434,
    "tel": "026-272-0108",
    "url": "",
    "pref": "長野県",
    "city": "千曲市",
    "category": "community_day_service",
    "serviceType": "地域密着型通所介護",
    "capacity": null,
    "openDays": [
      "平日",
      "祝日"
    ],
    "openDaysNote": ""
  },
  {
    "id": "2091800173",
    "name": "和らぎの家",
    "kana": "ヤワラギノイエ",
    "address": "長野県千曲市大字桜堂５５５番地３",
    "lat": 36.5279931375375,
    "lng": 138.123957267459,
    "tel": "026-272-8650",
    "url": "https://zeromichi.jp/",
    "pref": "長野県",
    "city": "千曲市",
    "category": "community_day_service",
    "serviceType": "地域密着型通所介護",
    "capacity": 10,
    "openDays": [
      "平日",
      "土曜日",
      "祝日"
    ],
    "openDaysNote": ""
  },
  {
    "id": "2072500537",
    "name": "社会福祉法人泰阜村社会福祉協議会指定通所介護事業所",
    "kana": "シャカイフクシホウジンヤスオカムラシャカイフクシキョウギカイシテイツウショカイゴジギョウショ",
    "address": "長野県下伊那郡泰阜村3247番地3",
    "lat": 35.376827,
    "lng": 137.844897,
    "tel": "0260-26-2331",
    "url": "http://yasuokasyakyo.jp/",
    "pref": "長野県",
    "city": "泰阜村",
    "category": "community_day_service",
    "serviceType": "地域密着型通所介護",
    "capacity": 0,
    "openDays": [
      "平日",
      "祝日"
    ],
    "openDaysNote": ""
  },
  {
    "id": "2072600477",
    "name": "宅幼老所あがらんしょ",
    "kana": "タクヨウロウショアガランショ",
    "address": "長野県木曽郡大桑村大字野尻１３２６－３",
    "lat": 35.6751167,
    "lng": 137.6398047,
    "tel": "0264-55-2197",
    "url": "",
    "pref": "長野県",
    "city": "大桑村",
    "category": "community_day_service",
    "serviceType": "地域密着型通所介護",
    "capacity": 10,
    "openDays": [
      "平日",
      "土曜日",
      "日曜日",
      "祝日"
    ],
    "openDaysNote": "早朝・延長あり。日曜日は利用希望がある時のみ営業"
  },
  {
    "id": "2072501311",
    "name": "宅幼老所まめ大福",
    "kana": "タクヨウロウジョマメダイフク",
    "address": "長野県下伊那郡大鹿村大字大河原９１４番地",
    "lat": 35.5602142,
    "lng": 138.0404641,
    "tel": "0265-39-2218",
    "url": "http://anjanet.blog.fc2.com/",
    "pref": "長野県",
    "city": "大鹿村",
    "category": "community_day_service",
    "serviceType": "地域密着型通所介護",
    "capacity": 13,
    "openDays": [
      "平日",
      "土曜日",
      "祝日"
    ],
    "openDaysNote": "祭日は休みなく営業"
  },
  {
    "id": "2071200352",
    "name": "びすたりライフデイサービスセンター",
    "kana": "ビスタリライフデイサービスセンター",
    "address": "長野県大町市平８０００番地５４７",
    "lat": 36.5261749,
    "lng": 137.8314649,
    "tel": "0261-22-6003",
    "url": "https://bistari-life.jimdofree.com/",
    "pref": "長野県",
    "city": "大町市",
    "category": "community_day_service",
    "serviceType": "地域密着型通所介護",
    "capacity": 18,
    "openDays": [
      "平日",
      "祝日"
    ],
    "openDaysNote": "Ｈ２４年度より、祝日につきましては通常事業を行っています。"
  },
  {
    "id": "2071200428",
    "name": "ぽれぽれ道草",
    "kana": "ポレポレミチクサ",
    "address": "長野県大町市大町1600番地20",
    "lat": 36.5174186,
    "lng": 137.8557326,
    "tel": "0261-85-0030",
    "url": "http://www.porepore.info/",
    "pref": "長野県",
    "city": "大町市",
    "category": "community_day_service",
    "serviceType": "地域密着型通所介護",
    "capacity": 0,
    "openDays": [
      "平日",
      "土曜日",
      "日曜日",
      "祝日"
    ],
    "openDaysNote": ""
  },
  {
    "id": "2071200253",
    "name": "ぽれぽれ野の花",
    "kana": "ポレポレノノハナ",
    "address": "長野県大町市大町1698番地7",
    "lat": 36.5212264,
    "lng": 137.8579436,
    "tel": "0261-22-2117",
    "url": "http://www.porepore.info/",
    "pref": "長野県",
    "city": "大町市",
    "category": "community_day_service",
    "serviceType": "地域密着型通所介護",
    "capacity": 0,
    "openDays": [
      "平日",
      "土曜日",
      "日曜日",
      "祝日"
    ],
    "openDaysNote": ""
  },
  {
    "id": "2071200410",
    "name": "大町協立デイサービスセンター",
    "kana": "オオマチキョウリツデイサービスセンター",
    "address": "長野県大町市大町6989番地7",
    "lat": 36.4931969,
    "lng": 137.8527193,
    "tel": "0261-26-5260",
    "url": "",
    "pref": "長野県",
    "city": "大町市",
    "category": "community_day_service",
    "serviceType": "地域密着型通所介護",
    "capacity": 18,
    "openDays": [
      "平日"
    ],
    "openDaysNote": ""
  },
  {
    "id": "2091200085",
    "name": "大町協立デイサービスらいちょう",
    "kana": "オオマチキョウリツデイサービスライチョウ",
    "address": "長野県大町市大町６９８９－７",
    "lat": 36.4931961,
    "lng": 137.852629,
    "tel": "0261‐26‐5200",
    "url": "",
    "pref": "長野県",
    "city": "大町市",
    "category": "community_day_service",
    "serviceType": "地域密着型通所介護",
    "capacity": 10,
    "openDays": [
      "平日"
    ],
    "openDaysNote": ""
  },
  {
    "id": "2071200360",
    "name": "宅幼老所悠悠館",
    "kana": "タクヨウロウショユウユウカン",
    "address": "長野県大町市大町１２７７－５",
    "lat": 36.5117889,
    "lng": 137.8600407,
    "tel": "0261-22-5527",
    "url": "",
    "pref": "長野県",
    "city": "大町市",
    "category": "community_day_service",
    "serviceType": "地域密着型通所介護",
    "capacity": 18,
    "openDays": [
      "平日",
      "祝日"
    ],
    "openDaysNote": ""
  },
  {
    "id": "2091200101",
    "name": "長野県大町市八坂　1128番地",
    "kana": "ナガノケンオオマチシヤサカ",
    "address": "長野県大町市八坂　1128番地",
    "lat": 36.4993093,
    "lng": 137.9119276,
    "tel": "0261-26-2100",
    "url": "http://www.omachishakyo.org//kaigo/daycenter/27-2011-02-28-03-12-19.html",
    "pref": "長野県",
    "city": "大町市",
    "category": "community_day_service",
    "serviceType": "地域密着型通所介護",
    "capacity": 0,
    "openDays": [
      "平日",
      "祝日"
    ],
    "openDaysNote": ""
  },
  {
    "id": "2072401314",
    "name": "デイサービスセンター　第2グレイスフル辰野",
    "kana": "デイサービスセンター　ダイニグレイスフルタツノ",
    "address": "長野県上伊那郡辰野町樋口454-1",
    "lat": 35.9639067,
    "lng": 137.9995581,
    "tel": "0266-44-1321",
    "url": "http://www.sun-vision.or.jp",
    "pref": "長野県",
    "city": "辰野町",
    "category": "community_day_service",
    "serviceType": "地域密着型通所介護",
    "capacity": 10,
    "openDays": [
      "平日",
      "土曜日",
      "祝日"
    ],
    "openDaysNote": "但し、事業所が特に指定する日を休日とすることがある。"
  },
  {
    "id": "2092400304",
    "name": "デイホームめぐる",
    "kana": "デイホーム　メグル",
    "address": "長野県上伊那郡辰野町樋口1592-3",
    "lat": 35.9585074172246,
    "lng": 137.989140564418,
    "tel": "0266-78-4045",
    "url": "",
    "pref": "長野県",
    "city": "辰野町",
    "category": "community_day_service",
    "serviceType": "地域密着型通所介護",
    "capacity": 15,
    "openDays": [
      "平日",
      "祝日"
    ],
    "openDaysNote": ""
  },
  {
    "id": "2072401199",
    "name": "ふらっとデイサービス",
    "kana": "フラットデイサービス",
    "address": "長野県上伊那郡辰野町大字伊那富6333-2",
    "lat": 35.9552296,
    "lng": 137.9853012,
    "tel": "0266-78-8503",
    "url": "flat-tatsuno@honey.ocn.ne.jp",
    "pref": "長野県",
    "city": "辰野町",
    "category": "community_day_service",
    "serviceType": "地域密着型通所介護",
    "capacity": 18,
    "openDays": [
      "平日",
      "土曜日",
      "祝日"
    ],
    "openDaysNote": "お盆・正月のお休みはカレンダーの並びにより設定する"
  },
  {
    "id": "2072401330",
    "name": "ふらっとデイサービス　お茶やしき",
    "kana": "フラットデイサービス　オチャヤシキ",
    "address": "長野県上伊那郡辰野町大字平出1575",
    "lat": 35.9831882879389,
    "lng": 138.000775392868,
    "tel": "0266-78-3886",
    "url": "http://flat-tatsuno.wixsite.com/otohakai/ochayashiki",
    "pref": "長野県",
    "city": "辰野町",
    "category": "community_day_service",
    "serviceType": "地域密着型通所介護",
    "capacity": 18,
    "openDays": [
      "平日",
      "土曜日",
      "祝日"
    ],
    "openDaysNote": "ただし、年末年始は特別休業あり。"
  },
  {
    "id": "2072900463",
    "name": "いけだデイサービスセンター小島館",
    "kana": "イケダデイサービスセンターコジマカン",
    "address": "長野県北安曇郡池田町大字池田２１２８番地３",
    "lat": 36.4211213,
    "lng": 137.8827598,
    "tel": "0261-62-7161",
    "url": "http://www.ikedashakyo.or.jp",
    "pref": "長野県",
    "city": "池田町",
    "category": "community_day_service",
    "serviceType": "地域密着型通所介護",
    "capacity": null,
    "openDays": [
      "平日",
      "祝日"
    ],
    "openDaysNote": ""
  },
  {
    "id": "2072900778",
    "name": "よりどころ　なごみ",
    "kana": "ヨリドコロ　ナゴミ",
    "address": "長野県北安曇郡池田町大字会染3846-1",
    "lat": 36.4071577675277,
    "lng": 137.892655845422,
    "tel": "０２６１－８５－２７４０",
    "url": "",
    "pref": "長野県",
    "city": "池田町",
    "category": "community_day_service",
    "serviceType": "地域密着型通所介護",
    "capacity": 0,
    "openDays": [
      "平日",
      "祝日"
    ],
    "openDaysNote": "8/13～8/16、12/30～1/3"
  },
  {
    "id": "2092900048",
    "name": "憩いの家　嬉々",
    "kana": "イコイノイエ　キキ",
    "address": "長野県北安曇郡池田町大字池田４１１６－２",
    "lat": 36.4172624489955,
    "lng": 137.879034717104,
    "tel": "０２６１－８５－８１０２",
    "url": "",
    "pref": "長野県",
    "city": "池田町",
    "category": "community_day_service",
    "serviceType": "地域密着型通所介護",
    "capacity": 0,
    "openDays": [
      "平日",
      "土曜日",
      "祝日"
    ],
    "openDaysNote": ""
  },
  {
    "id": "2092700091",
    "name": "デイサービス坂井",
    "kana": "デイサービスサカイ",
    "address": "長野県東筑摩郡筑北村坂井5727番地",
    "lat": 36.4480264,
    "lng": 138.0682319,
    "tel": "0263-67-2918",
    "url": "http://chikuhoku-shakyo.or.jp/",
    "pref": "長野県",
    "city": "筑北村",
    "category": "community_day_service",
    "serviceType": "地域密着型通所介護",
    "capacity": 0,
    "openDays": [
      "平日",
      "土曜日",
      "祝日"
    ],
    "openDaysNote": ""
  },
  {
    "id": "2072700699",
    "name": "宅幼老所茶の間",
    "kana": "タクヨウロウショチャノマ",
    "address": "長野県東筑摩郡筑北村西条４０８４－４",
    "lat": 36.4016337,
    "lng": 138.0106302,
    "tel": "0263-66-3170",
    "url": "chanoma@go.tvm.ne.jp",
    "pref": "長野県",
    "city": "筑北村",
    "category": "community_day_service",
    "serviceType": "地域密着型通所介護",
    "capacity": 12,
    "openDays": [
      "平日",
      "土曜日",
      "祝日"
    ],
    "openDaysNote": "この時間を超えるものについてはその都度協議する。"
  },
  {
    "id": "2091100111",
    "name": "しなの元気処よっとくらい",
    "kana": "シナノゲンキドコロヨットクライ",
    "address": "長野県中野市片塩419-1",
    "lat": 36.7402492,
    "lng": 138.3390229,
    "tel": "0269-38-1517",
    "url": "http://hp.kaipoke.biz/tb9/",
    "pref": "長野県",
    "city": "中野市",
    "category": "community_day_service",
    "serviceType": "地域密着型通所介護",
    "capacity": null,
    "openDays": [
      "平日"
    ],
    "openDaysNote": ""
  },
  {
    "id": "2071100420",
    "name": "デイサービスセンターえにし",
    "kana": "デイサービスセンターエニシ",
    "address": "長野県中野市大字新井361-1",
    "lat": 36.7608503,
    "lng": 138.3646895,
    "tel": "0269-24-6324",
    "url": "http://www.enishi-web.com",
    "pref": "長野県",
    "city": "中野市",
    "category": "community_day_service",
    "serviceType": "地域密着型通所介護",
    "capacity": 0,
    "openDays": [
      "平日",
      "土曜日",
      "日曜日",
      "祝日"
    ],
    "openDaysNote": "８：３０～１７：３０以外の時間帯は転送電話にて対応"
  },
  {
    "id": "2071100545",
    "name": "デイサービス暖暖",
    "kana": "デイサービスダンダン",
    "address": "長野県中野市岩船４３８－１３",
    "lat": 36.7443388758525,
    "lng": 138.362914530689,
    "tel": "0269-38-0725",
    "url": "",
    "pref": "長野県",
    "city": "中野市",
    "category": "community_day_service",
    "serviceType": "地域密着型通所介護",
    "capacity": 0,
    "openDays": [
      "平日",
      "土曜日",
      "祝日"
    ],
    "openDaysNote": ""
  },
  {
    "id": "2071100842",
    "name": "宅老所あんきな日",
    "kana": "タクロウショアンキナヒ",
    "address": "長野県中野市中野1872-7",
    "lat": 36.7513436,
    "lng": 138.3739448,
    "tel": "0269-54-0679",
    "url": "http://hp.kaipoke.biz/rd1/",
    "pref": "長野県",
    "city": "中野市",
    "category": "community_day_service",
    "serviceType": "地域密着型通所介護",
    "capacity": null,
    "openDays": [
      "平日",
      "祝日"
    ],
    "openDaysNote": "相談に応じます。"
  },
  {
    "id": "2071100271",
    "name": "宅老所ぽぽんた",
    "kana": "タクロウショポポンタ",
    "address": "長野県中野市新野５９-１",
    "lat": 36.7213797,
    "lng": 138.3713979,
    "tel": "0269-22-3539",
    "url": "",
    "pref": "長野県",
    "city": "中野市",
    "category": "community_day_service",
    "serviceType": "地域密着型通所介護",
    "capacity": 0,
    "openDays": [
      "平日",
      "土曜日",
      "祝日"
    ],
    "openDaysNote": ""
  },
  {
    "id": "2071100453",
    "name": "宅老所縁が和",
    "kana": "タクロウショエンガワ",
    "address": "長野県中野市新野５９-４",
    "lat": 36.7214714,
    "lng": 138.3712479,
    "tel": "0269-26-4488",
    "url": "",
    "pref": "長野県",
    "city": "中野市",
    "category": "community_day_service",
    "serviceType": "地域密着型通所介護",
    "capacity": 0,
    "openDays": [
      "平日",
      "土曜日",
      "日曜日",
      "祝日"
    ],
    "openDaysNote": ""
  },
  {
    "id": "2070102625",
    "name": "NPO法人宅幼老所わたぼうし",
    "kana": "タクヨウロウショワタボウシ",
    "address": "長野県長野市稲葉１０４４番地６",
    "lat": 36.6267369,
    "lng": 138.2102802,
    "tel": "026-285-9909",
    "url": "",
    "pref": "長野県",
    "city": "長野市",
    "category": "community_day_service",
    "serviceType": "地域密着型通所介護",
    "capacity": 0,
    "openDays": [
      "平日",
      "土曜日",
      "祝日"
    ],
    "openDaysNote": ""
  },
  {
    "id": "2090101128",
    "name": "ONEでいとれーにんぐ　まつしろ",
    "kana": "ワンデイトレーニング　マツシロ",
    "address": "長野県長野市松代町松代958",
    "lat": 36.5645137619725,
    "lng": 138.203335032541,
    "tel": "262781731",
    "url": "http://www.yukiiri-mcl.com",
    "pref": "長野県",
    "city": "長野市",
    "category": "community_day_service",
    "serviceType": "地域密着型通所介護",
    "capacity": 0,
    "openDays": [
      "平日",
      "土曜日",
      "祝日"
    ],
    "openDaysNote": ""
  },
  {
    "id": "2090101391",
    "name": "アースサポート長野",
    "kana": "アースサポートナガノ",
    "address": "長野県長野市中越1丁目2番27号",
    "lat": 36.658764,
    "lng": 138.2191565,
    "tel": "026-239-7200",
    "url": "http://www.earthsupport.co.jp",
    "pref": "長野県",
    "city": "長野市",
    "category": "community_day_service",
    "serviceType": "地域密着型通所介護",
    "capacity": 18,
    "openDays": [
      "平日",
      "土曜日",
      "祝日"
    ],
    "openDaysNote": "なし"
  },
  {
    "id": "2070104688",
    "name": "いこいや",
    "kana": "イコイヤ",
    "address": "長野県長野市若穂川田１８３０番",
    "lat": 36.6085376,
    "lng": 138.2434283,
    "tel": "026-268-5520",
    "url": "http://www.zenkouji-df.com/cp-gai-day.html",
    "pref": "長野県",
    "city": "長野市",
    "category": "community_day_service",
    "serviceType": "地域密着型通所介護",
    "capacity": 0,
    "openDays": [
      "平日",
      "土曜日",
      "祝日"
    ],
    "openDaysNote": "特になし"
  },
  {
    "id": "2070105602",
    "name": "いろは屋",
    "kana": "イロハヤ",
    "address": "長野県長野市箱清水1-11-4",
    "lat": 36.6645608,
    "lng": 138.1907131,
    "tel": "026-219-3832",
    "url": "",
    "pref": "長野県",
    "city": "長野市",
    "category": "community_day_service",
    "serviceType": "地域密着型通所介護",
    "capacity": 10,
    "openDays": [
      "平日",
      "土曜日",
      "祝日"
    ],
    "openDaysNote": "施設が定めた日・お盆・年末年始休業有"
  },
  {
    "id": "2070103839",
    "name": "エフビー柳原デイサービスセンター",
    "kana": "エフビーヤナギハラデイサービスセンター",
    "address": "長野県長野市小島７８５番地",
    "lat": 36.660508,
    "lng": 138.25242,
    "tel": "026-236-8200",
    "url": "http://www.fb-kaigo.co.jp/service/daycare.php",
    "pref": "長野県",
    "city": "長野市",
    "category": "community_day_service",
    "serviceType": "地域密着型通所介護",
    "capacity": 0,
    "openDays": [
      "平日",
      "土曜日",
      "祝日"
    ],
    "openDaysNote": ""
  },
  {
    "id": "2090100823",
    "name": "サルーテ上松",
    "kana": "サルーテウエマツ",
    "address": "長野県長野市上松4-23-12",
    "lat": 36.6730349,
    "lng": 138.1992787,
    "tel": "026-217-2544",
    "url": "",
    "pref": "長野県",
    "city": "長野市",
    "category": "community_day_service",
    "serviceType": "地域密着型通所介護",
    "capacity": 0,
    "openDays": [
      "平日",
      "祝日"
    ],
    "openDaysNote": "年末年始休業12/30～1/3"
  },
  {
    "id": "2090100815",
    "name": "サンフィットあがた",
    "kana": "サンフィットアガタ",
    "address": "長野県南長野県町４９５あがたまちテラス　２Ｆ あがたまちテラス　２Ｆ",
    "lat": 36.6544397,
    "lng": 138.1843429,
    "tel": "026-217-7177",
    "url": "http://www.agata.sunfit.jp/",
    "pref": "長野県",
    "city": "長野市",
    "category": "community_day_service",
    "serviceType": "地域密着型通所介護",
    "capacity": 15,
    "openDays": [
      "平日"
    ],
    "openDaysNote": ""
  },
  {
    "id": "2070106378",
    "name": "シニアフィットネスmikuriデイサービスセンター",
    "kana": "シニアフィットネスミクリデイサービスセンター",
    "address": "長野県長野市川中島町御厨1207",
    "lat": 36.5905052192025,
    "lng": 138.163113903229,
    "tel": "026-405-7824",
    "url": "http://www.sunmeer.ras.com",
    "pref": "長野県",
    "city": "長野市",
    "category": "community_day_service",
    "serviceType": "地域密着型通所介護",
    "capacity": 18,
    "openDays": [
      "平日",
      "祝日"
    ],
    "openDaysNote": "営業は月曜日から金曜日です。（改行）GW・お盆・年末年始、事業所が定める休日に関しては、あらかじめ事前に通知をいたします。"
  },
  {
    "id": "2070105271",
    "name": "すまいるケア若里店",
    "kana": "スマイルケアワカサトテン",
    "address": "長野県長野市若里4-15-21",
    "lat": 36.6287181522454,
    "lng": 138.185979357469,
    "tel": "026-217-8931",
    "url": "",
    "pref": "長野県",
    "city": "長野市",
    "category": "community_day_service",
    "serviceType": "地域密着型通所介護",
    "capacity": 10,
    "openDays": [
      "平日"
    ],
    "openDaysNote": ""
  },
  {
    "id": "2070105370",
    "name": "デイサービス　おはな",
    "kana": "デイサービスオハナ",
    "address": "長野県長野市西尾張部301-10",
    "lat": 36.6485066,
    "lng": 138.2256338,
    "tel": "026-219-2664",
    "url": "",
    "pref": "長野県",
    "city": "長野市",
    "category": "community_day_service",
    "serviceType": "地域密着型通所介護",
    "capacity": 1,
    "openDays": [
      "平日",
      "土曜日",
      "祝日"
    ],
    "openDaysNote": "年末年始、夏季休業、祝日暦による"
  },
  {
    "id": "2090101409",
    "name": "デイサービスさくら",
    "kana": "デイサービスサクラ",
    "address": "長野県長野市篠ノ井岡田216-5",
    "lat": 36.5847105,
    "lng": 138.1382149,
    "tel": "026-214-3046",
    "url": "",
    "pref": "長野県",
    "city": "長野市",
    "category": "community_day_service",
    "serviceType": "地域密着型通所介護",
    "capacity": null,
    "openDays": [
      "平日",
      "祝日"
    ],
    "openDaysNote": "年末年始（改行）概ね１２月２９日～１月３日休業"
  },
  {
    "id": "2070103458",
    "name": "デイサービスセンター　ふくろう",
    "kana": "デイサービスセンター　フクロウ",
    "address": "長野県長野市松代温泉75-1",
    "lat": 36.573737,
    "lng": 138.210359,
    "tel": "026-278-1721",
    "url": "http://kaigo585043852.wordpress.com",
    "pref": "長野県",
    "city": "長野市",
    "category": "community_day_service",
    "serviceType": "地域密着型通所介護",
    "capacity": 90,
    "openDays": [
      "平日",
      "土曜日",
      "祝日"
    ],
    "openDaysNote": ""
  },
  {
    "id": "2070103383",
    "name": "デイサービスセンター“わく”",
    "kana": "デイサービスセンター“ワク”",
    "address": "長野県長野市桜新町６７８－４",
    "lat": 36.6542363,
    "lng": 138.2323386,
    "tel": "026-263-3131",
    "url": "",
    "pref": "長野県",
    "city": "長野市",
    "category": "community_day_service",
    "serviceType": "地域密着型通所介護",
    "capacity": 10,
    "openDays": [
      "平日",
      "土曜日",
      "祝日"
    ],
    "openDaysNote": "上記の営業時間・定休日を基本とするが、利用者様の要望に応じて臨機応変に対応する。"
  },
  {
    "id": "2070104605",
    "name": "デイサービスセンタースローライフ三輪",
    "kana": "デイサービスセンタースローライフミワ",
    "address": "長野県長野市三輪10丁目7-3",
    "lat": 36.6726574,
    "lng": 138.2049169,
    "tel": "026-252-6550",
    "url": "",
    "pref": "長野県",
    "city": "長野市",
    "category": "community_day_service",
    "serviceType": "地域密着型通所介護",
    "capacity": 0,
    "openDays": [
      "平日",
      "土曜日",
      "祝日"
    ],
    "openDaysNote": ""
  },
  {
    "id": "2070102385",
    "name": "デイサービスセンターねむの木",
    "kana": "デイサービスセンターネムノキ",
    "address": "長野県長野市富竹715-1",
    "lat": 36.6708235127108,
    "lng": 138.24499703922,
    "tel": "026-295-3717",
    "url": "",
    "pref": "長野県",
    "city": "長野市",
    "category": "community_day_service",
    "serviceType": "地域密着型通所介護",
    "capacity": 9,
    "openDays": [
      "平日",
      "祝日"
    ],
    "openDaysNote": "特になし"
  },
  {
    "id": "2070101353",
    "name": "デイサービスセンター七瀬",
    "kana": "デイサービスセンターナナセ",
    "address": "長野県長野市鶴賀居町115-5",
    "lat": 36.6474520979287,
    "lng": 138.200886188529,
    "tel": "026-223-6061",
    "url": "http://lifecare-mayu.com/jigyo/nanase",
    "pref": "長野県",
    "city": "長野市",
    "category": "community_day_service",
    "serviceType": "地域密着型通所介護",
    "capacity": 0,
    "openDays": [
      "平日",
      "土曜日",
      "祝日"
    ],
    "openDaysNote": "年末年始(１２月３１日～１月３日)"
  },
  {
    "id": "2070102484",
    "name": "デイサービスセンター宅幼老所なかよしこよし",
    "kana": "デイサービスセンタータクヨウロウショナカヨシコヨシ",
    "address": "長野県長野市上松２丁目１８番１１号",
    "lat": 36.6680883,
    "lng": 138.1972984,
    "tel": "026-234-1165",
    "url": "http://kaipoke.biz/8v5/",
    "pref": "長野県",
    "city": "長野市",
    "category": "community_day_service",
    "serviceType": "地域密着型通所介護",
    "capacity": 10,
    "openDays": [
      "平日"
    ],
    "openDaysNote": ""
  },
  {
    "id": "2090101276",
    "name": "デイサービスセンター夢の中",
    "kana": "デイサービスセンターユメノウチ",
    "address": "長野県長野市大字稲葉1865小林ビル3F 小林ビル3F",
    "lat": 36.6365719,
    "lng": 138.2157956,
    "tel": "026－267-0765",
    "url": "http://yumenouchi.com/",
    "pref": "長野県",
    "city": "長野市",
    "category": "community_day_service",
    "serviceType": "地域密着型通所介護",
    "capacity": 10,
    "openDays": [
      "平日",
      "祝日"
    ],
    "openDaysNote": ""
  },
  {
    "id": "2070106014",
    "name": "デイサービスフィオーレ",
    "kana": "デイサービスフィオーレ",
    "address": "長野県長野市稲葉日詰1988-1",
    "lat": 36.6340864207746,
    "lng": 138.211199514928,
    "tel": "026-214-3693",
    "url": "www.fiore-welfare.jp",
    "pref": "長野県",
    "city": "長野市",
    "category": "community_day_service",
    "serviceType": "地域密着型通所介護",
    "capacity": 0,
    "openDays": [
      "平日"
    ],
    "openDaysNote": "12月29日～1月3日は休み"
  },
  {
    "id": "2090101250",
    "name": "デイサービスフォーエバーケアりょくふう",
    "kana": "デイサービスフォーエバーケアリョクフウ",
    "address": "長野県長野市川合新田1491-1有料老人ホームフォーエバーケア緑風 有料老人ホームフォーエバーケア緑風",
    "lat": 36.6222878,
    "lng": 138.205775,
    "tel": "026-214-8858",
    "url": "",
    "pref": "長野県",
    "city": "長野市",
    "category": "community_day_service",
    "serviceType": "地域密着型通所介護",
    "capacity": 0,
    "openDays": [
      "平日",
      "土曜日"
    ],
    "openDaysNote": ""
  },
  {
    "id": "2070106576",
    "name": "デイサービスフォーエバーケア田園",
    "kana": "デイサービスフォーエバーケアデンエン",
    "address": "長野県長野市西尾張部1026-1サービス付き高齢者向け住宅フォーエバーケア田園 サービス付き高齢者向け住宅フォーエバーケア田園",
    "lat": 36.6487536005096,
    "lng": 138.225850265607,
    "tel": "026-217-6161",
    "url": "http://forever-care.jp",
    "pref": "長野県",
    "city": "長野市",
    "category": "community_day_service",
    "serviceType": "地域密着型通所介護",
    "capacity": 3,
    "openDays": [
      "平日",
      "土曜日"
    ],
    "openDaysNote": ""
  },
  {
    "id": "2070104795",
    "name": "デイサービスみつまめ",
    "kana": "デイサービスミツマメ",
    "address": "長野県長野市若穂川田字町上2643番地",
    "lat": 36.604758155836,
    "lng": 138.232057648067,
    "tel": "026-214-7520",
    "url": "",
    "pref": "長野県",
    "city": "長野市",
    "category": "community_day_service",
    "serviceType": "地域密着型通所介護",
    "capacity": 10,
    "openDays": [
      "平日",
      "祝日"
    ],
    "openDaysNote": ""
  },
  {
    "id": "2090101375",
    "name": "デイサービスむすびの森",
    "kana": "デイサービスムスビノモリ",
    "address": "長野県長野市篠ノ井布施五明3462番地",
    "lat": 36.5786568,
    "lng": 138.1297963,
    "tel": "026-247-8349",
    "url": "http://musubinomori.ikeda-kk.com/",
    "pref": "長野県",
    "city": "長野市",
    "category": "community_day_service",
    "serviceType": "地域密着型通所介護",
    "capacity": 0,
    "openDays": [
      "平日",
      "土曜日",
      "日曜日",
      "祝日"
    ],
    "openDaysNote": ""
  },
  {
    "id": "2090101417",
    "name": "デイサービスむすびの森川中島",
    "kana": "デイサービスムスビノモリカワナカジマ",
    "address": "長野県長野市川中島町御厨1070番地13",
    "lat": 36.59159,
    "lng": 138.1580215,
    "tel": "026-213-7817",
    "url": "https://musubinomori.ikeda-kk.com/index.html",
    "pref": "長野県",
    "city": "長野市",
    "category": "community_day_service",
    "serviceType": "地域密着型通所介護",
    "capacity": 18,
    "openDays": [
      "平日",
      "土曜日",
      "祝日"
    ],
    "openDaysNote": ""
  },
  {
    "id": "2070106113",
    "name": "デイサービスやなぎはら",
    "kana": "デイサービスヤナギハラ",
    "address": "長野市村山５００番１",
    "lat": 36.6684045,
    "lng": 138.2637792,
    "tel": "026-219-3028",
    "url": "http://www.home-shinano.com",
    "pref": "長野県",
    "city": "長野市",
    "category": "community_day_service",
    "serviceType": "地域密着型通所介護",
    "capacity": null,
    "openDays": [
      "平日",
      "祝日"
    ],
    "openDaysNote": ""
  },
  {
    "id": "2070104050",
    "name": "デイサービス花時計",
    "kana": "デイサービスハナドケイ",
    "address": "長野県長野市大字稲葉2506番地５",
    "lat": 36.6392545,
    "lng": 138.2070083,
    "tel": "026-228-2004",
    "url": "",
    "pref": "長野県",
    "city": "長野市",
    "category": "community_day_service",
    "serviceType": "地域密着型通所介護",
    "capacity": 12,
    "openDays": [
      "平日",
      "土曜日",
      "祝日"
    ],
    "openDaysNote": "時間延長利用サービス（介護保険外）：30分250円　　＊事前にお申し出ください。（改行）該当時間：7：40～9：10（改行）　　　　　16：20～18：50"
  },
  {
    "id": "2070106246",
    "name": "デイサービス若里",
    "kana": "デイサービスワカサト",
    "address": "長野県長野市若里2丁目10-15シニア若里ハウス シニア若里ハウス",
    "lat": 36.6332454666144,
    "lng": 138.193266384061,
    "tel": "026-266-0687",
    "url": "http://www.asahi-fukusi.jp/",
    "pref": "長野県",
    "city": "長野市",
    "category": "community_day_service",
    "serviceType": "地域密着型通所介護",
    "capacity": null,
    "openDays": [
      "平日",
      "土曜日",
      "日曜日",
      "祝日"
    ],
    "openDaysNote": ""
  },
  {
    "id": "2090100773",
    "name": "デイサービス西長野",
    "kana": "デイサービスニシナガノ",
    "address": "長野県長野市新諏訪1-10-20",
    "lat": 36.6582227216308,
    "lng": 138.172359395575,
    "tel": "026-235-8265",
    "url": "",
    "pref": "長野県",
    "city": "長野市",
    "category": "community_day_service",
    "serviceType": "地域密着型通所介護",
    "capacity": 10,
    "openDays": [
      "平日",
      "土曜日",
      "祝日"
    ],
    "openDaysNote": ""
  },
  {
    "id": "2090100914",
    "name": "デイサービス太陽",
    "kana": "デイサービスタイヨウ",
    "address": "長野県長野市富竹936-4",
    "lat": 36.6760392,
    "lng": 138.2553817,
    "tel": "026-462-1001",
    "url": "http://taiyo-takada.com",
    "pref": "長野県",
    "city": "長野市",
    "category": "community_day_service",
    "serviceType": "地域密着型通所介護",
    "capacity": 0,
    "openDays": [
      "平日",
      "祝日"
    ],
    "openDaysNote": ""
  },
  {
    "id": "2090101458",
    "name": "デイサービス太陽まゆみだ",
    "kana": "デイサービスタイヨウマユミダ",
    "address": "長野県長野市檀田2丁目23-10",
    "lat": 36.6750825,
    "lng": 138.211886,
    "tel": "262170290",
    "url": "https://taiyo-takada.com/",
    "pref": "長野県",
    "city": "長野市",
    "category": "community_day_service",
    "serviceType": "地域密着型通所介護",
    "capacity": 0,
    "openDays": [
      "平日",
      "祝日"
    ],
    "openDaysNote": "お盆とお正月は休み"
  },
  {
    "id": "2070105503",
    "name": "デイサービス東口",
    "kana": "デイサービスヒガシグチ",
    "address": "長野県長野市七瀬2番地9AKビル2階 AKビル2階",
    "lat": 36.6442182374419,
    "lng": 138.193230166826,
    "tel": "026-266-0823",
    "url": "http://www.asahi-fukusi.jp",
    "pref": "長野県",
    "city": "長野市",
    "category": "community_day_service",
    "serviceType": "地域密着型通所介護",
    "capacity": 18,
    "openDays": [
      "平日",
      "土曜日",
      "日曜日",
      "祝日"
    ],
    "openDaysNote": ""
  },
  {
    "id": "2070105420",
    "name": "デイサービス二三ちゃん家",
    "kana": "デイサービスフミチャンチ",
    "address": "長野県長野市大字稲葉575番地8",
    "lat": 36.6281976,
    "lng": 138.2068029,
    "tel": "026-221-9657",
    "url": "",
    "pref": "長野県",
    "city": "長野市",
    "category": "community_day_service",
    "serviceType": "地域密着型通所介護",
    "capacity": 12,
    "openDays": [
      "平日",
      "祝日"
    ],
    "openDaysNote": "前後の延長利用可能"
  },
  {
    "id": "2090101433",
    "name": "デイサービス福寿縁",
    "kana": "デイサービスフクジュエン",
    "address": "篠ノ井塩崎5750-3",
    "lat": 36.5590837,
    "lng": 138.1237344,
    "tel": "026-285-9649",
    "url": "https://www．fukujuen666.com",
    "pref": "長野県",
    "city": "長野市",
    "category": "community_day_service",
    "serviceType": "地域密着型通所介護",
    "capacity": 0,
    "openDays": [
      "平日",
      "土曜日",
      "祝日"
    ],
    "openDaysNote": ""
  },
  {
    "id": "2070105735",
    "name": "デイサポートこまち川中島",
    "kana": "デイサポートコマチカワナカジマ",
    "address": "長野県長野市川中島町上氷鉋532番地1",
    "lat": 36.6096145,
    "lng": 138.1583613,
    "tel": "026-214-6733",
    "url": "",
    "pref": "長野県",
    "city": "長野市",
    "category": "community_day_service",
    "serviceType": "地域密着型通所介護",
    "capacity": 0,
    "openDays": [
      "平日",
      "祝日"
    ],
    "openDaysNote": "午前の部　　９時　　　から１２時１５分（改行）午後の部　１３時１５分から１６時３０分（改行）の１日２単位制"
  },
  {
    "id": "2070105768",
    "name": "でいとれーにんぐ　まつしろ",
    "kana": "デイトレーニング　マツシロ",
    "address": "長野県長野市松代町松代９５７－４",
    "lat": 36.5650627,
    "lng": 138.2033327,
    "tel": "026-278-0270",
    "url": "http://www.yukiiri-mcl.com",
    "pref": "長野県",
    "city": "長野市",
    "category": "community_day_service",
    "serviceType": "地域密着型通所介護",
    "capacity": 0,
    "openDays": [
      "平日",
      "土曜日"
    ],
    "openDaysNote": "平日　午前9時～12時10分　午後14時30分～17時40分"
  },
  {
    "id": "2070104019",
    "name": "デイホーム・ポルテワール",
    "kana": "デイホーム・ポルテワール",
    "address": "長野県長野市南長野南石堂町1971番地Ａ－ＯＮＥ　ＣＩＴＹ　５Ｆ－Ａ Ａ－ＯＮＥ　ＣＩＴＹ　５Ｆ－Ａ",
    "lat": 36.64355,
    "lng": 138.1866163,
    "tel": "026-267-5680",
    "url": "",
    "pref": "長野県",
    "city": "長野市",
    "category": "community_day_service",
    "serviceType": "地域密着型通所介護",
    "capacity": 2,
    "openDays": [
      "平日",
      "土曜日",
      "祝日"
    ],
    "openDaysNote": ""
  },
  {
    "id": "2090101334",
    "name": "ぬくぬく",
    "kana": "ヌクヌク",
    "address": "長野県長野市北堀８６５－４",
    "lat": 36.6681192,
    "lng": 138.2373897,
    "tel": "026-225-9162",
    "url": "https://www.nknk4u4u.com/",
    "pref": "長野県",
    "city": "長野市",
    "category": "community_day_service",
    "serviceType": "地域密着型通所介護",
    "capacity": 10,
    "openDays": [
      "平日"
    ],
    "openDaysNote": ""
  },
  {
    "id": "2070106006",
    "name": "まじょの介護便通所介護事業所",
    "kana": "マジョノカイゴビンツウショカイゴジギョウショ",
    "address": "長野県長野市川中島町原575番地1",
    "lat": 36.5852773253097,
    "lng": 138.15109485687,
    "tel": "026-405-6963",
    "url": "",
    "pref": "長野県",
    "city": "長野市",
    "category": "community_day_service",
    "serviceType": "地域密着型通所介護",
    "capacity": 10,
    "openDays": [
      "平日",
      "土曜日",
      "祝日"
    ],
    "openDaysNote": "8/13～8/15・12/30～1/3は休日"
  },
  {
    "id": "2070105487",
    "name": "リハビリデイサービスemao篠ノ井店",
    "kana": "リハビリデイサービス　エマオ　シノノイテン",
    "address": "長野県長野市篠ノ井布施五明124-10",
    "lat": 36.5841551,
    "lng": 138.13306,
    "tel": "026-292-8101",
    "url": "http://www.avis.ne.jp/~j-koyama",
    "pref": "長野県",
    "city": "長野市",
    "category": "community_day_service",
    "serviceType": "地域密着型通所介護",
    "capacity": 0,
    "openDays": [
      "平日",
      "祝日"
    ],
    "openDaysNote": "月～金の祝日は営業する。（改行）ＧＷ，お盆、年末年始　それぞれ休日あり。（改行）午前9：00～12：15（改行）午後13：45～17：00（改行）定員１５名"
  },
  {
    "id": "2090100799",
    "name": "リハプライド長野",
    "kana": "リハプライドナガノ",
    "address": "長野県長野市吉田５-２７-５",
    "lat": 36.6601193911459,
    "lng": 138.224070184061,
    "tel": "026-241-5157",
    "url": "http://www.rehapride.co.jp/nagano/",
    "pref": "長野県",
    "city": "長野市",
    "category": "community_day_service",
    "serviceType": "地域密着型通所介護",
    "capacity": 161,
    "openDays": [
      "平日",
      "祝日"
    ],
    "openDaysNote": "年末年始１２／２９～１／４　盆８／１２～１６は休業"
  },
  {
    "id": "2070105149",
    "name": "リハライフ若里",
    "kana": "リハライフワカサト",
    "address": "長野県長野市若里5丁目5番15号",
    "lat": 36.6274493,
    "lng": 138.1844056,
    "tel": "026-217-6918",
    "url": "",
    "pref": "長野県",
    "city": "長野市",
    "category": "community_day_service",
    "serviceType": "地域密着型通所介護",
    "capacity": 0,
    "openDays": [
      "平日",
      "祝日"
    ],
    "openDaysNote": ""
  },
  {
    "id": "2090101151",
    "name": "リハライフ朝陽　しなの木",
    "kana": "リハライフアサヒ　シナノキ",
    "address": "長野県長野市北堀797-1",
    "lat": 36.6670483,
    "lng": 138.2382177,
    "tel": "026-217-6952",
    "url": "",
    "pref": "長野県",
    "city": "長野市",
    "category": "community_day_service",
    "serviceType": "地域密着型通所介護",
    "capacity": 0,
    "openDays": [
      "平日",
      "祝日"
    ],
    "openDaysNote": "年末年始、ゴールデンウィーク、夏季休暇あり"
  },
  {
    "id": "2070104076",
    "name": "介護屋デイサービスセンターオレンジ",
    "kana": "カイゴヤデイサービスセンターオレンジ",
    "address": "長野県長野市差出南2丁目12-26",
    "lat": 36.6305105791966,
    "lng": 138.172225563893,
    "tel": "026-268-0023",
    "url": "",
    "pref": "長野県",
    "city": "長野市",
    "category": "community_day_service",
    "serviceType": "地域密着型通所介護",
    "capacity": null,
    "openDays": [
      "平日",
      "土曜日",
      "祝日"
    ],
    "openDaysNote": "８月１３日から８月１６日まで及び１２月２９日から１月３日までは休業"
  },
  {
    "id": "2070105685",
    "name": "寄り合い処　ふらっと柳原",
    "kana": "ヨリアイドコロ　フラットヤナギハラ",
    "address": "長野県長野市柳原2223-1",
    "lat": 36.6648659,
    "lng": 138.2593111,
    "tel": "026-255-7726",
    "url": "rh_yanagihara2_manager@fb-kaigo.co.jp",
    "pref": "長野県",
    "city": "長野市",
    "category": "community_day_service",
    "serviceType": "地域密着型通所介護",
    "capacity": 0,
    "openDays": [
      "平日",
      "土曜日",
      "祝日"
    ],
    "openDaysNote": ""
  },
  {
    "id": "2090101003",
    "name": "鬼無里介護サービスセンター通所介護事業所",
    "kana": "キナサカイゴサービスセンターツウショカイゴジギョウショ",
    "address": "長野県長野市鬼無里160番地3",
    "lat": 36.6807345,
    "lng": 138.0032882,
    "tel": "026-256-2961",
    "url": "kinasa-dayservice@csw-naganocity.or.jp",
    "pref": "長野県",
    "city": "長野市",
    "category": "community_day_service",
    "serviceType": "地域密着型通所介護",
    "capacity": null,
    "openDays": [
      "平日",
      "祝日"
    ],
    "openDaysNote": ""
  },
  {
    "id": "2073400455",
    "name": "戸隠介護サービスセンター通所介護事業所",
    "kana": "トガクシカイゴサービスセンターツウショカイゴジギョウショ",
    "address": "長野県長野市戸隠栃原９２４６番地",
    "lat": 36.6721666,
    "lng": 138.0481453,
    "tel": "026-252-2780",
    "url": "syakyo＠ｃｓｗーnaganocity.or.jp",
    "pref": "長野県",
    "city": "長野市",
    "category": "community_day_service",
    "serviceType": "地域密着型通所介護",
    "capacity": 0,
    "openDays": [
      "平日",
      "土曜日",
      "祝日"
    ],
    "openDaysNote": ""
  },
  {
    "id": "2070106329",
    "name": "燦倶楽部犀北",
    "kana": "サンクラブサイホク",
    "address": "長野県長野市安茂里犀北団地７７８４番地",
    "lat": 36.6271847,
    "lng": 138.1593523,
    "tel": "026-269-9667",
    "url": "http://tikifuku-nagano.jp/",
    "pref": "長野県",
    "city": "長野市",
    "category": "community_day_service",
    "serviceType": "地域密着型通所介護",
    "capacity": 0,
    "openDays": [
      "平日",
      "土曜日",
      "祝日"
    ],
    "openDaysNote": "サービス提供時間以外でも、ご希望がありましたらご相談ください。ご対応いたします。"
  },
  {
    "id": "2070106337",
    "name": "燦倶楽部西河原",
    "kana": "サンクラブニシガワラ",
    "address": "長野県長野市安茂里西河原３７１１番地１",
    "lat": 36.6327229,
    "lng": 138.1619878,
    "tel": "026-225-9189",
    "url": "http://www.tikifuku-nagano.jp/",
    "pref": "長野県",
    "city": "長野市",
    "category": "community_day_service",
    "serviceType": "地域密着型通所介護",
    "capacity": 0,
    "openDays": [
      "平日",
      "土曜日",
      "祝日"
    ],
    "openDaysNote": "サービス提供時間以外でも、ご希望がありましたらご相談ください。ご対応いたします。"
  },
  {
    "id": "2070105180",
    "name": "小規模民家型デイサービスぽかぽかの家",
    "kana": "ショウキボミンカガタデイサービスポカポカノイエ",
    "address": "長野県長野市松代町松代1293-2",
    "lat": 36.5587495,
    "lng": 138.2029801,
    "tel": "026-214-5830",
    "url": "https://one-life-ikiruba.co.jp/",
    "pref": "長野県",
    "city": "長野市",
    "category": "community_day_service",
    "serviceType": "地域密着型通所介護",
    "capacity": 0,
    "openDays": [
      "平日",
      "土曜日",
      "祝日"
    ],
    "openDaysNote": "時間外の対応有"
  },
  {
    "id": "2090101367",
    "name": "晴れる屋",
    "kana": "ハレルヤ",
    "address": "長野県長野市篠ノ井塩崎4645",
    "lat": 36.558892,
    "lng": 138.1067365,
    "tel": "026-214-8158",
    "url": "https://ncare-shiozaki.co.jp/company/index.html",
    "pref": "長野県",
    "city": "長野市",
    "category": "community_day_service",
    "serviceType": "地域密着型通所介護",
    "capacity": 0,
    "openDays": [
      "平日"
    ],
    "openDaysNote": ""
  },
  {
    "id": "2090100831",
    "name": "生活リハビリ　ぽかぽかスタジオ",
    "kana": "セイカツリハビリ　ポカポカスタジオ",
    "address": "長野県長野市三輪　2-5-5-2",
    "lat": 36.6589434094794,
    "lng": 138.207831613492,
    "tel": "026-219-3877",
    "url": "https://one-life-ikiruba.co.jp/",
    "pref": "長野県",
    "city": "長野市",
    "category": "community_day_service",
    "serviceType": "地域密着型通所介護",
    "capacity": 18,
    "openDays": [
      "平日",
      "土曜日",
      "祝日"
    ],
    "openDaysNote": ""
  },
  {
    "id": "2070100918",
    "name": "大滝デイサービスセンター",
    "kana": "オオタキデイサービスセンター",
    "address": "長野県長野市上松2-7-7",
    "lat": 36.6668577,
    "lng": 138.1910241,
    "tel": "026-233-0839",
    "url": "",
    "pref": "長野県",
    "city": "長野市",
    "category": "community_day_service",
    "serviceType": "地域密着型通所介護",
    "capacity": 0,
    "openDays": [
      "平日",
      "土曜日"
    ],
    "openDaysNote": ""
  },
  {
    "id": "2070105263",
    "name": "大滝デイサービスセンター美和",
    "kana": "オオタキデイサービスセンターミワ",
    "address": "長野県長野市三輪5-1-21",
    "lat": 36.6563404,
    "lng": 138.2029005,
    "tel": "026-235-4775",
    "url": "",
    "pref": "長野県",
    "city": "長野市",
    "category": "community_day_service",
    "serviceType": "地域密着型通所介護",
    "capacity": 0,
    "openDays": [
      "平日"
    ],
    "openDaysNote": ""
  },
  {
    "id": "2070103854",
    "name": "第三宅老所のぞみ",
    "kana": "ダイサンタクロウジョノゾミ",
    "address": "長野県長野市信更町氷ノ田３１９２番地１",
    "lat": 36.5710605,
    "lng": 138.0727855,
    "tel": "026-299-2550",
    "url": "http://takunozomi.jp/",
    "pref": "長野県",
    "city": "長野市",
    "category": "community_day_service",
    "serviceType": "地域密着型通所介護",
    "capacity": 60,
    "openDays": [
      "平日",
      "祝日"
    ],
    "openDaysNote": ""
  },
  {
    "id": "2070104308",
    "name": "第二宅老所しんこう",
    "kana": "ダイニタクロウショシンコウ",
    "address": "長野県長野市信更町安庭１０７０",
    "lat": 36.5954156,
    "lng": 138.0455812,
    "tel": "026-299-1170",
    "url": "",
    "pref": "長野県",
    "city": "長野市",
    "category": "community_day_service",
    "serviceType": "地域密着型通所介護",
    "capacity": 0,
    "openDays": [
      "平日",
      "土曜日",
      "祝日"
    ],
    "openDaysNote": ""
  },
  {
    "id": "2070102021",
    "name": "宅幼老所おあしす",
    "kana": "タクヨウロウショオアシス",
    "address": "長野市川中島上氷鉋1708番地17",
    "lat": 36.6191829,
    "lng": 138.1609663,
    "tel": "026-284-7188",
    "url": "",
    "pref": "長野県",
    "city": "長野市",
    "category": "community_day_service",
    "serviceType": "地域密着型通所介護",
    "capacity": null,
    "openDays": [
      "平日",
      "土曜日",
      "祝日"
    ],
    "openDaysNote": ""
  },
  {
    "id": "2070101304",
    "name": "宅老所あったかいご",
    "kana": "タクロウショアッタカイゴ",
    "address": "長野県長野市松代町松代1303",
    "lat": 36.5611239,
    "lng": 138.1993584,
    "tel": "026-278-1112",
    "url": "",
    "pref": "長野県",
    "city": "長野市",
    "category": "community_day_service",
    "serviceType": "地域密着型通所介護",
    "capacity": 14,
    "openDays": [
      "平日",
      "土曜日",
      "祝日"
    ],
    "openDaysNote": "定休日であっても、利用の必要性がある場合は臨時営業することもあります。（年末年始に入浴のみで短縮営業するなど）"
  },
  {
    "id": "2070103805",
    "name": "宅老所いっぷく",
    "kana": "タクロウショイップク",
    "address": "長野県長野市高田1130-1",
    "lat": 36.6413736,
    "lng": 138.2077555,
    "tel": "026-224-8820",
    "url": "http://www.asahi-fukusi.jp",
    "pref": "長野県",
    "city": "長野市",
    "category": "community_day_service",
    "serviceType": "地域密着型通所介護",
    "capacity": 18,
    "openDays": [
      "平日",
      "土曜日",
      "日曜日",
      "祝日"
    ],
    "openDaysNote": ""
  },
  {
    "id": "2070102237",
    "name": "宅老所せりた",
    "kana": "タクロウショセリタ",
    "address": "長野県長野市稲葉中千田2056",
    "lat": 36.6318,
    "lng": 138.204036,
    "tel": "026-268-1677",
    "url": "http://www.asahi-fukusi.jp/",
    "pref": "長野県",
    "city": "長野市",
    "category": "community_day_service",
    "serviceType": "地域密着型通所介護",
    "capacity": 18,
    "openDays": [
      "平日",
      "土曜日",
      "日曜日",
      "祝日"
    ],
    "openDaysNote": "無休営業しています。（改行）時間外利用等にも対応出来ますのでご相談ください。"
  },
  {
    "id": "2070101668",
    "name": "宅老所のぞみ",
    "kana": "タクロウジョノゾミ",
    "address": "長野県長野市篠ノ井有旅２３３７－１",
    "lat": 36.5789328,
    "lng": 138.1144234,
    "tel": "026-292-2243",
    "url": "http://takunozomi.jp/",
    "pref": "長野県",
    "city": "長野市",
    "category": "community_day_service",
    "serviceType": "地域密着型通所介護",
    "capacity": 0,
    "openDays": [
      "平日",
      "土曜日",
      "祝日"
    ],
    "openDaysNote": ""
  },
  {
    "id": "2070101585",
    "name": "宅老所ふるさと",
    "kana": "タクロウジョフルサト",
    "address": "長野県長野市南長池２８６－５",
    "lat": 36.642072,
    "lng": 138.2370183,
    "tel": "026-268-2680",
    "url": "",
    "pref": "長野県",
    "city": "長野市",
    "category": "community_day_service",
    "serviceType": "地域密着型通所介護",
    "capacity": 10,
    "openDays": [
      "平日",
      "土曜日",
      "祝日"
    ],
    "openDaysNote": ""
  },
  {
    "id": "2070104480",
    "name": "宅老所みなみまた",
    "kana": "タクロウショミナミマタ",
    "address": "長野県長野市稲葉２６０８－１",
    "lat": 36.63683,
    "lng": 138.2082971,
    "tel": "026-217-2771",
    "url": "http://www.asahi-fukusi.jp/?page_id=23",
    "pref": "長野県",
    "city": "長野市",
    "category": "community_day_service",
    "serviceType": "地域密着型通所介護",
    "capacity": 18,
    "openDays": [
      "平日",
      "土曜日",
      "日曜日",
      "祝日"
    ],
    "openDaysNote": ""
  },
  {
    "id": "2090101326",
    "name": "宅老所縁互",
    "kana": "タクロウショエンゴ",
    "address": "長野県長野市青木島町綱島287番地２",
    "lat": 36.616288,
    "lng": 138.1921195,
    "tel": "026-285-2636",
    "url": "",
    "pref": "長野県",
    "city": "長野市",
    "category": "community_day_service",
    "serviceType": "地域密着型通所介護",
    "capacity": 0,
    "openDays": [
      "平日"
    ],
    "openDaysNote": ""
  },
  {
    "id": "2070106063",
    "name": "通所介護事業所さきがけ",
    "kana": "ツウショカイゴジギョウショサキガケ",
    "address": "長野県長野市鶴賀権堂町1448-12-111シルバース権堂B棟1階 シルバース権堂B棟1階",
    "lat": 36.6516861682793,
    "lng": 138.191306712025,
    "tel": "026-219-3173",
    "url": "http://hp.kaipoke.biz/96t/",
    "pref": "長野県",
    "city": "長野市",
    "category": "community_day_service",
    "serviceType": "地域密着型通所介護",
    "capacity": 0,
    "openDays": [
      "平日",
      "土曜日",
      "日曜日",
      "祝日"
    ],
    "openDaysNote": ""
  },
  {
    "id": "2070104001",
    "name": "特定非営利活動法人大和家",
    "kana": "トクテイヒエイリカツドウホウジンヤマトヤ",
    "address": "長野県長野市青木島町綱島２２２番地３宅老所　大和家 宅老所　大和家",
    "lat": 36.6158288,
    "lng": 138.1923467,
    "tel": "026-284-8091",
    "url": "",
    "pref": "長野県",
    "city": "長野市",
    "category": "community_day_service",
    "serviceType": "地域密着型通所介護",
    "capacity": 0,
    "openDays": [
      "平日",
      "土曜日",
      "祝日"
    ],
    "openDaysNote": ""
  },
  {
    "id": "2070105990",
    "name": "脳梗塞リハビリ動き再生センター",
    "kana": "ノウコウソクリハビリウゴキサイセイセンター",
    "address": "長野県長野市徳間1-1-5ハイツＭＫ1階 ハイツＭＫ1階",
    "lat": 36.6779802,
    "lng": 138.2186751,
    "tel": "026－405－6271",
    "url": "https://netakiri.com/",
    "pref": "長野県",
    "city": "長野市",
    "category": "community_day_service",
    "serviceType": "地域密着型通所介護",
    "capacity": 0,
    "openDays": [
      "平日",
      "土曜日"
    ],
    "openDaysNote": ""
  },
  {
    "id": "2070104449",
    "name": "福老壱番館",
    "kana": "フクロウイチバンカン",
    "address": "長野県長野市中越二丁目３１番６号",
    "lat": 36.6632871,
    "lng": 138.2201512,
    "tel": "026-244-2628",
    "url": "http://www.fukurou-kaigo.com/index.html",
    "pref": "長野県",
    "city": "長野市",
    "category": "community_day_service",
    "serviceType": "地域密着型通所介護",
    "capacity": 48,
    "openDays": [
      "平日",
      "土曜日",
      "祝日"
    ],
    "openDaysNote": "上記以外の利用日時には、相談に応じます。"
  },
  {
    "id": "2090100922",
    "name": "福老参番館",
    "kana": "フクロウサンバンカン",
    "address": "長野県長野市吉田5-30-25",
    "lat": 36.6617369762539,
    "lng": 138.225077739177,
    "tel": "026-243-2963",
    "url": "http://www.fukurou-kaigo.com/",
    "pref": "長野県",
    "city": "長野市",
    "category": "community_day_service",
    "serviceType": "地域密着型通所介護",
    "capacity": null,
    "openDays": [
      "平日",
      "土曜日",
      "日曜日",
      "祝日"
    ],
    "openDaysNote": ""
  },
  {
    "id": "2070105529",
    "name": "福老弐番館",
    "kana": "フクロウニバンカン",
    "address": "長野県長野市吉田5丁目29番28－8",
    "lat": 36.6611599,
    "lng": 138.2263727,
    "tel": "026-219-2962",
    "url": "http://www.fukurou-kaigo.com/",
    "pref": "長野県",
    "city": "長野市",
    "category": "community_day_service",
    "serviceType": "地域密着型通所介護",
    "capacity": 70,
    "openDays": [
      "平日",
      "土曜日",
      "日曜日",
      "祝日"
    ],
    "openDaysNote": "１２月３１日～１月３日、６月第一日曜日はお休みをいただいております"
  },
  {
    "id": "2070106048",
    "name": "陽だまり山布施",
    "kana": "ヒダマリヤマブセ",
    "address": "長野県長野市篠ノ井山布施8485番1陽だまり山布施 陽だまり山布施",
    "lat": 36.6161504,
    "lng": 138.0951566,
    "tel": "026-217-8344",
    "url": "",
    "pref": "長野県",
    "city": "長野市",
    "category": "community_day_service",
    "serviceType": "地域密着型通所介護",
    "capacity": 0,
    "openDays": [
      "平日",
      "日曜日",
      "祝日"
    ],
    "openDaysNote": ""
  },
  {
    "id": "2072500420",
    "name": "社会福祉法人天龍村社会福祉協議会デイサービスセンター山百合荘",
    "kana": "シャカイフクシホウジンテンリュウムラシャカイフクシキョウギカイデイサービスセンターヤマユリソウ",
    "address": "長野県下伊那郡天龍村平岡７７３番地２デイサービスセンター山百合荘 デイサービスセンター山百合荘",
    "lat": 35.282771,
    "lng": 137.8597557,
    "tel": "0260-32-3066",
    "url": "http://tenryushakyo.info/",
    "pref": "長野県",
    "city": "天龍村",
    "category": "community_day_service",
    "serviceType": "地域密着型通所介護",
    "capacity": 0,
    "openDays": [
      "平日",
      "祝日"
    ],
    "openDaysNote": ""
  },
  {
    "id": "2071900118",
    "name": "デイサービスセンターあぜだ",
    "kana": "デイサービスセンターアゼダ",
    "address": "長野県東御市下之城21-4",
    "lat": 36.2991905,
    "lng": 138.3488322,
    "tel": "0268-67-1160",
    "url": "http://www.cpmimaki.or.jp",
    "pref": "長野県",
    "city": "東御市",
    "category": "community_day_service",
    "serviceType": "地域密着型通所介護",
    "capacity": 0,
    "openDays": [
      "平日",
      "祝日"
    ],
    "openDaysNote": "特になし"
  },
  {
    "id": "2071900076",
    "name": "デイサービスセンターリハビリ処東御",
    "kana": "デイサービスセンターリハビリドコロトウミ",
    "address": "長野県東御市和２５７１",
    "lat": 36.3778411,
    "lng": 138.3190362,
    "tel": "0268-64-5185",
    "url": "",
    "pref": "長野県",
    "city": "東御市",
    "category": "community_day_service",
    "serviceType": "地域密着型通所介護",
    "capacity": 0,
    "openDays": [
      "平日",
      "土曜日",
      "祝日"
    ],
    "openDaysNote": "時間外対応相談に応じます。日曜利用、宿泊希望の方は実費で対応します。"
  },
  {
    "id": "2071900209",
    "name": "やえはらデイサービス・みはらしの郷",
    "kana": "ヤエハラデイサービス・ミハラシノサト",
    "address": "長野県東御市八重原2149番地",
    "lat": 36.3256756,
    "lng": 138.3255076,
    "tel": "0268-67-1555",
    "url": "https://www.cpmimaki.or.jp",
    "pref": "長野県",
    "city": "東御市",
    "category": "community_day_service",
    "serviceType": "地域密着型通所介護",
    "capacity": 18,
    "openDays": [
      "平日",
      "土曜日",
      "祝日"
    ],
    "openDaysNote": "延長利用の場合は要相談して検討"
  },
  {
    "id": "2071900274",
    "name": "リハビリサロン夢里逢",
    "kana": "リハビリサロンユメリア",
    "address": "長野県東御市常田493-1",
    "lat": 36.3617031261687,
    "lng": 138.343204253803,
    "tel": "0268-84-1518",
    "url": "",
    "pref": "長野県",
    "city": "東御市",
    "category": "community_day_service",
    "serviceType": "地域密着型通所介護",
    "capacity": 10,
    "openDays": [
      "平日",
      "土曜日",
      "祝日"
    ],
    "openDaysNote": "緊急時は代表直通携帯にて対応可能"
  },
  {
    "id": "2091900106",
    "name": "運動特化型LIFE",
    "kana": "ウンドウトッカガタライフ",
    "address": "長野県東御市布下37",
    "lat": 36.3358276,
    "lng": 138.360251,
    "tel": "0268-61-6022",
    "url": "",
    "pref": "長野県",
    "city": "東御市",
    "category": "community_day_service",
    "serviceType": "地域密着型通所介護",
    "capacity": 0,
    "openDays": [
      "平日"
    ],
    "openDaysNote": ""
  },
  {
    "id": "2071900084",
    "name": "宅幼老所岩井屋",
    "kana": "タクヨウロウジョイワイヤ",
    "address": "長野県東御市田中２２０",
    "lat": 36.3556856287675,
    "lng": 138.329280338702,
    "tel": "0268-64-1439",
    "url": "https://www.iwaiya.org",
    "pref": "長野県",
    "city": "東御市",
    "category": "community_day_service",
    "serviceType": "地域密着型通所介護",
    "capacity": 10,
    "openDays": [
      "平日",
      "祝日"
    ],
    "openDaysNote": ""
  },
  {
    "id": "2091900056",
    "name": "日日（是好日）館",
    "kana": "ニチニチ（コレコウジツ）カン",
    "address": "東御市新張１０８９－２",
    "lat": 36.3644941,
    "lng": 138.3692834,
    "tel": "080-5826-7121",
    "url": "http://www.ryokuhuukai.or.jp/",
    "pref": "長野県",
    "city": "東御市",
    "category": "community_day_service",
    "serviceType": "地域密着型通所介護",
    "capacity": 0,
    "openDays": [
      "平日",
      "祝日"
    ],
    "openDaysNote": ""
  },
  {
    "id": "2072000207",
    "name": "社会福祉法人南相木村社会福祉協議会",
    "kana": "ミナミアイキムラシャカイフクシキョウギカイ",
    "address": "長野県南佐久郡南相木村3781番地162",
    "lat": 36.0359331448935,
    "lng": 138.543685218494,
    "tel": "0267-78-1001",
    "url": "http://www.ytg.janis.or.jp/~mshakyo3781/",
    "pref": "長野県",
    "city": "南相木村",
    "category": "community_day_service",
    "serviceType": "地域密着型通所介護",
    "capacity": 0,
    "openDays": [
      "平日",
      "祝日"
    ],
    "openDaysNote": "延長のご利用も可能です。"
  },
  {
    "id": "2072000348",
    "name": "南牧村デイサービスセンター海ノ口",
    "kana": "ミナミマキムラデイサービスセンターウミノクチ",
    "address": "長野県南佐久郡南牧村海ノ口966番地15",
    "lat": 36.0217334,
    "lng": 138.4905825,
    "tel": "0267-96-2363",
    "url": "",
    "pref": "長野県",
    "city": "南牧村",
    "category": "community_day_service",
    "serviceType": "地域密着型通所介護",
    "capacity": 0,
    "openDays": [
      "平日",
      "土曜日",
      "祝日"
    ],
    "openDaysNote": ""
  },
  {
    "id": "2072000355",
    "name": "南牧村デイサービスセンター野辺山",
    "kana": "ミナミマキムラデイサービスセンターノベヤマ",
    "address": "長野県南佐久郡南牧村大字野野辺山65-3",
    "lat": 35.9607150515251,
    "lng": 138.465826409326,
    "tel": "0267-91-1155",
    "url": "http://www.ja-naganokai.or.jp/facilities/nobeyama/",
    "pref": "長野県",
    "city": "南牧村",
    "category": "community_day_service",
    "serviceType": "地域密着型通所介護",
    "capacity": 18,
    "openDays": [
      "平日",
      "土曜日",
      "祝日"
    ],
    "openDaysNote": ""
  },
  {
    "id": "2072401231",
    "name": "松の学校",
    "kana": "マツノガッコウ",
    "address": "長野県上伊那郡南箕輪村3461-1",
    "lat": 35.8779094550673,
    "lng": 137.981435715344,
    "tel": "0265-98-7728",
    "url": "",
    "pref": "長野県",
    "city": "南箕輪村",
    "category": "community_day_service",
    "serviceType": "地域密着型通所介護",
    "capacity": 2,
    "openDays": [
      "平日",
      "土曜日",
      "祝日"
    ],
    "openDaysNote": "年末年始休業12/31～1/2（改行）盆休業　8/13～8/14"
  },
  {
    "id": "2072400548",
    "name": "宅老所かいご家",
    "kana": "タクロウショカイゴヤ",
    "address": "長野県上伊那郡南箕輪村６４１３－１",
    "lat": 35.8600708011568,
    "lng": 137.973830847266,
    "tel": "0265-77-0274",
    "url": "",
    "pref": "長野県",
    "city": "南箕輪村",
    "category": "community_day_service",
    "serviceType": "地域密着型通所介護",
    "capacity": 0,
    "openDays": [
      "平日",
      "土曜日",
      "祝日"
    ],
    "openDaysNote": ""
  },
  {
    "id": "2072600725",
    "name": "宅幼老所ごうどの家",
    "kana": "タクヨウロウショ　ゴウドノイエ",
    "address": "長野県木曽郡南木曽町読書3348番地9",
    "lat": 35.5939377,
    "lng": 137.6038032,
    "tel": "0264-57-3938",
    "url": "",
    "pref": "長野県",
    "city": "南木曽町",
    "category": "community_day_service",
    "serviceType": "地域密着型通所介護",
    "capacity": 10,
    "openDays": [
      "平日",
      "土曜日",
      "祝日"
    ],
    "openDaysNote": ""
  },
  {
    "id": "2072900141",
    "name": "デイサービスセンター白嶺",
    "kana": "デイサービスセンターハクレイ",
    "address": "長野県北安曇郡白馬村大字神城22847-2",
    "lat": 36.6640499,
    "lng": 137.8448968,
    "tel": "0261-75-4030",
    "url": "http://www.hakurei-nagano.com/",
    "pref": "長野県",
    "city": "白馬村",
    "category": "community_day_service",
    "serviceType": "地域密着型通所介護",
    "capacity": 0,
    "openDays": [
      "平日",
      "土曜日",
      "祝日"
    ],
    "openDaysNote": ""
  },
  {
    "id": "2072900745",
    "name": "白馬村社協デイサービスセンター岳の湯",
    "kana": "ハクバムラシャキョウデイサービスセンタータケノユ",
    "address": "長野県北安曇郡白馬村大字北城265番地38",
    "lat": 36.6813727544752,
    "lng": 137.853491837749,
    "tel": "0261-85-0201",
    "url": "",
    "pref": "長野県",
    "city": "白馬村",
    "category": "community_day_service",
    "serviceType": "地域密着型通所介護",
    "capacity": 18,
    "openDays": [
      "平日",
      "祝日"
    ],
    "openDaysNote": "年末年始（12月29から１月3日）を除く（改行）（改行）12月から3月　　9：30～15：30の営業時間（改行）4月から11月　　9：15～16：15の営業時間"
  },
  {
    "id": "2093400063",
    "name": "りんごパーク",
    "kana": "リンゴパーク",
    "address": "長野県上水内郡飯綱町大字芋川１６０番地",
    "lat": 36.763274,
    "lng": 138.2549508,
    "tel": "０２６－２５３－７４３６",
    "url": "https://www.ii-shakyo.or.jp/",
    "pref": "長野県",
    "city": "飯綱町",
    "category": "community_day_service",
    "serviceType": "地域密着型通所介護",
    "capacity": 0,
    "openDays": [
      "平日",
      "土曜日",
      "祝日"
    ],
    "openDaysNote": ""
  },
  {
    "id": "2073400794",
    "name": "株式会社　ライフ・パートナー　ケアプラザみつえ　デイサービスセンター",
    "kana": "カブシキガイシャ　ライフ・パートナー　ケアプラザミツエ　デイサービスセンター",
    "address": "長野県上水内郡飯綱町大字牟礼字裏町2519-1",
    "lat": 36.7522108,
    "lng": 138.2346668,
    "tel": "026-219-1166",
    "url": "careplaza-mitsue.jp/",
    "pref": "長野県",
    "city": "飯綱町",
    "category": "community_day_service",
    "serviceType": "地域密着型通所介護",
    "capacity": 12,
    "openDays": [
      "平日",
      "祝日"
    ],
    "openDaysNote": ""
  },
  {
    "id": "2091300059",
    "name": "リハビリ特化型通所介護Lifewell",
    "kana": "リハビリトッカガタツウショカイゴライフウェル",
    "address": "長野県飯山市南町25番地１太洋ビル1階 太洋ビル1階",
    "lat": 36.8500056,
    "lng": 138.3608791,
    "tel": "0269-81-1140",
    "url": "",
    "pref": "長野県",
    "city": "飯山市",
    "category": "community_day_service",
    "serviceType": "地域密着型通所介護",
    "capacity": 18,
    "openDays": [
      "平日"
    ],
    "openDaysNote": "12/31～1/3まで年末年始休暇"
  },
  {
    "id": "2071300228",
    "name": "宅幼老所ゆりかご",
    "kana": "タクヨウロウショユリカゴ",
    "address": "長野県飯山市大字静間２９００-２",
    "lat": 36.824428,
    "lng": 138.3472954,
    "tel": "0269-81-3888",
    "url": "http://www.yuri-kago.co.jp",
    "pref": "長野県",
    "city": "飯山市",
    "category": "community_day_service",
    "serviceType": "地域密着型通所介護",
    "capacity": 0,
    "openDays": [
      "平日",
      "土曜日",
      "日曜日",
      "祝日"
    ],
    "openDaysNote": "特になし"
  },
  {
    "id": "2070501917",
    "name": "オレンジ",
    "kana": "オレンジ",
    "address": "長野県飯田市松尾寺所6984番地1",
    "lat": 35.4956687089065,
    "lng": 137.856269339109,
    "tel": "0265-53-4339",
    "url": "http://wak-wak.net/",
    "pref": "長野県",
    "city": "飯田市",
    "category": "community_day_service",
    "serviceType": "地域密着型通所介護",
    "capacity": 0,
    "openDays": [
      "平日",
      "祝日"
    ],
    "openDaysNote": "※平日の祝日においては営業しております"
  },
  {
    "id": "2090500311",
    "name": "かやの木診療所",
    "kana": "カヤノキシンリョウジョ",
    "address": "長野県飯田市中村76-1",
    "lat": 35.4891482,
    "lng": 137.7856089,
    "tel": "0265-25-0025",
    "url": "",
    "pref": "長野県",
    "city": "飯田市",
    "category": "community_day_service",
    "serviceType": "地域密着型通所介護",
    "capacity": 18,
    "openDays": [
      "平日",
      "土曜日"
    ],
    "openDaysNote": "但し、利用者希望などあった場合は上記営業日に限らず営業を行う"
  },
  {
    "id": "2070501990",
    "name": "デイサービス　あんじゃない",
    "kana": "デイサービス　アンジャナイ",
    "address": "長野県飯田市山本3120-1",
    "lat": 35.473779,
    "lng": 137.758814,
    "tel": "0265-49-0787",
    "url": "",
    "pref": "長野県",
    "city": "飯田市",
    "category": "community_day_service",
    "serviceType": "地域密着型通所介護",
    "capacity": 12,
    "openDays": [
      "平日",
      "土曜日",
      "祝日"
    ],
    "openDaysNote": ""
  },
  {
    "id": "2090500279",
    "name": "デイサービス　ピュアスマイル飯田",
    "kana": "デイサービス　ピュアスマイルイイダデイサービス",
    "address": "長野県飯田市山本581-2",
    "lat": 35.4792435,
    "lng": 137.7538931,
    "tel": "0265-49-0533",
    "url": "http://www.pure-sml.jp/",
    "pref": "長野県",
    "city": "飯田市",
    "category": "community_day_service",
    "serviceType": "地域密着型通所介護",
    "capacity": 0,
    "openDays": [
      "平日",
      "土曜日",
      "祝日"
    ],
    "openDaysNote": ""
  },
  {
    "id": "2090500345",
    "name": "デイサービスセンターおてだま",
    "kana": "デイサービスセンターオテダマ",
    "address": "長野県飯田市松尾新井5838-7",
    "lat": 35.5003311,
    "lng": 137.8549134,
    "tel": "0265-49-4510",
    "url": "",
    "pref": "長野県",
    "city": "飯田市",
    "category": "community_day_service",
    "serviceType": "地域密着型通所介護",
    "capacity": 18,
    "openDays": [
      "平日",
      "土曜日",
      "祝日"
    ],
    "openDaysNote": ""
  },
  {
    "id": "2070501503",
    "name": "デイサービスセンターおよりて",
    "kana": "デイサービスセンターオヨリテ",
    "address": "長野県飯田市龍江7159-1",
    "lat": 35.442126077302,
    "lng": 137.821267401295,
    "tel": "0265-27-4600",
    "url": "http://yuinosato-nagano.or.jp/",
    "pref": "長野県",
    "city": "飯田市",
    "category": "community_day_service",
    "serviceType": "地域密着型通所介護",
    "capacity": 10,
    "openDays": [
      "平日",
      "土曜日",
      "日曜日",
      "祝日"
    ],
    "openDaysNote": ""
  },
  {
    "id": "2090500428",
    "name": "でいさーびすせんたーしき",
    "kana": "デイサービスセンター四季",
    "address": "長野県飯田市松尾代田910－1",
    "lat": 35.4912693,
    "lng": 137.8281819,
    "tel": "0265－52ー5511",
    "url": "",
    "pref": "長野県",
    "city": "飯田市",
    "category": "community_day_service",
    "serviceType": "地域密着型通所介護",
    "capacity": 0,
    "openDays": [
      "平日",
      "土曜日",
      "祝日"
    ],
    "openDaysNote": ""
  },
  {
    "id": "2070501040",
    "name": "デイサービスわくわく",
    "kana": "デイサービスワクワク",
    "address": "長野県飯田市桐林２０６番地",
    "lat": 35.4675002,
    "lng": 137.8253683,
    "tel": "0265-26-3410",
    "url": "http://w1.avis.ne.jp/~waku2/",
    "pref": "長野県",
    "city": "飯田市",
    "category": "community_day_service",
    "serviceType": "地域密着型通所介護",
    "capacity": 15,
    "openDays": [
      "平日",
      "土曜日",
      "祝日"
    ],
    "openDaysNote": "平日の祝日においては営業しております。"
  },
  {
    "id": "2070501776",
    "name": "デイサービス大瀬木の杜",
    "kana": "デイサービスオオセギノモリ",
    "address": "長野県飯田市大瀬木647番地1",
    "lat": 35.4973568569132,
    "lng": 137.791504510095,
    "tel": "0265-48-5678",
    "url": "http://kafune.jp/ooseginomori/",
    "pref": "長野県",
    "city": "飯田市",
    "category": "community_day_service",
    "serviceType": "地域密着型通所介護",
    "capacity": 0,
    "openDays": [
      "平日",
      "土曜日",
      "祝日"
    ],
    "openDaysNote": ""
  },
  {
    "id": "2070501818",
    "name": "なの花",
    "kana": "ナノハナ",
    "address": "長野県飯田市羽場町2丁目13番地16",
    "lat": 35.5185296992771,
    "lng": 137.808779050073,
    "tel": "0265-49-8722",
    "url": "",
    "pref": "長野県",
    "city": "飯田市",
    "category": "community_day_service",
    "serviceType": "地域密着型通所介護",
    "capacity": null,
    "openDays": [
      "平日",
      "土曜日",
      "祝日"
    ],
    "openDaysNote": ""
  },
  {
    "id": "2090500378",
    "name": "ブルーム花の木",
    "kana": "ブルームハナノキ",
    "address": "長野県飯田市丸山町１－８－２",
    "lat": 35.5226352,
    "lng": 137.8154742,
    "tel": "0265-52-5870",
    "url": "",
    "pref": "長野県",
    "city": "飯田市",
    "category": "community_day_service",
    "serviceType": "地域密着型通所介護",
    "capacity": 0,
    "openDays": [
      "平日",
      "土曜日",
      "祝日"
    ],
    "openDaysNote": ""
  },
  {
    "id": "2090500402",
    "name": "もとまちデイ",
    "kana": "モトマチデイ",
    "address": "長野県飯田市元町５４５０番地６",
    "lat": 35.5180741,
    "lng": 137.8199261,
    "tel": "0265-48-0818",
    "url": "https://motomachiday.wixsite.com/index",
    "pref": "長野県",
    "city": "飯田市",
    "category": "community_day_service",
    "serviceType": "地域密着型通所介護",
    "capacity": 10,
    "openDays": [
      "平日",
      "土曜日",
      "祝日"
    ],
    "openDaysNote": "お盆期間、年末年始期間は臨時の休業日を設けております。"
  },
  {
    "id": "2070502113",
    "name": "リハプライド　飯田",
    "kana": "リハプライド　イイダ",
    "address": "長野県飯田市松尾代田1859-12",
    "lat": 35.4933763,
    "lng": 137.8316171,
    "tel": "0265-48-8911",
    "url": "https://www.rehapride.co.jp/iida/profile/",
    "pref": "長野県",
    "city": "飯田市",
    "category": "community_day_service",
    "serviceType": "地域密着型通所介護",
    "capacity": 10,
    "openDays": [
      "平日",
      "祝日"
    ],
    "openDaysNote": ""
  },
  {
    "id": "2070501925",
    "name": "レッツ倶楽部　桜町",
    "kana": "レッツクラブサクラマチ",
    "address": "長野県飯田市桜町２－４７－１",
    "lat": 35.5206399032032,
    "lng": 137.829164157672,
    "tel": "0265-49-8237",
    "url": "http://www.lets-club.jp/shop/sakuramachi/",
    "pref": "長野県",
    "city": "飯田市",
    "category": "community_day_service",
    "serviceType": "地域密着型通所介護",
    "capacity": 2,
    "openDays": [
      "平日",
      "祝日"
    ],
    "openDaysNote": "１２月３０日から１月３日は休業"
  },
  {
    "id": "2070501446",
    "name": "わか葉",
    "kana": "ワカバ",
    "address": "長野県飯田市松尾寺所7041番地",
    "lat": 35.4958385065902,
    "lng": 137.855968152779,
    "tel": "0265-53-4330",
    "url": "http://wak-wak.net/",
    "pref": "長野県",
    "city": "飯田市",
    "category": "community_day_service",
    "serviceType": "地域密着型通所介護",
    "capacity": 0,
    "openDays": [
      "平日",
      "土曜日",
      "祝日"
    ],
    "openDaysNote": "平日の祝日においては営業しております。"
  },
  {
    "id": "2070500950",
    "name": "下山デイサービスセンターゆったりホーム",
    "kana": "シモヤマデイサービスセンターユッタリホーム",
    "address": "長野県飯田市鼎下山６８５番地",
    "lat": 35.5067374,
    "lng": 137.8345014,
    "tel": "0265-22-3555",
    "url": "http://www.sekiguchi-fukushi.com",
    "pref": "長野県",
    "city": "飯田市",
    "category": "community_day_service",
    "serviceType": "地域密着型通所介護",
    "capacity": 1,
    "openDays": [
      "平日",
      "土曜日",
      "祝日"
    ],
    "openDaysNote": "夏期休業：８月１３日、１４日、１５日（基本として）（改行）年末年始休業：１２月２９日、１２月３０日、３１日、１月１日、２日、３日（基本として）"
  },
  {
    "id": "2090500469",
    "name": "観生庵",
    "kana": "カンセイアン",
    "address": "長野県飯田市松尾明5194ー5",
    "lat": 35.4956438,
    "lng": 137.8477875,
    "tel": "0265－48－9049",
    "url": "",
    "pref": "長野県",
    "city": "飯田市",
    "category": "community_day_service",
    "serviceType": "地域密着型通所介護",
    "capacity": 0,
    "openDays": [
      "平日",
      "土曜日",
      "祝日"
    ],
    "openDaysNote": "年末年始休み"
  },
  {
    "id": "2070501883",
    "name": "共生ホームひなたぼっこ",
    "kana": "キョウセイホームヒナタボッコ",
    "address": "長野県飯田市鼎名古熊1711",
    "lat": 35.4914196,
    "lng": 137.8270168,
    "tel": "0265-48-6069",
    "url": "",
    "pref": "長野県",
    "city": "飯田市",
    "category": "community_day_service",
    "serviceType": "地域密着型通所介護",
    "capacity": 18,
    "openDays": [
      "平日",
      "土曜日",
      "祝日"
    ],
    "openDaysNote": ""
  },
  {
    "id": "2070501800",
    "name": "三穂宅老所さろんまめだに",
    "kana": "ミホタクロウショサロンマメダニ",
    "address": "長野県飯田市伊豆木３８４１－１",
    "lat": 35.4439078,
    "lng": 137.7948143,
    "tel": "０２６５－４８－６５１０",
    "url": "",
    "pref": "長野県",
    "city": "飯田市",
    "category": "community_day_service",
    "serviceType": "地域密着型通所介護",
    "capacity": 0,
    "openDays": [
      "平日",
      "土曜日",
      "祝日"
    ],
    "openDaysNote": ""
  },
  {
    "id": "2070501321",
    "name": "切石デイサービスセンターやわら機能訓練ホーム",
    "kana": "キリイシデイサービスセンターヤワラキノウクンレンホーム",
    "address": "長野県飯田市鼎切石４３５７－２",
    "lat": 35.5107643,
    "lng": 137.8082067,
    "tel": "0265-52-5123",
    "url": "http://www.sekiguchi-fukushi.co.jp",
    "pref": "長野県",
    "city": "飯田市",
    "category": "community_day_service",
    "serviceType": "地域密着型通所介護",
    "capacity": 0,
    "openDays": [
      "平日",
      "土曜日"
    ],
    "openDaysNote": "夏期休業：８月１３、１４、１５日（改行）年末年始休業：１２月２９、３０、３１日、１月１、２、３日"
  },
  {
    "id": "2070500976",
    "name": "川路宅老所さろんあやめ",
    "kana": "カワジタクロウショサロンアヤメ",
    "address": "長野県飯田市川路2682",
    "lat": 35.4514463,
    "lng": 137.812312,
    "tel": "0265-48-0223",
    "url": "",
    "pref": "長野県",
    "city": "飯田市",
    "category": "community_day_service",
    "serviceType": "地域密着型通所介護",
    "capacity": 18,
    "openDays": [
      "平日",
      "土曜日",
      "祝日"
    ],
    "openDaysNote": ""
  },
  {
    "id": "2090500303",
    "name": "宅幼老所しろいわ",
    "kana": "タクヨウロウショシロイワ",
    "address": "長野県飯田市南信濃八重河内３０２－３２",
    "lat": 35.3117717958005,
    "lng": 137.92761502209,
    "tel": "0260-31-0515",
    "url": "https://kaigo-yorozu.com/about/",
    "pref": "長野県",
    "city": "飯田市",
    "category": "community_day_service",
    "serviceType": "地域密着型通所介護",
    "capacity": null,
    "openDays": [
      "平日",
      "土曜日",
      "日曜日",
      "祝日"
    ],
    "openDaysNote": ""
  },
  {
    "id": "2070501768",
    "name": "宅老所　おおせぎ別家",
    "kana": "タクロウショ　オオセギ　ベッケ",
    "address": "長野県飯田市大瀬木4463-1番地",
    "lat": 35.4943040821777,
    "lng": 137.792468089042,
    "tel": "265250180",
    "url": "http://oinanyo.iida-city.com",
    "pref": "長野県",
    "city": "飯田市",
    "category": "community_day_service",
    "serviceType": "地域密着型通所介護",
    "capacity": 0,
    "openDays": [
      "平日",
      "土曜日",
      "祝日"
    ],
    "openDaysNote": ""
  },
  {
    "id": "2070500729",
    "name": "宅老所かけはし",
    "kana": "タクロウショカケハシ",
    "address": "長野県飯田市上郷黒田２７６３－１",
    "lat": 35.5327648,
    "lng": 137.8349026,
    "tel": "0265-53-3800",
    "url": "https://g-kakehasi.jp/",
    "pref": "長野県",
    "city": "飯田市",
    "category": "community_day_service",
    "serviceType": "地域密着型通所介護",
    "capacity": 0,
    "openDays": [
      "平日",
      "土曜日",
      "祝日"
    ],
    "openDaysNote": "家族の希望により延長を行っている"
  },
  {
    "id": "2070501412",
    "name": "宅老所ひだまり",
    "kana": "タクロウショヒダマリ",
    "address": "長野県飯田市駄科1046-3",
    "lat": 35.4752606,
    "lng": 137.8352279,
    "tel": "0265-26-8782",
    "url": "takurousyo.h@ion.ocn.ne.jp",
    "pref": "長野県",
    "city": "飯田市",
    "category": "community_day_service",
    "serviceType": "地域密着型通所介護",
    "capacity": 0,
    "openDays": [
      "平日",
      "土曜日",
      "祝日"
    ],
    "openDaysNote": ""
  },
  {
    "id": "2090500410",
    "name": "飯田市かなえデイサービスセンター",
    "kana": "イイダシカナエデイサービスセンター",
    "address": "長野県飯田市鼎一色５５１番地",
    "lat": 35.502123,
    "lng": 137.8188577,
    "tel": "0265-53-4466",
    "url": "kayagakikai.or.jp",
    "pref": "長野県",
    "city": "飯田市",
    "category": "community_day_service",
    "serviceType": "地域密着型通所介護",
    "capacity": null,
    "openDays": [
      "平日",
      "日曜日",
      "祝日"
    ],
    "openDaysNote": ""
  },
  {
    "id": "2070501651",
    "name": "飯田市千代デイサービスセンター",
    "kana": "イイダシチヨデイサービスセンター",
    "address": "長野県飯田市千栄2678-7",
    "lat": 35.4208286,
    "lng": 137.8470017,
    "tel": "0265-59-1150",
    "url": "http://www.mis.janis.or.jp/~chiyo932/",
    "pref": "長野県",
    "city": "飯田市",
    "category": "community_day_service",
    "serviceType": "地域密着型通所介護",
    "capacity": null,
    "openDays": [
      "平日",
      "土曜日",
      "祝日"
    ],
    "openDaysNote": ""
  },
  {
    "id": "2092400247",
    "name": "飯島町デイサービスセンター石楠花苑",
    "kana": "イイジママチデイサービスセンターシャクナゲエン",
    "address": "長野県上伊那郡飯島町飯島2551",
    "lat": 35.6775764,
    "lng": 137.9194243,
    "tel": "0265-86-6067",
    "url": "http://www.iisyakyo.or.jp",
    "pref": "長野県",
    "city": "飯島町",
    "category": "community_day_service",
    "serviceType": "地域密着型通所介護",
    "capacity": 0,
    "openDays": [
      "平日",
      "土曜日",
      "祝日"
    ],
    "openDaysNote": "なし"
  },
  {
    "id": "2092300231",
    "name": "宅幼老所ひなたぼっこ",
    "kana": "タクヨウロウジョヒナタボッコ",
    "address": "長野県諏訪郡富士見町富士見11651-6",
    "lat": 35.9227678,
    "lng": 138.2290371,
    "tel": "0266-75-2761",
    "url": "https://www.hinatabokko.net/sisetuannai.html",
    "pref": "長野県",
    "city": "富士見町",
    "category": "community_day_service",
    "serviceType": "地域密着型通所介護",
    "capacity": 0,
    "openDays": [
      "平日",
      "土曜日",
      "日曜日",
      "祝日"
    ],
    "openDaysNote": ""
  },
  {
    "id": "2092300249",
    "name": "宅幼老所ぽかぽか",
    "kana": "タクヨウロウジョポカポカ",
    "address": "長野県諏訪郡富士見町富士見１１６５０－６",
    "lat": 35.9229408,
    "lng": 138.2291124,
    "tel": "0266-75-1842",
    "url": "https://www.hinatabokko.net/sisetuannai.html",
    "pref": "長野県",
    "city": "富士見町",
    "category": "community_day_service",
    "serviceType": "地域密着型通所介護",
    "capacity": null,
    "openDays": [
      "平日"
    ],
    "openDaysNote": ""
  },
  {
    "id": "2072500636",
    "name": "平谷村社会福祉協議会指定通所介護事業所",
    "kana": "ヒラヤムラシャカイフクシキョウギカイシテイツウショカイゴジギョウショ",
    "address": "長野県下伊那郡平谷村383-1",
    "lat": 35.3231086713745,
    "lng": 137.628248813214,
    "tel": "0265-48-2220",
    "url": "",
    "pref": "長野県",
    "city": "平谷村",
    "category": "community_day_service",
    "serviceType": "地域密着型通所介護",
    "capacity": 0,
    "openDays": [
      "平日"
    ],
    "openDaysNote": ""
  },
  {
    "id": "2072501477",
    "name": "どんつくデイサービスセンター",
    "kana": "ドンツクデイサービスセンター",
    "address": "長野県下伊那郡豊丘村河野４３１番地",
    "lat": 35.561443897894,
    "lng": 137.905986195107,
    "tel": "0265-48-6677",
    "url": "",
    "pref": "長野県",
    "city": "豊丘村",
    "category": "community_day_service",
    "serviceType": "地域密着型通所介護",
    "capacity": 15,
    "openDays": [
      "平日",
      "土曜日",
      "祝日"
    ],
    "openDaysNote": "年末年始12月30日～1月3日　お盆8月13日～8月15日"
  },
  {
    "id": "2072000082",
    "name": "北相木村老人福祉複合センターみどり",
    "kana": "キタアイキムラロウジンフクシフクゴウセンターミドリ",
    "address": "長野県南佐久郡北相木村１６０７番地１",
    "lat": 36.0591688,
    "lng": 138.5508833,
    "tel": "0267-77-2266",
    "url": "",
    "pref": "長野県",
    "city": "北相木村",
    "category": "community_day_service",
    "serviceType": "地域密着型通所介護",
    "capacity": 0,
    "openDays": [
      "平日"
    ],
    "openDaysNote": ""
  },
  {
    "id": "2072400670",
    "name": "上伊那医療生協デイサービスセンターつむぎ",
    "kana": "カミイナイリョウセイキョウデイサービスセンターツムギ",
    "address": "長野県上伊那郡箕輪町大字中箕輪11329-1番地",
    "lat": 35.902905164807,
    "lng": 137.992219277281,
    "tel": "0265-79-0653",
    "url": "http://www.kamiina-mcoop.com/",
    "pref": "長野県",
    "city": "箕輪町",
    "category": "community_day_service",
    "serviceType": "地域密着型通所介護",
    "capacity": 0,
    "openDays": [
      "平日",
      "土曜日",
      "祝日"
    ],
    "openDaysNote": "8/14～8/16　　12/30～1/3　は休業"
  },
  {
    "id": "2072400720",
    "name": "宅幼老所なの花",
    "kana": "タクヨウロウジョナノハナ",
    "address": "長野県上伊那郡箕輪町東箕輪5139番地5",
    "lat": 35.9403342,
    "lng": 137.9901319,
    "tel": "0265-71-3787",
    "url": "nanohana@inacatv.ne.jp",
    "pref": "長野県",
    "city": "箕輪町",
    "category": "community_day_service",
    "serviceType": "地域密着型通所介護",
    "capacity": 18,
    "openDays": [
      "平日",
      "土曜日",
      "日曜日",
      "祝日"
    ],
    "openDaysNote": "時間延長あり５時間まで"
  },
  {
    "id": "2072400647",
    "name": "宅老所しばみや",
    "kana": "タクロウジョシバミヤ",
    "address": "長野県上伊那郡箕輪町大字中箕輪９３４４",
    "lat": 35.9080769,
    "lng": 137.9869136,
    "tel": "0265-71-3380",
    "url": "",
    "pref": "長野県",
    "city": "箕輪町",
    "category": "community_day_service",
    "serviceType": "地域密着型通所介護",
    "capacity": 10,
    "openDays": [
      "平日",
      "土曜日",
      "祝日"
    ],
    "openDaysNote": "なし"
  },
  {
    "id": "2072600451",
    "name": "デイサービスセンターグレイスフル日義",
    "kana": "デイサービスセンターグレイスフルヒヨシ",
    "address": "長野県木曽郡木曽町日義２７５２-１",
    "lat": 35.8856181,
    "lng": 137.757678,
    "tel": "0264-26-1211",
    "url": "http://www.sun-vision.or.jp/",
    "pref": "長野県",
    "city": "木曽町",
    "category": "community_day_service",
    "serviceType": "地域密着型通所介護",
    "capacity": 18,
    "openDays": [
      "平日",
      "祝日"
    ],
    "openDaysNote": "事業所が定めた日を休日とすることがある。"
  },
  {
    "id": "2072600774",
    "name": "デイサービス清雲",
    "kana": "デイサービスセイウン",
    "address": "長野県木曽郡木曽町日義４８７８",
    "lat": 35.8621153,
    "lng": 137.7401031,
    "tel": "0264-21-3010",
    "url": "",
    "pref": "長野県",
    "city": "木曽町",
    "category": "community_day_service",
    "serviceType": "地域密着型通所介護",
    "capacity": 18,
    "openDays": [
      "平日",
      "土曜日",
      "日曜日",
      "祝日"
    ],
    "openDaysNote": ""
  },
  {
    "id": "2092600127",
    "name": "デイサービス団らんみんなのまる福",
    "kana": "デイサービスダンランミンナノマルフク",
    "address": "長野県木曽郡木曽町三岳6308-3みんなのまる福 みんなのまる福",
    "lat": 35.8466408,
    "lng": 137.6260631,
    "tel": "0264-46-3500",
    "url": "info@minna-no-marufuku.com",
    "pref": "長野県",
    "city": "木曽町",
    "category": "community_day_service",
    "serviceType": "地域密着型通所介護",
    "capacity": 0,
    "openDays": [
      "平日",
      "祝日"
    ],
    "openDaysNote": "土日と年末年始１２月２９日～１月３日・職員の研修等の日は休みとなります。（改行）（改行）他は、月曜～金曜が営業となります。土日以外の祝日は営業いたします。"
  },
  {
    "id": "2092600101",
    "name": "フィジカル＆メンタルヘルスケア　彩里",
    "kana": "フィジカルアンドメンタルヘルスケ　アイロドリ",
    "address": "長野県木曽郡木曽町福島7981番地1",
    "lat": 35.840556,
    "lng": 137.7144578,
    "tel": "264223828",
    "url": "http://www.irodori.care/",
    "pref": "長野県",
    "city": "木曽町",
    "category": "community_day_service",
    "serviceType": "地域密着型通所介護",
    "capacity": 0,
    "openDays": [
      "平日"
    ],
    "openDaysNote": ""
  },
  {
    "id": "2072600659",
    "name": "開田デイサービスセンター",
    "kana": "カイダデイサービスセンター",
    "address": "長野県木曽郡木曽町開田高原末川2797",
    "lat": 35.9363854,
    "lng": 137.6349595,
    "tel": "0264-42-3255",
    "url": "www.kisomachi-shakyo.or.jp",
    "pref": "長野県",
    "city": "木曽町",
    "category": "community_day_service",
    "serviceType": "地域密着型通所介護",
    "capacity": 18,
    "openDays": [
      "平日",
      "祝日"
    ],
    "openDaysNote": ""
  },
  {
    "id": "2073300242",
    "name": "宅幼老所おら家",
    "kana": "タクヨウロウショオラウチ",
    "address": "長野県下高井郡野沢温泉村大字豊郷４３９９番地",
    "lat": 36.9204136,
    "lng": 138.4455797,
    "tel": "0269-85-2277",
    "url": "http//orauchi.jp/",
    "pref": "長野県",
    "city": "野沢温泉村",
    "category": "community_day_service",
    "serviceType": "地域密着型通所介護",
    "capacity": 15,
    "openDays": [
      "平日",
      "土曜日",
      "日曜日",
      "祝日"
    ],
    "openDaysNote": "特になし"
  },
  {
    "id": "2072100593",
    "name": "アルプス立科",
    "kana": "アルプスタテシナ",
    "address": "長野県北佐久郡立科町大字塩沢２０１６",
    "lat": 36.2984947031029,
    "lng": 138.327041178929,
    "tel": "0267-56-3006",
    "url": "",
    "pref": "長野県",
    "city": "立科町",
    "category": "community_day_service",
    "serviceType": "地域密着型通所介護",
    "capacity": 9,
    "openDays": [
      "平日",
      "土曜日",
      "日曜日",
      "祝日"
    ],
    "openDaysNote": "営業日（改行）月曜日～日曜日　ただし、事前に通知し、事業所の指定定休日とすることがある。（改行）営業時間（改行）通常時間　午前9時から午後4時までとする。（改行）延長時間　午前7時から午後7時まで（改行）この時間を超えるものについては、その都度協議する。"
  },
  {
    "id": "2072100817",
    "name": "宅老所おひさまの丘",
    "kana": "タクロウショオヒサマノオカ",
    "address": "長野県北佐久郡立科町大字宇山1732-1",
    "lat": 36.2721410085374,
    "lng": 138.298280571753,
    "tel": "0267-56-0151",
    "url": "",
    "pref": "長野県",
    "city": "立科町",
    "category": "community_day_service",
    "serviceType": "地域密着型通所介護",
    "capacity": 10,
    "openDays": [
      "平日",
      "土曜日",
      "祝日"
    ],
    "openDaysNote": ""
  }
]