[
  {
    "id": "272501396",
    "name": "デイサービスセンター　あゆみの里",
    "kana": "デイサービスセンター　アユミノサト",
    "address": "青森県上北郡おいらせ町東下谷地618",
    "lat": 40.6130007,
    "lng": 141.4461453,
    "tel": "0178-50-1186",
    "url": "http://www.momoishiso.or.jp",
    "pref": "青森県",
    "city": "おいらせ町",
    "category": "community_day_service",
    "serviceType": "地域密着型通所介護",
    "capacity": null,
    "openDays": [
      "平日",
      "土曜日",
      "日曜日",
      "祝日"
    ],
    "openDaysNote": "特に無し"
  },
  {
    "id": "270900111",
    "name": "くれもとデイサービスセンター",
    "kana": "クレモトデイサービスセンター",
    "address": "青森県つがる市木造曙39番地1",
    "lat": 40.8077424,
    "lng": 140.3884382,
    "tel": "0173-49-1077",
    "url": "",
    "pref": "青森県",
    "city": "つがる市",
    "category": "community_day_service",
    "serviceType": "地域密着型通所介護",
    "capacity": 0,
    "openDays": [
      "平日",
      "祝日"
    ],
    "openDaysNote": ""
  },
  {
    "id": "270900053",
    "name": "つがるデイサービスセンター",
    "kana": "ツガルデイサービスセンター",
    "address": "青森県つがる市木造吹原西前田21-18",
    "lat": 40.81422,
    "lng": 140.3034612,
    "tel": "0173-26-4666",
    "url": "https://www.shimano-group.jp/",
    "pref": "青森県",
    "city": "つがる市",
    "category": "community_day_service",
    "serviceType": "地域密着型通所介護",
    "capacity": 18,
    "openDays": [
      "平日",
      "土曜日",
      "祝日"
    ],
    "openDaysNote": "なし"
  },
  {
    "id": "270900194",
    "name": "デイサービスずぐり通泊サロン",
    "kana": "デイサービスズグリツウハクサロン",
    "address": "木造末広18",
    "lat": 40.8099051444508,
    "lng": 140.386200164418,
    "tel": "0173-42-1144",
    "url": "https://ms-kaigo.com/",
    "pref": "青森県",
    "city": "つがる市",
    "category": "community_day_service",
    "serviceType": "地域密着型通所介護",
    "capacity": 0,
    "openDays": [
      "平日",
      "土曜日",
      "祝日"
    ],
    "openDaysNote": ""
  },
  {
    "id": "270900210",
    "name": "デイサービスセンターたんぽぽ",
    "kana": "デイサービスセンタータンポポ",
    "address": "木造善積藤田１８の１",
    "lat": 40.8542636,
    "lng": 140.363615,
    "tel": "（０１７３）４２－５３９７",
    "url": "",
    "pref": "青森県",
    "city": "つがる市",
    "category": "community_day_service",
    "serviceType": "地域密着型通所介護",
    "capacity": 10,
    "openDays": [
      "平日",
      "土曜日",
      "日曜日",
      "祝日"
    ],
    "openDaysNote": ""
  },
  {
    "id": "270900095",
    "name": "デイサービスセンターはなさき",
    "kana": "デイサービスセンターハナサキ",
    "address": "青森県つがる市柏下古川花崎１１２－２",
    "lat": 40.8006488647939,
    "lng": 140.419247190738,
    "tel": "0173-25-2840",
    "url": "https://www.hakuyuukai.com",
    "pref": "青森県",
    "city": "つがる市",
    "category": "community_day_service",
    "serviceType": "地域密着型通所介護",
    "capacity": 0,
    "openDays": [
      "平日",
      "土曜日",
      "祝日"
    ],
    "openDaysNote": ""
  },
  {
    "id": "270900277",
    "name": "高橋リハビリデイサービスセンター",
    "kana": "タカハシリハビリデイサービスセンター",
    "address": "木造　有楽町　13－1",
    "lat": 40.8100501,
    "lng": 140.3838506,
    "tel": "0173－26－6577",
    "url": "",
    "pref": "青森県",
    "city": "つがる市",
    "category": "community_day_service",
    "serviceType": "地域密着型通所介護",
    "capacity": 0,
    "openDays": [
      "平日"
    ],
    "openDaysNote": "平日は午後13時30分から16時30分も営業しております"
  },
  {
    "id": "270900269",
    "name": "山口さん家のディホーム",
    "kana": "ヤマグチサンチノディホーム",
    "address": "稲垣町吉出霞９６－１",
    "lat": 40.8684543394585,
    "lng": 140.374881177023,
    "tel": "０１７３－４６－２０９３",
    "url": "",
    "pref": "青森県",
    "city": "つがる市",
    "category": "community_day_service",
    "serviceType": "地域密着型通所介護",
    "capacity": 10,
    "openDays": [
      "平日",
      "祝日"
    ],
    "openDaysNote": "原則は上記の通りですが、希望により変更も可能ですので要相談ください。"
  },
  {
    "id": "270900285",
    "name": "小規模デイサービス陽だまり",
    "kana": "ショウキボデイサービスヒダマリ",
    "address": "青森県つがる市木造下遠山里小田原２１３－５",
    "lat": 40.840717,
    "lng": 140.3312904,
    "tel": "０１７３－２６－５２０７",
    "url": "",
    "pref": "青森県",
    "city": "つがる市",
    "category": "community_day_service",
    "serviceType": "地域密着型通所介護",
    "capacity": 10,
    "openDays": [
      "平日",
      "土曜日",
      "日曜日",
      "祝日"
    ],
    "openDaysNote": "要望に応じて対応可"
  },
  {
    "id": "270800709",
    "name": "デイサービスセンターねむのき",
    "kana": "デイサービスセンターネムノキ",
    "address": "青森県むつ市大字田名部字赤川ノ内並木73-11ディサービスセンターねむのき ディサービスセンターねむのき",
    "lat": 41.2458646567056,
    "lng": 141.238525309123,
    "tel": "0175-33-8818",
    "url": "http://nemunoki.info/",
    "pref": "青森県",
    "city": "むつ市",
    "category": "community_day_service",
    "serviceType": "地域密着型通所介護",
    "capacity": 18,
    "openDays": [
      "平日",
      "土曜日",
      "祝日"
    ],
    "openDaysNote": "年始（1/1～1/3は休日）"
  },
  {
    "id": "270800600",
    "name": "ディサービスなみのこ",
    "kana": "ディサービスナミノコ",
    "address": "松原町2番2号",
    "lat": 41.2721455362862,
    "lng": 141.200847232162,
    "tel": "0175－31－0672",
    "url": "",
    "pref": "青森県",
    "city": "むつ市",
    "category": "community_day_service",
    "serviceType": "地域密着型通所介護",
    "capacity": 15,
    "openDays": [
      "平日",
      "祝日"
    ],
    "openDaysNote": ""
  },
  {
    "id": "292500196",
    "name": "ディサービスセンターよこはま",
    "kana": "ディサービスセンターヨコハマ",
    "address": "青森県上北郡横浜町上イタヤノ木438-6",
    "lat": 41.0760625,
    "lng": 141.2484997,
    "tel": "0175-76-1277",
    "url": "",
    "pref": "青森県",
    "city": "横浜町",
    "category": "community_day_service",
    "serviceType": "地域密着型通所介護",
    "capacity": 0,
    "openDays": [
      "平日",
      "土曜日",
      "祝日"
    ],
    "openDaysNote": ""
  },
  {
    "id": "272400623",
    "name": "さくら園デイサービスセンター",
    "kana": "サクラエンデイサービスセンター",
    "address": "青森県五所川原市金木町川倉七夕野84番地367",
    "lat": 40.922587,
    "lng": 140.4579535,
    "tel": "0173-52-5053",
    "url": "",
    "pref": "青森県",
    "city": "五所川原市",
    "category": "community_day_service",
    "serviceType": "地域密着型通所介護",
    "capacity": 13,
    "openDays": [
      "平日",
      "土曜日",
      "祝日"
    ],
    "openDaysNote": ""
  },
  {
    "id": "270501208",
    "name": "デイサービスふぁみりあ",
    "kana": "デイサービスファミリア",
    "address": "青森県五所川原市大字高野字北原222-1",
    "lat": 40.7418008,
    "lng": 140.5254382,
    "tel": "0173-26-7161",
    "url": "",
    "pref": "青森県",
    "city": "五所川原市",
    "category": "community_day_service",
    "serviceType": "地域密着型通所介護",
    "capacity": 0,
    "openDays": [
      "平日",
      "土曜日",
      "日曜日",
      "祝日"
    ],
    "openDaysNote": ""
  },
  {
    "id": "270501109",
    "name": "デイサービス憩いの杜",
    "kana": "デイサービスイコイノモリ",
    "address": "青森県五所川原市漆川字清水流２番３シルバービレッジ憩いの杜 シルバービレッジ憩いの杜",
    "lat": 40.8137297,
    "lng": 140.4597521,
    "tel": "0173-26-6195",
    "url": "http://norita-group.com/",
    "pref": "青森県",
    "city": "五所川原市",
    "category": "community_day_service",
    "serviceType": "地域密着型通所介護",
    "capacity": 16,
    "openDays": [
      "平日",
      "祝日"
    ],
    "openDaysNote": ""
  },
  {
    "id": "270500853",
    "name": "リハビリ堂やすらぎデイサービス",
    "kana": "リハビリドウ　ヤスラギ　デイサービス",
    "address": "青森県五所川原市字中平井町144-2",
    "lat": 40.8129829808242,
    "lng": 140.444373845369,
    "tel": "0173-33-6030",
    "url": "http://terako.fc2web.com/",
    "pref": "青森県",
    "city": "五所川原市",
    "category": "community_day_service",
    "serviceType": "地域密着型通所介護",
    "capacity": 0,
    "openDays": [
      "平日",
      "祝日"
    ],
    "openDaysNote": "お盆／正月休暇につきましては、あらかじめお知らせいたします。"
  },
  {
    "id": "290200195",
    "name": "エールリハビリデイサービス",
    "kana": "エールリハビリデイサービス",
    "address": "外崎3-1-9河内テナント 河内テナント",
    "lat": 40.5992733,
    "lng": 140.4979941,
    "tel": "0172-88-6864",
    "url": "https://www.yell-rehab.com/",
    "pref": "青森県",
    "city": "弘前市",
    "category": "community_day_service",
    "serviceType": "地域密着型通所介護",
    "capacity": 0,
    "openDays": [
      "平日",
      "土曜日",
      "祝日"
    ],
    "openDaysNote": "定休日に関しては年末年始、夏季休暇、その他天候などにより営業不可と判断した日を除く"
  },
  {
    "id": "290200062",
    "name": "サポートセンターいきいき　武さん家　弘前",
    "kana": "サポートセンターイキイキ　タケサンチ　ヒロサキ",
    "address": "青森県弘前市田園3丁目1-8",
    "lat": 40.6037783,
    "lng": 140.507263,
    "tel": "0172-55-0697",
    "url": "",
    "pref": "青森県",
    "city": "弘前市",
    "category": "community_day_service",
    "serviceType": "地域密着型通所介護",
    "capacity": null,
    "openDays": [
      "平日",
      "祝日"
    ],
    "openDaysNote": ""
  },
  {
    "id": "270203599",
    "name": "ジョイライフ倶楽部かさい",
    "kana": "ジョイライフクラブカサイ",
    "address": "青森県弘前市田町一丁目１番地６",
    "lat": 40.6104989,
    "lng": 140.4795487,
    "tel": "0172-31-3955",
    "url": "http://kasaikagu.co.jp",
    "pref": "青森県",
    "city": "弘前市",
    "category": "community_day_service",
    "serviceType": "地域密着型通所介護",
    "capacity": 18,
    "openDays": [
      "平日"
    ],
    "openDaysNote": ""
  },
  {
    "id": "270203342",
    "name": "デイサービス　よし",
    "kana": "デイサービス　ヨシ",
    "address": "青森県弘前市大字小比内5丁目20-1",
    "lat": 40.5827551,
    "lng": 140.4974182,
    "tel": "0172-29-1970",
    "url": "",
    "pref": "青森県",
    "city": "弘前市",
    "category": "community_day_service",
    "serviceType": "地域密着型通所介護",
    "capacity": null,
    "openDays": [
      "平日",
      "土曜日",
      "祝日"
    ],
    "openDaysNote": ""
  },
  {
    "id": "290200286",
    "name": "デイサービス　湯口の宿",
    "kana": "デイサービス　ユグチノヤド",
    "address": "青森県弘前市大字湯口一ノ細川４０番地９",
    "lat": 40.5892033484568,
    "lng": 140.41406602209,
    "tel": "0172-404474",
    "url": "https://houju-a.com",
    "pref": "青森県",
    "city": "弘前市",
    "category": "community_day_service",
    "serviceType": "地域密着型通所介護",
    "capacity": 50,
    "openDays": [
      "平日",
      "土曜日",
      "祝日"
    ],
    "openDaysNote": "電話対応は定休日に関係なく応対可。"
  },
  {
    "id": "290200328",
    "name": "デイサービスきたえるーむ弘前城北",
    "kana": "デイサービスキタエルームヒロサキジョウホク",
    "address": "東城北2丁目1-16",
    "lat": 40.615366,
    "lng": 140.4721513,
    "tel": "0172-55-0785",
    "url": "https://kitaeroom.com/",
    "pref": "青森県",
    "city": "弘前市",
    "category": "community_day_service",
    "serviceType": "地域密着型通所介護",
    "capacity": 0,
    "openDays": [
      "平日",
      "土曜日"
    ],
    "openDaysNote": "平日は、午前が9:00～12:05、午後が13:30～16:35の2部制での営業です。"
  },
  {
    "id": "290200187",
    "name": "デイサービスセンター　ＳＰＡ大浦の湯",
    "kana": "デイサービスセンター　スパ　オオウラノユ",
    "address": "青森県弘前市大字五代字山本600-1デイサービスセンター　ＳＰＡ大浦の湯 デイサービスセンター　ＳＰＡ大浦の湯",
    "lat": 40.6132675334456,
    "lng": 140.407563340475,
    "tel": "0172-88-6886",
    "url": "https://zenseikai.com/",
    "pref": "青森県",
    "city": "弘前市",
    "category": "community_day_service",
    "serviceType": "地域密着型通所介護",
    "capacity": 20,
    "openDays": [
      "平日",
      "土曜日",
      "祝日"
    ],
    "openDaysNote": "サービス提供時間に関しては、2単位制で行っており、1単位目は8：30～11：30、2単位目は12：30～15：30までの提供時間となっている。"
  },
  {
    "id": "270203250",
    "name": "デイサービスセンター　いわき山",
    "kana": "デイサービスセンター　イワキヤマ",
    "address": "大字五代字従弟沢1030番地50",
    "lat": 40.6073956,
    "lng": 140.3807034,
    "tel": "0172-83-2100",
    "url": "http://zenseikai.com/",
    "pref": "青森県",
    "city": "弘前市",
    "category": "community_day_service",
    "serviceType": "地域密着型通所介護",
    "capacity": 0,
    "openDays": [
      "平日",
      "土曜日",
      "祝日"
    ],
    "openDaysNote": ""
  },
  {
    "id": "270203672",
    "name": "デイサービスセンターあやとり",
    "kana": "デイサービスセンターアヤトリ",
    "address": "青森県弘前市大字堅田二丁目４番地１",
    "lat": 40.6169791,
    "lng": 140.4927945,
    "tel": "0172-55-6420",
    "url": "http://caring3710.net/ayatori/",
    "pref": "青森県",
    "city": "弘前市",
    "category": "community_day_service",
    "serviceType": "地域密着型通所介護",
    "capacity": 10,
    "openDays": [
      "平日",
      "土曜日",
      "祝日"
    ],
    "openDaysNote": "年末年始12月30日～1月3日は休み"
  },
  {
    "id": "270203573",
    "name": "デイサービスセンターみのり",
    "kana": "ディサービスセンターミノリ",
    "address": "青森県弘前市大原２丁目10-1",
    "lat": 40.5776798,
    "lng": 140.4511024,
    "tel": "0172-55-5473",
    "url": "http://www.aura-group.jp/",
    "pref": "青森県",
    "city": "弘前市",
    "category": "community_day_service",
    "serviceType": "地域密着型通所介護",
    "capacity": 18,
    "openDays": [
      "平日",
      "祝日"
    ],
    "openDaysNote": "ただし電話等により、24時間常時連絡が可能な体制とする。"
  },
  {
    "id": "270203086",
    "name": "デイサービスセンターわ",
    "kana": "デイサービスセンターワ",
    "address": "青森県弘前市取上4丁目3-25",
    "lat": 40.5860077996459,
    "lng": 140.48882954594,
    "tel": "0172-88-8185",
    "url": "http://hp.kaipoke.biz/etr/",
    "pref": "青森県",
    "city": "弘前市",
    "category": "community_day_service",
    "serviceType": "地域密着型通所介護",
    "capacity": 14,
    "openDays": [
      "平日",
      "祝日"
    ],
    "openDaysNote": ""
  },
  {
    "id": "270203417",
    "name": "デイサービス我が家",
    "kana": "デイサービスワガヤ",
    "address": "青森県弘前市川先3-9-1",
    "lat": 40.5866045,
    "lng": 140.4921075,
    "tel": "0172-27-8875",
    "url": "",
    "pref": "青森県",
    "city": "弘前市",
    "category": "community_day_service",
    "serviceType": "地域密着型通所介護",
    "capacity": 11,
    "openDays": [
      "平日",
      "土曜日",
      "祝日"
    ],
    "openDaysNote": "必要な場合は相談に応じます。"
  },
  {
    "id": "290200112",
    "name": "ひなたストレッチ",
    "kana": "ヒナタストレッチ",
    "address": "弘前市南城西二丁目2-1",
    "lat": 40.6016454352609,
    "lng": 140.451516995107,
    "tel": "0172-40-0016",
    "url": "http://www.jhd.ne.jp/",
    "pref": "青森県",
    "city": "弘前市",
    "category": "community_day_service",
    "serviceType": "地域密着型通所介護",
    "capacity": 0,
    "openDays": [
      "平日",
      "土曜日",
      "日曜日",
      "祝日"
    ],
    "openDaysNote": "元日"
  },
  {
    "id": "290200294",
    "name": "弘前リハビリデイサービスセンター　ソラーレ",
    "kana": "ヒロサキリハビリデイサービスセンター　ソラーレ",
    "address": "青森県弘前市大字城南3丁目4番地1",
    "lat": 40.5788897,
    "lng": 140.4681477,
    "tel": "0172-55-7215",
    "url": "http://solare-h.net/infomation/",
    "pref": "青森県",
    "city": "弘前市",
    "category": "community_day_service",
    "serviceType": "地域密着型通所介護",
    "capacity": 20,
    "openDays": [
      "平日"
    ],
    "openDaysNote": ""
  },
  {
    "id": "270203664",
    "name": "樹楽　おいの杜",
    "kana": "キラク　オイノモリ",
    "address": "狼森字西元3-9",
    "lat": 40.5600819983169,
    "lng": 140.470922037959,
    "tel": "0172-88-6811",
    "url": "http://www.kiraku-oinomori.com/",
    "pref": "青森県",
    "city": "弘前市",
    "category": "community_day_service",
    "serviceType": "地域密着型通所介護",
    "capacity": 10,
    "openDays": [
      "平日",
      "土曜日",
      "祝日"
    ],
    "openDaysNote": ""
  },
  {
    "id": "270203656",
    "name": "小規模デイサービス　静",
    "kana": "ショウキボデイサービス　セイ",
    "address": "青森県弘前市大字中崎字野脇176番地",
    "lat": 40.6520939039524,
    "lng": 140.457635067529,
    "tel": "0172‐55‐5535",
    "url": "",
    "pref": "青森県",
    "city": "弘前市",
    "category": "community_day_service",
    "serviceType": "地域密着型通所介護",
    "capacity": 0,
    "openDays": [
      "平日",
      "土曜日",
      "祝日"
    ],
    "openDaysNote": ""
  },
  {
    "id": "270201569",
    "name": "草菴デイサービスセンター",
    "kana": "ソウアンデイサービスセンター",
    "address": "青森県弘前市大字城東２丁目２－６",
    "lat": 40.5981236,
    "lng": 140.4916256,
    "tel": "0172-27-7221",
    "url": "",
    "pref": "青森県",
    "city": "弘前市",
    "category": "community_day_service",
    "serviceType": "地域密着型通所介護",
    "capacity": 10,
    "openDays": [
      "平日",
      "土曜日",
      "祝日"
    ],
    "openDaysNote": ""
  },
  {
    "id": "290200245",
    "name": "大開デイサービス",
    "kana": "オオビラキデイサービス",
    "address": "青森県弘前市大字小沢字大開44番地21",
    "lat": 40.5726214,
    "lng": 140.4459722,
    "tel": "０１７２－８９－２１４０",
    "url": "https://ball-hearlt.com",
    "pref": "青森県",
    "city": "弘前市",
    "category": "community_day_service",
    "serviceType": "地域密着型通所介護",
    "capacity": 0,
    "openDays": [
      "平日",
      "祝日"
    ],
    "openDaysNote": ""
  },
  {
    "id": "270203490",
    "name": "通所介護事業所　ちとせ",
    "kana": "ツウショカイゴジギョウショ　チトセ",
    "address": "青森県弘前市千年三丁目一番地六",
    "lat": 40.5661714219328,
    "lng": 140.481735174205,
    "tel": "0172-88-7362",
    "url": "",
    "pref": "青森県",
    "city": "弘前市",
    "category": "community_day_service",
    "serviceType": "地域密着型通所介護",
    "capacity": 10,
    "openDays": [
      "平日",
      "祝日"
    ],
    "openDaysNote": "祝日であっても、定休日以外ならば営業"
  },
  {
    "id": "290400100",
    "name": "デイサービスAKYまえだ",
    "kana": "デイサービスエーケーワイマエダ",
    "address": "青森県黒石市追子野木三丁目２１７番地７",
    "lat": 40.6352007,
    "lng": 140.5876494,
    "tel": "0172-55-6786",
    "url": "",
    "pref": "青森県",
    "city": "黒石市",
    "category": "community_day_service",
    "serviceType": "地域密着型通所介護",
    "capacity": null,
    "openDays": [
      "平日",
      "土曜日"
    ],
    "openDaysNote": ""
  },
  {
    "id": "270400609",
    "name": "デイサービスセンター浦町",
    "kana": "ウラマチ",
    "address": "青森県黒石市浦町一丁目82",
    "lat": 40.6432374,
    "lng": 140.5978507,
    "tel": "0172-52-5133",
    "url": "http://www.mikasaen.or.jp/",
    "pref": "青森県",
    "city": "黒石市",
    "category": "community_day_service",
    "serviceType": "地域密着型通所介護",
    "capacity": 0,
    "openDays": [
      "平日",
      "土曜日",
      "日曜日",
      "祝日"
    ],
    "openDaysNote": "なし"
  },
  {
    "id": "270400724",
    "name": "デイサービスセンター二双子",
    "kana": "デイサービスセンターニソウシ",
    "address": "青森県黒石市大字二双子字野田178番地43デイサービスセンター二双子 デイサービスセンター二双子",
    "lat": 40.6824801,
    "lng": 140.6029433,
    "tel": "0172-59-2304",
    "url": "",
    "pref": "青森県",
    "city": "黒石市",
    "category": "community_day_service",
    "serviceType": "地域密着型通所介護",
    "capacity": 10,
    "openDays": [
      "平日",
      "土曜日",
      "祝日"
    ],
    "openDaysNote": "特になし"
  },
  {
    "id": "270400468",
    "name": "ハートデイサービス",
    "kana": "ハートデイサービス",
    "address": "青森県黒石市松原78-13",
    "lat": 40.6583969,
    "lng": 140.6047579,
    "tel": "0172-53-1516",
    "url": "",
    "pref": "青森県",
    "city": "黒石市",
    "category": "community_day_service",
    "serviceType": "地域密着型通所介護",
    "capacity": null,
    "openDays": [
      "平日",
      "土曜日",
      "祝日"
    ],
    "openDaysNote": ""
  },
  {
    "id": "292000239",
    "name": "今別町デイサービスセンターひより",
    "kana": "イマベツマチデイサービスセンターヒヨリ",
    "address": "青森県東津軽郡今別町大字今別字西田２４８番地３９",
    "lat": 41.1784048,
    "lng": 140.4795846,
    "tel": "0174-35-2941",
    "url": "http://www.soujuen.com/",
    "pref": "青森県",
    "city": "今別町",
    "category": "community_day_service",
    "serviceType": "地域密着型通所介護",
    "capacity": 0,
    "openDays": [
      "平日",
      "祝日"
    ],
    "openDaysNote": ""
  },
  {
    "id": "272600172",
    "name": "あすなろ通所介護事業所",
    "kana": "アスナロツウショカイゴジギョウショ",
    "address": "青森県下北郡佐井村大字佐井字大佐井川目39番地12",
    "lat": 41.4294699,
    "lng": 140.8624037,
    "tel": "0175-38-4181",
    "url": "http:www.sai-shakyo.com/",
    "pref": "青森県",
    "city": "佐井村",
    "category": "community_day_service",
    "serviceType": "地域密着型通所介護",
    "capacity": 0,
    "openDays": [
      "平日",
      "祝日"
    ],
    "openDaysNote": ""
  },
  {
    "id": "272701293",
    "name": "デイサービスセンター虹",
    "kana": "デイサービスセンターニジ",
    "address": "三戸郡三戸町大字在府小路町17",
    "lat": 40.3786898,
    "lng": 141.2594564,
    "tel": "0179-20-0072",
    "url": "",
    "pref": "青森県",
    "city": "三戸町",
    "category": "community_day_service",
    "serviceType": "地域密着型通所介護",
    "capacity": 15,
    "openDays": [
      "平日",
      "祝日"
    ],
    "openDaysNote": "特になし"
  },
  {
    "id": "290700178",
    "name": "サードプレイスミサワ",
    "kana": "サードプレイスミサワ",
    "address": "青森県三沢市古間木山56",
    "lat": 40.6676350093063,
    "lng": 141.354010999203,
    "tel": "090-7009-8352",
    "url": "https://thirdplacemisawa.com",
    "pref": "青森県",
    "city": "三沢市",
    "category": "community_day_service",
    "serviceType": "地域密着型通所介護",
    "capacity": 0,
    "openDays": [
      "平日",
      "祝日"
    ],
    "openDaysNote": ""
  },
  {
    "id": "270700586",
    "name": "デイサービスセンターうるわしの杜",
    "kana": "デイサービスセンターウルワシノモリ",
    "address": "青森県三沢市千代田町4丁目140-851",
    "lat": 40.6665312,
    "lng": 141.3602584,
    "tel": "0176-53-7773",
    "url": "http://www.dohjinkai-aomori.or.jp/uruwashi",
    "pref": "青森県",
    "city": "三沢市",
    "category": "community_day_service",
    "serviceType": "地域密着型通所介護",
    "capacity": 10,
    "openDays": [
      "平日",
      "祝日"
    ],
    "openDaysNote": "1.サービス利用中に気分が悪くなった際は、すぐに職員に申し出てください。2.複数の方が同時に利用しますので周りの方の迷惑にならないお願いします。3.体調や様態の急変等によりサービスを利用できなくなったときは、できるだけ早めに担当の介護支援専門員か当事業所へご連絡ください。"
  },
  {
    "id": "270700495",
    "name": "デイサービスセンターふれあい",
    "kana": "デイサービスセンターフレアイ",
    "address": "青森県三沢市桜町2丁目5-23",
    "lat": 40.6800674,
    "lng": 141.3686511,
    "tel": "0176-58-5444",
    "url": "",
    "pref": "青森県",
    "city": "三沢市",
    "category": "community_day_service",
    "serviceType": "地域密着型通所介護",
    "capacity": 0,
    "openDays": [
      "平日",
      "土曜日",
      "祝日"
    ],
    "openDaysNote": ""
  },
  {
    "id": "290700160",
    "name": "ひばり苑リハビリデイセンター",
    "kana": "ヒバリエンリハビリデイセンター",
    "address": "大字三沢字南山60番地２",
    "lat": 40.6895227,
    "lng": 141.394504,
    "tel": "0176-58-7792",
    "url": "www.joukoukai.or.jp",
    "pref": "青森県",
    "city": "三沢市",
    "category": "community_day_service",
    "serviceType": "地域密着型通所介護",
    "capacity": 0,
    "openDays": [
      "平日",
      "祝日"
    ],
    "openDaysNote": ""
  },
  {
    "id": "290700145",
    "name": "リハビリ特化型デイサービス　カラダラボ三沢",
    "kana": "リハビリトッカガタデイサービス　カラダラボミサワ",
    "address": "青森県三沢市中央町3-6-2",
    "lat": 40.6809520102361,
    "lng": 141.362079735582,
    "tel": "0176-51-1680",
    "url": "www.karadalabo.com/",
    "pref": "青森県",
    "city": "三沢市",
    "category": "community_day_service",
    "serviceType": "地域密着型通所介護",
    "capacity": 0,
    "openDays": [
      "平日",
      "祝日"
    ],
    "openDaysNote": "定休日以外の月曜日から金曜日の祝日は営業日"
  },
  {
    "id": "290700194",
    "name": "三沢デイサービスセンター",
    "kana": "ミサワデイサービスセンター",
    "address": "青森県三沢市大津二丁目１２-３７４",
    "lat": 40.6824183,
    "lng": 141.419589,
    "tel": "0176-58-5058",
    "url": "https://www.rakuseikai.or.jp/",
    "pref": "青森県",
    "city": "三沢市",
    "category": "community_day_service",
    "serviceType": "地域密着型通所介護",
    "capacity": 18,
    "openDays": [
      "平日",
      "土曜日",
      "祝日"
    ],
    "openDaysNote": "12月31日～1月3日休業日"
  },
  {
    "id": "270700255",
    "name": "松園デイサービス・スカイ",
    "kana": "マツゾノデイサービススカイ",
    "address": "青森県三沢市松園町二丁目７－７",
    "lat": 40.6768426,
    "lng": 141.3675294,
    "tel": "0176-57-5752",
    "url": "http://www.rakuseikai.or.jp/",
    "pref": "青森県",
    "city": "三沢市",
    "category": "community_day_service",
    "serviceType": "地域密着型通所介護",
    "capacity": 18,
    "openDays": [
      "平日",
      "土曜日",
      "祝日"
    ],
    "openDaysNote": "１２月３１日～１月３日休業日"
  },
  {
    "id": "290600121",
    "name": "オーダーメイドのデイサービスくらしっこ",
    "kana": "オーダーメイドノデイサービスクラシッコ",
    "address": "青森県十和田市西十二番町11-1",
    "lat": 40.6131029,
    "lng": 141.2047273,
    "tel": "0176-58-0481",
    "url": "https://kurashilabo.co.jp",
    "pref": "青森県",
    "city": "十和田市",
    "category": "community_day_service",
    "serviceType": "地域密着型通所介護",
    "capacity": null,
    "openDays": [
      "平日",
      "土曜日",
      "祝日"
    ],
    "openDaysNote": ""
  },
  {
    "id": "290600212",
    "name": "デイサービスセンター湖楽園",
    "kana": "デイサービスセンターコラクエン",
    "address": "十和田市大字奥瀬字下川目2-58",
    "lat": 40.5836119,
    "lng": 141.0932349,
    "tel": "0176-70-3025",
    "url": "http:/www.towadakokai.jp/",
    "pref": "青森県",
    "city": "十和田市",
    "category": "community_day_service",
    "serviceType": "地域密着型通所介護",
    "capacity": 0,
    "openDays": [
      "平日",
      "土曜日",
      "祝日"
    ],
    "openDaysNote": "なし"
  },
  {
    "id": "290600139",
    "name": "トコスデイサービス東５番町",
    "kana": "トコスデイサービスヒガシゴバンチョウ",
    "address": "青森県十和田市東五番町8-28",
    "lat": 40.6058485,
    "lng": 141.224764,
    "tel": "0176-27-1867",
    "url": "http://tocos.main.jp/",
    "pref": "青森県",
    "city": "十和田市",
    "category": "community_day_service",
    "serviceType": "地域密着型通所介護",
    "capacity": 0,
    "openDays": [
      "平日",
      "土曜日"
    ],
    "openDaysNote": ""
  },
  {
    "id": "270601008",
    "name": "茶話本舗デイサービス十和田",
    "kana": "サワホンポデイサービストワダ",
    "address": "青森県十和田市西十三番町35-9",
    "lat": 40.6073729,
    "lng": 141.2083325,
    "tel": "0176-58-5291",
    "url": "",
    "pref": "青森県",
    "city": "十和田市",
    "category": "community_day_service",
    "serviceType": "地域密着型通所介護",
    "capacity": 10,
    "openDays": [
      "平日",
      "土曜日",
      "日曜日",
      "祝日"
    ],
    "openDaysNote": "365日年中無休"
  },
  {
    "id": "290600147",
    "name": "茶話本舗デイサービス十和田西",
    "kana": "サワホンポデイサービストワダニシ",
    "address": "青森県十和田市西四番町3-48",
    "lat": 40.606726,
    "lng": 141.2168648,
    "tel": "0176-27-0231",
    "url": "",
    "pref": "青森県",
    "city": "十和田市",
    "category": "community_day_service",
    "serviceType": "地域密着型通所介護",
    "capacity": 0,
    "openDays": [
      "平日",
      "土曜日",
      "日曜日",
      "祝日"
    ],
    "openDaysNote": ""
  },
  {
    "id": "292100088",
    "name": "リハジムらしかる",
    "kana": "リハジムラシカル",
    "address": "青森県西津軽郡深浦町大字深浦字浜町137-1",
    "lat": 40.6415518,
    "lng": 139.9270667,
    "tel": "0173-82-0551",
    "url": "URL：http://hamanasuso.com",
    "pref": "青森県",
    "city": "深浦町",
    "category": "community_day_service",
    "serviceType": "地域密着型通所介護",
    "capacity": 0,
    "openDays": [
      "平日"
    ],
    "openDaysNote": ""
  },
  {
    "id": "292100054",
    "name": "深浦町デイサービスセンター",
    "kana": "フカウラマチデイサービスセンター",
    "address": "青森県西津軽郡深浦町大字驫木字津山118-44",
    "lat": 40.7024239,
    "lng": 139.9816206,
    "tel": "0173-74-4075",
    "url": "URL:http://hamanasuso.com",
    "pref": "青森県",
    "city": "深浦町",
    "category": "community_day_service",
    "serviceType": "地域密着型通所介護",
    "capacity": 0,
    "openDays": [
      "平日",
      "土曜日",
      "日曜日",
      "祝日"
    ],
    "openDaysNote": "特になし"
  },
  {
    "id": "272100603",
    "name": "白寿の郷デイサービスセンター",
    "kana": "ハクジュノサトデイサービスセンター",
    "address": "青森県西津軽郡深浦町大字岩崎字松原５７番地１",
    "lat": 40.5831549,
    "lng": 139.9248776,
    "tel": "0173-77-2870",
    "url": "",
    "pref": "青森県",
    "city": "深浦町",
    "category": "community_day_service",
    "serviceType": "地域密着型通所介護",
    "capacity": 0,
    "openDays": [
      "平日",
      "祝日"
    ],
    "openDaysNote": ""
  },
  {
    "id": "271111111",
    "name": "1",
    "kana": "1",
    "address": "1",
    "lat": null,
    "lng": null,
    "tel": "1",
    "url": "",
    "pref": "青森県",
    "city": "青森市",
    "category": "community_day_service",
    "serviceType": "地域密着型通所介護",
    "capacity": 0,
    "openDays": [
      "平日",
      "土曜日"
    ],
    "openDaysNote": ""
  },
  {
    "id": "270103328",
    "name": "ケアサポートステーション清風荘デイサービス",
    "kana": "ケアサポートステーションセイフウソウデイサービス",
    "address": "青森県青森市大字新城字福田308-20",
    "lat": 40.8303388,
    "lng": 140.6794523,
    "tel": "017-718-5222",
    "url": "http://www.s-care.jp",
    "pref": "青森県",
    "city": "青森市",
    "category": "community_day_service",
    "serviceType": "地域密着型通所介護",
    "capacity": 10,
    "openDays": [
      "平日",
      "土曜日",
      "祝日"
    ],
    "openDaysNote": ""
  },
  {
    "id": "290100759",
    "name": "コンパスウォーク青森千刈",
    "kana": "コンパスウォークアオモリセンガリ",
    "address": "青森県青森市千刈1－21－22",
    "lat": 40.8257807481968,
    "lng": 140.724589079762,
    "tel": "017-718-3795",
    "url": "",
    "pref": "青森県",
    "city": "青森市",
    "category": "community_day_service",
    "serviceType": "地域密着型通所介護",
    "capacity": null,
    "openDays": [
      "平日",
      "祝日"
    ],
    "openDaysNote": ""
  },
  {
    "id": "270103807",
    "name": "デイサービス　さくら",
    "kana": "デイサービスサクラ",
    "address": "青森県青森市小柳一丁目18-11",
    "lat": 40.8222561,
    "lng": 140.7912388,
    "tel": "017-752-8350",
    "url": "",
    "pref": "青森県",
    "city": "青森市",
    "category": "community_day_service",
    "serviceType": "地域密着型通所介護",
    "capacity": 10,
    "openDays": [
      "平日",
      "祝日"
    ],
    "openDaysNote": "お盆休み　8月13日～14日（改行）年末年始　12月30日～1月3日"
  },
  {
    "id": "270104235",
    "name": "デイサービス　ブロンディ",
    "kana": "デイサービス　ブロンディ",
    "address": "浜田1丁目6番1号",
    "lat": 34.3875482,
    "lng": 132.5067769,
    "tel": "017-739-5514",
    "url": "",
    "pref": "青森県",
    "city": "青森市",
    "category": "community_day_service",
    "serviceType": "地域密着型通所介護",
    "capacity": 10,
    "openDays": [
      "平日",
      "土曜日",
      "祝日"
    ],
    "openDaysNote": ""
  },
  {
    "id": "270104490",
    "name": "デイサービス　みちのく",
    "kana": "デイサービス　ミチノク",
    "address": "青森市港町2丁目10-15",
    "lat": 40.8301327,
    "lng": 140.7622078,
    "tel": "017-744-7586",
    "url": "http://m-hakujukai.com/",
    "pref": "青森県",
    "city": "青森市",
    "category": "community_day_service",
    "serviceType": "地域密着型通所介護",
    "capacity": 0,
    "openDays": [
      "平日",
      "祝日"
    ],
    "openDaysNote": ""
  },
  {
    "id": "270104391",
    "name": "デイサービス　元気",
    "kana": "デイサービス　ゲンキ",
    "address": "青森市三内丸山323",
    "lat": 53.41291,
    "lng": -8.24388999999996,
    "tel": "017-763-0330",
    "url": "",
    "pref": "青森県",
    "city": "青森市",
    "category": "community_day_service",
    "serviceType": "地域密着型通所介護",
    "capacity": 18,
    "openDays": [
      "平日",
      "祝日"
    ],
    "openDaysNote": "特になし"
  },
  {
    "id": "270104003",
    "name": "デイサービス　美法",
    "kana": "デイサービス　ビホウ",
    "address": "古川1丁目10-9-1",
    "lat": 40.8249298,
    "lng": 140.7358181,
    "tel": "017-735-6625",
    "url": "",
    "pref": "青森県",
    "city": "青森市",
    "category": "community_day_service",
    "serviceType": "地域密着型通所介護",
    "capacity": 10,
    "openDays": [
      "平日",
      "土曜日",
      "祝日"
    ],
    "openDaysNote": ""
  },
  {
    "id": "290100700",
    "name": "デイサービスいきいきクラブ桂木",
    "kana": "デイサービスイキイキクラブカツラギ",
    "address": "青森県青森市桂木3丁目18-2",
    "lat": 40.8108036,
    "lng": 140.7493911,
    "tel": "017-757-8938",
    "url": "https://yorimichi.iki-iki.co.jp/club/",
    "pref": "青森県",
    "city": "青森市",
    "category": "community_day_service",
    "serviceType": "地域密着型通所介護",
    "capacity": 15,
    "openDays": [
      "平日",
      "祝日"
    ],
    "openDaysNote": "年末年始(変動あり）"
  },
  {
    "id": "290100544",
    "name": "デイサービスきたえるーむ青森三内",
    "kana": "デイサービスキタエルームアオモリサンナイ",
    "address": "青森県青森市大字三内字稲元90-7",
    "lat": 40.8250014,
    "lng": 140.7136063,
    "tel": "017-718-7836",
    "url": "https://kitaeroom.com/",
    "pref": "青森県",
    "city": "青森市",
    "category": "community_day_service",
    "serviceType": "地域密着型通所介護",
    "capacity": 0,
    "openDays": [
      "平日",
      "土曜日"
    ],
    "openDaysNote": "平日は、午前が9:00～12:05、午後が13:30～16:35の2部制での営業となっております。"
  },
  {
    "id": "270103757",
    "name": "デイサービスさくらの家",
    "kana": "デイサービスサクラノイエ",
    "address": "青森県青森市桜川5丁目17番6号",
    "lat": 40.8129845,
    "lng": 140.7719019,
    "tel": "017-718-3815",
    "url": "",
    "pref": "青森県",
    "city": "青森市",
    "category": "community_day_service",
    "serviceType": "地域密着型通所介護",
    "capacity": 12,
    "openDays": [
      "平日",
      "祝日"
    ],
    "openDaysNote": ""
  },
  {
    "id": "270101322",
    "name": "デイサービスセンター　あおいうみ",
    "kana": "デイサービスセンター　アオイウミ",
    "address": "青森県青森市安方1丁目103-2",
    "lat": 40.8299627,
    "lng": 140.7388761,
    "tel": "017-721-1111",
    "url": "www.amc-headquarters-med",
    "pref": "青森県",
    "city": "青森市",
    "category": "community_day_service",
    "serviceType": "地域密着型通所介護",
    "capacity": 0,
    "openDays": [
      "平日",
      "土曜日",
      "祝日"
    ],
    "openDaysNote": "12月31日、1月1日・・・・・・休日"
  },
  {
    "id": "270104417",
    "name": "デイサービスセンター　ビバ・イン",
    "kana": "デイサービスセンター　ビバ・イン",
    "address": "青森県青森市奥野２丁目２０－１有料老人ホーム　ビバ・イン松原 有料老人ホーム　ビバ・イン松原",
    "lat": 40.8148286,
    "lng": 140.7628416,
    "tel": "０１７－７２１－３３６６",
    "url": "http://www.viva-inn.jp",
    "pref": "青森県",
    "city": "青森市",
    "category": "community_day_service",
    "serviceType": "地域密着型通所介護",
    "capacity": 236,
    "openDays": [
      "平日",
      "祝日"
    ],
    "openDaysNote": ""
  },
  {
    "id": "270104318",
    "name": "デイサービスセンターあうら",
    "kana": "デイサービスセンターアウラ",
    "address": "青森県青森市幸畑２丁目６番10号",
    "lat": 40.7850208,
    "lng": 140.7821963,
    "tel": "017-763-5130",
    "url": "http://www.aura-group.jp/",
    "pref": "青森県",
    "city": "青森市",
    "category": "community_day_service",
    "serviceType": "地域密着型通所介護",
    "capacity": null,
    "openDays": [
      "平日",
      "祝日"
    ],
    "openDaysNote": ""
  },
  {
    "id": "290100734",
    "name": "デイサービスセンターいちか",
    "kana": "デイサービスセンターイチカ",
    "address": "青森県青森市南佃2丁目18-7",
    "lat": 40.8161782,
    "lng": 140.7861969,
    "tel": "017-752-8120",
    "url": "www.hhk-pease.jp",
    "pref": "青森県",
    "city": "青森市",
    "category": "community_day_service",
    "serviceType": "地域密着型通所介護",
    "capacity": 14,
    "openDays": [
      "平日",
      "祝日"
    ],
    "openDaysNote": ""
  },
  {
    "id": "270100571",
    "name": "デイサービスセンターかねはま",
    "kana": "デイサービスセンターカネハマ",
    "address": "青森県青森市大字大別内字葛野180番地",
    "lat": 40.7578254,
    "lng": 140.7328933,
    "tel": "017-739-7201",
    "url": "http://kanehama.jp",
    "pref": "青森県",
    "city": "青森市",
    "category": "community_day_service",
    "serviceType": "地域密着型通所介護",
    "capacity": 15,
    "openDays": [
      "平日"
    ],
    "openDaysNote": "特になし"
  },
  {
    "id": "290100585",
    "name": "デイサービスセンターこばし",
    "kana": "デイサービスセンターコバシ",
    "address": "青森県青森市大字小橋字田川26番地60",
    "lat": 40.9260071073219,
    "lng": 140.668132983992,
    "tel": "017-761-3035",
    "url": "",
    "pref": "青森県",
    "city": "青森市",
    "category": "community_day_service",
    "serviceType": "地域密着型通所介護",
    "capacity": 18,
    "openDays": [
      "平日",
      "祝日"
    ],
    "openDaysNote": ""
  },
  {
    "id": "290100593",
    "name": "デイサービスセンターフーミー",
    "kana": "デイサービスセンターフーミー",
    "address": "青森県青森市大字浪館字前田43番地5",
    "lat": 40.8077314,
    "lng": 140.717201,
    "tel": "017-752-1976",
    "url": "www.hhk-peace.jp/",
    "pref": "青森県",
    "city": "青森市",
    "category": "community_day_service",
    "serviceType": "地域密着型通所介護",
    "capacity": 18,
    "openDays": [
      "平日",
      "土曜日",
      "祝日"
    ],
    "openDaysNote": ""
  },
  {
    "id": "270104755",
    "name": "デイサービスセンターまごの手",
    "kana": "デイサービスセンターマゴノテ",
    "address": "青森県青森市油川柳川54-8",
    "lat": 40.8455849,
    "lng": 140.7030142,
    "tel": "017-763-2320",
    "url": "http://magocoro-co.jp",
    "pref": "青森県",
    "city": "青森市",
    "category": "community_day_service",
    "serviceType": "地域密着型通所介護",
    "capacity": 0,
    "openDays": [
      "平日",
      "祝日"
    ],
    "openDaysNote": ""
  },
  {
    "id": "270100597",
    "name": "デイサービスセンター三思園",
    "kana": "デイサービスセンターサンシエン",
    "address": "青森市大字横内字若草1番地1",
    "lat": 40.7847702,
    "lng": 140.7608537,
    "tel": "017-728-1133",
    "url": "https://sanshien.site/",
    "pref": "青森県",
    "city": "青森市",
    "category": "community_day_service",
    "serviceType": "地域密着型通所介護",
    "capacity": 0,
    "openDays": [
      "平日",
      "祝日"
    ],
    "openDaysNote": "5月祝日及び年末のお休みについては、曜日によって適宜変更あり。"
  },
  {
    "id": "270102189",
    "name": "デイサービスセンター小牧野",
    "kana": "デイサービスセンターコマキノ",
    "address": "青森県青森市大字荒川字筒井306-11",
    "lat": 40.7774983,
    "lng": 140.7273706,
    "tel": "017-752-6651",
    "url": "http://www.jinntikai.com/",
    "pref": "青森県",
    "city": "青森市",
    "category": "community_day_service",
    "serviceType": "地域密着型通所介護",
    "capacity": 3,
    "openDays": [
      "平日",
      "土曜日",
      "祝日"
    ],
    "openDaysNote": "‐"
  },
  {
    "id": "290100411",
    "name": "デイサービスセンター藤の園",
    "kana": "デイサービスセンターフジノソノ",
    "address": "青森県青森市大字駒込字蛍沢387番地1特別養護老人ホーム藤の園2Ｆ 特別養護老人ホーム藤の園2Ｆ",
    "lat": 40.7926241,
    "lng": 140.8131211,
    "tel": "017-765-5687",
    "url": "www.fujiseiboen.or.jp",
    "pref": "青森県",
    "city": "青森市",
    "category": "community_day_service",
    "serviceType": "地域密着型通所介護",
    "capacity": 18,
    "openDays": [
      "平日",
      "祝日"
    ],
    "openDaysNote": ""
  },
  {
    "id": "290100643",
    "name": "デイサービスつつみ",
    "kana": "デイサービスツツミ",
    "address": "青森県青森市茶屋町11番2",
    "lat": 40.8270005,
    "lng": 140.7628186,
    "tel": "017-729-3274",
    "url": "http://www.aomori-h-coop.com/visit02.html#v_link12",
    "pref": "青森県",
    "city": "青森市",
    "category": "community_day_service",
    "serviceType": "地域密着型通所介護",
    "capacity": 18,
    "openDays": [
      "平日",
      "土曜日",
      "祝日"
    ],
    "openDaysNote": "令和６年５月より事業休止しております。"
  },
  {
    "id": "290100452",
    "name": "デイサービスてｔｏて",
    "kana": "デイサービステトテ",
    "address": "青森県青森市赤坂1丁目46‐14",
    "lat": 40.7975484,
    "lng": 140.8112186,
    "tel": "017-752-1234",
    "url": "",
    "pref": "青森県",
    "city": "青森市",
    "category": "community_day_service",
    "serviceType": "地域密着型通所介護",
    "capacity": null,
    "openDays": [
      "平日",
      "土曜日",
      "祝日"
    ],
    "openDaysNote": ""
  },
  {
    "id": "290100536",
    "name": "デイサービスワンライブ",
    "kana": "デイサービスワンライブ",
    "address": "青森県青森市港町2丁目１３－７",
    "lat": 40.8310974,
    "lng": 140.7648828,
    "tel": "017-763-5811",
    "url": "",
    "pref": "青森県",
    "city": "青森市",
    "category": "community_day_service",
    "serviceType": "地域密着型通所介護",
    "capacity": null,
    "openDays": [
      "平日",
      "祝日"
    ],
    "openDaysNote": "お盆・正月休み"
  },
  {
    "id": "270103286",
    "name": "デイサービス喜楽",
    "kana": "デイサービスキラク",
    "address": "青森県青森市西大野三丁目１１番地４シャーメゾンMIWA　　1F シャーメゾンMIWA　　1F",
    "lat": 40.8007178,
    "lng": 140.7259084,
    "tel": "０１７－７１８－３０２０",
    "url": "https://aomorishi-nisioono--kiraku--kiraku.studio.site/",
    "pref": "青森県",
    "city": "青森市",
    "category": "community_day_service",
    "serviceType": "地域密着型通所介護",
    "capacity": 2,
    "openDays": [
      "平日",
      "土曜日",
      "祝日"
    ],
    "openDaysNote": "年末年始　12月30日～1月3日は休みです。"
  },
  {
    "id": "270103906",
    "name": "デイサービス沢庵",
    "kana": "デイサービスタクアン",
    "address": "青森県青森市桂木4丁目3-14",
    "lat": 40.8102204,
    "lng": 140.7516759,
    "tel": "017-752-1638",
    "url": "http://day-takuan.jp",
    "pref": "青森県",
    "city": "青森市",
    "category": "community_day_service",
    "serviceType": "地域密着型通所介護",
    "capacity": 10,
    "openDays": [
      "平日",
      "土曜日",
      "日曜日",
      "祝日"
    ],
    "openDaysNote": "営業時間以外でも、お客様のご要望に応じて、時間延長など対応しています。"
  },
  {
    "id": "270105265",
    "name": "デイサービス虹のひろば新城",
    "kana": "デイサービスニジノヒロバシンジョウ",
    "address": "青森県青森市新城字平岡190-34",
    "lat": 40.8296388,
    "lng": 140.6758777,
    "tel": "017-757-9005",
    "url": "http://www.nijiweb.net",
    "pref": "青森県",
    "city": "青森市",
    "category": "community_day_service",
    "serviceType": "地域密着型通所介護",
    "capacity": 0,
    "openDays": [
      "平日",
      "土曜日",
      "祝日"
    ],
    "openDaysNote": ""
  },
  {
    "id": "270104961",
    "name": "デイサービス八ツ橋",
    "kana": "デイサービスヤツハシ",
    "address": "青森県青森市大字筒井字八ツ橋31-141",
    "lat": 40.7980258728801,
    "lng": 140.772266422754,
    "tel": "017-728-1721",
    "url": "",
    "pref": "青森県",
    "city": "青森市",
    "category": "community_day_service",
    "serviceType": "地域密着型通所介護",
    "capacity": 0,
    "openDays": [
      "平日",
      "土曜日",
      "祝日"
    ],
    "openDaysNote": "5月3日～5月5日。8月13日～8月14日。12月30日～1月3日を休みとする。"
  },
  {
    "id": "270104425",
    "name": "デイサービス遊楽苑",
    "kana": "デイサービスユウラクエン",
    "address": "青森県青森市小柳3-6-12ﾃﾞｲｻｰﾋﾞｽ遊楽苑 ﾃﾞｲｻｰﾋﾞｽ遊楽苑",
    "lat": 40.8211424,
    "lng": 140.7939386,
    "tel": "017-772-9981",
    "url": "http://www.yurakuen-egao.co.jp/",
    "pref": "青森県",
    "city": "青森市",
    "category": "community_day_service",
    "serviceType": "地域密着型通所介護",
    "capacity": 10,
    "openDays": [
      "平日",
      "祝日"
    ],
    "openDaysNote": ""
  },
  {
    "id": "290100478",
    "name": "リハビリスト倶楽部・メリーランド",
    "kana": "リハビリストクラブ・メリーランド",
    "address": "奥野2丁目19‐1",
    "lat": 40.8151381,
    "lng": 140.762263,
    "tel": "017-718-1522",
    "url": "www.merryland-aomori.jp",
    "pref": "青森県",
    "city": "青森市",
    "category": "community_day_service",
    "serviceType": "地域密着型通所介護",
    "capacity": 10,
    "openDays": [
      "平日",
      "祝日"
    ],
    "openDaysNote": "年末年始（12月31日から1月3日）（改行）ゴールデンウィーク（5月3日から5月5日、振替休日）以外の祝日は営業しております。"
  },
  {
    "id": "270104482",
    "name": "リハビリ特化型デイサービスあゆみ",
    "kana": "リハビリトッカガタデイサービスアユミ",
    "address": "青森県青森市本町３丁目４－１１はままち団地１階 はままち団地１階",
    "lat": 40.8279826,
    "lng": 140.748865432243,
    "tel": "０１７－７７６－００２２",
    "url": "http://www.heartcare-service.com/company.html",
    "pref": "青森県",
    "city": "青森市",
    "category": "community_day_service",
    "serviceType": "地域密着型通所介護",
    "capacity": 15,
    "openDays": [
      "平日",
      "土曜日",
      "祝日"
    ],
    "openDaysNote": ""
  },
  {
    "id": "270104144",
    "name": "機能訓練特化型　しのだディサービス",
    "kana": "キノウクンレントッカガタ　シノダディサービス",
    "address": "篠田1丁目9番11号青森クリニック　3階 青森クリニック　3階",
    "lat": 40.8261072,
    "lng": 140.7294962,
    "tel": "017-763-0527",
    "url": "http://care-net.biz/02/senjyu/",
    "pref": "青森県",
    "city": "青森市",
    "category": "community_day_service",
    "serviceType": "地域密着型通所介護",
    "capacity": 0,
    "openDays": [
      "平日",
      "土曜日"
    ],
    "openDaysNote": "午前９時００分～１２時００分、午後１：３０～４：３０で提供。（改行）（改行）食事、入浴のサービスはありません。（改行）（改行）毎月最終土曜日営業"
  },
  {
    "id": "270103864",
    "name": "小規模デイサービスアウルの森",
    "kana": "ショウキボデイサービス　アウルノモリ",
    "address": "青森県青森市松森３丁目１－１０",
    "lat": 40.8126902,
    "lng": 140.77491,
    "tel": "017-742-2450",
    "url": "http://www.owl-llc.jp/",
    "pref": "青森県",
    "city": "青森市",
    "category": "community_day_service",
    "serviceType": "地域密着型通所介護",
    "capacity": 10,
    "openDays": [
      "平日",
      "土曜日",
      "祝日"
    ],
    "openDaysNote": "延長サービス対応時間　7：00～8：30、16：30～20：00"
  },
  {
    "id": "290100460",
    "name": "生活動作訓練型デイサービス　ほーむ",
    "kana": "セイカツドウサクンレンガタデイサービス　ホーム",
    "address": "青森県青森市羽白字池上38-9",
    "lat": 40.8531021665524,
    "lng": 140.686811840475,
    "tel": "017-752-7504",
    "url": "http://www.ai-support.info",
    "pref": "青森県",
    "city": "青森市",
    "category": "community_day_service",
    "serviceType": "地域密着型通所介護",
    "capacity": 10,
    "openDays": [
      "平日",
      "祝日"
    ],
    "openDaysNote": "土日は休み、祝日は営業しております。"
  },
  {
    "id": "270104250",
    "name": "青い鳥ハッピーホーム　リハビリスト俱楽部・ハッピーホーム",
    "kana": "アオイトリハッピーホーム　リハビリストクラブ・ハッピーホーム",
    "address": "青森県青森市松森１丁目１５番地15号青い鳥ハッピーホーム　リハビリスト俱楽部・ハッピーホーム 青い鳥ハッピーホーム　リハビリスト俱楽部・ハッピーホーム",
    "lat": 40.8204790471378,
    "lng": 140.771218369647,
    "tel": "177446100",
    "url": "www.aoitori-happyhome.jp",
    "pref": "青森県",
    "city": "青森市",
    "category": "community_day_service",
    "serviceType": "地域密着型通所介護",
    "capacity": 15,
    "openDays": [
      "平日",
      "祝日"
    ],
    "openDaysNote": "5月3日～5月5日（ゴールデンウィーク）、12月31～1月3日（年末年始）はお休みを頂いて"
  },
  {
    "id": "270104367",
    "name": "息吹リハデイ",
    "kana": "イブキリハデイ",
    "address": "桜川７丁目１１－１",
    "lat": 40.8114430005105,
    "lng": 140.770451554031,
    "tel": "017-752-8679",
    "url": "http://feelyourbreath.hp.gogo.jp/pc/index.html",
    "pref": "青森県",
    "city": "青森市",
    "category": "community_day_service",
    "serviceType": "地域密着型通所介護",
    "capacity": 70,
    "openDays": [
      "平日",
      "祝日"
    ],
    "openDaysNote": "平日・祝日のうち水曜日の営業時間は8:00～13:00（改行）その他の休業日：（改行）５月３日～５月６日、８月１３日～８月１５日、１２月３１日～１月３日"
  },
  {
    "id": "270104300",
    "name": "第二デイサービス喜楽",
    "kana": "ダイニデイサービスキラク",
    "address": "青森市西大野三丁目１１番地１９",
    "lat": 40.8008206,
    "lng": 140.7258334,
    "tel": "０１７－７６３－０６１１",
    "url": "https://aomorishi-nisioono--kiraku--kiraku.studio.site/",
    "pref": "青森県",
    "city": "青森市",
    "category": "community_day_service",
    "serviceType": "地域密着型通所介護",
    "capacity": 5,
    "openDays": [
      "平日",
      "土曜日",
      "祝日"
    ],
    "openDaysNote": "年末年始休業　12/30～1/3"
  },
  {
    "id": "290100379",
    "name": "中央デイサービスリハビリクラブ",
    "kana": "チュウオウデイサービスリハビリクラブ",
    "address": "青森県青森市中央２丁目１番６号",
    "lat": 40.8190386666494,
    "lng": 140.744596437434,
    "tel": "017-723-3185",
    "url": "",
    "pref": "青森県",
    "city": "青森市",
    "category": "community_day_service",
    "serviceType": "地域密着型通所介護",
    "capacity": 14,
    "openDays": [
      "平日",
      "土曜日",
      "祝日"
    ],
    "openDaysNote": ""
  },
  {
    "id": "270104326",
    "name": "通所介護うぇるかめ",
    "kana": "ツウショカイゴウェルカメ",
    "address": "青森県青森市幸畑１丁目９番5号",
    "lat": 40.7810404299924,
    "lng": 140.779967046033,
    "tel": "017-738-2639",
    "url": "",
    "pref": "青森県",
    "city": "青森市",
    "category": "community_day_service",
    "serviceType": "地域密着型通所介護",
    "capacity": 10,
    "openDays": [
      "平日",
      "土曜日",
      "祝日"
    ],
    "openDaysNote": "上記以外の祝日は営業します。"
  },
  {
    "id": "270105067",
    "name": "桃花",
    "kana": "トウカ",
    "address": "青森県青森市大字安田字近野３３５番地１",
    "lat": 40.8032507,
    "lng": 140.7110733,
    "tel": "017-757-8351",
    "url": "http://www2.actv.ne.jp/~tougen1/",
    "pref": "青森県",
    "city": "青森市",
    "category": "community_day_service",
    "serviceType": "地域密着型通所介護",
    "capacity": 0,
    "openDays": [
      "平日",
      "土曜日",
      "祝日"
    ],
    "openDaysNote": "お盆休み（８月１３日～１５日）（改行）年末年始休み（１２月３１～１月３日）"
  },
  {
    "id": "270104219",
    "name": "優・遊　介護ステーション",
    "kana": "ユウ・ユウ　カイゴステーション",
    "address": "青森県青森市六枚橋字磯打40-1",
    "lat": 40.9322129,
    "lng": 140.664164,
    "tel": "017-754-3993",
    "url": "",
    "pref": "青森県",
    "city": "青森市",
    "category": "community_day_service",
    "serviceType": "地域密着型通所介護",
    "capacity": 9,
    "openDays": [
      "平日",
      "土曜日",
      "祝日"
    ],
    "openDaysNote": ""
  },
  {
    "id": "272301177",
    "name": "デイサービスセンター虹貝",
    "kana": "デイサービスセンターニジカイ",
    "address": "青森県南津軽郡大鰐町大字虹貝字篠塚３３－７",
    "lat": 40.5176681,
    "lng": 140.5621974,
    "tel": "0172-55-8826",
    "url": "",
    "pref": "青森県",
    "city": "大鰐町",
    "category": "community_day_service",
    "serviceType": "地域密着型通所介護",
    "capacity": 10,
    "openDays": [
      "平日",
      "土曜日",
      "日曜日",
      "祝日"
    ],
    "openDaysNote": "12/31　1/1　休日　以外営業しています。"
  },
  {
    "id": "272400987",
    "name": "デイサービスセンターまた明日",
    "kana": "デイサービスセンターマタアシタ",
    "address": "青森県北津軽郡鶴田町大字鶴泊字前田９９－３",
    "lat": 40.7331374,
    "lng": 140.4324165,
    "tel": "０１７３－２６－６７７３",
    "url": "",
    "pref": "青森県",
    "city": "鶴田町",
    "category": "community_day_service",
    "serviceType": "地域密着型通所介護",
    "capacity": 15,
    "openDays": [
      "平日",
      "土曜日",
      "日曜日",
      "祝日"
    ],
    "openDaysNote": "12/31は営業しております。"
  },
  {
    "id": "272400862",
    "name": "デイサービスセンター鶴東館",
    "kana": "デイサービスセンターカクトウカン",
    "address": "青森県北津軽郡鶴田町大字境字宮内1-1",
    "lat": 40.7354573,
    "lng": 140.452568,
    "tel": "0173-22-6663",
    "url": "turutasyakyou@oregano.ocn.ne.jp",
    "pref": "青森県",
    "city": "鶴田町",
    "category": "community_day_service",
    "serviceType": "地域密着型通所介護",
    "capacity": 18,
    "openDays": [
      "平日",
      "土曜日",
      "日曜日",
      "祝日"
    ],
    "openDaysNote": "利用時間は延長可能です。"
  },
  {
    "id": "292600079",
    "name": "社会福祉法人東通村社会福祉協議会あしすと介護サービス事業所",
    "kana": "シャカイフクシホウジンヒガシドオリムラシャカイフクシキョウギカイアシストカイゴサービスジギョウショ",
    "address": "青森県下北郡東通村大字白糠字赤平679番地",
    "lat": 41.1467696139753,
    "lng": 141.385157436771,
    "tel": "0175-45-5681",
    "url": "",
    "pref": "青森県",
    "city": "東通村",
    "category": "community_day_service",
    "serviceType": "地域密着型通所介護",
    "capacity": null,
    "openDays": [
      "平日",
      "祝日"
    ],
    "openDaysNote": ""
  },
  {
    "id": "272600545",
    "name": "和楽通所介護",
    "kana": "ワラクツウショカイゴ",
    "address": "青森県下北郡東通村大字白糠字家ノ上43-4",
    "lat": 41.1625653,
    "lng": 141.3809572,
    "tel": "0175-45-5687",
    "url": "",
    "pref": "青森県",
    "city": "東通村",
    "category": "community_day_service",
    "serviceType": "地域密着型通所介護",
    "capacity": 0,
    "openDays": [
      "平日"
    ],
    "openDaysNote": ""
  },
  {
    "id": "272301243",
    "name": "サポートセンターいきいき武さん家",
    "kana": "サポートセンターイキイキタケサンチ",
    "address": "青森県南津軽郡藤崎町大字三ツ屋字上前田63-2",
    "lat": 40.6696066,
    "lng": 140.5631481,
    "tel": "0172-55-0638",
    "url": "",
    "pref": "青森県",
    "city": "藤崎町",
    "category": "community_day_service",
    "serviceType": "地域密着型通所介護",
    "capacity": 0,
    "openDays": [
      "平日"
    ],
    "openDaysNote": ""
  },
  {
    "id": "272700683",
    "name": "三老デイサービスセンター",
    "kana": "サンロウデイサービスセンター",
    "address": "青森県三戸郡南部町大字大向字仙ノ木平31-1",
    "lat": 40.3983327,
    "lng": 141.2853188,
    "tel": "0179-22-1218",
    "url": "www.sanrou-hatiman.com",
    "pref": "青森県",
    "city": "南部町",
    "category": "community_day_service",
    "serviceType": "地域密着型通所介護",
    "capacity": 18,
    "openDays": [
      "平日",
      "土曜日",
      "祝日"
    ],
    "openDaysNote": ""
  },
  {
    "id": "290300433",
    "name": "コンパスウォーク八戸新井田",
    "kana": "コンパスウォークハチノヘニイダ",
    "address": "青森県八戸市新井田西1-10-14",
    "lat": 40.5027985,
    "lng": 141.5189168,
    "tel": "0178-80-7147",
    "url": "https://keigo-group.co.jp/",
    "pref": "青森県",
    "city": "八戸市",
    "category": "community_day_service",
    "serviceType": "地域密着型通所介護",
    "capacity": 0,
    "openDays": [
      "平日",
      "祝日"
    ],
    "openDaysNote": "平日であれば祝日も営業　お盆期間営業"
  },
  {
    "id": "270301666",
    "name": "それいゆデイセンター",
    "kana": "ソレイユデイセンター",
    "address": "青森県八戸市大字白銀町字八森２３－２",
    "lat": 40.5226201,
    "lng": 141.5582911,
    "tel": "0178-32-1511",
    "url": "https://www.care-unique.com/",
    "pref": "青森県",
    "city": "八戸市",
    "category": "community_day_service",
    "serviceType": "地域密着型通所介護",
    "capacity": 9,
    "openDays": [
      "平日",
      "土曜日",
      "祝日"
    ],
    "openDaysNote": "当日のご利用キャンセルは朝の8:30までご連絡ください。"
  },
  {
    "id": "290300599",
    "name": "たものきほっとハウス",
    "kana": "タモノキホットハウス",
    "address": "田面木字神明沢16番40号",
    "lat": 40.4981532638352,
    "lng": 141.44847586732,
    "tel": "0178-32-7765",
    "url": "http://tomonokai.jp/",
    "pref": "青森県",
    "city": "八戸市",
    "category": "community_day_service",
    "serviceType": "地域密着型通所介護",
    "capacity": 10,
    "openDays": [
      "平日",
      "祝日"
    ],
    "openDaysNote": "・台風や大雪などによる悪天候時には、利用者様の安全確保のため、送迎時間及び利用日の差し替え利用の提案、または、サービス提供の中止をする場合があります。"
  },
  {
    "id": "270303308",
    "name": "デイサービス　ふきのとう",
    "kana": "デイサービス　フキノトウ",
    "address": "青森県八戸市是川一丁目11番地1デイサービス　ふきのとう デイサービス　ふきのとう",
    "lat": 40.4665538408033,
    "lng": 141.498724433205,
    "tel": "0178-51-9271",
    "url": "https://dearest-care.jp/",
    "pref": "青森県",
    "city": "八戸市",
    "category": "community_day_service",
    "serviceType": "地域密着型通所介護",
    "capacity": 18,
    "openDays": [
      "平日",
      "土曜日"
    ],
    "openDaysNote": "盆休み　8月13日～16日　及び　年末年始のお休み　12月31日～1月3日を基本としておりますが、その年の暦により一部変動あります。その他はなんなりと、相談下さい。"
  },
  {
    "id": "290300532",
    "name": "デイサービスcococolor",
    "kana": "デイサービスココカラー",
    "address": "青森県八戸市大字尻内町字正法寺１１３番地",
    "lat": 40.5179426,
    "lng": 141.4080161,
    "tel": "0178-32-6375",
    "url": "",
    "pref": "青森県",
    "city": "八戸市",
    "category": "community_day_service",
    "serviceType": "地域密着型通所介護",
    "capacity": 10,
    "openDays": [
      "平日",
      "土曜日",
      "祝日"
    ],
    "openDaysNote": ""
  },
  {
    "id": "272700626",
    "name": "デイサービスセンター　クローバーズ・ピア",
    "kana": "デイサービスセンター　クローバーズ・ピア",
    "address": "青森県八戸市南郷大字市野沢字山陣屋36-50",
    "lat": 40.4054741,
    "lng": 141.4523731,
    "tel": "0178-82-3870",
    "url": "https://www.net-pier.org",
    "pref": "青森県",
    "city": "八戸市",
    "category": "community_day_service",
    "serviceType": "地域密着型通所介護",
    "capacity": 10,
    "openDays": [
      "平日"
    ],
    "openDaysNote": ""
  },
  {
    "id": "270301872",
    "name": "デイサービスセンター　クローバーズ・ピア江陽",
    "kana": "デイサービスセンター　クローバーズ・ピアコウヨウ",
    "address": "青森県八戸市江陽二丁目13-36",
    "lat": 40.5241657806367,
    "lng": 141.502396163229,
    "tel": "0178-22-1993",
    "url": "http://www.net-pier.com",
    "pref": "青森県",
    "city": "八戸市",
    "category": "community_day_service",
    "serviceType": "地域密着型通所介護",
    "capacity": 0,
    "openDays": [
      "平日",
      "土曜日",
      "祝日"
    ],
    "openDaysNote": ""
  },
  {
    "id": "290300409",
    "name": "デイサービスセンター下長",
    "kana": "デイサービスセンターシモナガ",
    "address": "青森県八戸市下長4丁目22番地8",
    "lat": 40.5396049,
    "lng": 141.4763993,
    "tel": "0178-51-8681",
    "url": "https://sunrise-team.com",
    "pref": "青森県",
    "city": "八戸市",
    "category": "community_day_service",
    "serviceType": "地域密着型通所介護",
    "capacity": 0,
    "openDays": [
      "平日",
      "祝日"
    ],
    "openDaysNote": "月～金で祝日の日は営業（改行）12/31～1/3休業"
  },
  {
    "id": "290300334",
    "name": "デイサービス八戸中央",
    "kana": "デイサービスハチノヘチュウオウ",
    "address": "青森県八戸市沼館4丁目1番87号株式会社アマテラス 株式会社アマテラス",
    "lat": 40.5297733994426,
    "lng": 141.499802024967,
    "tel": "0178-32-7726",
    "url": "http://www.enburi-style.com/detail/index_303.html",
    "pref": "青森県",
    "city": "八戸市",
    "category": "community_day_service",
    "serviceType": "地域密着型通所介護",
    "capacity": 10,
    "openDays": [
      "平日",
      "祝日"
    ],
    "openDaysNote": ""
  },
  {
    "id": "270301781",
    "name": "テレサの丘デイサービスセンター",
    "kana": "テレサノオカデイサービスセンター",
    "address": "青森県八戸市湊高台7丁目26番地6号",
    "lat": 40.5059802,
    "lng": 141.5502034,
    "tel": "0178-34-5534",
    "url": "https://teresa-oka.com",
    "pref": "青森県",
    "city": "八戸市",
    "category": "community_day_service",
    "serviceType": "地域密着型通所介護",
    "capacity": 10,
    "openDays": [
      "平日",
      "土曜日",
      "祝日"
    ],
    "openDaysNote": ""
  },
  {
    "id": "290300565",
    "name": "ホップステップサンテ",
    "kana": "ホップステップサンテ",
    "address": "青森県八戸市江陽二丁目１４－１八戸ショッピングセンターラピア１階 八戸ショッピングセンターラピア１階",
    "lat": 40.5219544,
    "lng": 141.5034062,
    "tel": "0178-38-8125",
    "url": "https://sante-rehaday.com/",
    "pref": "青森県",
    "city": "八戸市",
    "category": "community_day_service",
    "serviceType": "地域密着型通所介護",
    "capacity": null,
    "openDays": [
      "平日"
    ],
    "openDaysNote": "自然災害や機能訓練指導員の不在や社内研修などによる事情で事業所を臨時休業する場合があります。（改行）祝日については臨時的に営業することがあります。"
  },
  {
    "id": "290300292",
    "name": "よもぎ鍼灸院デイサービスセンター",
    "kana": "ヨモギシンキュウインデイサービスセンター",
    "address": "青森県八戸市小中野４丁目２－１１",
    "lat": 40.5191123,
    "lng": 141.509967,
    "tel": "0178-80-7402",
    "url": "",
    "pref": "青森県",
    "city": "八戸市",
    "category": "community_day_service",
    "serviceType": "地域密着型通所介護",
    "capacity": null,
    "openDays": [
      "平日",
      "土曜日"
    ],
    "openDaysNote": ""
  },
  {
    "id": "270303191",
    "name": "リハビリデイサービスサンテ",
    "kana": "リハビリデイサービスサンテ",
    "address": "石手洗字斎郷7-19",
    "lat": 40.48546428819,
    "lng": 141.505170971689,
    "tel": "0178-79-6161",
    "url": "https://preview.studio.site/live/XKOkYdZka4",
    "pref": "青森県",
    "city": "八戸市",
    "category": "community_day_service",
    "serviceType": "地域密着型通所介護",
    "capacity": 0,
    "openDays": [
      "平日"
    ],
    "openDaysNote": "自然災害や機能訓練指導員の不在などによる事情で事業所を休業する場合があり得ます。（改行）祝日については臨時的に営業することがあります。"
  },
  {
    "id": "270303589",
    "name": "リハビリデイサービスサンテ田面木",
    "kana": "リハビリデイサービスサンテ　タモノキ",
    "address": "青森県八戸市田面木字上田面木39-2",
    "lat": 40.4982985,
    "lng": 141.4465953,
    "tel": "0178-80-7301",
    "url": "http://sante-rehaday.com",
    "pref": "青森県",
    "city": "八戸市",
    "category": "community_day_service",
    "serviceType": "地域密着型通所介護",
    "capacity": 0,
    "openDays": [
      "平日"
    ],
    "openDaysNote": "自然災害や機能訓練指導員の不在などによる事情で事業所を休業する場合があり得ます。（改行）祝日については臨時的に営業することがあります。"
  },
  {
    "id": "290300284",
    "name": "リハビリデイサロンかりん",
    "kana": "リハビリデイサロンカリン",
    "address": "青森県八戸市大字田面木字松長根3-2リハビリデイサロン　かりん リハビリデイサロン　かりん",
    "lat": 40.4979406,
    "lng": 141.4589138,
    "tel": "0178-71-3308",
    "url": "http://karin-day.com",
    "pref": "青森県",
    "city": "八戸市",
    "category": "community_day_service",
    "serviceType": "地域密着型通所介護",
    "capacity": 10,
    "openDays": [
      "平日",
      "祝日"
    ],
    "openDaysNote": "祝日は営業しています。"
  },
  {
    "id": "290300466",
    "name": "レコードブック八戸中央",
    "kana": "レコードブックハチノヘチュウオウ",
    "address": "青森県八戸市柏崎１丁目１０－１６Jビル１階 Jビル１階",
    "lat": 40.5135174,
    "lng": 141.4981452,
    "tel": "0178-20-8108",
    "url": "",
    "pref": "青森県",
    "city": "八戸市",
    "category": "community_day_service",
    "serviceType": "地域密着型通所介護",
    "capacity": 10,
    "openDays": [
      "平日",
      "祝日"
    ],
    "openDaysNote": ""
  },
  {
    "id": "270303142",
    "name": "株式会社池田介護研究所",
    "kana": "カブシキガイシャ　イケダカイゴケンキュウジョ",
    "address": "大字長苗代字内舟渡73‐3",
    "lat": 40.516082,
    "lng": 141.4652894,
    "tel": "0178-32-0097",
    "url": "https://www.facebook.com/ikedacarelab/",
    "pref": "青森県",
    "city": "八戸市",
    "category": "community_day_service",
    "serviceType": "地域密着型通所介護",
    "capacity": 0,
    "openDays": [
      "平日",
      "土曜日",
      "祝日"
    ],
    "openDaysNote": "お盆休み及びGWは、お客様の状況でお休みする場合がございます。"
  },
  {
    "id": "270302029",
    "name": "長生園デイサービスセンター",
    "kana": "チョウセイエンデイサービスセンター",
    "address": "青森県八戸市大字是川字犾森33番地",
    "lat": 40.4738113,
    "lng": 141.5009769,
    "tel": "0178-96-3883",
    "url": "http://www.hsfj.or.jp/nagaiki/",
    "pref": "青森県",
    "city": "八戸市",
    "category": "community_day_service",
    "serviceType": "地域密着型通所介護",
    "capacity": 4,
    "openDays": [
      "平日",
      "土曜日",
      "祝日"
    ],
    "openDaysNote": "特になし"
  },
  {
    "id": "270303597",
    "name": "白山台やすらぎ館デイサービスセンター",
    "kana": "ハクサンダイヤスラギカンデイサービスセンター",
    "address": "青森県八戸市西白山台６丁目９－３０",
    "lat": 40.4732323,
    "lng": 141.4548039,
    "tel": "0178-32-7635",
    "url": "http://maturyou.or.jp/yasuragikan/",
    "pref": "青森県",
    "city": "八戸市",
    "category": "community_day_service",
    "serviceType": "地域密着型通所介護",
    "capacity": 18,
    "openDays": [
      "平日",
      "土曜日",
      "祝日"
    ],
    "openDaysNote": "※2024年11月末時点で土曜日の営業を無くする方向で調整中です。"
  },
  {
    "id": "290300458",
    "name": "無添加お弁当二重まる＆キャトルフィユ",
    "kana": "ムテンカオベントウニジュウマルアンドキャトルフィユ",
    "address": "青森県八戸市大字尻内町字八百刈２５－１",
    "lat": 40.5084276,
    "lng": 141.4372368,
    "tel": "0178-20-0961",
    "url": "https://www.facebook.com/ikedacarelab/",
    "pref": "青森県",
    "city": "八戸市",
    "category": "community_day_service",
    "serviceType": "地域密着型通所介護",
    "capacity": 0,
    "openDays": [
      "平日",
      "祝日"
    ],
    "openDaysNote": ""
  },
  {
    "id": "272600438",
    "name": "風間浦村社協デイサービスセンター",
    "kana": "カザマウラムラシャキョウデイサービスセンター",
    "address": "青森県下北郡風間浦村大字易国間字大川目１１－２",
    "lat": 41.4821141949042,
    "lng": 140.99202551108,
    "tel": "0175-35-2243",
    "url": "",
    "pref": "青森県",
    "city": "風間浦村",
    "category": "community_day_service",
    "serviceType": "地域密着型通所介護",
    "capacity": 0,
    "openDays": [
      "平日",
      "祝日"
    ],
    "openDaysNote": ""
  },
  {
    "id": "271000069",
    "name": "デイサービスセンター　寿逢",
    "kana": "デイサービスセンター　　ジュホウ",
    "address": "青森県平川市葛川田ノ沢口５－１",
    "lat": 40.5265468,
    "lng": 140.7222867,
    "tel": "0172-59-7020",
    "url": "http://ryokufu.or.jp",
    "pref": "青森県",
    "city": "平川市",
    "category": "community_day_service",
    "serviceType": "地域密着型通所介護",
    "capacity": 15,
    "openDays": [
      "平日",
      "祝日"
    ],
    "openDaysNote": ""
  },
  {
    "id": "271000150",
    "name": "デイサービスセンターおのえ荘",
    "kana": "デイサービスセンターオノエソウ",
    "address": "青森県平川市猿賀池上100-1",
    "lat": 40.6187278709905,
    "lng": 140.566073255156,
    "tel": "0172-57-3135",
    "url": "https://www.hakuyuukai.com",
    "pref": "青森県",
    "city": "平川市",
    "category": "community_day_service",
    "serviceType": "地域密着型通所介護",
    "capacity": 0,
    "openDays": [
      "平日",
      "祝日"
    ],
    "openDaysNote": ""
  },
  {
    "id": "291000057",
    "name": "デイサービス笑がお",
    "kana": "デイサービスエガオ",
    "address": "青森県平川市館山下扇田77-1",
    "lat": 40.6028437,
    "lng": 140.5377353,
    "tel": "0172-44-7770",
    "url": "",
    "pref": "青森県",
    "city": "平川市",
    "category": "community_day_service",
    "serviceType": "地域密着型通所介護",
    "capacity": 12,
    "openDays": [
      "平日",
      "土曜日",
      "祝日"
    ],
    "openDaysNote": "必要な場合は相談に応じます。"
  },
  {
    "id": "271000036",
    "name": "ふるさと温泉",
    "kana": "フルサトオンセン",
    "address": "平川市唐竹堀合５９－２",
    "lat": 40.5631945,
    "lng": 140.5980596,
    "tel": "0172-44-0155",
    "url": "https://qixiul7furusato-onnsenn.jimdosite.com/",
    "pref": "青森県",
    "city": "平川市",
    "category": "community_day_service",
    "serviceType": "地域密着型通所介護",
    "capacity": 40,
    "openDays": [
      "平日"
    ],
    "openDaysNote": "職員の研修等により一時的に人的要因を欠くことに備え、金曜・土曜を営業予備日としています。"
  },
  {
    "id": "291000073",
    "name": "社会福祉法人　平川市社会福祉協議会　碇ヶ関地域密着型通所介護事業所",
    "kana": "シャカイフクシホウジン　ヒラカワシシャカイフクシキョウギカイ　イカリガセキチイキミッチャクガタツウショカイゴジギョウショ",
    "address": "青森県平川市碇ケ関三笠山１２０番地１平川市碇ケ関地域福祉センター　ハッピィハウス 平川市碇ケ関地域福祉センター　ハッピィハウス",
    "lat": 40.4768374,
    "lng": 140.629656,
    "tel": "0172-45-2725",
    "url": "https://www.hirasyakyo.org/",
    "pref": "青森県",
    "city": "平川市",
    "category": "community_day_service",
    "serviceType": "地域密着型通所介護",
    "capacity": null,
    "openDays": [
      "平日",
      "土曜日",
      "祝日"
    ],
    "openDaysNote": ""
  },
  {
    "id": "292000221",
    "name": "社協の湯っこほのぼの",
    "kana": "シャキョウノユッコホノボノ",
    "address": "青森県東津軽郡平内町大字小湊字後萢60-19",
    "lat": 40.9226114,
    "lng": 140.9470513,
    "tel": "017-718-8404",
    "url": "https://hiranaishakyo.jp/",
    "pref": "青森県",
    "city": "平内町",
    "category": "community_day_service",
    "serviceType": "地域密着型通所介護",
    "capacity": 0,
    "openDays": [
      "平日",
      "祝日"
    ],
    "openDaysNote": ""
  },
  {
    "id": "292000247",
    "name": "優・遊　よもぎた",
    "kana": "ユウユウヨモギタ",
    "address": "東津軽郡蓬田村大字阿弥陀川字汐干116-1",
    "lat": 40.9671837,
    "lng": 140.6532021,
    "tel": "0174-31-0057",
    "url": "www//yuyukaigo.com",
    "pref": "青森県",
    "city": "蓬田村",
    "category": "community_day_service",
    "serviceType": "地域密着型通所介護",
    "capacity": 0,
    "openDays": [
      "平日",
      "祝日"
    ],
    "openDaysNote": ""
  },
  {
    "id": "272100777",
    "name": "デイサービスセンターみなみ",
    "kana": "デイサービスセンターミナミ",
    "address": "青森県西津軽郡鯵ヶ沢町大字舘前町字後口田28-4",
    "lat": 40.7304218571462,
    "lng": 140.18692853737,
    "tel": "0173-79-2444",
    "url": "",
    "pref": "青森県",
    "city": "鰺ヶ沢町",
    "category": "community_day_service",
    "serviceType": "地域密着型通所介護",
    "capacity": 0,
    "openDays": [
      "平日",
      "土曜日",
      "祝日"
    ],
    "openDaysNote": "特に無し"
  },
  {
    "id": "272100322",
    "name": "鯵ヶ沢町社会福祉協議会　指定通所介護事業所",
    "kana": "アジガサワマチシャカイフクシキョウギカイ　シテイツウショカイゴジギョウショ",
    "address": "青森県西津軽郡鰺ヶ沢町大字舞戸町字後家屋敷9番地の4鰺ヶ沢町総合保健福祉センター 鰺ヶ沢町総合保健福祉センター",
    "lat": 40.7707191163376,
    "lng": 140.228956338623,
    "tel": "0173－82－1602",
    "url": "http://www.ajisyakyo.justhpbs.jp/home.html",
    "pref": "青森県",
    "city": "鰺ヶ沢町",
    "category": "community_day_service",
    "serviceType": "地域密着型通所介護",
    "capacity": 0,
    "openDays": [
      "平日",
      "祝日"
    ],
    "openDaysNote": ""
  }
]