[
  {
    "id": "2290400304",
    "name": "Hav",
    "kana": "ハーブ",
    "address": "静岡県伊東市吉田992-27",
    "lat": 34.9280963,
    "lng": 139.1348899,
    "tel": "0557-29-6170",
    "url": "http://www.richfield.co.jp/index.html",
    "pref": "静岡県",
    "city": "伊東市",
    "category": "community_day_service",
    "serviceType": "地域密着型通所介護",
    "capacity": 0,
    "openDays": [
      "平日",
      "土曜日",
      "日曜日",
      "祝日"
    ],
    "openDaysNote": ""
  },
  {
    "id": "2290400320",
    "name": "Vinka",
    "kana": "ヴィンカ",
    "address": "荻536-10",
    "lat": 34.9348721,
    "lng": 139.1013128,
    "tel": "0557-52-3817",
    "url": "http://www.richfield.co.jp/index.html",
    "pref": "静岡県",
    "city": "伊東市",
    "category": "community_day_service",
    "serviceType": "地域密着型通所介護",
    "capacity": 0,
    "openDays": [
      "平日",
      "土曜日",
      "日曜日",
      "祝日"
    ],
    "openDaysNote": ""
  },
  {
    "id": "2290400197",
    "name": "カフェデイサービス　ナースの森",
    "kana": "カフェデイサービス　ナースノモリ",
    "address": "静岡県伊東市宇佐美1665-9宮上設計ビル1F 宮上設計ビル1F",
    "lat": 35.0102726156951,
    "lng": 139.080836112136,
    "tel": "0557-55-9640",
    "url": "https://na-sunomori.jp",
    "pref": "静岡県",
    "city": "伊東市",
    "category": "community_day_service",
    "serviceType": "地域密着型通所介護",
    "capacity": 216,
    "openDays": [
      "平日",
      "土曜日",
      "祝日"
    ],
    "openDaysNote": "年末年始休暇あり（12月31日から1月3日）"
  },
  {
    "id": "2290400296",
    "name": "クラシオン富士見",
    "kana": "クラシオンフジミ",
    "address": "玖須美元和田722-677クラシオン富士見 クラシオン富士見",
    "lat": 34.9436213,
    "lng": 139.110105025795,
    "tel": "0557-44-5500",
    "url": "http://www.izukaigo.com/",
    "pref": "静岡県",
    "city": "伊東市",
    "category": "community_day_service",
    "serviceType": "地域密着型通所介護",
    "capacity": 15,
    "openDays": [
      "平日"
    ],
    "openDaysNote": ""
  },
  {
    "id": "2290400346",
    "name": "ケアステーション悠",
    "kana": "ケアステーションハルカ",
    "address": "静岡県伊東市岡広町５－２１",
    "lat": 34.9688160328252,
    "lng": 139.090916846444,
    "tel": "0557-38-6265",
    "url": "http://haruka-care.studio.site/",
    "pref": "静岡県",
    "city": "伊東市",
    "category": "community_day_service",
    "serviceType": "地域密着型通所介護",
    "capacity": 0,
    "openDays": [
      "平日",
      "土曜日",
      "日曜日",
      "祝日"
    ],
    "openDaysNote": ""
  },
  {
    "id": "2290400205",
    "name": "スカイテラス伊東デイサービス",
    "kana": "スカイテラスイトウデイサービス",
    "address": "松原639-15スカイテラス伊東 スカイテラス伊東",
    "lat": 34.9747255,
    "lng": 139.0891539,
    "tel": "0557-35-1155",
    "url": "https:www.skyterrace-ito.som",
    "pref": "静岡県",
    "city": "伊東市",
    "category": "community_day_service",
    "serviceType": "地域密着型通所介護",
    "capacity": 10,
    "openDays": [
      "平日"
    ],
    "openDaysNote": ""
  },
  {
    "id": "2270400852",
    "name": "デイサービスセンター「おひさまの里」",
    "kana": "デイサービスセンター「オヒサマノサト」",
    "address": "十足620番地55",
    "lat": 34.9232191418528,
    "lng": 139.093544435582,
    "tel": "0557-45-2090",
    "url": "",
    "pref": "静岡県",
    "city": "伊東市",
    "category": "community_day_service",
    "serviceType": "地域密着型通所介護",
    "capacity": 10,
    "openDays": [
      "平日",
      "土曜日",
      "祝日"
    ],
    "openDaysNote": "・利用者に危険が生じるような気象状況等による臨時休業があります。"
  },
  {
    "id": "2290400221",
    "name": "デイサービスセンター仁　グレイス",
    "kana": "デイサービスセンタージン　グレイス",
    "address": "静岡県伊東市和田一丁目12番29号",
    "lat": 34.9702538,
    "lng": 139.1020529,
    "tel": "0557-55-7800",
    "url": "",
    "pref": "静岡県",
    "city": "伊東市",
    "category": "community_day_service",
    "serviceType": "地域密着型通所介護",
    "capacity": 12,
    "openDays": [
      "平日",
      "祝日"
    ],
    "openDaysNote": ""
  },
  {
    "id": "2290400270",
    "name": "フルーズ宇佐美",
    "kana": "フルーズウサミ",
    "address": "宇佐美2350-1有料老人ホーム「コルテシア」 有料老人ホーム「コルテシア」",
    "lat": 35.0010874003641,
    "lng": 139.07165710885,
    "tel": "0557-48-6565",
    "url": "http://www.izukaigo.com./",
    "pref": "静岡県",
    "city": "伊東市",
    "category": "community_day_service",
    "serviceType": "地域密着型通所介護",
    "capacity": 36,
    "openDays": [
      "平日"
    ],
    "openDaysNote": ""
  },
  {
    "id": "2290400361",
    "name": "ロコデイサービス　ナースの森",
    "kana": "ロコデイサービス　ナースノモリ",
    "address": "静岡県伊東市川奈1226-14",
    "lat": 34.9523775936603,
    "lng": 139.118213649074,
    "tel": "0557-52-3252",
    "url": "https://na-sunomori.jp/",
    "pref": "静岡県",
    "city": "伊東市",
    "category": "community_day_service",
    "serviceType": "地域密着型通所介護",
    "capacity": 0,
    "openDays": [
      "平日",
      "土曜日",
      "祝日"
    ],
    "openDaysNote": "年末年始12/31から1/3は定休日。"
  },
  {
    "id": "2290400379",
    "name": "古民家デイサービス　ナースの森",
    "kana": "コミンカデイサービス　ナースノモリ",
    "address": "静岡県伊東市宇佐美1664-13",
    "lat": 35.009839,
    "lng": 139.0814164,
    "tel": "0557-52-6037",
    "url": "https://na-sunomori.jp/",
    "pref": "静岡県",
    "city": "伊東市",
    "category": "community_day_service",
    "serviceType": "地域密着型通所介護",
    "capacity": 0,
    "openDays": [
      "平日",
      "祝日"
    ],
    "openDaysNote": "平日の祝日は営業（改行）12/31～1/3は休業"
  },
  {
    "id": "2290400130",
    "name": "小規模デイサービス　With",
    "kana": "ショウキボデイサービス　ウィズ",
    "address": "静岡県伊東市荻729-2",
    "lat": 34.9346498,
    "lng": 139.0785728,
    "tel": "0557-36-0711",
    "url": "",
    "pref": "静岡県",
    "city": "伊東市",
    "category": "community_day_service",
    "serviceType": "地域密着型通所介護",
    "capacity": 12,
    "openDays": [
      "平日",
      "土曜日",
      "祝日"
    ],
    "openDaysNote": "令和3年10月現在、毎週火曜日休業中"
  },
  {
    "id": "2290400148",
    "name": "通所介護　くくる",
    "kana": "ツウショカイゴ　ククル",
    "address": "静岡県伊東市富戸1315番地の156",
    "lat": 34.9165542,
    "lng": 139.108469,
    "tel": "0557-55-7270",
    "url": "http://hp.kaipoke.biz/9h9/",
    "pref": "静岡県",
    "city": "伊東市",
    "category": "community_day_service",
    "serviceType": "地域密着型通所介護",
    "capacity": 0,
    "openDays": [
      "平日",
      "土曜日",
      "祝日"
    ],
    "openDaysNote": ""
  },
  {
    "id": "2270400548",
    "name": "通所介護事業所　平和の杜",
    "kana": "ツウショカイゴジギョウショ　ヘイワノモリ",
    "address": "吉田825-1",
    "lat": 34.9331066,
    "lng": 139.1046102,
    "tel": "0557-45-0586",
    "url": "http://www.jyuji.or.jp/ito-city/heiwa/",
    "pref": "静岡県",
    "city": "伊東市",
    "category": "community_day_service",
    "serviceType": "地域密着型通所介護",
    "capacity": 0,
    "openDays": [
      "平日",
      "祝日"
    ],
    "openDaysNote": "悪天候等のために休業することがあります。"
  },
  {
    "id": "2290400288",
    "name": "療養通所サービス・エコー",
    "kana": "リョウヨウツウショサービス・エコー",
    "address": "静岡県伊東市富戸1301-41伊豆まさき整形外科2階 伊豆まさき整形外科2階",
    "lat": 34.9273017,
    "lng": 139.1382198,
    "tel": "0557-51-8111",
    "url": "",
    "pref": "静岡県",
    "city": "伊東市",
    "category": "community_day_service",
    "serviceType": "地域密着型通所介護",
    "capacity": 0,
    "openDays": [
      "平日"
    ],
    "openDaysNote": ""
  },
  {
    "id": "2270800275",
    "name": "あいねっとデイサービス伊豆長岡",
    "kana": "アイネットデイサービスイズナガオカ",
    "address": "静岡県伊豆の国市古奈279-1ジュリア伊豆長岡内 ジュリア伊豆長岡内",
    "lat": 35.0331211,
    "lng": 138.9380424,
    "tel": "055-947-5566",
    "url": "http://www.inet-izu.com",
    "pref": "静岡県",
    "city": "伊豆の国市",
    "category": "community_day_service",
    "serviceType": "地域密着型通所介護",
    "capacity": 18,
    "openDays": [
      "平日",
      "土曜日",
      "祝日"
    ],
    "openDaysNote": ""
  },
  {
    "id": "2270300268",
    "name": "デイサービス　おらんち",
    "kana": "デイサービス　オランチ",
    "address": "伊豆の国市中島２７０－１",
    "lat": 35.0041774,
    "lng": 138.9390705,
    "tel": "0558-76-8133",
    "url": "http://www.cs-ookawa.com",
    "pref": "静岡県",
    "city": "伊豆の国市",
    "category": "community_day_service",
    "serviceType": "地域密着型通所介護",
    "capacity": 0,
    "openDays": [
      "平日",
      "土曜日"
    ],
    "openDaysNote": ""
  },
  {
    "id": "2270800366",
    "name": "デイサービス　カナリア",
    "kana": "デイサービス　カナリア",
    "address": "静岡県伊豆の国市天野字出口23番地3",
    "lat": 35.0279273,
    "lng": 138.9396702,
    "tel": "055-944-6585",
    "url": "",
    "pref": "静岡県",
    "city": "伊豆の国市",
    "category": "community_day_service",
    "serviceType": "地域密着型通所介護",
    "capacity": 3,
    "openDays": [
      "平日",
      "土曜日",
      "祝日"
    ],
    "openDaysNote": "※その他臨時休業について（改行）施設改修や職員研修及び天候悪化によって臨時的に休業する場合があります。施設改修等、臨時休業する日程が事前にお知らせできる場合については、速やかに臨時休業の理由及び休業日を利用者にお伝えします。天候悪化等の場合は、前日又は当日にお電話によって臨時休業のお知らせをさせて頂きます。"
  },
  {
    "id": "2270800242",
    "name": "デイサービス　ちえのわ",
    "kana": "デイサービス　チエノワ",
    "address": "静岡県伊豆の国市四日町６１６番地",
    "lat": 35.0551326,
    "lng": 138.9447892,
    "tel": "055-948-9908",
    "url": "",
    "pref": "静岡県",
    "city": "伊豆の国市",
    "category": "community_day_service",
    "serviceType": "地域密着型通所介護",
    "capacity": 0,
    "openDays": [
      "平日",
      "土曜日",
      "祝日"
    ],
    "openDaysNote": ""
  },
  {
    "id": "2290800057",
    "name": "デイサービス・ひっと",
    "kana": "デイサービス・ヒット",
    "address": "静岡県伊豆の国市原木1265-3",
    "lat": 35.0695607,
    "lng": 138.9466636,
    "tel": "055-944-6620",
    "url": "",
    "pref": "静岡県",
    "city": "伊豆の国市",
    "category": "community_day_service",
    "serviceType": "地域密着型通所介護",
    "capacity": 0,
    "openDays": [
      "平日",
      "土曜日",
      "祝日"
    ],
    "openDaysNote": ""
  },
  {
    "id": "2270300508",
    "name": "デイサービスにらアルファ",
    "kana": "デイサービスニラアルファ",
    "address": "伊豆の国市南條６９８－１９",
    "lat": 35.0415648,
    "lng": 138.9457002,
    "tel": "055-949-6889",
    "url": "",
    "pref": "静岡県",
    "city": "伊豆の国市",
    "category": "community_day_service",
    "serviceType": "地域密着型通所介護",
    "capacity": 10,
    "openDays": [
      "平日",
      "土曜日",
      "祝日"
    ],
    "openDaysNote": "但し、１２月２９日～１月３日は除く"
  },
  {
    "id": "2270300458",
    "name": "デイサービスぽっかぽか",
    "kana": "デイサービスポッカポカ",
    "address": "静岡県伊豆の国市韮山金谷120",
    "lat": 35.0513556,
    "lng": 138.9621936,
    "tel": "０５５－９４０－２３６６",
    "url": "",
    "pref": "静岡県",
    "city": "伊豆の国市",
    "category": "community_day_service",
    "serviceType": "地域密着型通所介護",
    "capacity": 0,
    "openDays": [
      "平日",
      "祝日"
    ],
    "openDaysNote": "12月28日～1月3日までは休業"
  },
  {
    "id": "2290800081",
    "name": "デイサロンふらっとネス",
    "kana": "デイサロンフラットネス",
    "address": "静岡県伊豆の国市四日町619-1",
    "lat": 35.0548992,
    "lng": 138.9443774,
    "tel": "055-944-6649",
    "url": "http://rapoai.co.jp",
    "pref": "静岡県",
    "city": "伊豆の国市",
    "category": "community_day_service",
    "serviceType": "地域密着型通所介護",
    "capacity": 0,
    "openDays": [
      "平日",
      "祝日"
    ],
    "openDaysNote": "但し、利用者の要望等により臨時の営業日・休業日を設けることがある。この場合、利用者等及び関係各所へ相当期間の猶予を置き、文書等による事前通知を持って実施するものとする。"
  },
  {
    "id": "2290800065",
    "name": "トレーニングデイサービスあんび伊豆長岡",
    "kana": "トレーニングデイサービスアンビイズナガオカ",
    "address": "静岡県伊豆の国市中條69鈴木貸店舗３号室 鈴木貸店舗３号室",
    "lat": 35.0434889,
    "lng": 138.9421585,
    "tel": "055-945-9236",
    "url": "http:/www.ambi-m-lab.com",
    "pref": "静岡県",
    "city": "伊豆の国市",
    "category": "community_day_service",
    "serviceType": "地域密着型通所介護",
    "capacity": 0,
    "openDays": [
      "平日"
    ],
    "openDaysNote": ""
  },
  {
    "id": "2270300491",
    "name": "デイサービス　いいあんばい",
    "kana": "デイサービス　イイアンバイ",
    "address": "伊豆市加殿２０７－１１",
    "lat": 34.9709363,
    "lng": 138.9511315,
    "tel": "0558-72-9900",
    "url": "",
    "pref": "静岡県",
    "city": "伊豆市",
    "category": "community_day_service",
    "serviceType": "地域密着型通所介護",
    "capacity": 10,
    "openDays": [
      "平日",
      "土曜日",
      "日曜日",
      "祝日"
    ],
    "openDaysNote": ""
  },
  {
    "id": "2270700210",
    "name": "デイサービス　悠々自適",
    "kana": "デイサービス　ユウユウジテキ",
    "address": "静岡県伊豆市上白岩902番地の1室野コーポ4号棟、5号棟 室野コーポ4号棟、5号棟",
    "lat": 34.9627527585568,
    "lng": 138.979706289549,
    "tel": "0558-75-7005",
    "url": "",
    "pref": "静岡県",
    "city": "伊豆市",
    "category": "community_day_service",
    "serviceType": "地域密着型通所介護",
    "capacity": 10,
    "openDays": [
      "平日",
      "祝日"
    ],
    "openDaysNote": "基本的には9:00～16:10がサービス提供時間ですがご家族の都合などにより相談にのります。"
  },
  {
    "id": "2270700228",
    "name": "デイサービスいまここ",
    "kana": "デイサービスイマココ",
    "address": "上白岩１４６０－１",
    "lat": 34.9607441,
    "lng": 138.9792128,
    "tel": "（０５５８）７５－７０３０",
    "url": "",
    "pref": "静岡県",
    "city": "伊豆市",
    "category": "community_day_service",
    "serviceType": "地域密着型通所介護",
    "capacity": 9,
    "openDays": [
      "平日",
      "祝日"
    ],
    "openDaysNote": "年末年始休業（１２月３１日～１月３日）あり"
  },
  {
    "id": "2270300243",
    "name": "デイサービスクローバー",
    "kana": "デイサービスクローバー",
    "address": "静岡県伊豆市土肥１１４４－１３",
    "lat": 34.9054694971245,
    "lng": 138.804866592157,
    "tel": "0558-97-3355",
    "url": "",
    "pref": "静岡県",
    "city": "伊豆市",
    "category": "community_day_service",
    "serviceType": "地域密着型通所介護",
    "capacity": null,
    "openDays": [
      "平日",
      "土曜日",
      "祝日"
    ],
    "openDaysNote": ""
  },
  {
    "id": "2270700236",
    "name": "ル・グランハート修善寺",
    "kana": "ル・グランハートシュゼンジ",
    "address": "静岡県伊豆市修善寺２４-３",
    "lat": 34.9830095245263,
    "lng": 138.948483373611,
    "tel": "0558-74-3330",
    "url": "https://www.le-grand-gp.jp/",
    "pref": "静岡県",
    "city": "伊豆市",
    "category": "community_day_service",
    "serviceType": "地域密着型通所介護",
    "capacity": 12,
    "openDays": [
      "平日",
      "土曜日",
      "日曜日",
      "祝日"
    ],
    "openDaysNote": "年末年始の12月30日～1月3日迄はお休みさせていただきます。"
  },
  {
    "id": "2290200027",
    "name": "イーズケアしもだ",
    "kana": "イーズケアシモダ",
    "address": "下田市六丁目36-13",
    "lat": 34.6709032496655,
    "lng": 138.933726488938,
    "tel": "0558-36-4898",
    "url": "",
    "pref": "静岡県",
    "city": "下田市",
    "category": "community_day_service",
    "serviceType": "地域密着型通所介護",
    "capacity": 0,
    "openDays": [
      "平日",
      "祝日"
    ],
    "openDaysNote": ""
  },
  {
    "id": "2270200252",
    "name": "デイサービス銀の鈴西中",
    "kana": "デイサービスギンノスズニシナカ",
    "address": "静岡県下田市西中5-3",
    "lat": 34.690646,
    "lng": 138.940269,
    "tel": "0558-23-1717",
    "url": "https://silverbel.jp",
    "pref": "静岡県",
    "city": "下田市",
    "category": "community_day_service",
    "serviceType": "地域密着型通所介護",
    "capacity": 13,
    "openDays": [
      "平日",
      "土曜日",
      "祝日"
    ],
    "openDaysNote": "但し１２月３１日～１月３日は休業とする。（改行）水曜日　日曜日は定休日です。"
  },
  {
    "id": "2270200260",
    "name": "デイハウスさとわ",
    "kana": "デイハウスサトワ",
    "address": "静岡県下田市６丁目２４番２号",
    "lat": 34.6752365377697,
    "lng": 138.932777182803,
    "tel": "0558-23-5317",
    "url": "",
    "pref": "静岡県",
    "city": "下田市",
    "category": "community_day_service",
    "serviceType": "地域密着型通所介護",
    "capacity": 0,
    "openDays": [
      "平日",
      "土曜日",
      "祝日"
    ],
    "openDaysNote": ""
  },
  {
    "id": "2270100031",
    "name": "社会福祉法人河津町社会福祉協議会地域密着型通所介護事業所",
    "kana": "シャカイフクシホウジンカワヅチョウシャカイフクシキョウギカイチイキミッチャクガタツウショカイゴジギョウショ",
    "address": "静岡県賀茂郡河津町田中２１２番地２河津町保健福祉センター 河津町保健福祉センター",
    "lat": 34.7572519,
    "lng": 138.9874821,
    "tel": "0558-34-1286",
    "url": "https://www.shakyo.or.jp/hp/1010/",
    "pref": "静岡県",
    "city": "河津町",
    "category": "community_day_service",
    "serviceType": "地域密着型通所介護",
    "capacity": null,
    "openDays": [
      "平日",
      "祝日"
    ],
    "openDaysNote": ""
  },
  {
    "id": "2290100078",
    "name": "社会福祉法人南寿会　デイサービス　バウム",
    "kana": "シャカイフクシホウジン　ナンジュカイ　デイサービス　バウム",
    "address": "静岡県賀茂郡河津町峰511-6",
    "lat": 34.7557924,
    "lng": 138.9841126,
    "tel": "0558-32-1158",
    "url": "http://sunsenior-kawazu.jp/",
    "pref": "静岡県",
    "city": "河津町",
    "category": "community_day_service",
    "serviceType": "地域密着型通所介護",
    "capacity": null,
    "openDays": [
      "平日",
      "祝日"
    ],
    "openDaysNote": "以下に示す場合は臨時休業いたします。（改行）・職員にインフルエンザ等の感染症患者が多数おり、デイサービス利用者に感染の恐れがある場合。（改行）・天災等により、道路やライフラインの損壊により施設運営ができない場合。"
  },
  {
    "id": "2297400141",
    "name": "あいぜんデイサービス",
    "kana": "アイゼンデイサービス",
    "address": "静岡県掛川市中央2丁目13-1",
    "lat": 34.7716094,
    "lng": 138.0075502,
    "tel": "0537-28-8300",
    "url": "https://www.otecgrp.com/daycare.php",
    "pref": "静岡県",
    "city": "掛川市",
    "category": "community_day_service",
    "serviceType": "地域密着型通所介護",
    "capacity": 0,
    "openDays": [
      "平日"
    ],
    "openDaysNote": ""
  },
  {
    "id": "2277400335",
    "name": "ケアサービスききょう",
    "kana": "ケアサービスキキョウ",
    "address": "静岡県掛川市中央一丁目１４番地５",
    "lat": 34.7693055,
    "lng": 138.0112863,
    "tel": "０５３７－６１－２０４０",
    "url": "",
    "pref": "静岡県",
    "city": "掛川市",
    "category": "community_day_service",
    "serviceType": "地域密着型通所介護",
    "capacity": 0,
    "openDays": [
      "平日"
    ],
    "openDaysNote": "なし"
  },
  {
    "id": "2297400158",
    "name": "ケアサービスききょう",
    "kana": "ケアサービスキキョウ",
    "address": "静岡県掛川市下垂木115",
    "lat": 34.7966717155309,
    "lng": 137.98699113373,
    "tel": "0537-61-2040",
    "url": "",
    "pref": "静岡県",
    "city": "掛川市",
    "category": "community_day_service",
    "serviceType": "地域密着型通所介護",
    "capacity": 0,
    "openDays": [
      "平日",
      "祝日"
    ],
    "openDaysNote": "なし"
  },
  {
    "id": "2277400285",
    "name": "デイサービス　かみやしき",
    "kana": "デイサービス　カミヤシキ",
    "address": "掛川市大池307",
    "lat": 34.7816652,
    "lng": 137.9966122,
    "tel": "0537-23-7770",
    "url": "http://www.hashoukai.or.jp",
    "pref": "静岡県",
    "city": "掛川市",
    "category": "community_day_service",
    "serviceType": "地域密着型通所介護",
    "capacity": 10,
    "openDays": [
      "平日",
      "土曜日",
      "祝日"
    ],
    "openDaysNote": "日曜日の問い合わせは留守番電話にて対応"
  },
  {
    "id": "2277400624",
    "name": "デイサービスあじさい",
    "kana": "デイサービスアジサイ",
    "address": "静岡県掛川市杉谷南1丁目3-2",
    "lat": 34.7632287,
    "lng": 138.0253935,
    "tel": "537245088",
    "url": "",
    "pref": "静岡県",
    "city": "掛川市",
    "category": "community_day_service",
    "serviceType": "地域密着型通所介護",
    "capacity": 18,
    "openDays": [
      "平日",
      "土曜日",
      "祝日"
    ],
    "openDaysNote": ""
  },
  {
    "id": "2297400133",
    "name": "デイサービスきたえるーむ掛川南",
    "kana": "デイサービスキタエルームカケガワミナミ",
    "address": "静岡県掛川市杉谷1-7-4",
    "lat": 34.7681922,
    "lng": 138.0314777,
    "tel": "0537-23-9977",
    "url": "http://kitaeroom.com",
    "pref": "静岡県",
    "city": "掛川市",
    "category": "community_day_service",
    "serviceType": "地域密着型通所介護",
    "capacity": 0,
    "openDays": [
      "平日",
      "土曜日"
    ],
    "openDaysNote": "8月と12月のお休みは毎年変更あります。（改行）利用日が祝日や休みと重なる場合は振替の利用を行っています。"
  },
  {
    "id": "2297400166",
    "name": "デイサービスサンシティ掛川",
    "kana": "デイサービスサンシティカケガワ",
    "address": "静岡県掛川市杉谷南1-15-13",
    "lat": 34.7628676,
    "lng": 138.0268509,
    "tel": "0537-62-2000",
    "url": "http://www.yhkikaku.jp/",
    "pref": "静岡県",
    "city": "掛川市",
    "category": "community_day_service",
    "serviceType": "地域密着型通所介護",
    "capacity": 18,
    "openDays": [
      "平日",
      "土曜日",
      "祝日"
    ],
    "openDaysNote": "12月30日から翌年１月３日まで　休み"
  },
  {
    "id": "2277400145",
    "name": "デイサービスセンターあいの街葛川",
    "kana": "デイサービスセンターアイノマチクズカワ",
    "address": "掛川市葛川310-3",
    "lat": 34.7740496,
    "lng": 138.0260237,
    "tel": "0537-61-2233",
    "url": "",
    "pref": "静岡県",
    "city": "掛川市",
    "category": "community_day_service",
    "serviceType": "地域密着型通所介護",
    "capacity": 0,
    "openDays": [
      "平日",
      "土曜日",
      "祝日"
    ],
    "openDaysNote": ""
  },
  {
    "id": "2297400174",
    "name": "デイサービスピアかなで",
    "kana": "デイサービスピアカナデ",
    "address": "静岡県掛川市大坂539大東ショッピングプラザ「ピア」内 大東ショッピングプラザ「ピア」内",
    "lat": 34.671453,
    "lng": 138.0461594,
    "tel": "0537-28-8988",
    "url": "https://comodo-care.jp/",
    "pref": "静岡県",
    "city": "掛川市",
    "category": "community_day_service",
    "serviceType": "地域密着型通所介護",
    "capacity": 15,
    "openDays": [
      "平日",
      "土曜日",
      "祝日"
    ],
    "openDaysNote": ""
  },
  {
    "id": "2277400418",
    "name": "デイサービス下垂木の家",
    "kana": "デイサービスシモタルキノイエ",
    "address": "下垂木1772",
    "lat": 34.7861118,
    "lng": 137.9840631,
    "tel": "0537-26-9311",
    "url": "https:shinplace.com/",
    "pref": "静岡県",
    "city": "掛川市",
    "category": "community_day_service",
    "serviceType": "地域密着型通所介護",
    "capacity": 10,
    "openDays": [
      "平日",
      "土曜日",
      "日曜日",
      "祝日"
    ],
    "openDaysNote": ""
  },
  {
    "id": "2277400368",
    "name": "デイサービス葛川の家",
    "kana": "デイサービスクズカワノイエ",
    "address": "静岡県掛川市葛川1172-1",
    "lat": 34.7768688,
    "lng": 138.0247654,
    "tel": "0537-29-5871",
    "url": "",
    "pref": "静岡県",
    "city": "掛川市",
    "category": "community_day_service",
    "serviceType": "地域密着型通所介護",
    "capacity": 10,
    "openDays": [
      "平日",
      "土曜日",
      "日曜日",
      "祝日"
    ],
    "openDaysNote": ""
  },
  {
    "id": "2297400182",
    "name": "パルモコミュニティ　リハプライド上西郷",
    "kana": "パルモコミュニティ　リハプライドカミサイゴウ",
    "address": "上西郷1682",
    "lat": 34.7963662,
    "lng": 138.0127564,
    "tel": "0537-28-8610",
    "url": "https://www.rehapride.co.jp/kamisaigo/",
    "pref": "静岡県",
    "city": "掛川市",
    "category": "community_day_service",
    "serviceType": "地域密着型通所介護",
    "capacity": 0,
    "openDays": [
      "平日",
      "祝日"
    ],
    "openDaysNote": ""
  },
  {
    "id": "2277400434",
    "name": "ゆうプランデイサービス",
    "kana": "ユウプランデイサービス",
    "address": "大坂539大東ショッピングプラザピア内 大東ショッピングプラザピア内",
    "lat": 34.6714995,
    "lng": 138.0461775,
    "tel": "0537-28-8988",
    "url": "",
    "pref": "静岡県",
    "city": "掛川市",
    "category": "community_day_service",
    "serviceType": "地域密着型通所介護",
    "capacity": 10,
    "openDays": [
      "平日"
    ],
    "openDaysNote": "年末年始１２月３０日～１月４日休業"
  },
  {
    "id": "2276800238",
    "name": "デイサービス菊川加茂の家",
    "kana": "デイサービスキクガワカモノイエ",
    "address": "加茂3092-1",
    "lat": 34.733423,
    "lng": 138.0882443,
    "tel": "0537-29-6102",
    "url": "https://shinplace.com/",
    "pref": "静岡県",
    "city": "菊川市",
    "category": "community_day_service",
    "serviceType": "地域密着型通所介護",
    "capacity": 10,
    "openDays": [
      "平日",
      "土曜日",
      "日曜日",
      "祝日"
    ],
    "openDaysNote": ""
  },
  {
    "id": "2276100365",
    "name": "小規模多機能ホーム　ようこそ",
    "kana": "ショウキボタキノウホーム　ヨウコソ",
    "address": "静岡県菊川市潮海寺150-2",
    "lat": 34.7654567683379,
    "lng": 138.092664610976,
    "tel": "0537-37-1717",
    "url": "http://www4.tokai.or.jp/youkoso/",
    "pref": "静岡県",
    "city": "菊川市",
    "category": "community_day_service",
    "serviceType": "地域密着型通所介護",
    "capacity": null,
    "openDays": [
      "平日",
      "日曜日",
      "祝日"
    ],
    "openDaysNote": ""
  },
  {
    "id": "2295500082",
    "name": "優しさ",
    "kana": "ヤサシサ",
    "address": "静岡県榛原郡吉田町神戸７０－１",
    "lat": 34.7857924072266,
    "lng": 138.254485430688,
    "tel": "0548-23-3026",
    "url": "",
    "pref": "静岡県",
    "city": "吉田町",
    "category": "community_day_service",
    "serviceType": "地域密着型通所介護",
    "capacity": 85,
    "openDays": [
      "平日",
      "土曜日",
      "祝日"
    ],
    "openDaysNote": ""
  },
  {
    "id": "2298400082",
    "name": "Ｒ．Ｙリハビリセンター",
    "kana": "アールワイリハビリセンター",
    "address": "静岡県湖西市鷲津5273",
    "lat": 34.716487,
    "lng": 137.5439646,
    "tel": "535717200",
    "url": "ry-reyond.com",
    "pref": "静岡県",
    "city": "湖西市",
    "category": "community_day_service",
    "serviceType": "地域密着型通所介護",
    "capacity": 0,
    "openDays": [
      "平日"
    ],
    "openDaysNote": ""
  },
  {
    "id": "2298400090",
    "name": "あおいそらデイサービス",
    "kana": "アオイソラデイサービス",
    "address": "古見1034-7サンライズヤマヤ103 サンライズヤマヤ103",
    "lat": 34.7185618,
    "lng": 137.533565,
    "tel": "535757050",
    "url": "",
    "pref": "静岡県",
    "city": "湖西市",
    "category": "community_day_service",
    "serviceType": "地域密着型通所介護",
    "capacity": 0,
    "openDays": [
      "平日"
    ],
    "openDaysNote": "サービスは午前のみです。サービス提供時間は9:00から12:10です。"
  },
  {
    "id": "2278400334",
    "name": "デイサービス　あおいくま",
    "kana": "デイサービス　アオイクマ",
    "address": "静-岡県湖西市新居町新居896-69",
    "lat": 34.6933362725059,
    "lng": 137.565647382244,
    "tel": "０５３－５７０－３６６４",
    "url": "",
    "pref": "静岡県",
    "city": "湖西市",
    "category": "community_day_service",
    "serviceType": "地域密着型通所介護",
    "capacity": 10,
    "openDays": [
      "平日",
      "土曜日",
      "祝日"
    ],
    "openDaysNote": "盆、年末年始休み"
  },
  {
    "id": "2278400342",
    "name": "デイサービスすず",
    "kana": "デイサービススズ",
    "address": "静岡県湖西市古見996番地の1",
    "lat": 34.7176407,
    "lng": 137.5336311,
    "tel": "053-596-9747",
    "url": "",
    "pref": "静岡県",
    "city": "湖西市",
    "category": "community_day_service",
    "serviceType": "地域密着型通所介護",
    "capacity": 9,
    "openDays": [
      "平日",
      "祝日"
    ],
    "openDaysNote": ""
  },
  {
    "id": "2298400140",
    "name": "デイサービスセンター　はのん",
    "kana": "デイサービスセンター　ハノン",
    "address": "新居町新居3394番地の4",
    "lat": 34.6937107362975,
    "lng": 137.593196784101,
    "tel": "053-592-8110",
    "url": "",
    "pref": "静岡県",
    "city": "湖西市",
    "category": "community_day_service",
    "serviceType": "地域密着型通所介護",
    "capacity": null,
    "openDays": [
      "平日",
      "土曜日",
      "祝日"
    ],
    "openDaysNote": "12月31日～1月3日は休業"
  },
  {
    "id": "2278400326",
    "name": "デイサービス陽菜",
    "kana": "デイサービス　ヒナ",
    "address": "静岡県湖西市古見124-4",
    "lat": 34.7134280864859,
    "lng": 137.530988953304,
    "tel": "053-574-1550",
    "url": "http://www.hinahina.co/",
    "pref": "静岡県",
    "city": "湖西市",
    "category": "community_day_service",
    "serviceType": "地域密着型通所介護",
    "capacity": 17,
    "openDays": [
      "平日",
      "祝日"
    ],
    "openDaysNote": "12月29日～1月3日（改行）会社の定める休日を除く"
  },
  {
    "id": "2278400201",
    "name": "でいの楽園",
    "kana": "デイノラクエン",
    "address": "静岡県湖西市鷲津字分川３０８５",
    "lat": 34.7128629994876,
    "lng": 137.555732613167,
    "tel": "053-574-2687",
    "url": "",
    "pref": "静岡県",
    "city": "湖西市",
    "category": "community_day_service",
    "serviceType": "地域密着型通所介護",
    "capacity": 18,
    "openDays": [
      "平日",
      "祝日"
    ],
    "openDaysNote": ""
  },
  {
    "id": "2298400116",
    "name": "でいの楽園～笑～",
    "kana": "デイノラクエン　~ワライ~",
    "address": "静岡県湖西市鷲津分川3085",
    "lat": 34.7128276106312,
    "lng": 137.556920580704,
    "tel": "053-488-5866",
    "url": "",
    "pref": "静岡県",
    "city": "湖西市",
    "category": "community_day_service",
    "serviceType": "地域密着型通所介護",
    "capacity": 0,
    "openDays": [
      "平日",
      "祝日"
    ],
    "openDaysNote": ""
  },
  {
    "id": "2298400108",
    "name": "デイリハビリセンターHINATABOKKO",
    "kana": "デイリハビリセンターヒナタボッコ",
    "address": "静岡県湖西市岡崎604-16デイリハビリセンターHINATABOKKO デイリハビリセンターHINATABOKKO",
    "lat": 34.725966,
    "lng": 137.5062225,
    "tel": "053-543-7715",
    "url": "https://ds-hinatabokko.com/",
    "pref": "静岡県",
    "city": "湖西市",
    "category": "community_day_service",
    "serviceType": "地域密着型通所介護",
    "capacity": 16,
    "openDays": [
      "平日",
      "祝日"
    ],
    "openDaysNote": ""
  },
  {
    "id": "2278400169",
    "name": "ふじの花通所介護事業所",
    "kana": "フジノハナツウショカイゴジギョウショ",
    "address": "湖西市鷲津１０９５－１３",
    "lat": 34.7133224,
    "lng": 137.5457107,
    "tel": "053-576-4687",
    "url": "",
    "pref": "静岡県",
    "city": "湖西市",
    "category": "community_day_service",
    "serviceType": "地域密着型通所介護",
    "capacity": 10,
    "openDays": [
      "平日",
      "土曜日",
      "日曜日",
      "祝日"
    ],
    "openDaysNote": ""
  },
  {
    "id": "2278400250",
    "name": "駅前デイサービス健康広場",
    "kana": "エキマエデイサービスケンコウヒロバ",
    "address": "湖西市新居町新居3379-11ﾋﾞｰｹｰﾏﾙﾁﾋﾞﾙ1階北 ﾋﾞｰｹｰﾏﾙﾁﾋﾞﾙ1階北",
    "lat": 34.693695,
    "lng": 137.5683035,
    "tel": "053-594-6226",
    "url": "",
    "pref": "静岡県",
    "city": "湖西市",
    "category": "community_day_service",
    "serviceType": "地域密着型通所介護",
    "capacity": 0,
    "openDays": [
      "平日",
      "土曜日"
    ],
    "openDaysNote": "・営業日は、月曜日から土曜日までとする。（改行）・営業時間は、月･火･木･金曜日は8時45分から17時00分、水･土曜日は8時45分から12時30分とする。（改行）（改行）　　・日曜日（改行）　　　・春季（5月3～5日を含む5日間程度）（改行）　　　・夏季（8月13～15日を含む5日間程度）（改行）　　　・秋季（10月に3日間程度）（改行）　　　・年末年始（12月31日～1月3日を含む6日間程度）"
  },
  {
    "id": "2298400157",
    "name": "湖西市社協介護センターあらい",
    "kana": "コサイシシャキョウカイゴセンターアライ",
    "address": "静岡県湖西市新居町浜名575番地新居介護サービスセンター 新居介護サービスセンター",
    "lat": 34.6871519,
    "lng": 137.5606429,
    "tel": "053-594-5000",
    "url": "http：//www.kosai-sk.or.jp",
    "pref": "静岡県",
    "city": "湖西市",
    "category": "community_day_service",
    "serviceType": "地域密着型通所介護",
    "capacity": null,
    "openDays": [
      "平日",
      "祝日"
    ],
    "openDaysNote": ""
  },
  {
    "id": "2278400235",
    "name": "高齢者自立支援センター　ねこのて",
    "kana": "コウレイシャジリツシエンセンター　ネコノテ",
    "address": "湖西市新居町中之郷92-7高齢者自立支援センター　ねこのて 高齢者自立支援センター　ねこのて",
    "lat": 34.6995932636454,
    "lng": 137.561856930984,
    "tel": "053-522-7773",
    "url": "",
    "pref": "静岡県",
    "city": "湖西市",
    "category": "community_day_service",
    "serviceType": "地域密着型通所介護",
    "capacity": 160,
    "openDays": [
      "平日",
      "祝日"
    ],
    "openDaysNote": ""
  },
  {
    "id": "2298400124",
    "name": "合同会社りゅう358",
    "kana": "ゴウドウカイシャリュウサンゴハチ",
    "address": "静岡県湖西市古見996-1",
    "lat": 34.7184581,
    "lng": 137.5316217,
    "tel": "053-596-9747",
    "url": "",
    "pref": "静岡県",
    "city": "湖西市",
    "category": "community_day_service",
    "serviceType": "地域密着型通所介護",
    "capacity": null,
    "openDays": [
      "平日",
      "祝日"
    ],
    "openDaysNote": ""
  },
  {
    "id": "2275690168",
    "name": "AYUMU塩原",
    "kana": "アユムシオバラ",
    "address": "静岡県御前崎市塩原新田142-1",
    "lat": 34.6515394,
    "lng": 138.1020317,
    "tel": "0537-26-9834",
    "url": "http://bambroot.co.jp",
    "pref": "静岡県",
    "city": "御前崎市",
    "category": "community_day_service",
    "serviceType": "地域密着型通所介護",
    "capacity": 0,
    "openDays": [
      "平日",
      "土曜日"
    ],
    "openDaysNote": ""
  },
  {
    "id": "2295600023",
    "name": "AYUMU門屋",
    "kana": "アユムカドヤ",
    "address": "静岡県御前崎市門屋1712-3",
    "lat": 34.65452,
    "lng": 138.1180809,
    "tel": "537256761",
    "url": "https://rihabirideisa-bisuayumu.hp.gogo.jp/pc/",
    "pref": "静岡県",
    "city": "御前崎市",
    "category": "community_day_service",
    "serviceType": "地域密着型通所介護",
    "capacity": null,
    "openDays": [
      "平日",
      "祝日"
    ],
    "openDaysNote": "その他として、GW（5/2～5/5）、年末年始（12/29～1/3）は休業"
  },
  {
    "id": "2275500607",
    "name": "有限会社通所介護ケアセンターお達者くらぶ",
    "kana": "ユウゲンカイシャツウショカイゴケアセンターオタッシャクラブ",
    "address": "御前崎市白羽5941－1",
    "lat": 34.6083364,
    "lng": 138.2024503,
    "tel": "0548-63-5505",
    "url": "",
    "pref": "静岡県",
    "city": "御前崎市",
    "category": "community_day_service",
    "serviceType": "地域密着型通所介護",
    "capacity": 0,
    "openDays": [
      "平日",
      "土曜日",
      "祝日"
    ],
    "openDaysNote": "祝日が月曜日の場合は休み"
  },
  {
    "id": "2271200582",
    "name": "デイサ－ビス　こころ　東山",
    "kana": "デイサ―ビス　ココロ　ヒガシヤマ",
    "address": "静岡県御殿場市東山930",
    "lat": 35.3001720520156,
    "lng": 138.961212300532,
    "tel": "0550-78-7405",
    "url": "",
    "pref": "静岡県",
    "city": "御殿場市",
    "category": "community_day_service",
    "serviceType": "地域密着型通所介護",
    "capacity": 0,
    "openDays": [
      "平日",
      "祝日"
    ],
    "openDaysNote": "ただし12月31日から1月3日を除く"
  },
  {
    "id": "2271200467",
    "name": "デイサービス　こころ",
    "kana": "デイーサビス　ココロ",
    "address": "御殿場市新橋839-11",
    "lat": 35.2952614,
    "lng": 138.9413668,
    "tel": "0550-78-7805",
    "url": "",
    "pref": "静岡県",
    "city": "御殿場市",
    "category": "community_day_service",
    "serviceType": "地域密着型通所介護",
    "capacity": 10,
    "openDays": [
      "平日",
      "土曜日",
      "祝日"
    ],
    "openDaysNote": ""
  },
  {
    "id": "2291200075",
    "name": "デイサービス　にじいろ　御殿場",
    "kana": "デイサービス　ニジイロ　ゴテンバ",
    "address": "静岡県御殿場市萩原1209-1-1F",
    "lat": 35.2918505,
    "lng": 138.9332762,
    "tel": "0550-70-9087",
    "url": "http://www.nijiiro-ds.com",
    "pref": "静岡県",
    "city": "御殿場市",
    "category": "community_day_service",
    "serviceType": "地域密着型通所介護",
    "capacity": 18,
    "openDays": [
      "平日",
      "土曜日",
      "日曜日",
      "祝日"
    ],
    "openDaysNote": "年中無休（改行）上記以外の時間に関しては応相談です。"
  },
  {
    "id": "2291200026",
    "name": "デイサービスあざみ",
    "kana": "デイサービスアザミ",
    "address": "静岡県御殿場市東山８５５－６",
    "lat": 35.3010877,
    "lng": 138.9613671,
    "tel": "0550-82-9155",
    "url": "",
    "pref": "静岡県",
    "city": "御殿場市",
    "category": "community_day_service",
    "serviceType": "地域密着型通所介護",
    "capacity": null,
    "openDays": [
      "平日",
      "土曜日"
    ],
    "openDaysNote": ""
  },
  {
    "id": "2271200715",
    "name": "デイサービスゆめ",
    "kana": "デイサービスユメ",
    "address": "静岡県御殿場市竈524-42タウンビル タウンビル",
    "lat": 35.2840517717137,
    "lng": 138.925996125131,
    "tel": "0550-88-8112",
    "url": "",
    "pref": "静岡県",
    "city": "御殿場市",
    "category": "community_day_service",
    "serviceType": "地域密着型通所介護",
    "capacity": null,
    "openDays": [
      "平日",
      "土曜日",
      "祝日"
    ],
    "openDaysNote": ""
  },
  {
    "id": "2271200442",
    "name": "ほたる商事株式会社",
    "kana": "ホタルショウジカブシキガイシャ",
    "address": "静岡県御殿場市六日市場３５５－5ほたる商事株式会社 ほたる商事株式会社",
    "lat": 35.3302948,
    "lng": 138.9150308,
    "tel": "0550-88-2707",
    "url": "kzu5032@ac.auone-net.jp",
    "pref": "静岡県",
    "city": "御殿場市",
    "category": "community_day_service",
    "serviceType": "地域密着型通所介護",
    "capacity": 10,
    "openDays": [
      "平日",
      "祝日"
    ],
    "openDaysNote": ""
  },
  {
    "id": "2271200418",
    "name": "ほほえみ",
    "kana": "ホホエミ",
    "address": "御殿場市西田中452-3",
    "lat": 35.3210228121988,
    "lng": 138.941433398828,
    "tel": "0550-82-6800",
    "url": "https://www.hohoemi-ikou.com/",
    "pref": "静岡県",
    "city": "御殿場市",
    "category": "community_day_service",
    "serviceType": "地域密着型通所介護",
    "capacity": 15,
    "openDays": [
      "平日",
      "土曜日",
      "日曜日",
      "祝日"
    ],
    "openDaysNote": ""
  },
  {
    "id": "2271200616",
    "name": "ル・グランハート御殿場",
    "kana": "ル・グランハートゴテンバ",
    "address": "静岡県御殿場市中山1102",
    "lat": 35.2521190512758,
    "lng": 138.920700721584,
    "tel": "0550-87-3332",
    "url": "https://www.le-grand-gp.jp",
    "pref": "静岡県",
    "city": "御殿場市",
    "category": "community_day_service",
    "serviceType": "地域密着型通所介護",
    "capacity": 10,
    "openDays": [
      "平日",
      "土曜日",
      "日曜日",
      "祝日"
    ],
    "openDaysNote": "12月30日～1月3日迄お休みさせていただきます。"
  },
  {
    "id": "2291200083",
    "name": "機能訓練型デイ　かつまた",
    "kana": "キノウクンレンガタデイ　カツマタ",
    "address": "静岡県御殿場市中山935-12",
    "lat": 35.2540499,
    "lng": 138.9148324,
    "tel": "0550-87-1170",
    "url": "",
    "pref": "静岡県",
    "city": "御殿場市",
    "category": "community_day_service",
    "serviceType": "地域密着型通所介護",
    "capacity": 0,
    "openDays": [
      "平日"
    ],
    "openDaysNote": "午前の部（9：00～12：05）のみ営業中"
  },
  {
    "id": "2271200301",
    "name": "古民家デイホームたまほ村",
    "kana": "コミンカデイホームタマホムラ",
    "address": "御殿場市茱萸沢９１１番地",
    "lat": 35.3102612,
    "lng": 138.9178611,
    "tel": "0550-88-2537",
    "url": "",
    "pref": "静岡県",
    "city": "御殿場市",
    "category": "community_day_service",
    "serviceType": "地域密着型通所介護",
    "capacity": 10,
    "openDays": [
      "平日",
      "土曜日",
      "祝日"
    ],
    "openDaysNote": "相談や苦情・要望等については、24時間対応させて頂いています。（改行）訪問・ご見学・契約等は随時対応させて頂いています。"
  },
  {
    "id": "2271200269",
    "name": "社会福祉法人浴光会　ぐみさわ苑",
    "kana": "シャカイフクシホウジンヨクコウカイ　グミサワエン",
    "address": "茱萸沢１９８－１",
    "lat": 35.3147665,
    "lng": 138.9238908,
    "tel": "0550-88-2987",
    "url": "http://www7.plala.or.jp/khtt1125/",
    "pref": "静岡県",
    "city": "御殿場市",
    "category": "community_day_service",
    "serviceType": "地域密着型通所介護",
    "capacity": 0,
    "openDays": [
      "平日",
      "祝日"
    ],
    "openDaysNote": ""
  },
  {
    "id": "2271200376",
    "name": "茶話本舗デイサービス御殿場新橋",
    "kana": "サワホンポデイサービスゴテンバニイハシ",
    "address": "静岡県御殿場市新橋１７２０－６茶話本舗デイサービス　御殿場新橋 茶話本舗デイサービス　御殿場新橋",
    "lat": 35.29252,
    "lng": 138.9365258,
    "tel": "0550-82-4186",
    "url": "http://www.sansen.jp",
    "pref": "静岡県",
    "city": "御殿場市",
    "category": "community_day_service",
    "serviceType": "地域密着型通所介護",
    "capacity": 11,
    "openDays": [
      "平日",
      "土曜日",
      "日曜日",
      "祝日"
    ],
    "openDaysNote": "台風・大雪等　送迎が出来ない時電話連絡にて中止またはご相談する事があります。"
  },
  {
    "id": "2271200475",
    "name": "茶話本舗デイサービス御殿場保土沢",
    "kana": "サワホンポデイサービスゴテンバホトザワ",
    "address": "保土沢字向ノ丸５０４－３",
    "lat": 35.2957463,
    "lng": 138.9081823,
    "tel": "0550-88-2888",
    "url": "",
    "pref": "静岡県",
    "city": "御殿場市",
    "category": "community_day_service",
    "serviceType": "地域密着型通所介護",
    "capacity": 10,
    "openDays": [
      "平日",
      "土曜日",
      "日曜日",
      "祝日"
    ],
    "openDaysNote": ""
  },
  {
    "id": "2271200211",
    "name": "労協　御殿場地域福祉事業所　つばさ",
    "kana": "ロウキョウ　ゴテンバチイキフクシジギョウショ　ツバサ",
    "address": "御殿場市杉名沢661-2",
    "lat": 35.2836637336464,
    "lng": 138.920611704894,
    "tel": "0550-78-7511",
    "url": "https://gtnbtbs.jimdofree.com",
    "pref": "静岡県",
    "city": "御殿場市",
    "category": "community_day_service",
    "serviceType": "地域密着型通所介護",
    "capacity": 10,
    "openDays": [
      "平日",
      "土曜日",
      "祝日"
    ],
    "openDaysNote": "年末年始休みあり（１２月２９日～１月３日）"
  },
  {
    "id": "2271200558",
    "name": "労働者協同組合ワーカーズコープ・センター事業団富士岡地域福祉事業所　みんなの家",
    "kana": "ロウドウシャキョウドウクミアイワーカーズコープ・センタージギョウダンフジオカチイキフクシジギョウショ　ミンナノイエ",
    "address": "静岡県御殿場市駒門537番地",
    "lat": 35.2588901,
    "lng": 138.9083467,
    "tel": "0550-87-1191",
    "url": "https://sinma045.wixsite.com/mysite-1",
    "pref": "静岡県",
    "city": "御殿場市",
    "category": "community_day_service",
    "serviceType": "地域密着型通所介護",
    "capacity": 6,
    "openDays": [
      "平日",
      "祝日"
    ],
    "openDaysNote": ""
  },
  {
    "id": "2290600192",
    "name": "ココカラクト三島本町",
    "kana": "ココカラクトミシマホンチョウ",
    "address": "静岡県三島市本町12-2KAWATABLD本町22階 KAWATABLD本町22階",
    "lat": 35.119325453594,
    "lng": 138.914597086613,
    "tel": "055-971-6123",
    "url": "https://cocokaract.super.site/",
    "pref": "静岡県",
    "city": "三島市",
    "category": "community_day_service",
    "serviceType": "地域密着型通所介護",
    "capacity": 18,
    "openDays": [
      "平日",
      "土曜日",
      "祝日"
    ],
    "openDaysNote": ""
  },
  {
    "id": "2290600168",
    "name": "デイサービスこころ三島御園",
    "kana": "デイサービスココロミシマミソノ",
    "address": "静岡県三島市御園513-1",
    "lat": 35.0768146029461,
    "lng": 138.920462401855,
    "tel": "055-957-1267",
    "url": "",
    "pref": "静岡県",
    "city": "三島市",
    "category": "community_day_service",
    "serviceType": "地域密着型通所介護",
    "capacity": 0,
    "openDays": [
      "平日",
      "土曜日",
      "日曜日",
      "祝日"
    ],
    "openDaysNote": ""
  },
  {
    "id": "2270600535",
    "name": "デイサービスセンターみのり",
    "kana": "デイサービスセンターミノリ",
    "address": "三島市南二日町６５0番地の１",
    "lat": 35.1111143,
    "lng": 138.9216348,
    "tel": "055-975-7788",
    "url": "",
    "pref": "静岡県",
    "city": "三島市",
    "category": "community_day_service",
    "serviceType": "地域密着型通所介護",
    "capacity": 18,
    "openDays": [
      "平日",
      "土曜日",
      "祝日"
    ],
    "openDaysNote": "提供時間（改行）09時05分～16時05分（改行）9時30分～15時30分(総合事業)"
  },
  {
    "id": "2290600176",
    "name": "デイサービスセンターミレット",
    "kana": "デイサービスセンターミレット",
    "address": "静岡県三島市壱町田51-1英光ビル1061 英光ビル1061",
    "lat": 35.132831,
    "lng": 138.9196648,
    "tel": "055-957-1348",
    "url": "",
    "pref": "静岡県",
    "city": "三島市",
    "category": "community_day_service",
    "serviceType": "地域密着型通所介護",
    "capacity": 0,
    "openDays": [
      "平日"
    ],
    "openDaysNote": "夏季、年末年始等については都度お知らせいたします。"
  },
  {
    "id": "2290600184",
    "name": "デイサービスよっこらぼ",
    "kana": "デイサービスヨッコラボ",
    "address": "静岡県三島市加茂川町13番46号",
    "lat": 35.127426,
    "lng": 138.9257338,
    "tel": "055-973-5115",
    "url": "https://www.kaigolabo.info",
    "pref": "静岡県",
    "city": "三島市",
    "category": "community_day_service",
    "serviceType": "地域密着型通所介護",
    "capacity": null,
    "openDays": [
      "平日"
    ],
    "openDaysNote": "準備が整い次第、平日の営業を始めたい。"
  },
  {
    "id": "2270600873",
    "name": "デイサービス若芝",
    "kana": "デイサービスワカシバ",
    "address": "芝本町11番地の32",
    "lat": 35.1207606,
    "lng": 138.9138935,
    "tel": "055-983-0808",
    "url": "https://www.com-work.jp/waka/",
    "pref": "静岡県",
    "city": "三島市",
    "category": "community_day_service",
    "serviceType": "地域密着型通所介護",
    "capacity": 26,
    "openDays": [
      "平日",
      "土曜日",
      "祝日"
    ],
    "openDaysNote": "事業所内の清掃・メンテナンスのために年に２回ほどお休みをいただくことがございます。"
  },
  {
    "id": "2290600119",
    "name": "トレーニングデイサービスあんび三島",
    "kana": "トレーニングデイサービスアンビミシマ",
    "address": "静岡県三島市文教町1-5-6日商三島ビル301 日商三島ビル301",
    "lat": 35.1283238,
    "lng": 138.9104964,
    "tel": "055-928-6123",
    "url": "http://www.ambi-m-lab.com",
    "pref": "静岡県",
    "city": "三島市",
    "category": "community_day_service",
    "serviceType": "地域密着型通所介護",
    "capacity": 10,
    "openDays": [
      "平日"
    ],
    "openDaysNote": ""
  },
  {
    "id": "2290600150",
    "name": "樹楽団らんの家三島若松",
    "kana": "キラクダンランノイエミシマワカマツ",
    "address": "静岡県三島市若松町4392-3",
    "lat": 35.1313753,
    "lng": 138.9254977,
    "tel": "055-986-1922",
    "url": "https://www.sagami-seed.co.jp/kiraku/",
    "pref": "静岡県",
    "city": "三島市",
    "category": "community_day_service",
    "serviceType": "地域密着型通所介護",
    "capacity": 0,
    "openDays": [
      "平日",
      "土曜日",
      "日曜日",
      "祝日"
    ],
    "openDaysNote": ""
  },
  {
    "id": "2270601228",
    "name": "樹楽団らんの家三島青木",
    "kana": "キラクダンランノイエミシマアオキ",
    "address": "静岡県三島市青木211-12",
    "lat": 35.1051037,
    "lng": 138.9234876,
    "tel": "055-943-7517",
    "url": "http://www.sagami-seed.co.jp/kiraku/",
    "pref": "静岡県",
    "city": "三島市",
    "category": "community_day_service",
    "serviceType": "地域密着型通所介護",
    "capacity": 0,
    "openDays": [
      "平日",
      "土曜日",
      "日曜日",
      "祝日"
    ],
    "openDaysNote": ""
  },
  {
    "id": "2270100361",
    "name": "デイサービス・オリーブハウス",
    "kana": "デイサービス・オリーブハウス",
    "address": "賀茂郡松崎町松崎65-7",
    "lat": 34.7497773,
    "lng": 138.7791317,
    "tel": "0558-43-1619",
    "url": "http://ageless.fun/",
    "pref": "静岡県",
    "city": "松崎町",
    "category": "community_day_service",
    "serviceType": "地域密着型通所介護",
    "capacity": 18,
    "openDays": [
      "平日",
      "日曜日",
      "祝日"
    ],
    "openDaysNote": "年末年始31日より翌年3日まで休業"
  },
  {
    "id": "2271100691",
    "name": "ever優　デイサービス沼津",
    "kana": "エヴァー　ユウ　デイサービス　ヌマヅ",
    "address": "沼津市西添町10－12",
    "lat": 35.1290956,
    "lng": 138.7903456,
    "tel": "055-968-4650",
    "url": "",
    "pref": "静岡県",
    "city": "沼津市",
    "category": "community_day_service",
    "serviceType": "地域密着型通所介護",
    "capacity": 0,
    "openDays": [
      "平日",
      "土曜日",
      "祝日"
    ],
    "openDaysNote": ""
  },
  {
    "id": "2271101277",
    "name": "アースサポート沼津",
    "kana": "アースサポートヌマヅ",
    "address": "静岡県沼津市岡宮755番地の1",
    "lat": 35.1246974029797,
    "lng": 138.866183637296,
    "tel": "055-927-2500",
    "url": "http://www.earthsupport.co.jp",
    "pref": "静岡県",
    "city": "沼津市",
    "category": "community_day_service",
    "serviceType": "地域密着型通所介護",
    "capacity": 0,
    "openDays": [
      "平日",
      "土曜日",
      "祝日"
    ],
    "openDaysNote": "なし"
  },
  {
    "id": "2291100267",
    "name": "クローバーライフ",
    "kana": "クローバーライフ",
    "address": "大岡3317クローバーライフ沼津 クローバーライフ沼津",
    "lat": 35.1304487,
    "lng": 138.8908814,
    "tel": "055-924-0710",
    "url": "https://www.sunlife.jp/clover/numadu",
    "pref": "静岡県",
    "city": "沼津市",
    "category": "community_day_service",
    "serviceType": "地域密着型通所介護",
    "capacity": 18,
    "openDays": [
      "平日",
      "土曜日",
      "祝日"
    ],
    "openDaysNote": ""
  },
  {
    "id": "2271100451",
    "name": "すまいるほーむ",
    "kana": "スマイルホーム",
    "address": "沼津市今沢５０２－５",
    "lat": 35.1224350519999,
    "lng": 138.816041039642,
    "tel": "055-957‐1120",
    "url": "https://www.facebook.com/sumairuhome/",
    "pref": "静岡県",
    "city": "沼津市",
    "category": "community_day_service",
    "serviceType": "地域密着型通所介護",
    "capacity": 0,
    "openDays": [
      "平日",
      "土曜日",
      "祝日"
    ],
    "openDaysNote": "特になし"
  },
  {
    "id": "2271101897",
    "name": "たいようデイサービスセンター",
    "kana": "タイヨウデイサービスセンター",
    "address": "静岡県沼津市原町中１－８－１",
    "lat": 35.1298069,
    "lng": 138.7962505,
    "tel": "055-966-5541",
    "url": "",
    "pref": "静岡県",
    "city": "沼津市",
    "category": "community_day_service",
    "serviceType": "地域密着型通所介護",
    "capacity": 110,
    "openDays": [
      "平日",
      "土曜日"
    ],
    "openDaysNote": ""
  },
  {
    "id": "2291100457",
    "name": "だんらんの家　沼津",
    "kana": "ダンランノイエ　ヌマヅ",
    "address": "静岡県沼津市大岡１６９８－３",
    "lat": 35.1045588,
    "lng": 138.8700286,
    "tel": "０５５-９６２-５７０８",
    "url": "https://danrannoie.com/home/numazu.html",
    "pref": "静岡県",
    "city": "沼津市",
    "category": "community_day_service",
    "serviceType": "地域密着型通所介護",
    "capacity": 12,
    "openDays": [
      "平日",
      "土曜日",
      "日曜日",
      "祝日"
    ],
    "openDaysNote": "天災害等により自治体からの避難命令及びその状況に匹敵する危険が予測される場合は臨時休業となる。"
  },
  {
    "id": "2271101137",
    "name": "デイサービス　あい",
    "kana": "デイサービス　アイ",
    "address": "沼津市小諏訪４６７－４",
    "lat": 35.1043912,
    "lng": 138.839127,
    "tel": "055-963-7704",
    "url": "http://sandtom.info/blog.html",
    "pref": "静岡県",
    "city": "沼津市",
    "category": "community_day_service",
    "serviceType": "地域密着型通所介護",
    "capacity": 13,
    "openDays": [
      "平日",
      "土曜日",
      "日曜日",
      "祝日"
    ],
    "openDaysNote": "年末年始の休業日を除く（12月30日～1月3日）"
  },
  {
    "id": "2271101830",
    "name": "ディサービス　どうぞの家",
    "kana": "ディサービス　ドウゾノイエ",
    "address": "静岡県沼津市岡宮1026-20",
    "lat": 44.4876442,
    "lng": -79.4855811,
    "tel": "055-926-7765",
    "url": "http://www.yumecoop.jp/",
    "pref": "静岡県",
    "city": "沼津市",
    "category": "community_day_service",
    "serviceType": "地域密着型通所介護",
    "capacity": 0,
    "openDays": [
      "平日",
      "土曜日",
      "祝日"
    ],
    "openDaysNote": ""
  },
  {
    "id": "2271102929",
    "name": "デイサービス　やすらぎ",
    "kana": "デイサービス　ヤスラギ",
    "address": "静岡県沼津市住吉町5-18",
    "lat": 35.0932456,
    "lng": 138.8671062,
    "tel": "055-931-6162",
    "url": "https://yasuragi-kaigo.jp/",
    "pref": "静岡県",
    "city": "沼津市",
    "category": "community_day_service",
    "serviceType": "地域密着型通所介護",
    "capacity": 18,
    "openDays": [
      "平日",
      "土曜日",
      "祝日"
    ],
    "openDaysNote": "祝日は営業しています。（改行）12/30から1/3までを年末年始のお休みとさせて頂いています。"
  },
  {
    "id": "2291100317",
    "name": "デイサービス　ランラン",
    "kana": "デイサービス　ランラン",
    "address": "岡宮377-1",
    "lat": 35.1190588304207,
    "lng": 138.872583441139,
    "tel": "055-939-7088",
    "url": "",
    "pref": "静岡県",
    "city": "沼津市",
    "category": "community_day_service",
    "serviceType": "地域密着型通所介護",
    "capacity": 10,
    "openDays": [
      "平日",
      "祝日"
    ],
    "openDaysNote": ""
  },
  {
    "id": "2271102499",
    "name": "デイサービス　ルンルン",
    "kana": "デイサービス　ルンルン",
    "address": "静岡県沼津市岡宮1111",
    "lat": 35.1295856806649,
    "lng": 138.874447949032,
    "tel": "055-922-1225",
    "url": "",
    "pref": "静岡県",
    "city": "沼津市",
    "category": "community_day_service",
    "serviceType": "地域密着型通所介護",
    "capacity": 0,
    "openDays": [
      "平日",
      "祝日"
    ],
    "openDaysNote": "12月29日～1月3日まで休み"
  },
  {
    "id": "2271102119",
    "name": "デイサービス「すまいる」",
    "kana": "デイサービス「スマイル」",
    "address": "静岡県沼津市下小路町25番地",
    "lat": 35.093001822348,
    "lng": 138.856469557147,
    "tel": "055-954-1122",
    "url": "",
    "pref": "静岡県",
    "city": "沼津市",
    "category": "community_day_service",
    "serviceType": "地域密着型通所介護",
    "capacity": 10,
    "openDays": [
      "平日",
      "土曜日",
      "日曜日",
      "祝日"
    ],
    "openDaysNote": ""
  },
  {
    "id": "2271102176",
    "name": "デイサービスあい岡一色",
    "kana": "デイサービスアイオカイッシキ",
    "address": "岡一色208-14",
    "lat": 35.124063,
    "lng": 138.8778574,
    "tel": "055-929-1020",
    "url": "",
    "pref": "静岡県",
    "city": "沼津市",
    "category": "community_day_service",
    "serviceType": "地域密着型通所介護",
    "capacity": 10,
    "openDays": [
      "平日",
      "土曜日",
      "祝日"
    ],
    "openDaysNote": "日曜日はお休みを頂いております。"
  },
  {
    "id": "2291100242",
    "name": "デイサービスこころ沼津大岡",
    "kana": "デイサービスココロヌマヅオオオカ",
    "address": "静岡県沼津市大岡186-8",
    "lat": 35.1047354621976,
    "lng": 138.887392461404,
    "tel": "055-941-9203",
    "url": "http://www.ktskk.co.jp",
    "pref": "静岡県",
    "city": "沼津市",
    "category": "community_day_service",
    "serviceType": "地域密着型通所介護",
    "capacity": 0,
    "openDays": [
      "平日",
      "土曜日",
      "祝日"
    ],
    "openDaysNote": ""
  },
  {
    "id": "2291100390",
    "name": "デイサービスさとやま",
    "kana": "デイサービスサトヤマ",
    "address": "静岡県沼津市東原560番地1聖人の家風のガーデン 聖人の家風のガーデン",
    "lat": 35.134922324923,
    "lng": 138.825111698316,
    "tel": "055－928－5887",
    "url": "https://www.satoyama2.jp/garden/index.html",
    "pref": "静岡県",
    "city": "沼津市",
    "category": "community_day_service",
    "serviceType": "地域密着型通所介護",
    "capacity": null,
    "openDays": [
      "平日",
      "祝日"
    ],
    "openDaysNote": ""
  },
  {
    "id": "2271100659",
    "name": "デイサービスシーク",
    "kana": "デイサービスシーク",
    "address": "静岡県沼津市西沢田516-1",
    "lat": 35.1213882854483,
    "lng": 138.849265937711,
    "tel": "055-943-5251",
    "url": "",
    "pref": "静岡県",
    "city": "沼津市",
    "category": "community_day_service",
    "serviceType": "地域密着型通所介護",
    "capacity": null,
    "openDays": [
      "平日",
      "土曜日",
      "祝日"
    ],
    "openDaysNote": ""
  },
  {
    "id": "2271101863",
    "name": "デイサービスセンター　青空",
    "kana": "デイサービスセンター　アオゾラ",
    "address": "静岡県沼津市小諏訪１５－１",
    "lat": 35.1135794,
    "lng": 138.8398435,
    "tel": "055-924－9020",
    "url": "http://www.aozora-h.com",
    "pref": "静岡県",
    "city": "沼津市",
    "category": "community_day_service",
    "serviceType": "地域密着型通所介護",
    "capacity": 18,
    "openDays": [
      "平日",
      "祝日"
    ],
    "openDaysNote": ""
  },
  {
    "id": "2291100309",
    "name": "デイサービスのぞみ",
    "kana": "デイサービスノゾミ",
    "address": "静岡県沼津市原町中3丁目13－2２",
    "lat": 35.1306399,
    "lng": 138.8007099,
    "tel": "０５５－９６７－３９００",
    "url": "http://www.sunny-walk.co.jp/",
    "pref": "静岡県",
    "city": "沼津市",
    "category": "community_day_service",
    "serviceType": "地域密着型通所介護",
    "capacity": 0,
    "openDays": [
      "平日",
      "祝日"
    ],
    "openDaysNote": ""
  },
  {
    "id": "2271102515",
    "name": "デイサービスひとつ",
    "kana": "デイサービスヒトツ",
    "address": "青野315-1",
    "lat": 35.1368736,
    "lng": 138.8120598,
    "tel": "055-955-7330",
    "url": "",
    "pref": "静岡県",
    "city": "沼津市",
    "category": "community_day_service",
    "serviceType": "地域密着型通所介護",
    "capacity": 13,
    "openDays": [
      "平日",
      "土曜日",
      "日曜日",
      "祝日"
    ],
    "openDaysNote": "１２月３１日から１月３日までは休みとする"
  },
  {
    "id": "2271101434",
    "name": "デイサービスひばり",
    "kana": "デイサービスヒバリ",
    "address": "静岡県沼津市新沢田町4-10",
    "lat": 35.1166492,
    "lng": 138.851601,
    "tel": "055-921-1221",
    "url": "",
    "pref": "静岡県",
    "city": "沼津市",
    "category": "community_day_service",
    "serviceType": "地域密着型通所介護",
    "capacity": 10,
    "openDays": [
      "平日"
    ],
    "openDaysNote": ""
  },
  {
    "id": "2271102739",
    "name": "デイサービス輝寿",
    "kana": "デイサービスキジュ",
    "address": "静岡県沼津市松長51-8",
    "lat": 35.112465,
    "lng": 138.8232808,
    "tel": "055-955-8568",
    "url": "",
    "pref": "静岡県",
    "city": "沼津市",
    "category": "community_day_service",
    "serviceType": "地域密着型通所介護",
    "capacity": 10,
    "openDays": [
      "平日",
      "土曜日",
      "日曜日",
      "祝日"
    ],
    "openDaysNote": ""
  },
  {
    "id": "2271100998",
    "name": "デイサービス江原",
    "kana": "デイサービス　エバラ",
    "address": "沼津市江原町９－２",
    "lat": 35.1207547,
    "lng": 138.8606808,
    "tel": "055-921-9505",
    "url": "",
    "pref": "静岡県",
    "city": "沼津市",
    "category": "community_day_service",
    "serviceType": "地域密着型通所介護",
    "capacity": 50,
    "openDays": [
      "平日"
    ],
    "openDaysNote": ""
  },
  {
    "id": "2271102069",
    "name": "デイサービス東椎路の家",
    "kana": "デイサービスヒガシシイジノイエ",
    "address": "沼津市東椎路１２０１－１１",
    "lat": 35.123437,
    "lng": 138.8383685,
    "tel": "０５５－９４３－７４８５",
    "url": "http://faith-ltd.jp",
    "pref": "静岡県",
    "city": "沼津市",
    "category": "community_day_service",
    "serviceType": "地域密着型通所介護",
    "capacity": 8,
    "openDays": [
      "平日",
      "土曜日",
      "日曜日",
      "祝日"
    ],
    "openDaysNote": "９：００～１７：００が介護保険を活用した地域密着通所介護サービス提供時間。（改行）１７：０１～翌８:５９が、宿泊を含めた自費介護サポートサービス提供時間。"
  },
  {
    "id": "2291100515",
    "name": "デイサロン・エスコートマルシェ",
    "kana": "デイサロン・エスコートマルシェ",
    "address": "静岡県沼津市下香貫七面1172-8",
    "lat": 35.0789413,
    "lng": 138.876859,
    "tel": "055-928-9600",
    "url": "https://www.npo-kizuna.jp/index.html",
    "pref": "静岡県",
    "city": "沼津市",
    "category": "community_day_service",
    "serviceType": "地域密着型通所介護",
    "capacity": 0,
    "openDays": [
      "平日"
    ],
    "openDaysNote": "・年末30日から年始3日までは冬期休暇です。"
  },
  {
    "id": "2271102937",
    "name": "デイサロン・エスコート参番館",
    "kana": "デイサロン・エスコートサンバンカン",
    "address": "下香貫楊原762-21",
    "lat": 35.0845218,
    "lng": 138.8791808,
    "tel": "055-935-0330",
    "url": "",
    "pref": "静岡県",
    "city": "沼津市",
    "category": "community_day_service",
    "serviceType": "地域密着型通所介護",
    "capacity": 14,
    "openDays": [
      "平日",
      "土曜日",
      "日曜日",
      "祝日"
    ],
    "openDaysNote": "・ご要望があれば年末年始も対応致します。"
  },
  {
    "id": "2291100549",
    "name": "トレーニングデイサービスあんび原",
    "kana": "トレーニングデイサービスアンビハラ",
    "address": "静岡県沼津市原1804鈴木ビル1階南 鈴木ビル1階南",
    "lat": 35.131287,
    "lng": 138.8023393,
    "tel": "055-928-4258",
    "url": "http://www.ambi-m-lab.com",
    "pref": "静岡県",
    "city": "沼津市",
    "category": "community_day_service",
    "serviceType": "地域密着型通所介護",
    "capacity": 10,
    "openDays": [
      "平日"
    ],
    "openDaysNote": ""
  },
  {
    "id": "2291100424",
    "name": "トレーニングデイサービスあんび香貫",
    "kana": "トレーニングデイサービスアンビカヌキ",
    "address": "静岡県沼津市下香貫下障子3150-1",
    "lat": 35.0822983,
    "lng": 138.8694342,
    "tel": "055-935-6655",
    "url": "http://www.ambi-m-lab.com",
    "pref": "静岡県",
    "city": "沼津市",
    "category": "community_day_service",
    "serviceType": "地域密着型通所介護",
    "capacity": 0,
    "openDays": [
      "平日"
    ],
    "openDaysNote": ""
  },
  {
    "id": "2271102861",
    "name": "リゾートハウスサワディー",
    "kana": "リゾートハウスサワディー",
    "address": "大平字大久保2233-3",
    "lat": 35.0784177,
    "lng": 138.9099752,
    "tel": "055-955-9261",
    "url": "",
    "pref": "静岡県",
    "city": "沼津市",
    "category": "community_day_service",
    "serviceType": "地域密着型通所介護",
    "capacity": 10,
    "openDays": [
      "平日",
      "祝日"
    ],
    "openDaysNote": ""
  },
  {
    "id": "2271101426",
    "name": "リハビリサロンみなみ",
    "kana": "リハビリサロンミナミ",
    "address": "沼津市下香貫藤井原1620－5",
    "lat": 35.0794847209397,
    "lng": 138.873791517058,
    "tel": "055-935-5007",
    "url": "http://www.dainando.com",
    "pref": "静岡県",
    "city": "沼津市",
    "category": "community_day_service",
    "serviceType": "地域密着型通所介護",
    "capacity": 0,
    "openDays": [
      "平日",
      "土曜日"
    ],
    "openDaysNote": "水曜日の営業時間は8時00分～12時30分まで"
  },
  {
    "id": "2271101855",
    "name": "リハビリサロンゆう和",
    "kana": "リハビリサロンユウワ",
    "address": "沼津市新宿町11－8",
    "lat": 35.1078555,
    "lng": 138.8599979,
    "tel": "055-929-1620",
    "url": "http://www.yuuwa.info",
    "pref": "静岡県",
    "city": "沼津市",
    "category": "community_day_service",
    "serviceType": "地域密着型通所介護",
    "capacity": 100,
    "openDays": [
      "平日",
      "土曜日"
    ],
    "openDaysNote": "水曜日の営業時間は8時00分～12時30分まで"
  },
  {
    "id": "2291100275",
    "name": "ル・グランハート沼津",
    "kana": "ル・グランハートヌマヅ",
    "address": "静岡県沼津市一本松104-2",
    "lat": 35.1287953,
    "lng": 138.776958,
    "tel": "055-968-1800",
    "url": "https://www.le-grand-gp.jp",
    "pref": "静岡県",
    "city": "沼津市",
    "category": "community_day_service",
    "serviceType": "地域密着型通所介護",
    "capacity": 18,
    "openDays": [
      "平日",
      "土曜日",
      "日曜日",
      "祝日"
    ],
    "openDaysNote": "12月30日から1月3日迄お休みさせていただきます。"
  },
  {
    "id": "2291100382",
    "name": "レコードブック沼津吉田",
    "kana": "レコードブックヌマヅヨシダ",
    "address": "静岡県沼津市吉田町28-21芹澤店舗1F 芹澤店舗1F",
    "lat": 35.0932319,
    "lng": 138.8618898,
    "tel": "055-957-8257",
    "url": "https://www.recordbook.jp/facility/numazuyoshida/",
    "pref": "静岡県",
    "city": "沼津市",
    "category": "community_day_service",
    "serviceType": "地域密着型通所介護",
    "capacity": 120,
    "openDays": [
      "平日",
      "祝日"
    ],
    "openDaysNote": ""
  },
  {
    "id": "2271101566",
    "name": "岡宮グリーンヒルデイサービス",
    "kana": "オカノミヤグリーンヒルデイサービス",
    "address": "沼津市岡宮１１８２番地の１",
    "lat": 35.1351593,
    "lng": 138.8701631,
    "tel": "055-928-6822",
    "url": "http://care-net.biz/22/suruga",
    "pref": "静岡県",
    "city": "沼津市",
    "category": "community_day_service",
    "serviceType": "地域密着型通所介護",
    "capacity": 18,
    "openDays": [
      "平日",
      "祝日"
    ],
    "openDaysNote": ""
  },
  {
    "id": "2291100283",
    "name": "株式会社パワ－・オブ・ワン",
    "kana": "カブシキガイシャパワ-・オブ・ワン",
    "address": "沼津市松長55-5介護サ－ビスひとつ松長 介護サ－ビスひとつ松長",
    "lat": 35.1129261,
    "lng": 138.8240641,
    "tel": "055-952-4565",
    "url": "http://power-of-one.info",
    "pref": "静岡県",
    "city": "沼津市",
    "category": "community_day_service",
    "serviceType": "地域密着型通所介護",
    "capacity": 27,
    "openDays": [
      "平日",
      "土曜日",
      "日曜日",
      "祝日"
    ],
    "openDaysNote": ""
  },
  {
    "id": "2291100366",
    "name": "郷の音",
    "kana": "サトノネ",
    "address": "静岡県沼津市江原町17-34",
    "lat": 35.1211886,
    "lng": 138.8598062,
    "tel": "055-960-9905",
    "url": "https://www.satonone.com/",
    "pref": "静岡県",
    "city": "沼津市",
    "category": "community_day_service",
    "serviceType": "地域密着型通所介護",
    "capacity": null,
    "openDays": [
      "平日"
    ],
    "openDaysNote": ""
  },
  {
    "id": "2271102044",
    "name": "健康いきいきクラブ",
    "kana": "ケンコウイキイキクラブ",
    "address": "上香貫宮原町1513-6",
    "lat": 35.0875478089119,
    "lng": 138.871100698178,
    "tel": "055-933-3355",
    "url": "http://sc-kenko.com",
    "pref": "静岡県",
    "city": "沼津市",
    "category": "community_day_service",
    "serviceType": "地域密着型通所介護",
    "capacity": 0,
    "openDays": [
      "平日",
      "土曜日"
    ],
    "openDaysNote": "＜サービス提供時間＞（改行）午前・午後の2単位制（改行）月曜から金曜は終日（改行）土曜日は午前までとする。"
  },
  {
    "id": "2291100499",
    "name": "千本テラスLei",
    "kana": "センボンテラスレイ",
    "address": "静岡県沼津市本字千本郷林1907－176",
    "lat": 35.0892864263985,
    "lng": 138.850714285181,
    "tel": "559522106",
    "url": "",
    "pref": "静岡県",
    "city": "沼津市",
    "category": "community_day_service",
    "serviceType": "地域密着型通所介護",
    "capacity": null,
    "openDays": [
      "平日",
      "祝日"
    ],
    "openDaysNote": "朝夜延長も承っております。短時間利用も申し受けます。"
  },
  {
    "id": "2291100416",
    "name": "地球のかけら",
    "kana": "ホシノカケラ",
    "address": "静岡県沼津市東椎路1640-10",
    "lat": 35.1297916,
    "lng": 138.8324692,
    "tel": "080-4677-7809",
    "url": "",
    "pref": "静岡県",
    "city": "沼津市",
    "category": "community_day_service",
    "serviceType": "地域密着型通所介護",
    "capacity": null,
    "openDays": [
      "平日"
    ],
    "openDaysNote": ""
  },
  {
    "id": "2291100531",
    "name": "調理特化型デイサービス　ハーモニーキッチン",
    "kana": "チョウリトッカガタデイサービス　ハーモニーキッチン",
    "address": "大岡２２２６番地の３トニービル１階 トニービル１階",
    "lat": 35.1123327,
    "lng": 138.8755671,
    "tel": "055-960-6070",
    "url": "https://w-being.jp/",
    "pref": "静岡県",
    "city": "沼津市",
    "category": "community_day_service",
    "serviceType": "地域密着型通所介護",
    "capacity": 56,
    "openDays": [
      "平日",
      "土曜日",
      "祝日"
    ],
    "openDaysNote": ""
  },
  {
    "id": "2271101822",
    "name": "通所介護つばき庵",
    "kana": "ツウショカイゴ　ツバキアン",
    "address": "静岡県沼津市下香貫山宮前３０７８番地の45",
    "lat": 35.0767017842599,
    "lng": 138.863959157008,
    "tel": "055-941-7561",
    "url": "http://cs-machinaka.com",
    "pref": "静岡県",
    "city": "沼津市",
    "category": "community_day_service",
    "serviceType": "地域密着型通所介護",
    "capacity": 0,
    "openDays": [
      "平日",
      "土曜日",
      "日曜日",
      "祝日"
    ],
    "openDaysNote": ""
  },
  {
    "id": "2271101236",
    "name": "通所介護まえむき",
    "kana": "ツウショカイゴマエムキ",
    "address": "沼津市大岡3428番地の5",
    "lat": 35.132954,
    "lng": 138.8887621,
    "tel": "055-922-1155",
    "url": "https://www.maemuki-kaigo.com/",
    "pref": "静岡県",
    "city": "沼津市",
    "category": "community_day_service",
    "serviceType": "地域密着型通所介護",
    "capacity": null,
    "openDays": [
      "平日",
      "祝日"
    ],
    "openDaysNote": "－"
  },
  {
    "id": "2271102564",
    "name": "友愛みなとデイサービス",
    "kana": "ユウアイミナトデイサービス",
    "address": "沼津市千本東町33",
    "lat": 35.0856874,
    "lng": 138.8575182,
    "tel": "055-955-7717",
    "url": "http:yuai01.webcrow.jp/",
    "pref": "静岡県",
    "city": "沼津市",
    "category": "community_day_service",
    "serviceType": "地域密着型通所介護",
    "capacity": 0,
    "openDays": [
      "平日",
      "土曜日",
      "祝日"
    ],
    "openDaysNote": ""
  },
  {
    "id": "2271100568",
    "name": "和みデイサ－ビス",
    "kana": "ナゴミデイサ-ビス",
    "address": "沼津市大平1538-1",
    "lat": 35.0750318,
    "lng": 138.9045731,
    "tel": "055-935-5252",
    "url": "http://www/shinai-kai.jp/nagomi/",
    "pref": "静岡県",
    "city": "沼津市",
    "category": "community_day_service",
    "serviceType": "地域密着型通所介護",
    "capacity": 18,
    "openDays": [
      "平日",
      "祝日"
    ],
    "openDaysNote": ""
  },
  {
    "id": "2291100408",
    "name": "檜楽園",
    "kana": "カイラクエン",
    "address": "静岡県沼津市平町4-16",
    "lat": 35.1011743809606,
    "lng": 138.865685124537,
    "tel": "055-962-4850",
    "url": "",
    "pref": "静岡県",
    "city": "沼津市",
    "category": "community_day_service",
    "serviceType": "地域密着型通所介護",
    "capacity": 10,
    "openDays": [
      "平日"
    ],
    "openDaysNote": ""
  },
  {
    "id": "2275101125",
    "name": "あんしんデイサービス",
    "kana": "アンシンデイサービス",
    "address": "本中根485番地の1",
    "lat": 34.8285209529262,
    "lng": 138.29467235853,
    "tel": "054-623-2121",
    "url": "http;//www,ansinsupot,com",
    "pref": "静岡県",
    "city": "焼津市",
    "category": "community_day_service",
    "serviceType": "地域密着型通所介護",
    "capacity": 10,
    "openDays": [
      "平日",
      "土曜日",
      "祝日"
    ],
    "openDaysNote": "12月30日から1月3日までは休業。"
  },
  {
    "id": "2275100391",
    "name": "たんぽぽデイサービス石津",
    "kana": "タンポポデイサービスイシズ",
    "address": "静岡県焼津市与惣次2-12-13たんぽぽ石津デイサービス たんぽぽ石津デイサービス",
    "lat": 34.8452237,
    "lng": 138.3112417,
    "tel": "054-624-8422",
    "url": "",
    "pref": "静岡県",
    "city": "焼津市",
    "category": "community_day_service",
    "serviceType": "地域密着型通所介護",
    "capacity": 0,
    "openDays": [
      "平日",
      "土曜日",
      "日曜日",
      "祝日"
    ],
    "openDaysNote": "基本的には年中無休"
  },
  {
    "id": "2275101299",
    "name": "デイサービス　ゆうあい",
    "kana": "デイサービス　ユウアイ",
    "address": "中港１丁目２番３号",
    "lat": 34.8722310078775,
    "lng": 138.321119794443,
    "tel": "054－631－4582",
    "url": "",
    "pref": "静岡県",
    "city": "焼津市",
    "category": "community_day_service",
    "serviceType": "地域密着型通所介護",
    "capacity": null,
    "openDays": [
      "平日",
      "土曜日",
      "祝日"
    ],
    "openDaysNote": ""
  },
  {
    "id": "2275100499",
    "name": "デイサービス　長者の森",
    "kana": "デイサービス　チョウジャノモリ",
    "address": "焼津市三ヶ名　558-4",
    "lat": 34.8586353,
    "lng": 138.3023396,
    "tel": "054-620-8114",
    "url": "http://choujanomori.com",
    "pref": "静岡県",
    "city": "焼津市",
    "category": "community_day_service",
    "serviceType": "地域密着型通所介護",
    "capacity": 18,
    "openDays": [
      "平日",
      "土曜日",
      "祝日"
    ],
    "openDaysNote": ""
  },
  {
    "id": "2275101026",
    "name": "デイサービスきぼう",
    "kana": "デイサービスキボウ",
    "address": "静岡県焼津市田尻86-2",
    "lat": 34.8275245041688,
    "lng": 138.315283769676,
    "tel": "054-639-5233",
    "url": "http://npo-kibou.net/015_red/015_red/dei1.html",
    "pref": "静岡県",
    "city": "焼津市",
    "category": "community_day_service",
    "serviceType": "地域密着型通所介護",
    "capacity": 10,
    "openDays": [
      "平日",
      "祝日"
    ],
    "openDaysNote": "定休日以外の祝日は営業しています。"
  },
  {
    "id": "2275100580",
    "name": "デイサービスごかふれんど",
    "kana": "デイサービスゴカフレンド",
    "address": "静岡県焼津市五ヶ堀之内１６４４－１",
    "lat": 34.8542083,
    "lng": 138.292641,
    "tel": "054-621-2020",
    "url": "http://www.gokafriend.com/",
    "pref": "静岡県",
    "city": "焼津市",
    "category": "community_day_service",
    "serviceType": "地域密着型通所介護",
    "capacity": 18,
    "openDays": [
      "平日",
      "土曜日",
      "祝日"
    ],
    "openDaysNote": "年末年始の休業日あり。"
  },
  {
    "id": "2275101323",
    "name": "デイサービスセンター　いこいの杜",
    "kana": "デイサービスセンター　イコイノモリ",
    "address": "静岡県焼津市浜当目4丁目18-10",
    "lat": 34.8829965,
    "lng": 138.3349076,
    "tel": "054-631-4528",
    "url": "",
    "pref": "静岡県",
    "city": "焼津市",
    "category": "community_day_service",
    "serviceType": "地域密着型通所介護",
    "capacity": 0,
    "openDays": [
      "平日",
      "土曜日"
    ],
    "openDaysNote": ""
  },
  {
    "id": "2275101315",
    "name": "デイサービスセンター　だるま堂",
    "kana": "デイサービスセンター　ダルマドウ",
    "address": "静岡県焼津市藤守2771",
    "lat": 34.8054079483293,
    "lng": 138.299775815344,
    "tel": "054-631-7962",
    "url": "https://darumadou.wixsite.com/website-1",
    "pref": "静岡県",
    "city": "焼津市",
    "category": "community_day_service",
    "serviceType": "地域密着型通所介護",
    "capacity": 10,
    "openDays": [
      "平日",
      "土曜日",
      "祝日"
    ],
    "openDaysNote": ""
  },
  {
    "id": "2275100556",
    "name": "デイサービス百の木",
    "kana": "デイサービスモモノキ",
    "address": "焼津市石津向町15番地の17",
    "lat": 34.842276,
    "lng": 138.3223977,
    "tel": "054-623-3665",
    "url": "もものき.com",
    "pref": "静岡県",
    "city": "焼津市",
    "category": "community_day_service",
    "serviceType": "地域密着型通所介護",
    "capacity": 10,
    "openDays": [
      "平日",
      "土曜日",
      "祝日"
    ],
    "openDaysNote": ""
  },
  {
    "id": "2275100937",
    "name": "デイサービス百の木　与惣次",
    "kana": "デイサービスモモノキ　ヨソウジ",
    "address": "焼津市与惣次２４１番地の１",
    "lat": 34.8452619,
    "lng": 138.3121964,
    "tel": "054-623-4130",
    "url": "",
    "pref": "静岡県",
    "city": "焼津市",
    "category": "community_day_service",
    "serviceType": "地域密着型通所介護",
    "capacity": 18,
    "openDays": [
      "平日",
      "土曜日",
      "祝日"
    ],
    "openDaysNote": ""
  },
  {
    "id": "2275101257",
    "name": "リハートやいづ",
    "kana": "リハートヤイヅ",
    "address": "静岡県焼津市小柳津６３０－５",
    "lat": 34.8531585,
    "lng": 138.2891693,
    "tel": "054-631-7550",
    "url": "",
    "pref": "静岡県",
    "city": "焼津市",
    "category": "community_day_service",
    "serviceType": "地域密着型通所介護",
    "capacity": 10,
    "openDays": [
      "平日",
      "祝日"
    ],
    "openDaysNote": ""
  },
  {
    "id": "2295100263",
    "name": "リハビリ特化型デイサービス　カラダラボ焼津",
    "kana": "リハビリトッカガタデイサービス　カラダラボヤイヅ",
    "address": "静岡県焼津市柳新屋830",
    "lat": 34.8586332888904,
    "lng": 138.291230386508,
    "tel": "054-631-6418",
    "url": "https://www.karadalabo.com/index.php",
    "pref": "静岡県",
    "city": "焼津市",
    "category": "community_day_service",
    "serviceType": "地域密着型通所介護",
    "capacity": null,
    "openDays": [
      "平日",
      "祝日"
    ],
    "openDaysNote": "年末・年始休業"
  },
  {
    "id": "2275100986",
    "name": "リビングケアゆうしん三ヶ名",
    "kana": "リビングケアユウシンサンガミョウ",
    "address": "三ヶ名１３５９－１",
    "lat": 34.8630625,
    "lng": 138.3013925,
    "tel": "054-631-7725",
    "url": "yushin2011.co.jp",
    "pref": "静岡県",
    "city": "焼津市",
    "category": "community_day_service",
    "serviceType": "地域密着型通所介護",
    "capacity": 17,
    "openDays": [
      "平日",
      "土曜日",
      "日曜日",
      "祝日"
    ],
    "openDaysNote": ""
  },
  {
    "id": "2275100739",
    "name": "医療法人社団正心会　デイサービス海の子",
    "kana": "イリョウホウジンシャダンセイシンカイ　デイサービスウミノコ",
    "address": "焼津市三ヶ名８５０－３",
    "lat": 34.8588381,
    "lng": 138.3007676,
    "tel": "054-621-5435",
    "url": "",
    "pref": "静岡県",
    "city": "焼津市",
    "category": "community_day_service",
    "serviceType": "地域密着型通所介護",
    "capacity": 18,
    "openDays": [
      "平日",
      "土曜日",
      "祝日"
    ],
    "openDaysNote": ""
  },
  {
    "id": "2295100222",
    "name": "機能訓練型デイサービスはれたす",
    "kana": "キノウクンレンガタデイサービスハレタス",
    "address": "静岡県焼津市焼津３丁目4-19",
    "lat": 34.8625178362108,
    "lng": 138.31114868784,
    "tel": "054-374-4790",
    "url": "",
    "pref": "静岡県",
    "city": "焼津市",
    "category": "community_day_service",
    "serviceType": "地域密着型通所介護",
    "capacity": 0,
    "openDays": [
      "平日",
      "祝日"
    ],
    "openDaysNote": "12月30日から1月3日まで年末年始休業（改行）その他事業者が指定した日（不定期）"
  },
  {
    "id": "2295100354",
    "name": "地域密着型デイサービス　つばさ豊田",
    "kana": "チイキミッチャクガタデイサービス　ツバサトヨダ",
    "address": "焼津市保福島１２０２",
    "lat": 34.8693382,
    "lng": 138.2875285,
    "tel": "054-628-3355",
    "url": "http://www.tubasatoyoda.jp",
    "pref": "静岡県",
    "city": "焼津市",
    "category": "community_day_service",
    "serviceType": "地域密着型通所介護",
    "capacity": null,
    "openDays": [
      "平日",
      "祝日"
    ],
    "openDaysNote": ""
  },
  {
    "id": "2275100424",
    "name": "有限会社居宅ディサービスこけし",
    "kana": "ユウゲンガイシャ　キョタクディサービスコケシ",
    "address": "焼津市大島1530-2",
    "lat": 34.8189824,
    "lng": 138.2995102,
    "tel": "054-623-2882",
    "url": "",
    "pref": "静岡県",
    "city": "焼津市",
    "category": "community_day_service",
    "serviceType": "地域密着型通所介護",
    "capacity": 10,
    "openDays": [
      "平日",
      "土曜日",
      "日曜日",
      "祝日"
    ],
    "openDaysNote": "日曜日は利用者がいる場合のみ営業。"
  },
  {
    "id": "2296300086",
    "name": "デイサービス　フォレスト",
    "kana": "デイサービス　フォレスト",
    "address": "静岡県周智郡森町中川881番地1シルバーハウスもりまち シルバーハウスもりまち",
    "lat": 34.800379,
    "lng": 137.8944595,
    "tel": "0538-67-8036",
    "url": "",
    "pref": "静岡県",
    "city": "森町",
    "category": "community_day_service",
    "serviceType": "地域密着型通所介護",
    "capacity": null,
    "openDays": [
      "平日",
      "土曜日",
      "祝日"
    ],
    "openDaysNote": ""
  },
  {
    "id": "2296300094",
    "name": "ゆうゆうの家",
    "kana": "ユウユウノイエ",
    "address": "静岡県周智郡森町一宮4050番地",
    "lat": 34.8324386,
    "lng": 137.8999613,
    "tel": "0538-89-6886",
    "url": "",
    "pref": "静岡県",
    "city": "森町",
    "category": "community_day_service",
    "serviceType": "地域密着型通所介護",
    "capacity": 0,
    "openDays": [
      "平日",
      "土曜日",
      "祝日"
    ],
    "openDaysNote": "・祝日が日曜日に重なり振替休日が発生した場合も、日曜定休のみとなります。"
  },
  {
    "id": "2276300114",
    "name": "第１ゆるせい家",
    "kana": "ダイイチユルセイヤ",
    "address": "静岡県周智郡森町飯田4018-26",
    "lat": 34.8144824,
    "lng": 137.9216115,
    "tel": "0538-85-6101",
    "url": "https://yuruseiya.com/",
    "pref": "静岡県",
    "city": "森町",
    "category": "community_day_service",
    "serviceType": "地域密着型通所介護",
    "capacity": 11,
    "openDays": [
      "平日",
      "土曜日",
      "祝日"
    ],
    "openDaysNote": ""
  },
  {
    "id": "2276300122",
    "name": "第２ゆるせい家",
    "kana": "ダイニユルセイヤ",
    "address": "周智郡森町森1792-3",
    "lat": 34.8331551,
    "lng": 137.9197222,
    "tel": "0538-84-4181",
    "url": "https://yuruseiya.com/",
    "pref": "静岡県",
    "city": "森町",
    "category": "community_day_service",
    "serviceType": "地域密着型通所介護",
    "capacity": 12,
    "openDays": [
      "平日",
      "土曜日",
      "祝日"
    ],
    "openDaysNote": ""
  },
  {
    "id": "2271400273",
    "name": "きのうくんれんがた　でいさーびす　いーすとわん",
    "kana": "機能訓練型デイサービスEast-one",
    "address": "麦塚４０－９",
    "lat": 35.1660196,
    "lng": 138.9155149,
    "tel": "055-941-7807",
    "url": "https://www.breams-eastone.com",
    "pref": "静岡県",
    "city": "裾野市",
    "category": "community_day_service",
    "serviceType": "地域密着型通所介護",
    "capacity": 216,
    "openDays": [
      "平日",
      "土曜日",
      "祝日"
    ],
    "openDaysNote": "介護サービスの提供時間は（改行）９：００～１２：１５（改行）１３：１５～１６：３０（改行）の二単位制です。"
  },
  {
    "id": "2271400463",
    "name": "すずなデイサービス",
    "kana": "スズナデイサービス",
    "address": "静岡県裾野市茶畑1183番地の3",
    "lat": 35.1730937,
    "lng": 138.9216533,
    "tel": "０５５－９２８－５８５５",
    "url": "https://suzuna-shizuoka.jp/",
    "pref": "静岡県",
    "city": "裾野市",
    "category": "community_day_service",
    "serviceType": "地域密着型通所介護",
    "capacity": 10,
    "openDays": [
      "平日",
      "土曜日",
      "祝日"
    ],
    "openDaysNote": ""
  },
  {
    "id": "2271400406",
    "name": "デイホーム野の花",
    "kana": "デイホームノノハナ",
    "address": "裾野市伊豆島田810-9",
    "lat": 35.1549237,
    "lng": 138.9049019,
    "tel": "055-992-6764",
    "url": "http://dayhomenonohana.com/",
    "pref": "静岡県",
    "city": "裾野市",
    "category": "community_day_service",
    "serviceType": "地域密着型通所介護",
    "capacity": 10,
    "openDays": [
      "平日"
    ],
    "openDaysNote": ""
  },
  {
    "id": "2271400307",
    "name": "ナナエデイサービス",
    "kana": "ナナエデイサービス",
    "address": "静岡県裾野市上ヶ田１６－４",
    "lat": 35.2072311,
    "lng": 138.9101639,
    "tel": "055-965-0818",
    "url": "http://www.nanae.co.jp/dayservice",
    "pref": "静岡県",
    "city": "裾野市",
    "category": "community_day_service",
    "serviceType": "地域密着型通所介護",
    "capacity": 18,
    "openDays": [
      "平日",
      "土曜日",
      "祝日"
    ],
    "openDaysNote": "12月29日から1月3日まで年末年始休業"
  },
  {
    "id": "2271400448",
    "name": "ホームケアセンターら・ら・ら",
    "kana": "ホームケアセンターラララ",
    "address": "静岡県裾野市佐野338-2",
    "lat": 35.1829287,
    "lng": 138.9087315,
    "tel": "055-946-5391",
    "url": "http://www.ymmd-hcc.jp/location/%E3%82%89%E3%83%BB%E3%82%89%E3%83%BB%E3%82%89-4/",
    "pref": "静岡県",
    "city": "裾野市",
    "category": "community_day_service",
    "serviceType": "地域密着型通所介護",
    "capacity": 0,
    "openDays": [
      "平日",
      "土曜日",
      "祝日"
    ],
    "openDaysNote": ""
  },
  {
    "id": "2271400067",
    "name": "裾野市デイサービスセンターすやまホーム",
    "kana": "スソノシデイサービスセンタースヤマホーム",
    "address": "裾野市須山1632-98",
    "lat": 35.2469147,
    "lng": 138.850229,
    "tel": "055-965-1661",
    "url": "http://www.syakyo-susono.or.jp/",
    "pref": "静岡県",
    "city": "裾野市",
    "category": "community_day_service",
    "serviceType": "地域密着型通所介護",
    "capacity": 0,
    "openDays": [
      "平日",
      "祝日"
    ],
    "openDaysNote": ""
  },
  {
    "id": "2291400048",
    "name": "富岳中川原ホーム",
    "kana": "フガクナカカワハラホーム",
    "address": "静岡県裾野市茶畑1707番地の3",
    "lat": 35.1734387,
    "lng": 138.9395567,
    "tel": "055-993-8033",
    "url": "www.fugakukai.com/shisetsu/ichinoseso/index.html",
    "pref": "静岡県",
    "city": "裾野市",
    "category": "community_day_service",
    "serviceType": "地域密着型通所介護",
    "capacity": 0,
    "openDays": [
      "平日",
      "土曜日",
      "祝日"
    ],
    "openDaysNote": ""
  },
  {
    "id": "2291300230",
    "name": "くまいでん",
    "kana": "クマイデン",
    "address": "静岡県駿東郡清水町久米田59-8アークアジュール102 アークアジュール102",
    "lat": 35.0997928447386,
    "lng": 138.911424379762,
    "tel": "055-919-2153",
    "url": "",
    "pref": "静岡県",
    "city": "清水町",
    "category": "community_day_service",
    "serviceType": "地域密着型通所介護",
    "capacity": 8,
    "openDays": [
      "平日"
    ],
    "openDaysNote": ""
  },
  {
    "id": "2271300564",
    "name": "デイサービス　なかよし",
    "kana": "デイサービス　ナカヨシ",
    "address": "静岡県駿東郡清水町徳倉４４０－８",
    "lat": 35.0826864,
    "lng": 138.8965405,
    "tel": "055-932-6867",
    "url": "",
    "pref": "静岡県",
    "city": "清水町",
    "category": "community_day_service",
    "serviceType": "地域密着型通所介護",
    "capacity": 0,
    "openDays": [
      "平日",
      "土曜日",
      "日曜日",
      "祝日"
    ],
    "openDaysNote": ""
  },
  {
    "id": "2271300176",
    "name": "デイサービスセンターかわせみ",
    "kana": "デイサービスセンターカワセミ",
    "address": "駿東郡清水町的場188-6",
    "lat": 35.0870889,
    "lng": 138.9068282,
    "tel": "055-984-3318",
    "url": "http://www.kawasemi.or.jp",
    "pref": "静岡県",
    "city": "清水町",
    "category": "community_day_service",
    "serviceType": "地域密着型通所介護",
    "capacity": 18,
    "openDays": [
      "平日",
      "祝日"
    ],
    "openDaysNote": "特になし"
  },
  {
    "id": "2291300198",
    "name": "デイサービスそら八幡",
    "kana": "デイサービスソラヤハタ",
    "address": "駿東郡清水町八幡317",
    "lat": 35.1087998,
    "lng": 138.8932127,
    "tel": "055-955-6110",
    "url": "https://specs-sora.jp/",
    "pref": "静岡県",
    "city": "清水町",
    "category": "community_day_service",
    "serviceType": "地域密着型通所介護",
    "capacity": 0,
    "openDays": [
      "平日",
      "土曜日",
      "祝日"
    ],
    "openDaysNote": ""
  },
  {
    "id": "2271300754",
    "name": "トレーニングデイサービスあんび",
    "kana": "トレーニングデイサービスアンビ",
    "address": "静岡県駿東郡清水町新宿206",
    "lat": 35.1165916,
    "lng": 138.9032168,
    "tel": "055-955-8542",
    "url": "http://www.ambi-m-lab.com",
    "pref": "静岡県",
    "city": "清水町",
    "category": "community_day_service",
    "serviceType": "地域密着型通所介護",
    "capacity": 10,
    "openDays": [
      "平日"
    ],
    "openDaysNote": "指定地域密着型通所介護の利用定員は、１単位１０名とする。（介護予防・日常生活支援総合事業の利用定員を含む）（改行）１単位目：１０名　サービス提供時間　午前９：００～１２：１５（改行）２単位目：１０名　サービス提供時間　午後１３：３０～１６：４５"
  },
  {
    "id": "2271300416",
    "name": "倶楽部デスポルチクラップス",
    "kana": "クラブデスポルチクラップス",
    "address": "静岡県駿東郡清水町的場147-1",
    "lat": 35.0886693,
    "lng": 138.9082642,
    "tel": "055-960-9030",
    "url": "http://www.club-desporte.com",
    "pref": "静岡県",
    "city": "清水町",
    "category": "community_day_service",
    "serviceType": "地域密着型通所介護",
    "capacity": 0,
    "openDays": [
      "平日"
    ],
    "openDaysNote": ""
  },
  {
    "id": "2271300119",
    "name": "通所介護しおん",
    "kana": "ツウショカイゴシオン",
    "address": "駿東郡清水町徳倉405-6",
    "lat": 35.0820782491945,
    "lng": 138.897807053195,
    "tel": "055-935-6665",
    "url": "http://www.yuuwakai-k.com",
    "pref": "静岡県",
    "city": "清水町",
    "category": "community_day_service",
    "serviceType": "地域密着型通所介護",
    "capacity": 0,
    "openDays": [
      "平日",
      "土曜日",
      "祝日"
    ],
    "openDaysNote": ""
  },
  {
    "id": "2270100379",
    "name": "R.Yデイリハビリセンター",
    "kana": "アールワイデイリハビリセンター",
    "address": "静岡県賀茂郡西伊豆町仁科521-1",
    "lat": 34.7677792,
    "lng": 138.7792367,
    "tel": "0558-52-1322",
    "url": "https://tanagokoro.site/",
    "pref": "静岡県",
    "city": "西伊豆町",
    "category": "community_day_service",
    "serviceType": "地域密着型通所介護",
    "capacity": 20,
    "openDays": [
      "平日",
      "土曜日",
      "祝日"
    ],
    "openDaysNote": ""
  },
  {
    "id": "2290100060",
    "name": "ヒストリア",
    "kana": "ヒストリア",
    "address": "静岡県賀茂郡西伊豆町仁科202-1",
    "lat": 34.7703668037972,
    "lng": 138.779353921496,
    "tel": "0558-36-4957",
    "url": "http://www.richfield.co.jp/index.html",
    "pref": "静岡県",
    "city": "西伊豆町",
    "category": "community_day_service",
    "serviceType": "地域密着型通所介護",
    "capacity": 0,
    "openDays": [
      "平日",
      "土曜日",
      "日曜日",
      "祝日"
    ],
    "openDaysNote": ""
  },
  {
    "id": "2270100114",
    "name": "みんなの家",
    "kana": "ミンナノイエ",
    "address": "静岡県賀茂郡西伊豆町中７４５－３",
    "lat": 34.7745955,
    "lng": 138.7821418,
    "tel": "0558-52-4730",
    "url": "http://rakutabist.com/",
    "pref": "静岡県",
    "city": "西伊豆町",
    "category": "community_day_service",
    "serviceType": "地域密着型通所介護",
    "capacity": 0,
    "openDays": [
      "平日",
      "土曜日",
      "日曜日",
      "祝日"
    ],
    "openDaysNote": "年末年始に6日程度休業します。また、職員の研修などのために臨時に休業する場合があります。"
  },
  {
    "id": "2270100759",
    "name": "寄り場",
    "kana": "ヨリバ",
    "address": "静岡県賀茂郡西伊豆町宇久須３１２番地１",
    "lat": 34.846956,
    "lng": 138.774487,
    "tel": "０５５８－５５－０５５５",
    "url": "",
    "pref": "静岡県",
    "city": "西伊豆町",
    "category": "community_day_service",
    "serviceType": "地域密着型通所介護",
    "capacity": 0,
    "openDays": [
      "平日",
      "日曜日",
      "祝日"
    ],
    "openDaysNote": ""
  },
  {
    "id": "2274207204",
    "name": "(株)少人数個別対応デイ・いずみ静岡",
    "kana": "カブ）ショウニンズウコベツタイオウデイ・イズミシズオカ",
    "address": "静岡県静岡市葵区西千代田町１２番５号",
    "lat": 34.9886271,
    "lng": 138.3899585,
    "tel": "０５４－２４６－７００８",
    "url": "",
    "pref": "静岡県",
    "city": "静岡市葵区",
    "category": "community_day_service",
    "serviceType": "地域密着型通所介護",
    "capacity": 0,
    "openDays": [
      "平日"
    ],
    "openDaysNote": ""
  },
  {
    "id": "2274205547",
    "name": "（株）昭和の家",
    "kana": "カブシキガイシャ　ショウワノイエ",
    "address": "北5丁目29-25",
    "lat": 35.0379398218123,
    "lng": 138.398584307578,
    "tel": "054-294-8639",
    "url": "",
    "pref": "静岡県",
    "city": "静岡市葵区",
    "category": "community_day_service",
    "serviceType": "地域密着型通所介護",
    "capacity": 5,
    "openDays": [
      "平日",
      "祝日"
    ],
    "openDaysNote": ""
  },
  {
    "id": "2274201835",
    "name": "あいふれんどデイサービスセンター",
    "kana": "アイフレンドデイサービスセンター",
    "address": "静岡県静岡市葵区牛妻２６７９",
    "lat": 35.0740497,
    "lng": 138.3744834,
    "tel": "054-294-0043",
    "url": "http://care-net.biz/22/ai-friend-care/",
    "pref": "静岡県",
    "city": "静岡市葵区",
    "category": "community_day_service",
    "serviceType": "地域密着型通所介護",
    "capacity": 18,
    "openDays": [
      "平日",
      "祝日"
    ],
    "openDaysNote": "サービス提供時間は９：００～１６：０５（帰宅時間の延長対応は相談に応じます。）"
  },
  {
    "id": "2274101019",
    "name": "いきいきデイサービス　喜楽庭",
    "kana": "イキイキデイサービス　キラクテイ",
    "address": "静岡市葵区長谷町２４",
    "lat": 34.9846692,
    "lng": 138.381415,
    "tel": "054-200-1517",
    "url": "http://ikiiki.canariya.net/",
    "pref": "静岡県",
    "city": "静岡市葵区",
    "category": "community_day_service",
    "serviceType": "地域密着型通所介護",
    "capacity": 15,
    "openDays": [
      "平日",
      "土曜日",
      "祝日"
    ],
    "openDaysNote": ""
  },
  {
    "id": "2294201997",
    "name": "きたえるーむ静岡北安東",
    "kana": "キタエルームシズオカキタアンドウ",
    "address": "静岡県静岡市葵区北安東二丁目28-10",
    "lat": 34.9983160985981,
    "lng": 138.385632789549,
    "tel": "054-395-6800",
    "url": "http://kitaeroom.com/",
    "pref": "静岡県",
    "city": "静岡市葵区",
    "category": "community_day_service",
    "serviceType": "地域密着型通所介護",
    "capacity": 10,
    "openDays": [
      "平日",
      "土曜日"
    ],
    "openDaysNote": ""
  },
  {
    "id": "2294202664",
    "name": "ココトレ",
    "kana": "ココトレ",
    "address": "静岡県静岡市葵区安東3丁目17－32",
    "lat": 34.9914668,
    "lng": 138.3827357,
    "tel": "054‐248-7201",
    "url": "",
    "pref": "静岡県",
    "city": "静岡市葵区",
    "category": "community_day_service",
    "serviceType": "地域密着型通所介護",
    "capacity": null,
    "openDays": [
      "平日"
    ],
    "openDaysNote": ""
  },
  {
    "id": "2294202219",
    "name": "シルバーフィットネス葵",
    "kana": "シルバーフィットネス　アオイ",
    "address": "静岡県静岡市葵区上足洗２－１１－５",
    "lat": 34.9926277,
    "lng": 138.3935164,
    "tel": "054-249-2828",
    "url": "",
    "pref": "静岡県",
    "city": "静岡市葵区",
    "category": "community_day_service",
    "serviceType": "地域密着型通所介護",
    "capacity": null,
    "openDays": [
      "平日",
      "祝日"
    ],
    "openDaysNote": "年末年始の休み：１２月３０日～１月３日"
  },
  {
    "id": "2294202771",
    "name": "スマートフィット",
    "kana": "スマートフィット",
    "address": "静岡県静岡市葵区宮ケ崎町23　コーポ宮ケ崎1階A",
    "lat": 34.9809180376196,
    "lng": 138.376633098148,
    "tel": "054ｰ204-5810",
    "url": "https://www.smart2022.jp/",
    "pref": "静岡県",
    "city": "静岡市葵区",
    "category": "community_day_service",
    "serviceType": "地域密着型通所介護",
    "capacity": 0,
    "openDays": [
      "平日"
    ],
    "openDaysNote": ""
  },
  {
    "id": "2294202862",
    "name": "デイサ－ビス・パ－ス美和",
    "kana": "デイサービスパースミワ",
    "address": "安倍口新田121－8",
    "lat": 35.0202133158343,
    "lng": 138.360144612303,
    "tel": "054-298-9450",
    "url": "",
    "pref": "静岡県",
    "city": "静岡市葵区",
    "category": "community_day_service",
    "serviceType": "地域密着型通所介護",
    "capacity": null,
    "openDays": [
      "平日",
      "土曜日",
      "祝日"
    ],
    "openDaysNote": ""
  },
  {
    "id": "2294202557",
    "name": "デイサ－ビス・パース",
    "kana": "デイサービスパース",
    "address": "静岡県静岡市葵区平和３ー８ー１４",
    "lat": 34.9940588,
    "lng": 138.368786,
    "tel": "054‐204-8979",
    "url": "http://hp.kaipoke.biz/zw6/",
    "pref": "静岡県",
    "city": "静岡市葵区",
    "category": "community_day_service",
    "serviceType": "地域密着型通所介護",
    "capacity": null,
    "openDays": [
      "平日",
      "土曜日"
    ],
    "openDaysNote": "12/30～1/3まで休み"
  },
  {
    "id": "2294202391",
    "name": "デイサービス　あやめ",
    "kana": "デイサービス　アヤメ",
    "address": "静岡県静岡市葵区瀬名2丁目２５－１１さつきハイツＡ１０２ さつきハイツＡ１０２",
    "lat": 35.0173415,
    "lng": 138.419369,
    "tel": "054-374-3400",
    "url": "https://dayayame.amebaownd.com/",
    "pref": "静岡県",
    "city": "静岡市葵区",
    "category": "community_day_service",
    "serviceType": "地域密着型通所介護",
    "capacity": 10,
    "openDays": [
      "平日",
      "祝日"
    ],
    "openDaysNote": ""
  },
  {
    "id": "2274206404",
    "name": "デイサービス　ウィズ",
    "kana": "デイサービス　ウィズ",
    "address": "千代田7-5-36",
    "lat": 35.0011178,
    "lng": 138.4056873,
    "tel": "054-297-3321",
    "url": "",
    "pref": "静岡県",
    "city": "静岡市葵区",
    "category": "community_day_service",
    "serviceType": "地域密着型通所介護",
    "capacity": 10,
    "openDays": [
      "平日"
    ],
    "openDaysNote": "祝日営業しております。"
  },
  {
    "id": "2274200464",
    "name": "デイサービス　かのん",
    "kana": "デイサービス　カノン",
    "address": "静岡県静岡市葵区相生町１０番３号",
    "lat": 34.9785034,
    "lng": 138.3929891,
    "tel": "054-247-7717",
    "url": "http://www.kanon.mn",
    "pref": "静岡県",
    "city": "静岡市葵区",
    "category": "community_day_service",
    "serviceType": "地域密着型通所介護",
    "capacity": 0,
    "openDays": [
      "平日",
      "祝日"
    ],
    "openDaysNote": ""
  },
  {
    "id": "2294202474",
    "name": "デイサービス　ききょう",
    "kana": "デイサービス　キキョウ",
    "address": "静岡県静岡市葵区安西5丁目108",
    "lat": 34.9764736,
    "lng": 138.3639152,
    "tel": "054-205-0011",
    "url": "http://hanauta-world.com/",
    "pref": "静岡県",
    "city": "静岡市葵区",
    "category": "community_day_service",
    "serviceType": "地域密着型通所介護",
    "capacity": 6,
    "openDays": [
      "平日"
    ],
    "openDaysNote": ""
  },
  {
    "id": "2294203043",
    "name": "デイサービス　だいふく",
    "kana": "デイサービス　ダイフク",
    "address": "静岡県静岡市葵区与一一丁目9-5",
    "lat": 35.0055396,
    "lng": 138.365806,
    "tel": "054-273-3018",
    "url": "",
    "pref": "静岡県",
    "city": "静岡市葵区",
    "category": "community_day_service",
    "serviceType": "地域密着型通所介護",
    "capacity": null,
    "openDays": [
      "平日",
      "土曜日",
      "祝日"
    ],
    "openDaysNote": "特に無し"
  },
  {
    "id": "2294202516",
    "name": "デイサービス　タイム・スポットクラブ",
    "kana": "デイサービス　タイム・スポットクラブ",
    "address": "静岡県静岡市葵区与一一丁目8-8",
    "lat": 35.0051871,
    "lng": 138.3657197,
    "tel": "054-266-4388",
    "url": "",
    "pref": "静岡県",
    "city": "静岡市葵区",
    "category": "community_day_service",
    "serviceType": "地域密着型通所介護",
    "capacity": null,
    "openDays": [
      "平日",
      "土曜日"
    ],
    "openDaysNote": ""
  },
  {
    "id": "2274204714",
    "name": "デイサービス　リリーベル",
    "kana": "デイサービス　リリーベル",
    "address": "瀬名一丁目１５番４０号",
    "lat": 35.0138223,
    "lng": 138.4225218,
    "tel": "054-264-2272",
    "url": "",
    "pref": "静岡県",
    "city": "静岡市葵区",
    "category": "community_day_service",
    "serviceType": "地域密着型通所介護",
    "capacity": 18,
    "openDays": [
      "平日",
      "土曜日",
      "祝日"
    ],
    "openDaysNote": ""
  },
  {
    "id": "2274204219",
    "name": "デイサービスあゆみ",
    "kana": "デイサービスアユミ",
    "address": "静岡市葵区安西５丁目１０８番地",
    "lat": 34.9764758,
    "lng": 138.3639168,
    "tel": "054-205-0011",
    "url": "https://shizuoka-carestyle.net/ayumi/",
    "pref": "静岡県",
    "city": "静岡市葵区",
    "category": "community_day_service",
    "serviceType": "地域密着型通所介護",
    "capacity": 5,
    "openDays": [
      "平日",
      "祝日"
    ],
    "openDaysNote": "サービス提供時間9：40～16：50（改行）月～金は祝日も営業（年末年始を除く）"
  },
  {
    "id": "2294202326",
    "name": "デイサービスセンター　たまち",
    "kana": "デイサービスセンター　タマチ",
    "address": "田町４丁目４５番地",
    "lat": 34.969579,
    "lng": 138.367228,
    "tel": "054-253-3248",
    "url": "",
    "pref": "静岡県",
    "city": "静岡市葵区",
    "category": "community_day_service",
    "serviceType": "地域密着型通所介護",
    "capacity": 10,
    "openDays": [
      "平日",
      "土曜日",
      "祝日"
    ],
    "openDaysNote": "5月のゴールデンウイークや８月のお盆休みも営業しています。"
  },
  {
    "id": "2274203930",
    "name": "デイサービスセンター　ふくみみ",
    "kana": "デイサービスセンター　フクミミ",
    "address": "静岡市葵区片羽町５５－１０",
    "lat": 34.9830861,
    "lng": 138.3731046,
    "tel": "054-275-1330",
    "url": "",
    "pref": "静岡県",
    "city": "静岡市葵区",
    "category": "community_day_service",
    "serviceType": "地域密着型通所介護",
    "capacity": 10,
    "openDays": [
      "平日",
      "祝日"
    ],
    "openDaysNote": "ふくみみアミーゴは日曜休み。（改行）年末年始休みあり。"
  },
  {
    "id": "2274206727",
    "name": "デイサービスセンター　ふくみみアミーゴ",
    "kana": "デイサービスセンター　フクミミアミーゴ",
    "address": "静岡県静岡市葵区幸町11－2",
    "lat": 34.9700876,
    "lng": 138.372069,
    "tel": "054－266-6718",
    "url": "",
    "pref": "静岡県",
    "city": "静岡市葵区",
    "category": "community_day_service",
    "serviceType": "地域密着型通所介護",
    "capacity": 10,
    "openDays": [
      "平日",
      "土曜日",
      "祝日"
    ],
    "openDaysNote": ""
  },
  {
    "id": "2294201948",
    "name": "デイサービスセンターこだま",
    "kana": "デイサービスセンターコダマ",
    "address": "静岡県静岡市葵区富沢1542-46",
    "lat": 35.0203121,
    "lng": 138.2600582,
    "tel": "054-270-1711",
    "url": "http://www.surugakai.net/hikari-day/",
    "pref": "静岡県",
    "city": "静岡市葵区",
    "category": "community_day_service",
    "serviceType": "地域密着型通所介護",
    "capacity": 12,
    "openDays": [
      "平日",
      "土曜日",
      "祝日"
    ],
    "openDaysNote": ""
  },
  {
    "id": "2294202128",
    "name": "デイサービスセンターしずはた",
    "kana": "デイサービスセンターシズハタ",
    "address": "静岡市葵区俵沢１０９番地１複合施設しずはた 複合施設しずはた",
    "lat": 35.1082952,
    "lng": 138.3647055,
    "tel": "054-294-9021",
    "url": "https://www.shizuhata-aoikai.com/",
    "pref": "静岡県",
    "city": "静岡市葵区",
    "category": "community_day_service",
    "serviceType": "地域密着型通所介護",
    "capacity": 4,
    "openDays": [
      "平日",
      "祝日"
    ],
    "openDaysNote": "お盆期間（8月13日～15日）と年末年始（12月29日～1月3日）は休日"
  },
  {
    "id": "2294202201",
    "name": "デイサービスセンタープラス北",
    "kana": "デイサービスセンタープラスキタ",
    "address": "静岡県静岡市葵区北5-27-33",
    "lat": 35.0370904,
    "lng": 138.3971992,
    "tel": "054-207-7230",
    "url": "plus.sato@eas-co-ltd.com",
    "pref": "静岡県",
    "city": "静岡市葵区",
    "category": "community_day_service",
    "serviceType": "地域密着型通所介護",
    "capacity": null,
    "openDays": [
      "平日",
      "土曜日",
      "祝日"
    ],
    "openDaysNote": "年始は休業（1/1～1/3）"
  },
  {
    "id": "2274100219",
    "name": "デイサービスセンター嘉響",
    "kana": "デイサービスセンター　カキョウ",
    "address": "静岡市葵区富沢1542－39",
    "lat": 35.0197261,
    "lng": 138.2601749,
    "tel": "054-270-1210",
    "url": "http://www.surugakai.net/kakyou/",
    "pref": "静岡県",
    "city": "静岡市葵区",
    "category": "community_day_service",
    "serviceType": "地域密着型通所介護",
    "capacity": 18,
    "openDays": [
      "平日",
      "土曜日",
      "祝日"
    ],
    "openDaysNote": ""
  },
  {
    "id": "2274202569",
    "name": "デイサービスセンター百葉わらしな",
    "kana": "デイサービスセンターモモハワラシナ",
    "address": "静岡市葵区羽鳥6-25-11",
    "lat": 34.9871128,
    "lng": 138.3364584,
    "tel": "054-276-1234",
    "url": "http://www.koyama-gr.com/",
    "pref": "静岡県",
    "city": "静岡市葵区",
    "category": "community_day_service",
    "serviceType": "地域密着型通所介護",
    "capacity": 18,
    "openDays": [
      "平日",
      "土曜日",
      "祝日"
    ],
    "openDaysNote": "日曜日以外の祝日は原則営業"
  },
  {
    "id": "2294201690",
    "name": "デイサービスたんぽぽ",
    "kana": "デイサービスタンポポ",
    "address": "静岡県静岡市葵区紺屋町11-6チサンマンション201 チサンマンション201",
    "lat": 34.9716375,
    "lng": 138.3853206,
    "tel": "054-252-6679",
    "url": "http://www7b.biglobe.ne.jp/~d-tanpopo/",
    "pref": "静岡県",
    "city": "静岡市葵区",
    "category": "community_day_service",
    "serviceType": "地域密着型通所介護",
    "capacity": 0,
    "openDays": [
      "平日",
      "土曜日",
      "祝日"
    ],
    "openDaysNote": ""
  },
  {
    "id": "2294202243",
    "name": "デイサービスつぐみ新伝馬",
    "kana": "デイサービスツグミシンテンマ",
    "address": "静岡県静岡市葵区新伝馬3丁目11番11号",
    "lat": 35.0007093,
    "lng": 138.3674615,
    "tel": "054-205-5016",
    "url": "https://tsugumi-shizuoka.jp",
    "pref": "静岡県",
    "city": "静岡市葵区",
    "category": "community_day_service",
    "serviceType": "地域密着型通所介護",
    "capacity": null,
    "openDays": [
      "平日"
    ],
    "openDaysNote": "・サービス利用の際は、介護保険者証を提示してください（改行）・ほかの利用者の迷惑になる行為はご遠慮ください（改行）・所持金は自己管理してください（改行）・事業所内の他の利用者に対する宗教活動や政治活動はご遠慮ください（改行）・事業所内の設備等は、本来の用途に従って使用してください"
  },
  {
    "id": "2274203443",
    "name": "デイサービス大岩の家",
    "kana": "デイサービスオオイワノイエ",
    "address": "静岡市葵区大岩町５－７",
    "lat": 34.9944875,
    "lng": 138.3785149,
    "tel": "054-248-6850",
    "url": "",
    "pref": "静岡県",
    "city": "静岡市葵区",
    "category": "community_day_service",
    "serviceType": "地域密着型通所介護",
    "capacity": 10,
    "openDays": [
      "平日",
      "土曜日",
      "日曜日",
      "祝日"
    ],
    "openDaysNote": ""
  },
  {
    "id": "2274205398",
    "name": "デイサービス池ヶ谷の家",
    "kana": "デイサービス　イケガヤノイエ",
    "address": "静岡市葵区池ヶ谷東6-13",
    "lat": 35.0055503,
    "lng": 138.3850745,
    "tel": "054-207-8545",
    "url": "",
    "pref": "静岡県",
    "city": "静岡市葵区",
    "category": "community_day_service",
    "serviceType": "地域密着型通所介護",
    "capacity": 10,
    "openDays": [
      "平日",
      "土曜日",
      "日曜日",
      "祝日"
    ],
    "openDaysNote": ""
  },
  {
    "id": "2274207022",
    "name": "デイサービス長寿乃家　大岩",
    "kana": "デイサービスチョウジュノイエ　オオイワ",
    "address": "静岡県静岡市葵区大岩町5-1",
    "lat": 34.9939412851495,
    "lng": 138.378264552744,
    "tel": "054-294-8676",
    "url": "http://choju-gr.com",
    "pref": "静岡県",
    "city": "静岡市葵区",
    "category": "community_day_service",
    "serviceType": "地域密着型通所介護",
    "capacity": 10,
    "openDays": [
      "平日",
      "土曜日",
      "日曜日",
      "祝日"
    ],
    "openDaysNote": ""
  },
  {
    "id": "2294202292",
    "name": "ディサービス天使の学園",
    "kana": "ディサービス　テンシノガクエン",
    "address": "静岡県静岡市葵区北安東5丁目50-18パル城北　１０4 パル城北　１０4",
    "lat": 35.0014437,
    "lng": 138.3917108,
    "tel": "054-245-2655",
    "url": "",
    "pref": "静岡県",
    "city": "静岡市葵区",
    "category": "community_day_service",
    "serviceType": "地域密着型通所介護",
    "capacity": null,
    "openDays": [
      "平日"
    ],
    "openDaysNote": ""
  },
  {
    "id": "2294202094",
    "name": "ひまわりの家",
    "kana": "ヒマワリノイエ",
    "address": "静岡県静岡市葵区丸山町12メゾンドブランシェ104 メゾンドブランシェ104",
    "lat": 34.9854608,
    "lng": 138.3763851,
    "tel": "（054）2456-002",
    "url": "",
    "pref": "静岡県",
    "city": "静岡市葵区",
    "category": "community_day_service",
    "serviceType": "地域密着型通所介護",
    "capacity": 0,
    "openDays": [
      "平日",
      "土曜日",
      "日曜日",
      "祝日"
    ],
    "openDaysNote": ""
  },
  {
    "id": "2274206115",
    "name": "ボンベルカーユ・デイ美穂の家",
    "kana": "ボンベルカーユデイミホノイエ",
    "address": "静岡県静岡市葵区沓谷1丁目20-8",
    "lat": 34.9853972,
    "lng": 138.3982384,
    "tel": "054-277-9239",
    "url": "http://mihonoie.net",
    "pref": "静岡県",
    "city": "静岡市葵区",
    "category": "community_day_service",
    "serviceType": "地域密着型通所介護",
    "capacity": 0,
    "openDays": [
      "平日",
      "土曜日",
      "日曜日",
      "祝日"
    ],
    "openDaysNote": ""
  },
  {
    "id": "2274203070",
    "name": "まつもとデイ・グループホーム　長沼",
    "kana": "マツモトデイ・グループホームナガヌマ",
    "address": "静岡市葵区長沼２丁目11-20",
    "lat": 34.9913525,
    "lng": 138.4145368,
    "tel": "054-267-2288",
    "url": "http://www.life-review.co.jp/",
    "pref": "静岡県",
    "city": "静岡市葵区",
    "category": "community_day_service",
    "serviceType": "地域密着型通所介護",
    "capacity": 10,
    "openDays": [
      "平日",
      "土曜日",
      "日曜日",
      "祝日"
    ],
    "openDaysNote": "年中無休"
  },
  {
    "id": "2294202854",
    "name": "リ・ボン俱楽部瀬名",
    "kana": "リ・ボンクラブセナ",
    "address": "静岡県静岡市葵区瀬名川２丁目３３－３３",
    "lat": 35.007300793882,
    "lng": 138.428036008598,
    "tel": "054-207-8570",
    "url": "https://yahiro-hd.com",
    "pref": "静岡県",
    "city": "静岡市葵区",
    "category": "community_day_service",
    "serviceType": "地域密着型通所介護",
    "capacity": null,
    "openDays": [
      "平日",
      "土曜日",
      "祝日"
    ],
    "openDaysNote": ""
  },
  {
    "id": "2274207683",
    "name": "リハケアアンダンテ",
    "kana": "リハケアアンダンテ",
    "address": "静岡県静岡市葵区沓谷１丁目12-11",
    "lat": 34.9870638,
    "lng": 138.4013437,
    "tel": "054-200-3131",
    "url": "http://www.cq-s.com",
    "pref": "静岡県",
    "city": "静岡市葵区",
    "category": "community_day_service",
    "serviceType": "地域密着型通所介護",
    "capacity": 18,
    "openDays": [
      "平日",
      "祝日"
    ],
    "openDaysNote": "年末年始（１２月３０日～１月３日）休日"
  },
  {
    "id": "2294203118",
    "name": "リハデイしんあい上足洗",
    "kana": "リハデイシンアイカミアシアライ",
    "address": "静岡県静岡市葵区上足洗2丁目11ｰ５",
    "lat": 34.9914603,
    "lng": 138.3934077,
    "tel": "054-249-2828",
    "url": "https://www.shinaiwel.com/",
    "pref": "静岡県",
    "city": "静岡市葵区",
    "category": "community_day_service",
    "serviceType": "地域密着型通所介護",
    "capacity": null,
    "openDays": [
      "平日"
    ],
    "openDaysNote": "サービス提供時間　　午前9:15～12:20　午後13:25～16:30"
  },
  {
    "id": "2294202763",
    "name": "リハビリデイ　内外同治　竜南",
    "kana": "リハビリデイ　ナイガイドウチ　リュウナン",
    "address": "静岡県静岡市葵区竜南1-6-5ヒルサイドテラス竜南１階 ヒルサイドテラス竜南１階",
    "lat": 34.9960884,
    "lng": 138.3967357,
    "tel": "054-297-3380",
    "url": "http://www.naigaidouchi.com",
    "pref": "静岡県",
    "city": "静岡市葵区",
    "category": "community_day_service",
    "serviceType": "地域密着型通所介護",
    "capacity": 0,
    "openDays": [
      "平日",
      "祝日"
    ],
    "openDaysNote": ""
  },
  {
    "id": "2274204623",
    "name": "リハビリデイサービスnagomi静岡葵店",
    "kana": "リハビリデイサービスナゴミシズオカアオイテン",
    "address": "静岡県静岡市葵区安西3丁目60－１尾崎ビル1F 尾崎ビル1F",
    "lat": 34.9784727,
    "lng": 138.3703411,
    "tel": "054-653-7800",
    "url": "http://www.my-nagomi.com/",
    "pref": "静岡県",
    "city": "静岡市葵区",
    "category": "community_day_service",
    "serviceType": "地域密着型通所介護",
    "capacity": 0,
    "openDays": [
      "平日",
      "祝日"
    ],
    "openDaysNote": ""
  },
  {
    "id": "2294203035",
    "name": "リハ特化型デイ　アイリス",
    "kana": "リハトッカガタデイ　アイリス",
    "address": "静岡県静岡市葵区相生町7-3メゾン相生　1階 メゾン相生　1階",
    "lat": 34.9780046,
    "lng": 138.3915932,
    "tel": "054-295-4920",
    "url": "https://sites.google.com/view/iris-2024/%E3%83%9B%E3%83%BC%E3%83%A0",
    "pref": "静岡県",
    "city": "静岡市葵区",
    "category": "community_day_service",
    "serviceType": "地域密着型通所介護",
    "capacity": 0,
    "openDays": [
      "平日",
      "祝日"
    ],
    "openDaysNote": "年末年始、その他休みあり。"
  },
  {
    "id": "2274207881",
    "name": "るりーるデイサービス",
    "kana": "ルリールデイサービス",
    "address": "静岡県静岡市葵区昭府1丁目19‐50",
    "lat": 34.998362,
    "lng": 138.3715932,
    "tel": "054‐273‐0397",
    "url": "",
    "pref": "静岡県",
    "city": "静岡市葵区",
    "category": "community_day_service",
    "serviceType": "地域密着型通所介護",
    "capacity": 10,
    "openDays": [
      "平日",
      "祝日"
    ],
    "openDaysNote": "年末年始（12月29日から1月3日まで）休み"
  },
  {
    "id": "2274206388",
    "name": "介護予防デイサービスセンター　ごろざ",
    "kana": "カイゴヨボウデイサービスセンター　ゴロザ",
    "address": "静岡市葵区山崎2丁目35-11",
    "lat": 34.9784587,
    "lng": 138.3505708,
    "tel": "054-659-5635",
    "url": "http://www.surugakai.net/goroza/index.html",
    "pref": "静岡県",
    "city": "静岡市葵区",
    "category": "community_day_service",
    "serviceType": "地域密着型通所介護",
    "capacity": 10,
    "openDays": [
      "平日",
      "土曜日",
      "祝日"
    ],
    "openDaysNote": ""
  },