[
  {
    "id": "3770600413",
    "name": "サマリヤ大川デイサービス",
    "kana": "サマリヤオオカワデイサービス",
    "address": "香川県さぬき市大川町田面1198",
    "lat": 34.2495412,
    "lng": 134.2639091,
    "tel": "0879-43-3191",
    "url": "http://www.samariya.or.jp/",
    "pref": "香川県",
    "city": "さぬき市",
    "category": "community_day_service",
    "serviceType": "地域密着型通所介護",
    "capacity": 10,
    "openDays": [
      "平日",
      "土曜日",
      "祝日"
    ],
    "openDaysNote": "営業時間内"
  },
  {
    "id": "3770600496",
    "name": "デイサービス　あじさい",
    "kana": "デイサービス　アジサイ",
    "address": "香川県さぬき市長尾名1126番地",
    "lat": 34.2368597,
    "lng": 134.1750483,
    "tel": "0879－52－5885",
    "url": "https://www.ajisai3yoshi.com",
    "pref": "香川県",
    "city": "さぬき市",
    "category": "community_day_service",
    "serviceType": "地域密着型通所介護",
    "capacity": 0,
    "openDays": [
      "平日",
      "土曜日",
      "祝日"
    ],
    "openDaysNote": ""
  },
  {
    "id": "3790600070",
    "name": "デイサービス　さぬき",
    "kana": "デイサービス　サヌキ",
    "address": "香川県さぬき市大川町富田西1598番地",
    "lat": 34.2610492,
    "lng": 134.2273856,
    "tel": "0879-43-6801",
    "url": "",
    "pref": "香川県",
    "city": "さぬき市",
    "category": "community_day_service",
    "serviceType": "地域密着型通所介護",
    "capacity": 0,
    "openDays": [
      "平日",
      "土曜日",
      "祝日"
    ],
    "openDaysNote": "相談・必要に応じ、対応させて頂きます。"
  },
  {
    "id": "3770600736",
    "name": "デイサービス　ファインケア",
    "kana": "デイサービス　ファインケア",
    "address": "さぬき市志度2211-2",
    "lat": 34.3181823472799,
    "lng": 134.178246903819,
    "tel": "087-814-6146",
    "url": "",
    "pref": "香川県",
    "city": "さぬき市",
    "category": "community_day_service",
    "serviceType": "地域密着型通所介護",
    "capacity": 0,
    "openDays": [
      "平日",
      "祝日"
    ],
    "openDaysNote": ""
  },
  {
    "id": "3770600967",
    "name": "デイサービスこころ",
    "kana": "デイサービスココロ",
    "address": "香川県さぬき市大川町南川字一の瀬２１４番地１",
    "lat": 34.2537455840402,
    "lng": 134.235331663507,
    "tel": "0879-43-2712",
    "url": "",
    "pref": "香川県",
    "city": "さぬき市",
    "category": "community_day_service",
    "serviceType": "地域密着型通所介護",
    "capacity": 0,
    "openDays": [
      "平日",
      "祝日"
    ],
    "openDaysNote": "１２/３１～１/３は休業日です"
  },
  {
    "id": "3770600470",
    "name": "デイサービスセンター　あい",
    "kana": "デイサービスセンター　アイ",
    "address": "さぬき市大川町南川343-4",
    "lat": 34.2481689,
    "lng": 134.2339417,
    "tel": "0879-43-0105",
    "url": "https://toumei-hotaru.com",
    "pref": "香川県",
    "city": "さぬき市",
    "category": "community_day_service",
    "serviceType": "地域密着型通所介護",
    "capacity": 10,
    "openDays": [
      "平日",
      "土曜日",
      "祝日"
    ],
    "openDaysNote": "-"
  },
  {
    "id": "3770600561",
    "name": "デイサービスセンターゆらく",
    "kana": "デイサービスセンターユラク",
    "address": "香川県さぬき市大川町富田西２５８１番地",
    "lat": 34.2645836,
    "lng": 134.2233726,
    "tel": "0879-43-0305",
    "url": "www.day-yuraku.com",
    "pref": "香川県",
    "city": "さぬき市",
    "category": "community_day_service",
    "serviceType": "地域密着型通所介護",
    "capacity": 10,
    "openDays": [
      "平日",
      "土曜日",
      "日曜日",
      "祝日"
    ],
    "openDaysNote": "お正月休み１２月３１日~１月３日"
  },
  {
    "id": "3770601064",
    "name": "パレットハウスにしべり",
    "kana": "パレットハウスニシベリ",
    "address": "香川県さぬき市長尾東823番地１",
    "lat": 34.2660943,
    "lng": 134.1790192,
    "tel": "0879-49-1750",
    "url": "",
    "pref": "香川県",
    "city": "さぬき市",
    "category": "community_day_service",
    "serviceType": "地域密着型通所介護",
    "capacity": 10,
    "openDays": [
      "平日",
      "土曜日",
      "祝日"
    ],
    "openDaysNote": ""
  },
  {
    "id": "3770600546",
    "name": "脳機能リハビリセンター　かがわ",
    "kana": "ノウキノウリハビリセンター　カガワ",
    "address": "香川県さぬき市昭和１１０７－１",
    "lat": 34.248605,
    "lng": 134.163027,
    "tel": "０８７９－２３－６７８９",
    "url": "www.sanga-noukinou.com/",
    "pref": "香川県",
    "city": "さぬき市",
    "category": "community_day_service",
    "serviceType": "地域密着型通所介護",
    "capacity": 0,
    "openDays": [
      "平日",
      "土曜日",
      "祝日"
    ],
    "openDaysNote": ""
  },
  {
    "id": "3770600520",
    "name": "有情くらぶ",
    "kana": "ウジョウクラブ",
    "address": "香川県さぬき市大川町田面７１－１",
    "lat": 34.2579678,
    "lng": 134.2508237,
    "tel": "0879-43-6882",
    "url": "",
    "pref": "香川県",
    "city": "さぬき市",
    "category": "community_day_service",
    "serviceType": "地域密着型通所介護",
    "capacity": 0,
    "openDays": [
      "平日",
      "日曜日",
      "祝日"
    ],
    "openDaysNote": "営業日は、月・火・水・木・金・日・祝日（但し、日・祝日は月２回開催）"
  },
  {
    "id": "3771600966",
    "name": "デイサービスセンター　よりあい",
    "kana": "デイサービスセンター　ヨリアイ",
    "address": "香川県仲多度郡まんのう町東高篠285-1",
    "lat": 34.2155173,
    "lng": 133.8288267,
    "tel": "0877-58-8755",
    "url": "http:www.seiyukai.jp",
    "pref": "香川県",
    "city": "まんのう町",
    "category": "community_day_service",
    "serviceType": "地域密着型通所介護",
    "capacity": null,
    "openDays": [
      "平日",
      "祝日"
    ],
    "openDaysNote": ""
  },
  {
    "id": "3771600412",
    "name": "通所介護　百百の家",
    "kana": "ツウショカイゴ　モモノイエ",
    "address": "香川県仲多度郡まんのう町四條７７７番地",
    "lat": 34.1956387077979,
    "lng": 133.837046369975,
    "tel": "0877-75-2373",
    "url": "http://www.oguni.or.jp/",
    "pref": "香川県",
    "city": "まんのう町",
    "category": "community_day_service",
    "serviceType": "地域密着型通所介護",
    "capacity": 0,
    "openDays": [
      "平日"
    ],
    "openDaysNote": "-"
  },
  {
    "id": "3771501214",
    "name": "デイサービス　一合一笑　滝宮",
    "kana": "デイサービス　イチゴイチエ　タキノミヤ",
    "address": "滝宮1639-1",
    "lat": 34.2525014,
    "lng": 133.9157293,
    "tel": "087-813-7601",
    "url": "http//first-smile.jp",
    "pref": "香川県",
    "city": "綾川町",
    "category": "community_day_service",
    "serviceType": "地域密着型通所介護",
    "capacity": 0,
    "openDays": [
      "平日",
      "土曜日"
    ],
    "openDaysNote": "年末年始、お盆休みあり"
  },
  {
    "id": "3791500055",
    "name": "はるちゃん家",
    "kana": "ハルチャンチ",
    "address": "香川県綾歌郡綾川町畑田12‐2",
    "lat": 34.2654653,
    "lng": 133.9840269,
    "tel": "087‐802-9668",
    "url": "",
    "pref": "香川県",
    "city": "綾川町",
    "category": "community_day_service",
    "serviceType": "地域密着型通所介護",
    "capacity": 0,
    "openDays": [
      "平日"
    ],
    "openDaysNote": ""
  },
  {
    "id": "3790500205",
    "name": "デイサービスアヤメ",
    "kana": "デイサービスアヤメ",
    "address": "香川県観音寺市大野原町花稲366番地",
    "lat": 34.0934069,
    "lng": 133.6418639,
    "tel": "0875-24-8741",
    "url": "",
    "pref": "香川県",
    "city": "観音寺市",
    "category": "community_day_service",
    "serviceType": "地域密着型通所介護",
    "capacity": null,
    "openDays": [
      "平日",
      "土曜日"
    ],
    "openDaysNote": "積雪や台風等災害の場合は休業することがあります。"
  },
  {
    "id": "3770500548",
    "name": "デイサービスいしかわ",
    "kana": "デイサービスイシカワ",
    "address": "香川県観音寺市大野原町大野原４５９６番地",
    "lat": 34.0892876,
    "lng": 133.6510685,
    "tel": "0875-52-1850",
    "url": "http://dayishikawa.jp",
    "pref": "香川県",
    "city": "観音寺市",
    "category": "community_day_service",
    "serviceType": "地域密着型通所介護",
    "capacity": 14,
    "openDays": [
      "平日"
    ],
    "openDaysNote": "上記以外に、夏季休暇・年末年始休暇あり。"
  },
  {
    "id": "3770500654",
    "name": "デイサービスセンター　LEAF",
    "kana": "デイサービスセンター　リーフ",
    "address": "香川県観音寺市植田町608番地3",
    "lat": 34.1252510889249,
    "lng": 133.679756978525,
    "tel": "0875-56-0013",
    "url": "ds-leaf.com",
    "pref": "香川県",
    "city": "観音寺市",
    "category": "community_day_service",
    "serviceType": "地域密着型通所介護",
    "capacity": null,
    "openDays": [
      "平日",
      "土曜日",
      "祝日"
    ],
    "openDaysNote": "8/13～8/15（改行）12/30～1/3"
  },
  {
    "id": "3790500163",
    "name": "デイサービスセンターとよはま荘",
    "kana": "デイサービスセンタートヨハマソウ",
    "address": "香川県観音寺市豊浜町和田浜1575-1",
    "lat": 34.0711231,
    "lng": 133.6367176,
    "tel": "0875-52-3488",
    "url": "",
    "pref": "香川県",
    "city": "観音寺市",
    "category": "community_day_service",
    "serviceType": "地域密着型通所介護",
    "capacity": 0,
    "openDays": [
      "平日",
      "土曜日",
      "祝日"
    ],
    "openDaysNote": ""
  },
  {
    "id": "3770500670",
    "name": "デイサービスセンターはあとおん・きらめき",
    "kana": "デイサービスセンターハアトオンキラメキ",
    "address": "香川県観音寺市植田町1400番地",
    "lat": 34.1232030564741,
    "lng": 133.671299282803,
    "tel": "0875-24-8008",
    "url": "http://mig-hearton.com/",
    "pref": "香川県",
    "city": "観音寺市",
    "category": "community_day_service",
    "serviceType": "地域密着型通所介護",
    "capacity": 0,
    "openDays": [
      "平日",
      "土曜日",
      "祝日"
    ],
    "openDaysNote": ""
  },
  {
    "id": "3790500155",
    "name": "にこにこ観音寺デイサービス",
    "kana": "ニコニコカンオンジデイサービス",
    "address": "香川県観音寺市室本町１３２５－５８－２",
    "lat": 34.1569818,
    "lng": 133.6458065,
    "tel": "0875-23-0520",
    "url": "",
    "pref": "香川県",
    "city": "観音寺市",
    "category": "community_day_service",
    "serviceType": "地域密着型通所介護",
    "capacity": 10,
    "openDays": [
      "平日",
      "土曜日",
      "祝日"
    ],
    "openDaysNote": ""
  },
  {
    "id": "3770500571",
    "name": "ひまわりの家デイサービス",
    "kana": "ヒマワリノイエデイサービス",
    "address": "香川県観音寺市原町字上岡721番3",
    "lat": 34.1089437434362,
    "lng": 133.710031198239,
    "tel": "0875-67-5582",
    "url": "",
    "pref": "香川県",
    "city": "観音寺市",
    "category": "community_day_service",
    "serviceType": "地域密着型通所介護",
    "capacity": 10,
    "openDays": [
      "平日",
      "土曜日",
      "日曜日",
      "祝日"
    ],
    "openDaysNote": "積雪、台風等の災害時は緊急休業の可能性あり"
  },
  {
    "id": "3790500189",
    "name": "リハビリステーション華蓮",
    "kana": "リハビリステーションカレン",
    "address": "香川県観音寺市池之尻町1025番地1",
    "lat": 34.1113211004975,
    "lng": 133.691437107664,
    "tel": "0875-23-6128",
    "url": "http://activevision.co.jp/",
    "pref": "香川県",
    "city": "観音寺市",
    "category": "community_day_service",
    "serviceType": "地域密着型通所介護",
    "capacity": null,
    "openDays": [
      "平日",
      "土曜日"
    ],
    "openDaysNote": ""
  },
  {
    "id": "3770500191",
    "name": "松井病院デイサービスセンター",
    "kana": "マツイビョウインデイサービスセンター",
    "address": "香川県観音寺市村黒町750番地",
    "lat": 34.1329518,
    "lng": 133.6660723,
    "tel": "0875-23-2311",
    "url": "",
    "pref": "香川県",
    "city": "観音寺市",
    "category": "community_day_service",
    "serviceType": "地域密着型通所介護",
    "capacity": 0,
    "openDays": [
      "平日",
      "土曜日"
    ],
    "openDaysNote": "-"
  },
  {
    "id": "3770201469",
    "name": "NPO法人こかげ　一の風デイサービスセンター",
    "kana": "イチノカゼデイサービスセンター",
    "address": "香川県丸亀市通町52-6",
    "lat": 34.2900027801607,
    "lng": 133.796534015956,
    "tel": "0877-22-5500",
    "url": "http://wwwe.pikara.ne.jp/kokage/",
    "pref": "香川県",
    "city": "丸亀市",
    "category": "community_day_service",
    "serviceType": "地域密着型通所介護",
    "capacity": null,
    "openDays": [
      "平日",
      "土曜日"
    ],
    "openDaysNote": "祝日は営業（改行）ただし、8月14・15、12月31～1月3日は休業日"
  },
  {
    "id": "3770200313",
    "name": "シャロームデイセンター",
    "kana": "シャロームデイセンター",
    "address": "丸亀市垂水町１６－５０",
    "lat": 34.2212752,
    "lng": 133.8362761,
    "tel": "0877-28-1303",
    "url": "",
    "pref": "香川県",
    "city": "丸亀市",
    "category": "community_day_service",
    "serviceType": "地域密着型通所介護",
    "capacity": 0,
    "openDays": [
      "平日",
      "土曜日",
      "祝日"
    ],
    "openDaysNote": "警報等が発令された場合、事業を中止することがある。"
  },
  {
    "id": "3770200974",
    "name": "チャペルデイセンター",
    "kana": "チャペルデイセンター",
    "address": "丸亀市垂水町１９－２",
    "lat": 34.2220252675382,
    "lng": 133.835837602377,
    "tel": "0877-28-1320",
    "url": "",
    "pref": "香川県",
    "city": "丸亀市",
    "category": "community_day_service",
    "serviceType": "地域密着型通所介護",
    "capacity": 0,
    "openDays": [
      "平日",
      "祝日"
    ],
    "openDaysNote": "警報等が発令された場合、事業を中止することがある。"
  },
  {
    "id": "3790200236",
    "name": "デイサービス　くりくま",
    "kana": "デイサービス　クリクマ",
    "address": "香川県丸亀市綾歌町栗熊東782番地特別養護老人ホーム　宝樹リノ4階 特別養護老人ホーム　宝樹リノ4階",
    "lat": 34.2372514,
    "lng": 133.8875271,
    "tel": "0877-86-1222",
    "url": "http:/www.houjuen-aonoyama.jp",
    "pref": "香川県",
    "city": "丸亀市",
    "category": "community_day_service",
    "serviceType": "地域密着型通所介護",
    "capacity": 15,
    "openDays": [
      "平日",
      "祝日"
    ],
    "openDaysNote": "天災などにより、市などの指示及び法人代表の判断により危険と思われる時は、利用日であっても中止するときもある。"
  },
  {
    "id": "3770201568",
    "name": "デイサービス　たいよう",
    "kana": "デイサービス　タイヨウ",
    "address": "香川県丸亀市飯山町東坂元4120番地10",
    "lat": 34.2762665815939,
    "lng": 133.858391282087,
    "tel": "0877-98-3498",
    "url": "http://www.nonohana2019.com/",
    "pref": "香川県",
    "city": "丸亀市",
    "category": "community_day_service",
    "serviceType": "地域密着型通所介護",
    "capacity": 10,
    "openDays": [
      "平日",
      "祝日"
    ],
    "openDaysNote": "１２⽉２９⽇〜１⽉３⽇年末年始休み（事業所のメンテナンスが必要なときはお休みとなる）新型コロナウイルス感染拡大防止のため、提供日数・提供時間を短縮することがあります。"
  },
  {
    "id": "3770201626",
    "name": "デイサービス　和音",
    "kana": "デイサービス　ワオン",
    "address": "香川県丸亀市中津町296-2",
    "lat": 34.2800208,
    "lng": 133.7698864,
    "tel": "0877-55-5896",
    "url": "http://day-waon.jimdo.com/",
    "pref": "香川県",
    "city": "丸亀市",
    "category": "community_day_service",
    "serviceType": "地域密着型通所介護",
    "capacity": 0,
    "openDays": [
      "平日"
    ],
    "openDaysNote": "留意事項：8月13日～8月15日12月29日～1月3日（改行）及び事業所が特に定めた日は休日"
  },
  {
    "id": "3770200842",
    "name": "デイサービス「アニメイト」",
    "kana": "デイサービス「アニメイト」",
    "address": "丸亀市今津町739-6",
    "lat": 34.282718,
    "lng": 133.7831212,
    "tel": "0877-24-6301",
    "url": "",
    "pref": "香川県",
    "city": "丸亀市",
    "category": "community_day_service",
    "serviceType": "地域密着型通所介護",
    "capacity": 0,
    "openDays": [
      "平日",
      "土曜日",
      "祝日"
    ],
    "openDaysNote": "年末12月30日から年始1月3日までは休日とする。"
  },
  {
    "id": "3770201600",
    "name": "デイサービスセンターだん",
    "kana": "デイサービスセンターダン",
    "address": "香川県丸亀市川西町北1222-3",
    "lat": 34.2677144,
    "lng": 133.8195564,
    "tel": "0877-35-8286",
    "url": "https://www.hide-dan.com",
    "pref": "香川県",
    "city": "丸亀市",
    "category": "community_day_service",
    "serviceType": "地域密着型通所介護",
    "capacity": 10,
    "openDays": [
      "平日",
      "祝日"
    ],
    "openDaysNote": "年末年始は休み"
  },
  {
    "id": "3790200392",
    "name": "デイサービスたいよう",
    "kana": "デイサービス　タイヨウ",
    "address": "香川県丸亀市飯山町東坂元4120-10",
    "lat": 34.2762402,
    "lng": 133.8583849,
    "tel": "0877-98-3498",
    "url": "",
    "pref": "香川県",
    "city": "丸亀市",
    "category": "community_day_service",
    "serviceType": "地域密着型通所介護",
    "capacity": 10,
    "openDays": [
      "平日",
      "祝日"
    ],
    "openDaysNote": ""
  },
  {
    "id": "3790200384",
    "name": "デイサービス音色",
    "kana": "デイサービスネイロ",
    "address": "香川県丸亀市川西町北828番地1",
    "lat": 34.2664525,
    "lng": 133.8189593,
    "tel": "0877-89-6822",
    "url": "http://hp.kaipoke.biz/pky/",
    "pref": "香川県",
    "city": "丸亀市",
    "category": "community_day_service",
    "serviceType": "地域密着型通所介護",
    "capacity": 0,
    "openDays": [
      "平日"
    ],
    "openDaysNote": ""
  },
  {
    "id": "3790200285",
    "name": "デイサービス京極の里",
    "kana": "デイサービスキョウゴクノサト",
    "address": "香川県丸亀市田村町1286番地1",
    "lat": 34.2662396,
    "lng": 133.7944329,
    "tel": "877255556",
    "url": "",
    "pref": "香川県",
    "city": "丸亀市",
    "category": "community_day_service",
    "serviceType": "地域密着型通所介護",
    "capacity": null,
    "openDays": [
      "平日",
      "土曜日"
    ],
    "openDaysNote": "８/１３～８/１５　１２/２９～１/３は休業日"
  },
  {
    "id": "3790200335",
    "name": "なでしこまるがめデイサービス",
    "kana": "ナデシコマルガメツウショカイゴ",
    "address": "香川県丸亀市田村町1343番地",
    "lat": 34.2662396,
    "lng": 133.7944329,
    "tel": "0877-58-2378",
    "url": "https://care-nadeshiko.jp",
    "pref": "香川県",
    "city": "丸亀市",
    "category": "community_day_service",
    "serviceType": "地域密着型通所介護",
    "capacity": 0,
    "openDays": [
      "平日",
      "祝日"
    ],
    "openDaysNote": "気象庁が発令する警報があれば、基本は中止ですが、念の為ご一報お願い申し上げます。"
  },
  {
    "id": "3790200269",
    "name": "フィットネスデイサービス　ファンデイズ・丸亀",
    "kana": "フィットネスデイサービス　ファンデイズ・マルガメ",
    "address": "川西町南１２８０番地１（フジグラン丸亀内） （フジグラン丸亀内）",
    "lat": 34.2404174,
    "lng": 133.8357452,
    "tel": "０８７７－５８－６３５８",
    "url": "http://www.fundays358.com",
    "pref": "香川県",
    "city": "丸亀市",
    "category": "community_day_service",
    "serviceType": "地域密着型通所介護",
    "capacity": 0,
    "openDays": [
      "平日"
    ],
    "openDaysNote": ""
  },
  {
    "id": "3790200426",
    "name": "フィットネスデイサービス　ファンデイズ・丸亀",
    "kana": "フィットネスデイサービス　ファンデイズ・マルガメ",
    "address": "香川県丸亀市川西町南１２８０番地１フジグラン丸亀内 フジグラン丸亀内",
    "lat": 34.2412510173583,
    "lng": 133.83533275031,
    "tel": "０８７７－５８－６３５８",
    "url": "",
    "pref": "香川県",
    "city": "丸亀市",
    "category": "community_day_service",
    "serviceType": "地域密着型通所介護",
    "capacity": null,
    "openDays": [
      "平日"
    ],
    "openDaysNote": "お盆　　：１１日～１５日（改行）年末年始：２９日～　３日"
  },
  {
    "id": "3790200327",
    "name": "ほねつぎデイサービス丸亀",
    "kana": "ホネツギデイサービスマルガメ",
    "address": "香川県丸亀市郡家町2509-1",
    "lat": 34.2572031436239,
    "lng": 133.812050190178,
    "tel": "0877-89-5492",
    "url": "https://www.honetsugi-kaigo.com/service/",
    "pref": "香川県",
    "city": "丸亀市",
    "category": "community_day_service",
    "serviceType": "地域密着型通所介護",
    "capacity": 18,
    "openDays": [
      "平日",
      "祝日"
    ],
    "openDaysNote": "ただし、夏季（８月１３日から８月１５日）、年末年始（１２月３１日から１月３日）は休業とする"
  },
  {
    "id": "3770201048",
    "name": "ゆうなぎデイサービス",
    "kana": "ユウナギデイサービス",
    "address": "丸亀市飯山町西坂元1206番地12",
    "lat": 34.258496,
    "lng": 133.8360861,
    "tel": "0877-56-8240",
    "url": "",
    "pref": "香川県",
    "city": "丸亀市",
    "category": "community_day_service",
    "serviceType": "地域密着型通所介護",
    "capacity": 17,
    "openDays": [
      "平日",
      "土曜日",
      "祝日"
    ],
    "openDaysNote": "年末年始（12月30日～1月3日）お休み"
  },
  {
    "id": "3790200418",
    "name": "ライフサポーターいしかわ丸亀",
    "kana": "ライフサポーターイシカワマルガメ",
    "address": "香川県丸亀市土器町東三丁目531番地",
    "lat": 34.2912396,
    "lng": 133.8147199,
    "tel": "0877-43-7305",
    "url": "",
    "pref": "香川県",
    "city": "丸亀市",
    "category": "community_day_service",
    "serviceType": "地域密着型通所介護",
    "capacity": null,
    "openDays": [
      "平日"
    ],
    "openDaysNote": ""
  },
  {
    "id": "3790200244",
    "name": "レコードブック丸亀駅前",
    "kana": "レコードブックマルガメエキマエ",
    "address": "香川県丸亀市通町175-3",
    "lat": 34.2921392,
    "lng": 133.7942781,
    "tel": "0877-35-7818",
    "url": "https://jr-shikoku.recordbook.jp/facility.html",
    "pref": "香川県",
    "city": "丸亀市",
    "category": "community_day_service",
    "serviceType": "地域密着型通所介護",
    "capacity": 0,
    "openDays": [
      "平日",
      "祝日"
    ],
    "openDaysNote": ""
  },
  {
    "id": "3790200251",
    "name": "わかくさデイトレセンター丸亀",
    "kana": "ワカクサデイトレセンターマルガメ",
    "address": "香川県丸亀市中府町1-3-1",
    "lat": 34.2774861,
    "lng": 133.7972728,
    "tel": "0877-85-6787",
    "url": "",
    "pref": "香川県",
    "city": "丸亀市",
    "category": "community_day_service",
    "serviceType": "地域密着型通所介護",
    "capacity": 0,
    "openDays": [
      "平日"
    ],
    "openDaysNote": ""
  },
  {
    "id": "3770201667",
    "name": "通所介護　あい・あーるケアセンター",
    "kana": "アイ・アールケアセンター",
    "address": "香川県丸亀市飯山町西坂元1110-1",
    "lat": 34.2544493,
    "lng": 133.8390527,
    "tel": "0877-85-7412",
    "url": "http://activeai.main.jp/",
    "pref": "香川県",
    "city": "丸亀市",
    "category": "community_day_service",
    "serviceType": "地域密着型通所介護",
    "capacity": 18,
    "openDays": [
      "平日",
      "土曜日",
      "祝日"
    ],
    "openDaysNote": "正月三ヶ日以外の祝日営業"
  },
  {
    "id": "3790100527",
    "name": "IMCデイサービス下田井",
    "kana": "アイエムシーデイサービスシモタイ",
    "address": "香川県高松市下田井町80番地2",
    "lat": 34.2982175,
    "lng": 134.0910493,
    "tel": "087-813-2852",
    "url": "http://www.medicalpark-imc/com/coo",
    "pref": "香川県",
    "city": "高松市",
    "category": "community_day_service",
    "serviceType": "地域密着型通所介護",
    "capacity": 2,
    "openDays": [
      "平日",
      "祝日"
    ],
    "openDaysNote": ""
  },
  {
    "id": "3770107526",
    "name": "NPデイサービス　せとリハビリステーション",
    "kana": "エヌピーデイサービスセトリハビリステーション",
    "address": "香川県高松市木太町3222",
    "lat": 34.3333667,
    "lng": 134.0765582,
    "tel": "087-834-2702",
    "url": "http://www.np-medical.com",
    "pref": "香川県",
    "city": "高松市",
    "category": "community_day_service",
    "serviceType": "地域密着型通所介護",
    "capacity": 216,
    "openDays": [
      "平日",
      "土曜日"
    ],
    "openDaysNote": ""
  },
  {
    "id": "3790101228",
    "name": "NPデイサービス　せとリハビリステーション",
    "kana": "エヌピーデイサービス　セトリハビリステーション",
    "address": "木太町3222",
    "lat": 34.3334576300844,
    "lng": 134.076958778438,
    "tel": "087-834-2702",
    "url": "",
    "pref": "香川県",
    "city": "高松市",
    "category": "community_day_service",
    "serviceType": "地域密着型通所介護",
    "capacity": null,
    "openDays": [
      "平日",
      "土曜日"
    ],
    "openDaysNote": ""
  },
  {
    "id": "3770108433",
    "name": "ＮＰデイサービス　やしまリハビリステーション",
    "kana": "エヌピーデイサービス　ヤシマリハビリステーション",
    "address": "香川県高松市春日町片田1642番地1",
    "lat": 34.3398327419351,
    "lng": 134.09012341996,
    "tel": "087-843-9300",
    "url": "yashimareha@np-medical.com",
    "pref": "香川県",
    "city": "高松市",
    "category": "community_day_service",
    "serviceType": "地域密着型通所介護",
    "capacity": 36,
    "openDays": [
      "平日",
      "土曜日",
      "祝日"
    ],
    "openDaysNote": ""
  },
  {
    "id": "3790101236",
    "name": "NPデイサービス　やしまリハビリステーション",
    "kana": "エヌピーデイサービス　ヤシマリハビリステーション",
    "address": "香川県高松市春日町片田1642番地1",
    "lat": 34.339358,
    "lng": 134.0898809,
    "tel": "087-843-9300",
    "url": "",
    "pref": "香川県",
    "city": "高松市",
    "category": "community_day_service",
    "serviceType": "地域密着型通所介護",
    "capacity": 0,
    "openDays": [
      "平日"
    ],
    "openDaysNote": ""
  },
  {
    "id": "3790100394",
    "name": "PASリハビリセンターなごみ高松",
    "kana": "ピーエーエスリハビリセンターナゴミタカマツ",
    "address": "香川県高松市下田井町38番地4",
    "lat": 34.2999027663639,
    "lng": 134.093723863008,
    "tel": "087-880-3022",
    "url": "",
    "pref": "香川県",
    "city": "高松市",
    "category": "community_day_service",
    "serviceType": "地域密着型通所介護",
    "capacity": 10,
    "openDays": [
      "平日",
      "祝日"
    ],
    "openDaysNote": ""
  },
  {
    "id": "3790100485",
    "name": "アコルデイサービス",
    "kana": "アコルデイサービス",
    "address": "香川県高松市藤塚町1丁目13-7第3八十川ビル1階 第3八十川ビル1階",
    "lat": 34.3334479,
    "lng": 134.0479337,
    "tel": "087-899-5508",
    "url": "",
    "pref": "香川県",
    "city": "高松市",
    "category": "community_day_service",
    "serviceType": "地域密着型通所介護",
    "capacity": 0,
    "openDays": [
      "平日",
      "土曜日",
      "祝日"
    ],
    "openDaysNote": ""
  },
  {
    "id": "3770106361",
    "name": "アジア夕凪",
    "kana": "アジアユウナギ",
    "address": "香川県高松市林町1986番地1",
    "lat": 34.3075059,
    "lng": 134.0712546,
    "tel": "087-866-7701",
    "url": "https://yunagi-gr.com/asia/",
    "pref": "香川県",
    "city": "高松市",
    "category": "community_day_service",
    "serviceType": "地域密着型通所介護",
    "capacity": 10,
    "openDays": [
      "平日",
      "土曜日"
    ],
    "openDaysNote": ""
  },
  {
    "id": "3770108664",
    "name": "アルファデイサービスセンター紺屋町",
    "kana": "アルファデイサービスセンターコンヤマチ",
    "address": "香川県高松市紺屋町5-3",
    "lat": 34.3449849,
    "lng": 134.0460934,
    "tel": "087-802-2311",
    "url": "http://ｗｗｗ.anabuki-medical.jp",
    "pref": "香川県",
    "city": "高松市",
    "category": "community_day_service",
    "serviceType": "地域密着型通所介護",
    "capacity": 75,
    "openDays": [
      "平日",
      "祝日"
    ],
    "openDaysNote": "平日は9：00～12：15（改行）　　　13：00～16：15の提供となります。"
  },
  {
    "id": "3770108516",
    "name": "いきいきらいふSPA高松本町",
    "kana": "イキイキライフスパタカマツホンマチ",
    "address": "高松市本町10番26号",
    "lat": 34.3478515,
    "lng": 134.0542597,
    "tel": "087-811-5113",
    "url": "http://www.ikiiki-kagawa.jp/",
    "pref": "香川県",
    "city": "高松市",
    "category": "community_day_service",
    "serviceType": "地域密着型通所介護",
    "capacity": 22,
    "openDays": [
      "平日",
      "土曜日",
      "祝日"
    ],
    "openDaysNote": ""
  },
  {
    "id": "3790100972",
    "name": "きーまい新田",
    "kana": "キーマイシンデン",
    "address": "香川県高松市新田町甲879番地1",
    "lat": 34.3228929469257,
    "lng": 134.106495588109,
    "tel": "087-884-0678",
    "url": "http://hp.kaipoke.biz/u1d/",
    "pref": "香川県",
    "city": "高松市",
    "category": "community_day_service",
    "serviceType": "地域密着型通所介護",
    "capacity": 0,
    "openDays": [
      "平日"
    ],
    "openDaysNote": ""
  },
  {
    "id": "3790100626",
    "name": "きょう京錦にしき",
    "kana": "キョウニシキ",
    "address": "香川県高松市錦町2-6-13",
    "lat": 34.3469441,
    "lng": 134.0410157,
    "tel": "087-823-1350",
    "url": "http://www.kyounishiki.com/",
    "pref": "香川県",
    "city": "高松市",
    "category": "community_day_service",
    "serviceType": "地域密着型通所介護",
    "capacity": 18,
    "openDays": [
      "平日",
      "土曜日",
      "祝日"
    ],
    "openDaysNote": ""
  },
  {
    "id": "3790100436",
    "name": "クッキング夕凪",
    "kana": "クッキングユウナギ",
    "address": "林町1988番地17",
    "lat": 34.307919,
    "lng": 134.071571,
    "tel": "087-866－7070",
    "url": "http://yunagi-gr.com/cooking/",
    "pref": "香川県",
    "city": "高松市",
    "category": "community_day_service",
    "serviceType": "地域密着型通所介護",
    "capacity": null,
    "openDays": [
      "平日"
    ],
    "openDaysNote": ""
  },
  {
    "id": "3790101186",
    "name": "ケアサービス優悠",
    "kana": "ケアサービスユウユウ",
    "address": "香川県高松市三谷町487番地優悠サービス付き高齢者向け住宅 優悠サービス付き高齢者向け住宅",
    "lat": 34.2760921,
    "lng": 134.0722511,
    "tel": "087-802-7711",
    "url": "https：//yuyu.site",
    "pref": "香川県",
    "city": "高松市",
    "category": "community_day_service",
    "serviceType": "地域密着型通所介護",
    "capacity": null,
    "openDays": [
      "平日",
      "土曜日",
      "祝日"
    ],
    "openDaysNote": ""
  },
  {
    "id": "3770108748",
    "name": "さんごのおうち機能訓練型デイサービス",
    "kana": "サンゴノオウチキノウクンレンガタデイサービス",
    "address": "香川県高松市塩上町10番地5池商はせ川ビル２階 池商はせ川ビル２階",
    "lat": 34.3363635,
    "lng": 134.0508435,
    "tel": "087-834-0035",
    "url": "http://sangono-ouchi.com/",
    "pref": "香川県",
    "city": "高松市",
    "category": "community_day_service",
    "serviceType": "地域密着型通所介護",
    "capacity": 10,
    "openDays": [
      "平日",
      "祝日"
    ],
    "openDaysNote": "祝日の営業時間は平日とおなじとする　　　　　　　　　　　　　（改行）12月30日から1月3日は休みとする（12月30日以前、1月3日以降も土日の場合は休みとする。）"
  },
  {
    "id": "3770108284",
    "name": "さんさん浅野デイサービスセンター",
    "kana": "サンサンアサノデイサービスセンター",
    "address": "香川県高松市香川町浅野６６７番地１",
    "lat": 34.2610368582014,
    "lng": 134.037159773897,
    "tel": "087-888-1133",
    "url": "http://www.sansan-kai.com/",
    "pref": "香川県",
    "city": "高松市",
    "category": "community_day_service",
    "serviceType": "地域密着型通所介護",
    "capacity": 0,
    "openDays": [
      "平日",
      "土曜日",
      "祝日"
    ],
    "openDaysNote": ""
  },
  {
    "id": "3770105496",
    "name": "ステップ夕凪",
    "kana": "ステップユウナギ",
    "address": "香川県高松市林町1985番地7",
    "lat": 34.3069757,
    "lng": 134.0710317,
    "tel": "087ー866ー7300",
    "url": "https://yunagi-gr.com/",
    "pref": "香川県",
    "city": "高松市",
    "category": "community_day_service",
    "serviceType": "地域密着型通所介護",
    "capacity": 0,
    "openDays": [
      "平日",
      "土曜日"
    ],
    "openDaysNote": ""
  },
  {
    "id": "3790101038",
    "name": "デイサービス　オアシスＫ",
    "kana": "デイサービス　オアシスケイ",
    "address": "香川県高松市飯田町705番地",
    "lat": 34.3219379,
    "lng": 134.003614,
    "tel": "087-813-1234",
    "url": "",
    "pref": "香川県",
    "city": "高松市",
    "category": "community_day_service",
    "serviceType": "地域密着型通所介護",
    "capacity": 0,
    "openDays": [
      "平日",
      "土曜日",
      "祝日"
    ],
    "openDaysNote": ""
  },
  {
    "id": "3770106593",
    "name": "デイサービス　こもれび",
    "kana": "デイサービス　コモレビ",
    "address": "高松市牟礼町牟礼2120番地　1",
    "lat": 34.3430219374872,
    "lng": 134.126897101358,
    "tel": "087-814-5531",
    "url": "http://care-net.biz/37/wakaba/",
    "pref": "香川県",
    "city": "高松市",
    "category": "community_day_service",
    "serviceType": "地域密着型通所介護",
    "capacity": 10,
    "openDays": [
      "平日",
      "土曜日",
      "祝日"
    ],
    "openDaysNote": "ー"
  },
  {
    "id": "3770107559",
    "name": "デイサービス　サンテリハ",
    "kana": "デイサービス　サンテリハ",
    "address": "高松市今里町1-23-26",
    "lat": 34.3257924,
    "lng": 134.0570049,
    "tel": "087-837-0310",
    "url": "",
    "pref": "香川県",
    "city": "高松市",
    "category": "community_day_service",
    "serviceType": "地域密着型通所介護",
    "capacity": 0,
    "openDays": [
      "平日",
      "土曜日"
    ],
    "openDaysNote": ""
  },
  {
    "id": "3770105272",
    "name": "デイサービス　すいれん",
    "kana": "デイサービス　スイレン",
    "address": "高松市高松町3012番地19",
    "lat": 34.3388467,
    "lng": 134.1089962,
    "tel": "087-844-8666",
    "url": "",
    "pref": "香川県",
    "city": "高松市",
    "category": "community_day_service",
    "serviceType": "地域密着型通所介護",
    "capacity": 0,
    "openDays": [
      "平日",
      "土曜日",
      "祝日"
    ],
    "openDaysNote": ""
  },
  {
    "id": "3770107401",
    "name": "デイサービス　すずかけの径",
    "kana": "デイサービス　スズカケノミチ",
    "address": "高松市上福岡町919番地1",
    "lat": 34.3269255011665,
    "lng": 134.0672797032,
    "tel": "087-273-2640",
    "url": "http://www.shikoku.ne.jp/zuishou/",
    "pref": "香川県",
    "city": "高松市",
    "category": "community_day_service",
    "serviceType": "地域密着型通所介護",
    "capacity": 18,
    "openDays": [
      "平日",
      "土曜日",
      "祝日"
    ],
    "openDaysNote": ""
  },
  {
    "id": "3790100584",
    "name": "デイサービス　花らんまん",
    "kana": "デイサービス　ハナランマン",
    "address": "香川県浜ノ町60番65号花らんまん 花らんまん",
    "lat": 34.3513638,
    "lng": 134.040349,
    "tel": "087-823-0087",
    "url": "http://www.zuishou.ne.jp",
    "pref": "香川県",
    "city": "高松市",
    "category": "community_day_service",
    "serviceType": "地域密着型通所介護",
    "capacity": 15,
    "openDays": [
      "平日",
      "祝日"
    ],
    "openDaysNote": ""
  },
  {
    "id": "3770107542",
    "name": "デイサービス　樹楽もとやま",
    "kana": "デイサービス　キラクモトヤマ",
    "address": "香川県高松市木太町4241-2",
    "lat": 34.3130602737782,
    "lng": 134.075862908598,
    "tel": "087-813-6288",
    "url": "https://so-ke-n.com/",
    "pref": "香川県",
    "city": "高松市",
    "category": "community_day_service",
    "serviceType": "地域密着型通所介護",
    "capacity": 0,
    "openDays": [
      "平日",
      "土曜日",
      "日曜日",
      "祝日"
    ],
    "openDaysNote": "年中無休24時間営業。365日営業で、保険外サービスとして夜勤のご利用もお受けしております。"
  },
  {
    "id": "3770106270",
    "name": "デイサービス　泉",
    "kana": "デイサービス　イズミ",
    "address": "高松市一宮町1568番地10",
    "lat": 34.291926,
    "lng": 134.0208138,
    "tel": "087-815-6008",
    "url": "http://www.rakuraku-group.jp/",
    "pref": "香川県",
    "city": "高松市",
    "category": "community_day_service",
    "serviceType": "地域密着型通所介護",
    "capacity": 0,
    "openDays": [
      "平日",
      "土曜日",
      "祝日"
    ],
    "openDaysNote": "―"
  },
  {
    "id": "3790100410",
    "name": "デイサービスいちえ",
    "kana": "デイサービスイチエ",
    "address": "香川県高松市元山町１０６０番地２",
    "lat": 34.3109967,
    "lng": 134.0819692,
    "tel": "087-887-0679",
    "url": "",
    "pref": "香川県",
    "city": "高松市",
    "category": "community_day_service",
    "serviceType": "地域密着型通所介護",
    "capacity": null,
    "openDays": [
      "平日",
      "土曜日",
      "祝日"
    ],
    "openDaysNote": "介護保険外の自由診療では日中およびお泊りができます（改行）＊要予約または緊急時の利用でお願いします"
  },
  {
    "id": "3770108383",
    "name": "デイサービスセンター　ふくろうの森",
    "kana": "デイサービスセンター　フクロウノモリ",
    "address": "香川県高松市牟礼町原320-1",
    "lat": 34.3236244266848,
    "lng": 134.161465662427,
    "tel": "087-899-5121",
    "url": "",
    "pref": "香川県",
    "city": "高松市",
    "category": "community_day_service",
    "serviceType": "地域密着型通所介護",
    "capacity": 18,
    "openDays": [
      "平日",
      "祝日"
    ],
    "openDaysNote": ""
  },
  {
    "id": "3790100956",
    "name": "デイサービスセンターTRAIN",
    "kana": "デイサービスセンター　トレイン",
    "address": "香川県高松市丸亀町3-13丸亀町参番街西館3階 丸亀町参番街西館3階",
    "lat": 34.3448151541251,
    "lng": 134.049924319539,
    "tel": "987-813-0022",
    "url": "train-ing.jp",
    "pref": "香川県",
    "city": "高松市",
    "category": "community_day_service",
    "serviceType": "地域密着型通所介護",
    "capacity": 0,
    "openDays": [
      "平日",
      "土曜日",
      "祝日"
    ],
    "openDaysNote": ""
  },
  {
    "id": "3770106882",
    "name": "デイサービスセンター寿",
    "kana": "デイサービスセンターコトブキ",
    "address": "香川県高松市番町4丁目13番12号",
    "lat": 34.3402213,
    "lng": 134.0404576,
    "tel": "087-834-0086",
    "url": "http://www.daijyuan.com/",
    "pref": "香川県",
    "city": "高松市",
    "category": "community_day_service",
    "serviceType": "地域密着型通所介護",
    "capacity": 10,
    "openDays": [
      "平日",
      "祝日"
    ],
    "openDaysNote": ""
  },
  {
    "id": "3790100857",
    "name": "デイサービスセンター松縄",
    "kana": "デイサービスセンターマツナワ",
    "address": "香川県高松市松縄町28番地13",
    "lat": 34.3235247,
    "lng": 134.0646801,
    "tel": "087-802-5282",
    "url": "https://kaigostation.co.jp/",
    "pref": "香川県",
    "city": "高松市",
    "category": "community_day_service",
    "serviceType": "地域密着型通所介護",
    "capacity": 0,
    "openDays": [
      "平日",
      "土曜日",
      "日曜日",
      "祝日"
    ],
    "openDaysNote": ""
  },
  {
    "id": "3790101095",
    "name": "デイサービスセンター松縄Ⅱ",
    "kana": "デイサービスセンターマツナワツー",
    "address": "香川県高松市松縄町1125-2",
    "lat": 34.315959,
    "lng": 134.0600462,
    "tel": "087-802-8672",
    "url": "",
    "pref": "香川県",
    "city": "高松市",
    "category": "community_day_service",
    "serviceType": "地域密着型通所介護",
    "capacity": 0,
    "openDays": [
      "平日",
      "土曜日",
      "日曜日",
      "祝日"
    ],
    "openDaysNote": ""
  },
  {
    "id": "3770105512",
    "name": "デイサービスそよの里",
    "kana": "デイサービスソヨノサト",
    "address": "香川県高松市上福岡町714-1",
    "lat": 34.3340406,
    "lng": 134.0661096,
    "tel": "087-813-0555",
    "url": "",
    "pref": "香川県",
    "city": "高松市",
    "category": "community_day_service",
    "serviceType": "地域密着型通所介護",
    "capacity": null,
    "openDays": [
      "平日",
      "土曜日",
      "日曜日",
      "祝日"
    ],
    "openDaysNote": ""
  },
  {
    "id": "3770107260",
    "name": "ディサービスそよの里多肥上町",
    "kana": "タヒカミチョウ",
    "address": "高松市多肥上町５１０番地",
    "lat": 34.2884961,
    "lng": 134.0506401,
    "tel": "（０８７）　８１４－７０６",
    "url": "",
    "pref": "香川県",
    "city": "高松市",
    "category": "community_day_service",
    "serviceType": "地域密着型通所介護",
    "capacity": 220,
    "openDays": [
      "平日",
      "祝日"
    ],
    "openDaysNote": "営業日は、月曜日から金曜日までとする。（祝日・年末年始を含む）"
  },
  {
    "id": "3770108276",
    "name": "デイサービスなごみ高松",
    "kana": "デイサービスナゴミタカマツ",
    "address": "多肥上町2219番地5",
    "lat": 34.2773588905687,
    "lng": 134.057156289441,
    "tel": "087-887-0707",
    "url": "",
    "pref": "香川県",
    "city": "高松市",
    "category": "community_day_service",
    "serviceType": "地域密着型通所介護",
    "capacity": 0,
    "openDays": [
      "平日",
      "土曜日",
      "祝日"
    ],
    "openDaysNote": ""
  },
  {
    "id": "3770105165",
    "name": "デイサービスハピネス",
    "kana": "デイサービスハピネス",
    "address": "香川県高松市中山町772番地1",
    "lat": 34.3437296,
    "lng": 133.9651325,
    "tel": "087-816-6900",
    "url": "http://www.shinboukai.net/",
    "pref": "香川県",
    "city": "高松市",
    "category": "community_day_service",
    "serviceType": "地域密着型通所介護",
    "capacity": 0,
    "openDays": [
      "平日"
    ],
    "openDaysNote": ""
  },
  {
    "id": "3790100931",
    "name": "ﾃﾞｲサービスぽっぽ藤塚",
    "kana": "デイサービスポッポフジツカ",
    "address": "香川県高松市栗林町1丁目3-24",
    "lat": 34.3326381688518,
    "lng": 134.048110926598,
    "tel": "087-8625-6628",
    "url": "kagawa.coop",
    "pref": "香川県",
    "city": "高松市",
    "category": "community_day_service",
    "serviceType": "地域密着型通所介護",
    "capacity": 0,
    "openDays": [
      "平日",
      "土曜日",
      "祝日"
    ],
    "openDaysNote": ""
  },
  {
    "id": "3790101087",
    "name": "デイサービスライフサポートこくぶⅡ",
    "kana": "デイサービスライフサポートコクブⅡ",
    "address": "香川県高松市国分寺町国分732-3",
    "lat": 34.2972516,
    "lng": 133.9456905,
    "tel": "087-814-4573",
    "url": "",
    "pref": "香川県",
    "city": "高松市",
    "category": "community_day_service",
    "serviceType": "地域密着型通所介護",
    "capacity": null,
    "openDays": [
      "平日",
      "土曜日",
      "日曜日",
      "祝日"
    ],
    "openDaysNote": ""
  },
  {
    "id": "3770105090",
    "name": "デイサービスらく楽一宮",
    "kana": "デイサービスラクラクイチノミヤ",
    "address": "香川県高松市一宮町１５７０番地",
    "lat": 34.2917149,
    "lng": 134.020425,
    "tel": "087-815-6007",
    "url": "",
    "pref": "香川県",
    "city": "高松市",
    "category": "community_day_service",
    "serviceType": "地域密着型通所介護",
    "capacity": 0,
    "openDays": [
      "平日",
      "日曜日",
      "祝日"
    ],
    "openDaysNote": "-"
  },
  {
    "id": "3790101079",
    "name": "デイサービスらく楽柏原",
    "kana": "デイサービスラクラクカシハラ",
    "address": "国分寺町柏原1059-2",
    "lat": 34.293116,
    "lng": 133.9482609,
    "tel": "087-870-6001",
    "url": "",
    "pref": "香川県",
    "city": "高松市",
    "category": "community_day_service",
    "serviceType": "地域密着型通所介護",
    "capacity": 0,
    "openDays": [
      "平日",
      "土曜日",
      "日曜日",
      "祝日"
    ],
    "openDaysNote": "-"
  },
  {
    "id": "3770107773",
    "name": "デイサービスラポールクラブ",
    "kana": "デイサービスラポールクラブ",
    "address": "高松市木太町2604番地3",
    "lat": 34.3360074,
    "lng": 134.0788451,
    "tel": "087-813-1355",
    "url": "",
    "pref": "香川県",
    "city": "高松市",
    "category": "community_day_service",
    "serviceType": "地域密着型通所介護",
    "capacity": null,
    "openDays": [
      "平日",
      "土曜日",
      "祝日"
    ],
    "openDaysNote": ""
  },
  {
    "id": "3770108698",
    "name": "デイサービス羽衣",
    "kana": "デイサービスハゴロモ",
    "address": "香川県高松市十川西町692番地1",
    "lat": 34.2695488524215,
    "lng": 134.107690814613,
    "tel": "087-813-6371",
    "url": "",
    "pref": "香川県",
    "city": "高松市",
    "category": "community_day_service",
    "serviceType": "地域密着型通所介護",
    "capacity": 10,
    "openDays": [
      "平日",
      "祝日"
    ],
    "openDaysNote": ""
  },
  {
    "id": "3770107187",
    "name": "デイサービス花泉",
    "kana": "デイサービスハナノイ",
    "address": "一宮町880番地1ケア＆ホスピタリティ花泉 ケア＆ホスピタリティ花泉",
    "lat": 34.2923233,
    "lng": 134.0289383,
    "tel": "087-814-3560",
    "url": "www.kishokai.com/",
    "pref": "香川県",
    "city": "高松市",
    "category": "community_day_service",
    "serviceType": "地域密着型通所介護",
    "capacity": 0,
    "openDays": [
      "平日",
      "祝日"
    ],
    "openDaysNote": ""
  },
  {
    "id": "3790101202",
    "name": "デイサービス香川ひだまり",
    "kana": "デイサービスカガワヒダマリ",
    "address": "香川県高松市香川町川東下1190-1",
    "lat": 34.2470592570702,
    "lng": 134.030804635582,
    "tel": "087-899-5011",
    "url": "https://fukushi-hidamari.or.jp/",
    "pref": "香川県",
    "city": "高松市",
    "category": "community_day_service",
    "serviceType": "地域密着型通所介護",
    "capacity": 0,
    "openDays": [
      "平日",
      "土曜日",
      "祝日"
    ],
    "openDaysNote": "年末年始は12/31～1/2まで休み"
  },
  {
    "id": "3770104168",
    "name": "デイサービス西植田運動ステーション",
    "kana": "デイサービス　ニシウエタウンドウステーション",
    "address": "香川県高松市西植田町3146-7",
    "lat": 34.2419561,
    "lng": 134.0771794,
    "tel": "087-840-4112",
    "url": "",
    "pref": "香川県",
    "city": "高松市",
    "category": "community_day_service",
    "serviceType": "地域密着型通所介護",
    "capacity": 0,
    "openDays": [
      "平日"
    ],
    "openDaysNote": "-"
  },
  {
    "id": "3771400359",
    "name": "デイサービス扇寿",
    "kana": "デイサアビスセンジュ",
    "address": "香川県高松市香南町横井492番地1",
    "lat": 34.2448793,
    "lng": 134.0119035,
    "tel": "087-815-8231",
    "url": "care-net.biz/37/senjyu/",
    "pref": "香川県",
    "city": "高松市",
    "category": "community_day_service",
    "serviceType": "地域密着型通所介護",
    "capacity": 0,
    "openDays": [
      "平日",
      "土曜日",
      "日曜日",
      "祝日"
    ],
    "openDaysNote": "特になし"
  },
  {
    "id": "3770106684",
    "name": "デイサービス前田",
    "kana": "デイサービスマエダ",
    "address": "高松市中間町415-1",
    "lat": 34.2915283,
    "lng": 133.9953661,
    "tel": "087-864-7718",
    "url": "",
    "pref": "香川県",
    "city": "高松市",
    "category": "community_day_service",
    "serviceType": "地域密着型通所介護",
    "capacity": 0,
    "openDays": [
      "平日",
      "土曜日",
      "祝日"
    ],
    "openDaysNote": ""
  },
  {
    "id": "3790100550",
    "name": "デイサービス大野たんぽぽ",
    "kana": "デイサービスオオノタンポポ",
    "address": "香川県高松市香川町大野2242番地5号",
    "lat": 34.2753186,
    "lng": 134.0211426,
    "tel": "087-886-0523",
    "url": "https://www.oono-tanpopo.com/",
    "pref": "香川県",
    "city": "高松市",
    "category": "community_day_service",
    "serviceType": "地域密着型通所介護",
    "capacity": 10,
    "openDays": [
      "平日"
    ],
    "openDaysNote": ""
  },
  {
    "id": "3790100873",
    "name": "デイサービス暖暖",
    "kana": "デイサービスダンダン",
    "address": "香川県高松市室新町１－８",
    "lat": 34.3226267,
    "lng": 134.0418926,
    "tel": "087-815-1231",
    "url": "",
    "pref": "香川県",
    "city": "高松市",
    "category": "community_day_service",
    "serviceType": "地域密着型通所介護",
    "capacity": null,
    "openDays": [
      "平日",
      "祝日"
    ],
    "openDaysNote": ""
  },
  {
    "id": "3790100915",
    "name": "デイサービス母笑",
    "kana": "デイサービス　ホホエミ",
    "address": "香川県高松市牟礼町大町2133番地7",
    "lat": 34.3367375,
    "lng": 134.137031,
    "tel": "087-814-5285",
    "url": "http://hp.kaipoke.biz/1yk/",
    "pref": "香川県",
    "city": "高松市",
    "category": "community_day_service",
    "serviceType": "地域密着型通所介護",
    "capacity": 0,
    "openDays": [
      "平日"
    ],
    "openDaysNote": "【その他休日】8月13日～15日、12月29日～1月3日"
  },
  {
    "id": "3770107310",
    "name": "デイサービス輪",
    "kana": "デイサービスワ",
    "address": "高松市牟礼町牟礼3251番地1",
    "lat": 34.3540587,
    "lng": 134.1298608,
    "tel": "087-887-2061",
    "url": "http://www.llc-nenrin.com/",
    "pref": "香川県",
    "city": "高松市",
    "category": "community_day_service",
    "serviceType": "地域密着型通所介護",
    "capacity": 15,
    "openDays": [
      "平日",
      "土曜日",
      "日曜日",
      "祝日"
    ],
    "openDaysNote": "土曜日、日曜日、祝祭日も営業（火曜日、金曜日、年末年始を除く）しております。"
  },
  {
    "id": "3790100949",
    "name": "デイサービス六条さんち",
    "kana": "デイサービスロクジョウサンチ",
    "address": "香川県高松市六条町1315-1",
    "lat": 34.3055814,
    "lng": 134.082604,
    "tel": "087-887-2603",
    "url": "https://kagawa.coop/",
    "pref": "香川県",
    "city": "高松市",
    "category": "community_day_service",
    "serviceType": "地域密着型通所介護",
    "capacity": 0,
    "openDays": [
      "平日",
      "土曜日",
      "祝日"
    ],
    "openDaysNote": ""
  },
  {
    "id": "3770105876",
    "name": "デイハウスまいまい",
    "kana": "デイハウスマイマイ",
    "address": "香川県高松市郷東町7番地3",
    "lat": 34.3433066,
    "lng": 134.0126119,
    "tel": "087-882-8223",
    "url": "",
    "pref": "香川県",
    "city": "高松市",
    "category": "community_day_service",
    "serviceType": "地域密着型通所介護",
    "capacity": 0,
    "openDays": [
      "平日",
      "土曜日",
      "祝日"
    ],
    "openDaysNote": "-"
  },
  {
    "id": "3770102881",
    "name": "デイハウスよりあい",
    "kana": "デイハウスヨリアイ",
    "address": "香川県高松市郷東町7番地7",
    "lat": 34.3434122896958,
    "lng": 134.012128527509,
    "tel": "087-882-7712",
    "url": "http://care-net.biz/37/yorimaiyo/",
    "pref": "香川県",
    "city": "高松市",
    "category": "community_day_service",
    "serviceType": "地域密着型通所介護",
    "capacity": 16,
    "openDays": [
      "平日",
      "土曜日",
      "祝日"
    ],
    "openDaysNote": "特になし"
  },
  {
    "id": "3770103285",
    "name": "デイリー・クローバ",
    "kana": "デイリー・クローバ",
    "address": "香川県高松市紙町４０２番地1",
    "lat": 34.3185983,
    "lng": 134.0361561,
    "tel": "087-865-9608",
    "url": "https://clover-takamatsu.com/",
    "pref": "香川県",
    "city": "高松市",
    "category": "community_day_service",
    "serviceType": "地域密着型通所介護",
    "capacity": 18,
    "openDays": [
      "平日"
    ],
    "openDaysNote": ""
  },
  {
    "id": "3790101137",
    "name": "デイリー・クローバ",
    "kana": "デイリー・クローバ",
    "address": "香川県高松市紙町４０２番地1",
    "lat": 34.3185708,
    "lng": 134.0362044,
    "tel": "087-865-9608",
    "url": "https://clover-takamatsu.com/",
    "pref": "香川県",
    "city": "高松市",
    "category": "community_day_service",
    "serviceType": "地域密着型通所介護",
    "capacity": 18,
    "openDays": [
      "平日"
    ],
    "openDaysNote": ""
  },
  {
    "id": "3790100865",
    "name": "ナウラデイサービスセンター",
    "kana": "ナウラデイサービスセンター",
    "address": "香川県高松市松福町一丁目12番3号",
    "lat": 34.342531,
    "lng": 134.0599796,
    "tel": "087-802-2650",
    "url": "https://hatsukikai.or.jp",
    "pref": "香川県",
    "city": "高松市",
    "category": "community_day_service",
    "serviceType": "地域密着型通所介護",
    "capacity": 0,
    "openDays": [
      "平日",
      "土曜日",
      "祝日"
    ],
    "openDaysNote": "1月1日を除く。（利用希望者多数の場合、営業する可能性あり。)"
  },
  {
    "id": "3790101152",
    "name": "パーキンソン病特化型デイサービスBeaver",
    "kana": "パーキンソンビョウトッカガタデイサービスビーバー",
    "address": "香川県高松市前田東町1070-1",
    "lat": 34.2948807,
    "lng": 134.1053257,
    "tel": "087-884-1289",
    "url": "https://funny-life-llc-2024.com/beaver/",
    "pref": "香川県",
    "city": "高松市",
    "category": "community_day_service",
    "serviceType": "地域密着型通所介護",
    "capacity": null,
    "openDays": [
      "平日"
    ],
    "openDaysNote": ""
  },
  {
    "id": "3770108342",
    "name": "バーン夕凪",
    "kana": "バーンユウナギ",
    "address": "林町1999-1　2階",
    "lat": 34.3090354330209,
    "lng": 134.071818609806,
    "tel": "087-866-7812",
    "url": "http://yunagi-gr.com/",
    "pref": "香川県",
    "city": "高松市",
    "category": "community_day_service",
    "serviceType": "地域密着型通所介護",
    "capacity": null,
    "openDays": [
      "平日"
    ],
    "openDaysNote": ""
  },
  {
    "id": "3770108235",
    "name": "ボーン夕凪",
    "kana": "ボーンユウナギ",
    "address": "香川県高松市林町1999番地1　1階",
    "lat": 34.3090035389603,
    "lng": 134.071803605441,
    "tel": "087-866-7888",
    "url": "http:yunagi-gr.com/",
    "pref": "香川県",
    "city": "高松市",
    "category": "community_day_service",
    "serviceType": "地域密着型通所介護",
    "capacity": null,
    "openDays": [
      "平日"
    ],
    "openDaysNote": ""
  },
  {
    "id": "3771500463",
    "name": "ほたるの里指定通所介護事業所",
    "kana": "ホタルノサトシテイツウショカイゴジギョウショ",
    "address": "香川県高松市国分寺町国分1284番地1",
    "lat": 34.3065295,
    "lng": 133.9413368,
    "tel": "087-874-1223",
    "url": "http://www.npo-ajisai.net/",
    "pref": "香川県",
    "city": "高松市",
    "category": "community_day_service",
    "serviceType": "地域密着型通所介護",
    "capacity": 0,
    "openDays": [
      "平日",
      "土曜日",
      "祝日"
    ],
    "openDaysNote": "祝日でも日曜日以外は営業しています。なお、年末年始（12/30～1/3）はお休みです。"
  },
  {
    "id": "3790101103",
    "name": "ほねつぎデイサービス　木太町",
    "kana": "ホネツギデイサービス　木太町",
    "address": "高松市木太町３３２２－６",
    "lat": 34.3263571,
    "lng": 134.0748049,
    "tel": "087-832-5620",
    "url": "",
    "pref": "香川県",
    "city": "高松市",
    "category": "community_day_service",
    "serviceType": "地域密着型通所介護",
    "capacity": 0,
    "openDays": [
      "平日"
    ],
    "openDaysNote": ""
  },
  {
    "id": "3790100998",
    "name": "ほねつぎデイサービス田町",
    "kana": "ホネツギデイサービスタマチ",
    "address": "香川県高松市田町8-1リバーボールビル1F リバーボールビル1F",
    "lat": 34.3364720703887,
    "lng": 134.048801220238,
    "tel": "087-863-6221",
    "url": "https://www.honetsugi-kaigo.com/shop/?area=area05",
    "pref": "香川県",
    "city": "高松市",
    "category": "community_day_service",
    "serviceType": "地域密着型通所介護",
    "capacity": 15,
    "openDays": [
      "平日",
      "祝日"
    ],
    "openDaysNote": "ただし、夏季（８月１３日から８月１５日）、年末年始（１２月３１日から１月３日）は休業とする"
  },
  {
    "id": "3790100675",
    "name": "ほねつぎ介護デイサービス木太町店",
    "kana": "ホネツギカイゴデイサービスキタチョウテン",
    "address": "香川県高松市木太町3322番地6",
    "lat": 34.3263565,
    "lng": 134.0748215,
    "tel": "087-832-5620",
    "url": "https://medihamo.com",
    "pref": "香川県",
    "city": "高松市",
    "category": "community_day_service",
    "serviceType": "地域密着型通所介護",
    "capacity": null,
    "openDays": [
      "平日",
      "祝日"
    ],
    "openDaysNote": "夏季・年末年始で土曜日・日曜日以外の休日あり"
  },
  {
    "id": "3790100543",
    "name": "やまぶきデイサービスセンター",
    "kana": "ヤマブキデイサービスセンター",
    "address": "香川県高松市三谷町２７１番地１",
    "lat": 34.2772952,
    "lng": 134.0755679,
    "tel": "087-888-5500",
    "url": "https://hatsukikai.or.jp",
    "pref": "香川県",
    "city": "高松市",
    "category": "community_day_service",
    "serviceType": "地域密着型通所介護",
    "capacity": 0,
    "openDays": [
      "平日",
      "土曜日",
      "祝日"
    ],
    "openDaysNote": ""
  },
  {
    "id": "3770107815",
    "name": "ヤング夕凪",
    "kana": "ヤングユウナギ",
    "address": "香川県高松市林町1999-12",
    "lat": 34.3010831,
    "lng": 134.0698799,
    "tel": "087-866-7575",
    "url": "http://yunagi‐ｇｒ.ｃｏm/",
    "pref": "香川県",
    "city": "高松市",
    "category": "community_day_service",
    "serviceType": "地域密着型通所介護",
    "capacity": 0,
    "openDays": [
      "平日",
      "土曜日"
    ],
    "openDaysNote": ""
  },
  {
    "id": "3790101194",
    "name": "ライフサポーターいしかわ高松",
    "kana": "ライフサポーターイシカワタカマツ",
    "address": "高松市林町1194-1",
    "lat": 34.2990343375919,
    "lng": 134.071505428009,
    "tel": "087-899-7761",
    "url": "",
    "pref": "香川県",
    "city": "高松市",
    "category": "community_day_service",
    "serviceType": "地域密着型通所介護",
    "capacity": 0,
    "openDays": [
      "平日",
      "祝日"
    ],
    "openDaysNote": ""
  },
  {
    "id": "3790100733",
    "name": "リハビリケアサービス　ほほえみ",
    "kana": "リハビリケアサービス　ホホエミ",
    "address": "高松市木太町３０３１－１５",
    "lat": 34.329734,
    "lng": 134.0811185,
    "tel": "０８７－８３７－６７０１",
    "url": "https://www.hohoemi-rihacare.co.jp/",
    "pref": "香川県",
    "city": "高松市",
    "category": "community_day_service",
    "serviceType": "地域密着型通所介護",
    "capacity": null,
    "openDays": [
      "平日",
      "土曜日"
    ],
    "openDaysNote": ""
  },
  {
    "id": "3770107609",
    "name": "リハビリデイサービスYuu　高松店",
    "kana": "リハビリデイサービス　ユー　タカマツミセ",
    "address": "香川県高松市内町3-11ロイヤルハイツビル内町1階 ロイヤルハイツビル内町1階",
    "lat": 34.346330012729,
    "lng": 134.05316806627,
    "tel": "087-887-6624",
    "url": "http://www.my-nagomi.com",
    "pref": "香川県",
    "city": "高松市",
    "category": "community_day_service",
    "serviceType": "地域密着型通所介護",
    "capacity": 150,
    "openDays": [
      "平日",
      "祝日"
    ],
    "openDaysNote": "午前8時から12時15分（改行）午後13時45分から17時　までの午前・午後2単位"
  },
  {
    "id": "3790100634",
    "name": "リハビリテーション颯高松",
    "kana": "リハビリテーションソウタカマツ",
    "address": "香川県高松市松並町938－1タケダビル1階 タケダビル1階",
    "lat": 34.3200195,
    "lng": 134.0307503,
    "tel": "878643211",
    "url": "https://www.lifeact-llc.com/",
    "pref": "香川県",
    "city": "高松市",
    "category": "community_day_service",
    "serviceType": "地域密着型通所介護",
    "capacity": 15,
    "openDays": [
      "平日",
      "土曜日",
      "祝日"
    ],
    "openDaysNote": ""
  },
  {
    "id": "3790100667",
    "name": "リハプライド高松中央",
    "kana": "リハプライドタカマツチュウオウ",
    "address": "香川県高松市多肥上町1867-14",
    "lat": 34.2817676649971,
    "lng": 134.053791157672,
    "tel": "087-880-9641",
    "url": "https://www.rehapride.co.jp/takamatsuchuo/",
    "pref": "香川県",
    "city": "高松市",
    "category": "community_day_service",
    "serviceType": "地域密着型通所介護",
    "capacity": 0,
    "openDays": [
      "平日",
      "祝日"
    ],
    "openDaysNote": ""
  },
  {
    "id": "3790100592",
    "name": "リハプライド南海ちょくし",
    "kana": "リハプライドナンカイチョクシ",
    "address": "香川県高松市勅使町227番地1",
    "lat": 34.3075159,
    "lng": 134.0138829,
    "tel": "087-814-5016",
    "url": "https://www.rehapride.co.jp/chokushi/",
    "pref": "香川県",
    "city": "高松市",
    "category": "community_day_service",
    "serviceType": "地域密着型通所介護",
    "capacity": null,
    "openDays": [
      "平日",
      "祝日"
    ],
    "openDaysNote": "12月29日～1月3日"
  },
  {
    "id": "3790100790",
    "name": "ルアナデイサービス",
    "kana": "ルアナデイサービス",
    "address": "香川県高松市高松町2312-4",
    "lat": 34.3399332,
    "lng": 134.1181037,
    "tel": "087-813-9858",
    "url": "https://sun-walk.co.jp/",
    "pref": "香川県",
    "city": "高松市",
    "category": "community_day_service",
    "serviceType": "地域密着型通所介護",
    "capacity": 0,
    "openDays": [
      "平日"
    ],
    "openDaysNote": "年末年始12/31～翌年1/3は休業(曜日の関係で変更する場合あり)"
  },
  {
    "id": "3790100576",
    "name": "レコードブック栗林駅前",
    "kana": "レコードブックリツリンエキマエ",
    "address": "香川県高松市藤塚町3丁目19-43オレンジコート栗林1階 オレンジコート栗林1階",
    "lat": 34.3320933,
    "lng": 134.0531238,
    "tel": "087-813-3218",
    "url": "https://www.recordbook.jp/",
    "pref": "香川県",
    "city": "高松市",
    "category": "community_day_service",
    "serviceType": "地域密着型通所介護",
    "capacity": 0,
    "openDays": [
      "平日",
      "祝日"
    ],
    "openDaysNote": ""
  },
  {
    "id": "3770105967",
    "name": "わかくさデイトレセンター",
    "kana": "ワカクサデイトレセンター",
    "address": "高松市元山町1238-1",
    "lat": 34.3137074,
    "lng": 134.0824556,
    "tel": "087-813-8057",
    "url": "http://www7b.biglobe.ne.jp/~wakakusas/index.html",
    "pref": "香川県",
    "city": "高松市",
    "category": "community_day_service",
    "serviceType": "地域密着型通所介護",
    "capacity": 10,
    "openDays": [
      "平日",
      "土曜日"
    ],
    "openDaysNote": "-"
  },
  {
    "id": "3770106957",
    "name": "屋島ガーデンクラブ",
    "kana": "ヤシマガーデンクラブ",
    "address": "香川県高松市牟礼町牟礼3720-1屋島ガーデンクラブ 屋島ガーデンクラブ",
    "lat": 34.3552031,
    "lng": 134.1233751,
    "tel": "087-814-4448",
    "url": "",
    "pref": "香川県",
    "city": "高松市",
    "category": "community_day_service",
    "serviceType": "地域密着型通所介護",
    "capacity": 18,
    "openDays": [
      "平日",
      "土曜日"
    ],
    "openDaysNote": ""
  },
  {
    "id": "3770103046",
    "name": "屋島やすらぎ",
    "kana": "ヤシマヤスラギ",
    "address": "高松市屋島東町１４１４番地",
    "lat": 34.3464921689514,
    "lng": 134.116193240475,
    "tel": "087-843-9590",
    "url": "https://yashima-yasuragi.jp",
    "pref": "香川県",
    "city": "高松市",
    "category": "community_day_service",
    "serviceType": "地域密着型通所介護",
    "capacity": 0,
    "openDays": [
      "平日",
      "祝日"
    ],
    "openDaysNote": "安全に配慮したケアに努めております。"
  },
  {
    "id": "3790101111",
    "name": "学び舎こうなん",
    "kana": "マナビヤコウナン",
    "address": "香川県高松市香南町横井952-1",
    "lat": 34.2408169,
    "lng": 134.0056672,
    "tel": "087-899-6852",
    "url": "http://i-groups.co.jp/",
    "pref": "香川県",
    "city": "高松市",
    "category": "community_day_service",
    "serviceType": "地域密着型通所介護",
    "capacity": 0,
    "openDays": [
      "平日"
    ],
    "openDaysNote": "自然災害（台風や積雪など）、感染症のまん延等による行政からの指導等により、運営上の安全確保に問題がある場合には、状況判断により休止する場合がある。"
  },
  {
    "id": "3770106429",
    "name": "空港通りガーデンクラブ",
    "kana": "クウコウドウリガーデンクラブ",
    "address": "香川町川東下1292-3",
    "lat": 34.2500250384976,
    "lng": 134.026476016241,
    "tel": "087-899-5822",
    "url": "http://bsc.am-planning.net/",
    "pref": "香川県",
    "city": "高松市",
    "category": "community_day_service",
    "serviceType": "地域密着型通所介護",
    "capacity": 30,
    "openDays": [
      "平日",
      "土曜日"
    ],
    "openDaysNote": "暴風・暴風雪・大雨・大雪・洪水警報発令時等の場合は臨時休業することがあります"
  },
  {
    "id": "3770108268",
    "name": "香川県高齢者生活協同組合　香川ひだまり",
    "kana": "カガワケンコウレイシャセイカツキョウドウクミアイ　カガワヒダマリ",
    "address": "香川県高松市香川町川東下1190-1",
    "lat": 34.2470733913684,
    "lng": 134.030831316568,
    "tel": "087-899-5011",
    "url": "http://www.kagawa-koureikyou.org/",
    "pref": "香川県",
    "city": "高松市",
    "category": "community_day_service",
    "serviceType": "地域密着型通所介護",
    "capacity": 18,
    "openDays": [
      "平日",
      "土曜日",
      "祝日"
    ],
    "openDaysNote": "年末年始は12/31～1/2まで休み"
  },
  {
    "id": "3771300450",
    "name": "香川県高齢者生活協同組合「牟礼ひだまり」",
    "kana": "カガワケンコウレイシャセイカツキョウドウクミアイ　ムレヒダマリ",
    "address": "香川県高松市牟礼町牟礼2540番地16",
    "lat": 34.3492741,
    "lng": 134.1221444,
    "tel": "087-845-7182",
    "url": "http://www.kagawa-koureikyou.org/fukushi/",
    "pref": "香川県",
    "city": "高松市",
    "category": "community_day_service",
    "serviceType": "地域密着型通所介護",
    "capacity": 15,
    "openDays": [
      "平日",
      "祝日"
    ],
    "openDaysNote": "祝日も営業しています。（改行）台風の時など警報が朝の6時に出ているときはお休みです。（改行）12月30日～1月3日までは休業します。"
  },
  {
    "id": "3770109126",
    "name": "樹楽六条",
    "kana": "キラクロクジョウ",
    "address": "香川県高松市六条町556-3",
    "lat": 34.291535,
    "lng": 134.076665,
    "tel": "087-880-3848",
    "url": "https://www.kiraku-ac.com/shisetsu/home/kagawa/rokujyo.php?staff=",
    "pref": "香川県",
    "city": "高松市",
    "category": "community_day_service",
    "serviceType": "地域密着型通所介護",
    "capacity": 5,
    "openDays": [
      "平日",
      "土曜日",
      "日曜日",
      "祝日"
    ],
    "openDaysNote": ""
  },
  {
    "id": "3770106098",
    "name": "松繩サロンデイサービスセンター",
    "kana": "マツナワサロンデイサービスセンター",
    "address": "高松市松縄町1091-2",
    "lat": 34.316421,
    "lng": 134.0629965,
    "tel": "087-869-2290",
    "url": "www.hakueikai.net",
    "pref": "香川県",
    "city": "高松市",
    "category": "community_day_service",
    "serviceType": "地域密着型通所介護",
    "capacity": 18,
    "openDays": [
      "平日",
      "祝日"
    ],
    "openDaysNote": ""
  },
  {
    "id": "3790100519",
    "name": "瀬戸日和",
    "kana": "セトビヨリ",
    "address": "香川県高松市上林町495番地",
    "lat": 34.2918664,
    "lng": 134.0678623,
    "tel": "087-802-7800",
    "url": "aoba-naika.jp",
    "pref": "香川県",
    "city": "高松市",
    "category": "community_day_service",
    "serviceType": "地域密着型通所介護",
    "capacity": null,
    "openDays": [
      "平日",
      "祝日"
    ],
    "openDaysNote": ""
  },
  {
    "id": "3790100741",
    "name": "早稲田イーライフ高松峰山",
    "kana": "ワセダイーライフタカマツミネヤマ",
    "address": "香川県高松市西春日町1111番地1峰山くらしひろば内 峰山くらしひろば内",
    "lat": 34.322838,
    "lng": 134.029084,
    "tel": "087-899-8050",
    "url": "http://hp.kaipoke.biz/fgt/",
    "pref": "香川県",
    "city": "高松市",
    "category": "community_day_service",
    "serviceType": "地域密着型通所介護",
    "capacity": 0,
    "openDays": [
      "平日",
      "祝日"
    ],
    "openDaysNote": "※祝日は営業しております。"
  },
  {
    "id": "3770107922",
    "name": "通所介護施設　翔鶴",
    "kana": "ツウショカイゴシセツ　ショウカク",
    "address": "香川県高松市香南町岡371番地1",
    "lat": 34.2298288153496,
    "lng": 134.026598842722,
    "tel": "087-899-8830",
    "url": "ayada-clinic-yuusyoukai.com",
    "pref": "香川県",
    "city": "高松市",
    "category": "community_day_service",
    "serviceType": "地域密着型通所介護",
    "capacity": 18,
    "openDays": [
      "平日",
      "土曜日",
      "日曜日",
      "祝日"
    ],
    "openDaysNote": ""
  },
  {
    "id": "3790101012",
    "name": "田町サロンデイサービスセンター",
    "kana": "タマチサロンデイサ-ビスセンタ-",
    "address": "香川県高松市田町1-6",
    "lat": 34.3383681,
    "lng": 134.0486772,
    "tel": "087-834-7705",
    "url": "hakueikai.net",
    "pref": "香川県",
    "city": "高松市",
    "category": "community_day_service",
    "serviceType": "地域密着型通所介護",
    "capacity": null,
    "openDays": [
      "平日"
    ],
    "openDaysNote": ""
  },
  {
    "id": "3770105538",
    "name": "仏生山デイトレネクスト",
    "kana": "ブッショウザンデイトレネクスト",
    "address": "高松市多肥上町1846-1",
    "lat": 34.2828397686763,
    "lng": 134.052831991914,
    "tel": "087-888-5529",
    "url": "http://bam.am-planning.net/",
    "pref": "香川県",
    "city": "高松市",
    "category": "community_day_service",
    "serviceType": "地域密着型通所介護",
    "capacity": 18,
    "openDays": [
      "平日",
      "土曜日"
    ],
    "openDaysNote": ""
  },
  {
    "id": "3790100683",
    "name": "仏生山の森デイサービスセンター",
    "kana": "ブッショウザンノモリデイサービスセンター",
    "address": "高松市仏生山甲882-1",
    "lat": 34.27805,
    "lng": 134.041335,
    "tel": "087-813-8117",
    "url": "https://hatsukikai.or.jp",
    "pref": "香川県",
    "city": "高松市",
    "category": "community_day_service",
    "serviceType": "地域密着型通所介護",
    "capacity": 0,
    "openDays": [
      "平日",
      "土曜日",
      "日曜日",
      "祝日"
    ],
    "openDaysNote": ""
  },
  {
    "id": "3770301095",
    "name": "デイサービスセンターふくろう",
    "kana": "デイサービスセンターフクロウ",
    "address": "入船町1丁目2-31住宅型有料老人ホーム愛の音 住宅型有料老人ホーム愛の音",
    "lat": 34.3196826,
    "lng": 133.8549965,
    "tel": "0877-44-0621",
    "url": "http://www.shouju.or.jp/",
    "pref": "香川県",
    "city": "坂出市",
    "category": "community_day_service",
    "serviceType": "地域密着型通所介護",
    "capacity": 0,
    "openDays": [
      "平日",
      "土曜日",
      "祝日"
    ],
    "openDaysNote": ""
  },
  {
    "id": "3770301020",
    "name": "デイサービスセンター結　坂出",
    "kana": "デイサービスセンターユイサカイデ",
    "address": "香川県坂出市府中町4982番地",
    "lat": 34.2927373,
    "lng": 133.9161215,
    "tel": "0877-48-3165",
    "url": "http://.yui-sakaide.com/",
    "pref": "香川県",
    "city": "坂出市",
    "category": "community_day_service",
    "serviceType": "地域密着型通所介護",
    "capacity": 10,
    "openDays": [
      "平日",
      "土曜日",
      "祝日"
    ],
    "openDaysNote": ""
  },
  {
    "id": "3790800225",
    "name": "つなぎの森",
    "kana": "ツナギノモリ",
    "address": "香川県三豊市豊中町比地大783番地1",
    "lat": 34.1701545644347,
    "lng": 133.687611550262,
    "tel": "0875-23-6462",
    "url": "",
    "pref": "香川県",
    "city": "三豊市",
    "category": "community_day_service",
    "serviceType": "地域密着型通所介護",
    "capacity": null,
    "openDays": [
      "平日",
      "土曜日",
      "日曜日",
      "祝日"
    ],
    "openDaysNote": ""
  },
  {
    "id": "3771700709",
    "name": "デイサービスうらしま　四国損害保険株式会社",
    "kana": "デイサービスウラシマ　シコクソンガイホケンカブシキカイシャ",
    "address": "香川県三豊市詫間町詫間6784-95",
    "lat": 34.2173823109391,
    "lng": 133.685862728836,
    "tel": "0875-23-6033",
    "url": "",
    "pref": "香川県",
    "city": "三豊市",
    "category": "community_day_service",
    "serviceType": "地域密着型通所介護",
    "capacity": 15,
    "openDays": [
      "平日",
      "祝日"
    ],
    "openDaysNote": ""
  },
  {
    "id": "3790800191",
    "name": "デイサービスセンターくにち",
    "kana": "デイサービスセンタークニチ",
    "address": "香川県三豊市高瀬町下勝間2015番地2",
    "lat": 34.1745768,
    "lng": 133.7133313,
    "tel": "0875-72-0272",
    "url": "",
    "pref": "香川県",
    "city": "三豊市",
    "category": "community_day_service",
    "serviceType": "地域密着型通所介護",
    "capacity": 18,
    "openDays": [
      "平日",
      "土曜日",
      "祝日"
    ],
    "openDaysNote": ""
  },
  {
    "id": "3790800167",
    "name": "デイサービスセンターせとうち",
    "kana": "デイサービスセンターセトウチ",
    "address": "香川県三豊市詫間町松崎2780番地159",
    "lat": 34.2236227,
    "lng": 133.6894821,
    "tel": "0875-56-5373",
    "url": "http://setouchi-fukusi.com/",
    "pref": "香川県",
    "city": "三豊市",
    "category": "community_day_service",
    "serviceType": "地域密着型通所介護",
    "capacity": 18,
    "openDays": [
      "平日",
      "土曜日",
      "祝日"
    ],
    "openDaysNote": ""
  },
  {
    "id": "3770800450",
    "name": "デイサービスセンターひまわり",
    "kana": "デイサービスセンターヒマワリ",
    "address": "香川県三豊市詫間町詫間7068-1",
    "lat": 34.2158137117098,
    "lng": 133.665988345998,
    "tel": "0875-83-7039",
    "url": "",
    "pref": "香川県",
    "city": "三豊市",
    "category": "community_day_service",
    "serviceType": "地域密着型通所介護",
    "capacity": 15,
    "openDays": [
      "平日",
      "祝日"
    ],
    "openDaysNote": ""
  },
  {
    "id": "3770800625",
    "name": "デイサービスセンターふるさとたかせ",
    "kana": "デイサービスセンターフルサトタカセ",
    "address": "香川県三豊市高瀬町羽方638番地1",
    "lat": 34.1390149,
    "lng": 133.7292943,
    "tel": "0875-23-7930",
    "url": "",
    "pref": "香川県",
    "city": "三豊市",
    "category": "community_day_service",
    "serviceType": "地域密着型通所介護",
    "capacity": 10,
    "openDays": [
      "平日",
      "土曜日",
      "祝日"
    ],
    "openDaysNote": ""
  },
  {
    "id": "3770800542",
    "name": "デイサービスゆめクラブ",
    "kana": "デイサービスユメクラブ",
    "address": "香川県三豊市三野町吉津甲537番地2",
    "lat": 34.1999647,
    "lng": 133.6986563,
    "tel": "0875-73-3292",
    "url": "https://setouchi-fukushi.com/",
    "pref": "香川県",
    "city": "三豊市",
    "category": "community_day_service",
    "serviceType": "地域密着型通所介護",
    "capacity": 18,
    "openDays": [
      "平日",
      "土曜日",
      "祝日"
    ],
    "openDaysNote": "12月30日～1月3日（年末年始）"
  },
  {
    "id": "3771700923",
    "name": "にこにこ三豊デイサービス",
    "kana": "ニコニコミトヨデイサービス",
    "address": "香川県三豊市高瀬町上高瀬1883番地1",
    "lat": 34.1864604380318,
    "lng": 133.725848869975,
    "tel": "0875-73-6750",
    "url": "http://care-net.biz/37/nponikonikomitoyo/",
    "pref": "香川県",
    "city": "三豊市",
    "category": "community_day_service",
    "serviceType": "地域密着型通所介護",
    "capacity": 15,
    "openDays": [
      "平日",
      "土曜日",
      "祝日"
    ],
    "openDaysNote": ""
  },
  {
    "id": "3790800100",
    "name": "リハ・スタジオうらしま",
    "kana": "リハ・スタジオウラシマ",
    "address": "香川県三豊市詫間町詫間6784-94",
    "lat": 34.2173832204266,
    "lng": 133.685747282803,
    "tel": "0875-83-3877",
    "url": "https://urashima-kaigo.com",
    "pref": "香川県",
    "city": "三豊市",
    "category": "community_day_service",
    "serviceType": "地域密着型通所介護",
    "capacity": 150,
    "openDays": [
      "平日"
    ],
    "openDaysNote": "12月29日～1月3日まで"
  },
  {
    "id": "3770800617",
    "name": "リハビリでい詫間",
    "kana": "リハビリデイ　タクマ",
    "address": "香川県三豊市詫間町詫間581-11",
    "lat": 34.219626415504,
    "lng": 133.678530508598,
    "tel": "０８７５－２３－７４９０",
    "url": "https://day-takuma.studio.site/",
    "pref": "香川県",
    "city": "三豊市",
    "category": "community_day_service",
    "serviceType": "地域密着型通所介護",
    "capacity": 140,
    "openDays": [
      "平日",
      "祝日"
    ],
    "openDaysNote": "夏季休暇（８月１３日～１５日）冬期休暇（１２月３０日～１月３日）"
  },
  {
    "id": "3790800175",
    "name": "健康デイゆめクラブ",
    "kana": "ケンコウデイユメクラブ",
    "address": "香川県三豊市三野町吉津甲537番地2",
    "lat": 34.1986309,
    "lng": 133.6806995,
    "tel": "0875-73-3292",
    "url": "https://setouchi-fukushi.com/",
    "pref": "香川県",
    "city": "三豊市",
    "category": "community_day_service",
    "serviceType": "地域密着型通所介護",
    "capacity": 0,
    "openDays": [
      "平日"
    ],
    "openDaysNote": "12月30日～1月3日（年末年始）"
  },
  {
    "id": "3790800183",
    "name": "古民家デイサービスそえる",
    "kana": "コミンカデイサービスソエル",
    "address": "香川県三豊市高瀬町佐股甲2169-1",
    "lat": 34.1550106,
    "lng": 133.7442879,
    "tel": "0875-82-9610",
    "url": "",
    "pref": "香川県",
    "city": "三豊市",
    "category": "community_day_service",
    "serviceType": "地域密着型通所介護",
    "capacity": 10,
    "openDays": [
      "平日",
      "土曜日"
    ],
    "openDaysNote": ""
  },
  {
    "id": "3790800118",
    "name": "古民家デイサービスりあん",
    "kana": "コミンカデイサービスリアン",
    "address": "香川県三豊市財田町財田上７０３９－１",
    "lat": 34.120474,
    "lng": 133.8121367,
    "tel": "0875-23-6910",
    "url": "http://hp.kaipoke.biz/2pu/",
    "pref": "香川県",
    "city": "三豊市",
    "category": "community_day_service",
    "serviceType": "地域密着型通所介護",
    "capacity": 0,
    "openDays": [
      "平日",
      "土曜日",
      "祝日"
    ],
    "openDaysNote": ""
  },
  {
    "id": "3770800211",
    "name": "三豊市立西香川病院　小規模デイサービスセンター「うちん家」",
    "kana": "ミトヨシリツニシカガワビョウイン　ショウキボデイサービスセンター「ウチンキ」",
    "address": "香川県三豊市高瀬町下麻1281番地1",
    "lat": 34.1771352,
    "lng": 133.7645314,
    "tel": "0875-74-6265",
    "url": "http://city.mitoyo.lg.jp",
    "pref": "香川県",
    "city": "三豊市",
    "category": "community_day_service",
    "serviceType": "地域密着型通所介護",
    "capacity": null,
    "openDays": [
      "平日",
      "祝日"
    ],
    "openDaysNote": "-"
  },
  {
    "id": "3790800217",
    "name": "大浜デイサービスセンター",
    "kana": "オオハマデイサービスセンター",
    "address": "香川県三豊市詫間町大浜甲1836番地3",
    "lat": 34.236683,
    "lng": 133.6131382,
    "tel": "0875-57-2220",
    "url": "http://takumaso.com/",
    "pref": "香川県",
    "city": "三豊市",
    "category": "community_day_service",
    "serviceType": "地域密着型通所介護",
    "capacity": 0,
    "openDays": [
      "平日",
      "土曜日",
      "祝日"
    ],
    "openDaysNote": ""
  },
  {
    "id": "3770800633",
    "name": "樋本デイサービス",
    "kana": "ヒノモトデイサービス",
    "address": "香川県三豊市山本町財田西837番地1",
    "lat": 34.1156739,
    "lng": 133.7405921,
    "tel": "0875-23-6160",
    "url": "http://hp.kaipoke.biz/v31/",
    "pref": "香川県",
    "city": "三豊市",
    "category": "community_day_service",
    "serviceType": "地域密着型通所介護",
    "capacity": 10,
    "openDays": [
      "平日",
      "土曜日",
      "日曜日",
      "祝日"
    ],
    "openDaysNote": "ただし、樋本デイサービス合同会社に規定する休日を除く。"
  },
  {
    "id": "3791300035",
    "name": "デイサービスノア",
    "kana": "デイサービスノア",
    "address": "香川県木田郡三木町池戸2709番地10",
    "lat": 34.2760972,
    "lng": 134.1269257,
    "tel": "087-880-7075",
    "url": "",
    "pref": "香川県",
    "city": "三木町",
    "category": "community_day_service",
    "serviceType": "地域密着型通所介護",
    "capacity": 0,
    "openDays": [
      "平日",
      "祝日"
    ],
    "openDaysNote": ""
  },
  {
    "id": "3791300068",
    "name": "デイサービス笑",
    "kana": "デイサービスエミ",
    "address": "香川県木田郡三木町大字氷上字西丸岡5042番地1",
    "lat": 34.2552779,
    "lng": 134.131669,
    "tel": "090-6384-9221",
    "url": "https://sites.google.com/view/deisabisuemi/%E3%83%9B%E3%83%BC%E3%83%A0",
    "pref": "香川県",
    "city": "三木町",
    "category": "community_day_service",
    "serviceType": "地域密着型通所介護",
    "capacity": 10,
    "openDays": [
      "平日"
    ],
    "openDaysNote": ""
  },
  {
    "id": "3771300724",
    "name": "フレンドケア通所介護吉鈴",
    "kana": "フレンドケアツウショカイゴキチリン",
    "address": "香川県木田郡三木町大字下高岡375番地１",
    "lat": 34.2587038305123,
    "lng": 134.151855866332,
    "tel": "087-814-6571",
    "url": "https://kichirin.jp/pages/47/",
    "pref": "香川県",
    "city": "三木町",
    "category": "community_day_service",
    "serviceType": "地域密着型通所介護",
    "capacity": 0,
    "openDays": [
      "平日",
      "祝日"
    ],
    "openDaysNote": ""
  },
  {
    "id": "3771200536",
    "name": "機能訓練センター　スマイルウォーク",
    "kana": "キノウクンレンセンター　スマイルウォーク",
    "address": "香川県小豆郡小豆島町安田甲１３６－６",
    "lat": 34.479629,
    "lng": 134.3158409,
    "tel": "０８７９－８２－０３０１",
    "url": "",
    "pref": "香川県",
    "city": "小豆島町",
    "category": "community_day_service",
    "serviceType": "地域密着型通所介護",
    "capacity": 0,
    "openDays": [
      "平日",
      "祝日"
    ],
    "openDaysNote": ""
  },
  {
    "id": "3790400109",
    "name": "デイサービス　しんちゃん家",
    "kana": "デイサービス　シンチャンチ",
    "address": "香川県善通寺市生野町1658番地1",
    "lat": 34.2221088,
    "lng": 133.787161,
    "tel": "877630555",
    "url": "",
    "pref": "香川県",
    "city": "善通寺市",
    "category": "community_day_service",
    "serviceType": "地域密着型通所介護",
    "capacity": 15,
    "openDays": [
      "平日",
      "祝日"
    ],
    "openDaysNote": ""
  },
  {
    "id": "3770400707",
    "name": "デイサービスセンター　おひいさん",
    "kana": "デイサービスセンター　オヒイサン",
    "address": "香川県善通寺市生野町1308番地3",
    "lat": 34.224192798609,
    "lng": 133.790369781615,
    "tel": "0877-64-2280",
    "url": "http://www.seiyuukai.jp/",
    "pref": "香川県",
    "city": "善通寺市",
    "category": "community_day_service",
    "serviceType": "地域密着型通所介護",
    "capacity": 10,
    "openDays": [
      "平日",
      "祝日"
    ],
    "openDaysNote": ""
  },
  {
    "id": "3770400665",
    "name": "デイサービスセンターふるさと",
    "kana": "デイサービスセンターフルサト",
    "address": "香川県善通寺市善通寺町１８４７番地１",
    "lat": 34.2176776,
    "lng": 133.772487,
    "tel": "0877‐85‐8693",
    "url": "http://www.kaigo-eiko.jp/",
    "pref": "香川県",
    "city": "善通寺市",
    "category": "community_day_service",
    "serviceType": "地域密着型通所介護",
    "capacity": 10,
    "openDays": [
      "平日",
      "土曜日",
      "日曜日",
      "祝日"
    ],
    "openDaysNote": ""
  },
  {
    "id": "3791600095",
    "name": "デイサービス　Ｙスタジオ",
    "kana": "デイサービス　ワイスタジオ",
    "address": "香川県仲多度郡多度津町北鴨二丁目９６番地９",
    "lat": 34.2763990202076,
    "lng": 133.768526171179,
    "tel": "0877-32-8839",
    "url": "",
    "pref": "香川県",
    "city": "多度津町",
    "category": "community_day_service",
    "serviceType": "地域密着型通所介護",
    "capacity": 0,
    "openDays": [
      "平日"
    ],
    "openDaysNote": ""
  },
  {
    "id": "3771601121",
    "name": "デイサービス　せせらぎ",
    "kana": "デイサービス　セセラギ",
    "address": "香川県仲多度郡多度津町寿町２番１７号",
    "lat": 34.2705937,
    "lng": 133.7583044,
    "tel": "0877-33-3010",
    "url": "http://katouhp.net/",
    "pref": "香川県",
    "city": "多度津町",
    "category": "community_day_service",
    "serviceType": "地域密着型通所介護",
    "capacity": 0,
    "openDays": [
      "平日",
      "土曜日"
    ],
    "openDaysNote": "年末年始（12月31日～1月3日）休業"
  },
  {
    "id": "3771601063",
    "name": "デイサービス　ゆず",
    "kana": "デイサービス　ユズ",
    "address": "香川県仲多度郡多度津町栄町２丁目４番１０号",
    "lat": 34.27426,
    "lng": 133.7569905,
    "tel": "0877-32-2915",
    "url": "https://tetsuya-tadotsu.com/",
    "pref": "香川県",
    "city": "多度津町",
    "category": "community_day_service",
    "serviceType": "地域密着型通所介護",
    "capacity": 45,
    "openDays": [
      "平日",
      "祝日"
    ],
    "openDaysNote": ""
  },
  {
    "id": "3791600137",
    "name": "デイサービスみりみり",
    "kana": "デイサービスミリミリ",
    "address": "香川県仲多度郡多度津町寿町4-20",
    "lat": 34.2690447,
    "lng": 133.7577416,
    "tel": "0877-85-7464",
    "url": "",
    "pref": "香川県",
    "city": "多度津町",
    "category": "community_day_service",
    "serviceType": "地域密着型通所介護",
    "capacity": null,
    "openDays": [
      "平日",
      "祝日"
    ],
    "openDaysNote": ""
  },
  {
    "id": "3791400025",
    "name": "デイサービス絆　直島",
    "kana": "デイサービスキズナ　ナオシマ",
    "address": "香川県香川郡直島町2396-12",
    "lat": 34.4605448,
    "lng": 133.9982836,
    "tel": "087-899-2123",
    "url": "http://kizuna.hp.gogo.jp/pc/",
    "pref": "香川県",
    "city": "直島町",
    "category": "community_day_service",
    "serviceType": "地域密着型通所介護",
    "capacity": 10,
    "openDays": [
      "平日",
      "祝日"
    ],
    "openDaysNote": ""
  },
  {
    "id": "3771400383",
    "name": "レファシード直島　デイサービスセンター",
    "kana": "レファシードナオシマ　デイサービスセンター",
    "address": "香川県香川郡直島町3749-1",
    "lat": 34.4605448,
    "lng": 133.9982836,
    "tel": "087-840-8088",
    "url": "",
    "pref": "香川県",
    "city": "直島町",
    "category": "community_day_service",
    "serviceType": "地域密着型通所介護",
    "capacity": 0,
    "openDays": [
      "平日",
      "祝日"
    ],
    "openDaysNote": "自然災害への警報及びご利用者の送迎に支障があると判断した場合は休業とする。"
  },
  {
    "id": "3791200144",
    "name": "フィジカルデイ　Re：Move",
    "kana": "フィジカルデイ　リムーブ",
    "address": "香川県小豆郡土庄町渕崎甲1447-1DCMダイキ　テナント棟 DCMダイキ　テナント棟",
    "lat": 34.487449,
    "lng": 134.187067,
    "tel": "0879-61-9440",
    "url": "",
    "pref": "香川県",
    "city": "土庄町",
    "category": "community_day_service",
    "serviceType": "地域密着型通所介護",
    "capacity": null,
    "openDays": [
      "平日"
    ],
    "openDaysNote": ""
  },
  {
    "id": "3791200136",
    "name": "機能訓練型デイサービスくらふと",
    "kana": "キノウクンレンガタデイサービスクラフト",
    "address": "香川県小豆郡土庄町淵崎甲1400番地18",
    "lat": 34.4869019,
    "lng": 134.1880971,
    "tel": "0879-62-8010",
    "url": "",
    "pref": "香川県",
    "city": "土庄町",
    "category": "community_day_service",
    "serviceType": "地域密着型通所介護",
    "capacity": null,
    "openDays": [
      "平日"
    ],
    "openDaysNote": ""
  },
  {
    "id": "3771200171",
    "name": "豊島ナオミ荘　デイサービスセンター",
    "kana": "テシマナオミソウ　デイサービスセンター",
    "address": "小豆郡土庄町豊島家浦43-10",
    "lat": 34.4948314,
    "lng": 134.0758256,
    "tel": "0879-68-3131",
    "url": "http://www.ans.co.jp/n/naomi/",
    "pref": "香川県",
    "city": "土庄町",
    "category": "community_day_service",
    "serviceType": "地域密着型通所介護",
    "capacity": null,
    "openDays": [
      "平日",
      "祝日"
    ],
    "openDaysNote": "-"
  },
  {
    "id": "3770700437",
    "name": "すばるデイサービス松原",
    "kana": "スバルデイサービスマツバラ",
    "address": "東かがわ市松原615番地1",
    "lat": 34.244182948038,
    "lng": 134.364599577632,
    "tel": "0879-25-3272",
    "url": "",
    "pref": "香川県",
    "city": "東かがわ市",
    "category": "community_day_service",
    "serviceType": "地域密着型通所介護",
    "capacity": 0,
    "openDays": [
      "平日",
      "祝日"
    ],
    "openDaysNote": "年末年始休あり"
  },
  {
    "id": "3790700078",
    "name": "デイサービス　笑心",
    "kana": "デイサービス　エコ",
    "address": "香川県東かがわ市坂元１０６番地",
    "lat": 34.2065644,
    "lng": 134.4345832,
    "tel": "０８７９－４９－１３１５",
    "url": "",
    "pref": "香川県",
    "city": "東かがわ市",
    "category": "community_day_service",
    "serviceType": "地域密着型通所介護",
    "capacity": 0,
    "openDays": [
      "平日",
      "土曜日",
      "祝日"
    ],
    "openDaysNote": ""
  },
  {
    "id": "3790700094",
    "name": "デイサービスけんこう倶楽部",
    "kana": "デイサービスケンコウクラブ",
    "address": "水主304番地1",
    "lat": 34.2348754,
    "lng": 134.3225489,
    "tel": "0879-24-1250",
    "url": "",
    "pref": "香川県",
    "city": "東かがわ市",
    "category": "community_day_service",
    "serviceType": "地域密着型通所介護",
    "capacity": 0,
    "openDays": [
      "平日",
      "祝日"
    ],
    "openDaysNote": ""
  },
  {
    "id": "3770700346",
    "name": "デイサービスセンター町田",
    "kana": "デイサービスセンター　マチダ",
    "address": "香川県東かがわ市町田689",
    "lat": 34.2525392,
    "lng": 134.3013622,
    "tel": "0879-25-8428",
    "url": "",
    "pref": "香川県",
    "city": "東かがわ市",
    "category": "community_day_service",
    "serviceType": "地域密着型通所介護",
    "capacity": 10,
    "openDays": [
      "平日"
    ],
    "openDaysNote": "月曜　水曜　金曜に地域密着型通所介護を運営　但し１２月３０日から１月３日を除く"
  },
  {
    "id": "3770700353",
    "name": "通所介護ファインケア",
    "kana": "ツウショカイゴファインケア",
    "address": "東かがわ市馬篠249-1",
    "lat": 34.2689702,
    "lng": 134.2883853,
    "tel": "0879-26-1069",
    "url": "",
    "pref": "香川県",
    "city": "東かがわ市",
    "category": "community_day_service",
    "serviceType": "地域密着型通所介護",
    "capacity": 0,
    "openDays": [
      "平日",
      "土曜日"
    ],
    "openDaysNote": "-"
  }
]