[
  {
    "id": "3992400170",
    "name": "吾北デイサービスセンター「すこやか」",
    "kana": "ゴホクデイサービスセンタースコヤカ",
    "address": "高知県吾川郡いの町小川東津賀才５３番地１",
    "lat": 33.6268215,
    "lng": 133.3002513,
    "tel": "088-867-3116",
    "url": "",
    "pref": "高知県",
    "city": "いの町",
    "category": "community_day_service",
    "serviceType": "地域密着型通所介護",
    "capacity": 18,
    "openDays": [
      "平日",
      "土曜日",
      "祝日"
    ],
    "openDaysNote": ""
  },
  {
    "id": "3970300335",
    "name": "託老所「わすれな草」",
    "kana": "タクロウショワスレナグサ",
    "address": "高知県安芸市寿町１－７",
    "lat": 33.4981218,
    "lng": 133.9045969,
    "tel": "０８８７－３５－３１８０",
    "url": "qqdr6ss9k@ninus.ocn.ne.jp",
    "pref": "高知県",
    "city": "安芸市",
    "category": "community_day_service",
    "serviceType": "地域密着型通所介護",
    "capacity": 0,
    "openDays": [
      "平日",
      "土曜日",
      "祝日"
    ],
    "openDaysNote": "台風等の天候状況で臨時休業の事態が発生します。"
  },
  {
    "id": "3972501195",
    "name": "デイサービスおちあゆ",
    "kana": "デイサービスオチアユ",
    "address": "高知県高岡郡越知町越知甲902番地1",
    "lat": 33.5335683096643,
    "lng": 133.25749947791,
    "tel": "0889-26-0741",
    "url": "http://ochiayu.jimdo.com/",
    "pref": "高知県",
    "city": "越知町",
    "category": "community_day_service",
    "serviceType": "地域密着型通所介護",
    "capacity": 17,
    "openDays": [
      "平日",
      "土曜日",
      "日曜日",
      "祝日"
    ],
    "openDaysNote": "必要に応じて時間外の受け入れや延長を実施しています。"
  },
  {
    "id": "3912511502",
    "name": "山崎病院デイサービスセンター",
    "kana": "ヤマサキビョウインデイサービスセンター",
    "address": "高岡郡越知町越知甲２０４１－３",
    "lat": 33.5327697,
    "lng": 133.2509548,
    "tel": "0889-26-1123",
    "url": "http://www.yamasaki.or.jp/sub/dayService/dayService.html",
    "pref": "高知県",
    "city": "越知町",
    "category": "community_day_service",
    "serviceType": "地域密着型通所介護",
    "capacity": 0,
    "openDays": [
      "平日",
      "祝日"
    ],
    "openDaysNote": "なし"
  },
  {
    "id": "3991100052",
    "name": "きとうせや",
    "kana": "キトウセヤ",
    "address": "高知県香南市野市町中ノ村1421-13",
    "lat": 33.5617269,
    "lng": 133.7222688,
    "tel": "0887-50-1302",
    "url": "",
    "pref": "高知県",
    "city": "香南市",
    "category": "community_day_service",
    "serviceType": "地域密着型通所介護",
    "capacity": 0,
    "openDays": [
      "平日",
      "土曜日",
      "祝日"
    ],
    "openDaysNote": ""
  },
  {
    "id": "3971100155",
    "name": "こじゃリハのいち",
    "kana": "コジャリハノイチ",
    "address": "野市町西野166-1",
    "lat": 33.5780354,
    "lng": 133.695283,
    "tel": "0887-50-1252",
    "url": "http://homepage3.nifty.com/lisus/",
    "pref": "高知県",
    "city": "香南市",
    "category": "community_day_service",
    "serviceType": "地域密着型通所介護",
    "capacity": 0,
    "openDays": [
      "平日",
      "土曜日",
      "祝日"
    ],
    "openDaysNote": ""
  },
  {
    "id": "3991100011",
    "name": "ﾃﾞｲｻｰﾋﾞｽｾﾝﾀｰ三宝通所介護事業所",
    "kana": "デイサービスセンターサンポウツウショカイゴジギョウショ",
    "address": "高知県香南市野市町母代寺188",
    "lat": 33.5815344,
    "lng": 133.7027185,
    "tel": "0887-56-0039",
    "url": "http://konan-kami.jp",
    "pref": "高知県",
    "city": "香南市",
    "category": "community_day_service",
    "serviceType": "地域密着型通所介護",
    "capacity": 0,
    "openDays": [
      "平日",
      "祝日"
    ],
    "openDaysNote": ""
  },
  {
    "id": "3971100270",
    "name": "デイサービス　縁",
    "kana": "デイサービス　エン",
    "address": "高知県香南市野市町東野202-1",
    "lat": 33.5619662030485,
    "lng": 133.705049893701,
    "tel": "0887-56-1680",
    "url": "http://www.en-inc.info/",
    "pref": "高知県",
    "city": "香南市",
    "category": "community_day_service",
    "serviceType": "地域密着型通所介護",
    "capacity": 126,
    "openDays": [
      "平日",
      "土曜日",
      "祝日"
    ],
    "openDaysNote": ""
  },
  {
    "id": "3971100114",
    "name": "デイサービスセンター　かがみ",
    "kana": "デイサービスセンター　カガミ",
    "address": "高知県香南市香我美町岸本205番地1",
    "lat": 33.5393126,
    "lng": 133.7321028,
    "tel": "0887-57-1102",
    "url": "https://www.chisio-group.or.jp/",
    "pref": "高知県",
    "city": "香南市",
    "category": "community_day_service",
    "serviceType": "地域密着型通所介護",
    "capacity": 0,
    "openDays": [
      "平日",
      "日曜日",
      "祝日"
    ],
    "openDaysNote": ""
  },
  {
    "id": "3971100122",
    "name": "デイサービスセンター丹心苑",
    "kana": "デイサービスセンタータンシンエン",
    "address": "高知県香南市吉川町古川340-2総合福祉ゾーンオークの里内 総合福祉ゾーンオークの里内",
    "lat": 33.5481307,
    "lng": 133.7146041,
    "tel": "0887-57-3105",
    "url": "ｈｔｔ：//www.kounankai.jp",
    "pref": "高知県",
    "city": "香南市",
    "category": "community_day_service",
    "serviceType": "地域密着型通所介護",
    "capacity": 0,
    "openDays": [
      "平日",
      "祝日"
    ],
    "openDaysNote": ""
  },
  {
    "id": "3991100086",
    "name": "デイサービスまおり",
    "kana": "デイサービスマオリ",
    "address": "高知県香南市野市町みどり野東1丁目２２番地",
    "lat": 33.5656494,
    "lng": 133.7214531,
    "tel": "0887-50-2898",
    "url": "https://wwwbig-advance.site/c/168/1533",
    "pref": "高知県",
    "city": "香南市",
    "category": "community_day_service",
    "serviceType": "地域密着型通所介護",
    "capacity": null,
    "openDays": [
      "平日",
      "土曜日",
      "祝日"
    ],
    "openDaysNote": ""
  },
  {
    "id": "3991100029",
    "name": "デイサービスむらじ",
    "kana": "デイサービスムラジ",
    "address": "高知県香南市香我美町徳王子1942-1デイサービスむらじ デイサービスむらじ",
    "lat": 33.5606144921687,
    "lng": 133.734047858859,
    "tel": "0887-50-2013",
    "url": "http://care-net.biz/39/murazi/",
    "pref": "高知県",
    "city": "香南市",
    "category": "community_day_service",
    "serviceType": "地域密着型通所介護",
    "capacity": 15,
    "openDays": [
      "平日",
      "土曜日",
      "祝日"
    ],
    "openDaysNote": "定休日以外に、自然災害等その他状況を見て営業を中止する場合があります。"
  },
  {
    "id": "3971100130",
    "name": "デイサービス木苺ＰＬＵＳ",
    "kana": "デイサービスキイチゴプラス",
    "address": "高知県香南市野市町母代寺62-1",
    "lat": 33.5822933452776,
    "lng": 133.699597579762,
    "tel": "0887-50-1250",
    "url": "https：//www.tsubomi-p.com",
    "pref": "高知県",
    "city": "香南市",
    "category": "community_day_service",
    "serviceType": "地域密着型通所介護",
    "capacity": 15,
    "openDays": [
      "平日",
      "土曜日"
    ],
    "openDaysNote": ""
  },
  {
    "id": "3971100247",
    "name": "古民家でいホームきずな",
    "kana": "コミンカデイホウムキズナ",
    "address": "高知県香南市野市町本村1450番地",
    "lat": 33.5808518,
    "lng": 133.7311547,
    "tel": "0887-50-1405",
    "url": "",
    "pref": "高知県",
    "city": "香南市",
    "category": "community_day_service",
    "serviceType": "地域密着型通所介護",
    "capacity": 0,
    "openDays": [
      "平日",
      "祝日"
    ],
    "openDaysNote": ""
  },
  {
    "id": "3971200203",
    "name": "こじゃリハやまだ",
    "kana": "コジャリハ　ヤマダ",
    "address": "高知県香美市土佐山田町東本町4丁目1-45",
    "lat": 33.6065709,
    "lng": 133.690289,
    "tel": "0887-52-8222",
    "url": "http://rsb14267.wixsite.com/lisus",
    "pref": "高知県",
    "city": "香美市",
    "category": "community_day_service",
    "serviceType": "地域密着型通所介護",
    "capacity": 0,
    "openDays": [
      "平日",
      "土曜日",
      "祝日"
    ],
    "openDaysNote": "年末年始(12月31日～1月3日)をお休みしています。"
  },
  {
    "id": "3991200084",
    "name": "ﾃﾞｲｻｰﾋﾞｽいろはの家",
    "kana": "デイサービスイロハノイエ",
    "address": "高知県香美市土佐山田町楠目609-1",
    "lat": 33.6062538,
    "lng": 133.6942379,
    "tel": "0887-52-8352",
    "url": "kabushikigaisya-iroha.amebaownd.com",
    "pref": "高知県",
    "city": "香美市",
    "category": "community_day_service",
    "serviceType": "地域密着型通所介護",
    "capacity": 0,
    "openDays": [
      "平日"
    ],
    "openDaysNote": ""
  },
  {
    "id": "3971200153",
    "name": "デイサービス　ときめき　土佐山田店",
    "kana": "デイサービス　トキメキ　トサヤマダテン",
    "address": "高知県香美市土佐山田町影山168番地",
    "lat": 33.617036,
    "lng": 133.7278462,
    "tel": "0887-52-9119",
    "url": "",
    "pref": "高知県",
    "city": "香美市",
    "category": "community_day_service",
    "serviceType": "地域密着型通所介護",
    "capacity": 10,
    "openDays": [
      "平日",
      "土曜日",
      "祝日"
    ],
    "openDaysNote": "１２月２９日～１月３日まで休み。"
  },
  {
    "id": "3971200120",
    "name": "デイサービス　みそら山田",
    "kana": "デイサービス　ミソラヤマダ",
    "address": "高知県香美市土佐山田町秦山町3丁目16-2",
    "lat": 33.6073097,
    "lng": 133.6771679,
    "tel": "0887-53-0361",
    "url": "https://tn-misora.co.jp/",
    "pref": "高知県",
    "city": "香美市",
    "category": "community_day_service",
    "serviceType": "地域密着型通所介護",
    "capacity": 0,
    "openDays": [
      "平日",
      "祝日"
    ],
    "openDaysNote": ""
  },
  {
    "id": "3991200076",
    "name": "デイサービスいろは",
    "kana": "デイサービスイロハ",
    "address": "高知県香美市土佐山田町宮ノ口88番地14",
    "lat": 33.6220486,
    "lng": 133.7178408,
    "tel": "0887-52-8345",
    "url": "https://kabushikigaisha-iroha.amebaownd.com",
    "pref": "高知県",
    "city": "香美市",
    "category": "community_day_service",
    "serviceType": "地域密着型通所介護",
    "capacity": 18,
    "openDays": [
      "平日",
      "土曜日",
      "日曜日",
      "祝日"
    ],
    "openDaysNote": "なし"
  },
  {
    "id": "3971200112",
    "name": "デイサービスセンターえがお",
    "kana": "デイサービスセンターエガオ",
    "address": "高知県香美市土佐山田町楠目８６３番地９",
    "lat": 33.6104258,
    "lng": 133.6978466,
    "tel": "0887-52-9335",
    "url": "",
    "pref": "高知県",
    "city": "香美市",
    "category": "community_day_service",
    "serviceType": "地域密着型通所介護",
    "capacity": 15,
    "openDays": [
      "平日",
      "祝日"
    ],
    "openDaysNote": ""
  },
  {
    "id": "3972100113",
    "name": "デイサービスセンター白寿通所介護事業所",
    "kana": "デイサービスセンターハクジュツウショカイゴジギョウショ",
    "address": "高知県香美市香北町永野2152番地",
    "lat": 33.6656907,
    "lng": 133.817208,
    "tel": "0887-59-2287",
    "url": "https://konan-kami.net",
    "pref": "高知県",
    "city": "香美市",
    "category": "community_day_service",
    "serviceType": "地域密着型通所介護",
    "capacity": 0,
    "openDays": [
      "平日"
    ],
    "openDaysNote": "台風、積雪等の自然災害により営業が危険と判断される場合は休業します。"
  },
  {
    "id": "3971200179",
    "name": "デイサービスたからまち",
    "kana": "デイサービスタカラマチ",
    "address": "高知県香美市土佐山田町宝町4-4-32ＹＳマンション101号室 ＹＳマンション101号室",
    "lat": 33.6012327,
    "lng": 133.6821619,
    "tel": "0887-53-1338",
    "url": "",
    "pref": "高知県",
    "city": "香美市",
    "category": "community_day_service",
    "serviceType": "地域密着型通所介護",
    "capacity": 10,
    "openDays": [
      "平日",
      "土曜日",
      "祝日"
    ],
    "openDaysNote": "12/30～1/3"
  },
  {
    "id": "3991200068",
    "name": "デイホーム　おじま家",
    "kana": "デイホーム　オジマヤ",
    "address": "土佐山田町百石町2丁目4-34サクラス101 サクラス101",
    "lat": 33.6086103,
    "lng": 133.6972896,
    "tel": "0887-53-9816",
    "url": "",
    "pref": "高知県",
    "city": "香美市",
    "category": "community_day_service",
    "serviceType": "地域密着型通所介護",
    "capacity": 0,
    "openDays": [
      "平日",
      "土曜日",
      "祝日"
    ],
    "openDaysNote": ""
  },
  {
    "id": "3991200092",
    "name": "香美市社協デイサービスセンターびらふ",
    "kana": "カミシシャキョウデイサービスセンタービラフ",
    "address": "高知県香美市香北町韮生野336番地1香美市立保健福祉センター香北 香美市立保健福祉センター香北",
    "lat": 33.6488984,
    "lng": 133.7843472,
    "tel": "0887-59-2140",
    "url": "hppt://kami-shakyo.or.jp/",
    "pref": "高知県",
    "city": "香美市",
    "category": "community_day_service",
    "serviceType": "地域密着型通所介護",
    "capacity": 0,
    "openDays": [
      "平日"
    ],
    "openDaysNote": ""
  },
  {
    "id": "3971200039",
    "name": "社会福祉法人土佐香美福祉会　高齢者生活福祉センターこづみ　デイサービスセンターこづみ通所介護事業所",
    "kana": "シャカイフクシホウジントサカミフクシカイコウレイシャセイカツフクシセンターコヅミデイサービスセンターコヅミツウショカイゴジギョウショ",
    "address": "高知県香美市物部町大栃898番地1高齢者生活福祉センターこづみ 高齢者生活福祉センターこづみ",
    "lat": 33.6966121,
    "lng": 133.8741444,
    "tel": "0887－58－2828",
    "url": "tosakami52@smil.ocn.ne.jp",
    "pref": "高知県",
    "city": "香美市",
    "category": "community_day_service",
    "serviceType": "地域密着型通所介護",
    "capacity": 0,
    "openDays": [
      "平日",
      "土曜日",
      "祝日"
    ],
    "openDaysNote": "年末年始の12月31日～1月3日までは営業休止"
  },
  {
    "id": "3970103408",
    "name": "ＩＭＣデイサービス　高須",
    "kana": "アイエムシーデイサービス　タカス",
    "address": "高知市高須２丁目14-7",
    "lat": 33.561927,
    "lng": 133.5862625,
    "tel": "088-878-8667",
    "url": "",
    "pref": "高知県",
    "city": "高知市",
    "category": "community_day_service",
    "serviceType": "地域密着型通所介護",
    "capacity": 18,
    "openDays": [
      "平日",
      "土曜日",
      "祝日"
    ],
    "openDaysNote": ""
  },
  {
    "id": "3970102103",
    "name": "ＩＭＣデイサービスうぐるす",
    "kana": "アイエムシーデイサービスウグルス",
    "address": "高知市鵜来巣１１番３８－８号",
    "lat": 33.5407420328018,
    "lng": 133.483977802447,
    "tel": "088-850-0751",
    "url": "https://imc-ls.com/facility/541/",
    "pref": "高知県",
    "city": "高知市",
    "category": "community_day_service",
    "serviceType": "地域密着型通所介護",
    "capacity": 15,
    "openDays": [
      "平日",
      "土曜日",
      "祝日"
    ],
    "openDaysNote": "年末年始　１２／３１～１／３休業"
  },
  {
    "id": "3990101424",
    "name": "ＩＭＣデイサービスおおはら",
    "kana": "アイエムシーデイサービスオオハラ",
    "address": "高知県高知市大原町88-2",
    "lat": 33.5521975,
    "lng": 133.5271572,
    "tel": "088-803-8851",
    "url": "",
    "pref": "高知県",
    "city": "高知市",
    "category": "community_day_service",
    "serviceType": "地域密着型通所介護",
    "capacity": null,
    "openDays": [
      "平日",
      "土曜日",
      "祝日"
    ],
    "openDaysNote": ""
  },
  {
    "id": "3970105866",
    "name": "アルコデイトレセンター愛宕山",
    "kana": "アルコデイトレセンターアタゴヤマ",
    "address": "高知県高知市前里３３５－１５",
    "lat": 33.577182,
    "lng": 133.5413942,
    "tel": "088-856-5338",
    "url": "http://alco-smile.com",
    "pref": "高知県",
    "city": "高知市",
    "category": "community_day_service",
    "serviceType": "地域密着型通所介護",
    "capacity": 18,
    "openDays": [
      "平日",
      "祝日"
    ],
    "openDaysNote": "営業；月~金　ただし１２月３０日~１月３日はのぞく"
  },
  {
    "id": "3970104794",
    "name": "アルコデイトレセンター瀬戸",
    "kana": "アルコデイトレセンターセト",
    "address": "高知市瀬戸南町２丁目１－５",
    "lat": 33.509269694728,
    "lng": 133.544008585983,
    "tel": "088-855-8270",
    "url": "www.alco-smile.com",
    "pref": "高知県",
    "city": "高知市",
    "category": "community_day_service",
    "serviceType": "地域密着型通所介護",
    "capacity": 20,
    "openDays": [
      "平日",
      "祝日"
    ],
    "openDaysNote": "12/30-1/3は年末年始のため休業"
  },
  {
    "id": "3990100780",
    "name": "ケアビレッジあさくらデイサービスセンター",
    "kana": "ケアビレッジアサクラデイサービスセンター",
    "address": "高知県高知市朝倉丙416-1",
    "lat": 53.41291,
    "lng": -8.24388999999996,
    "tel": "088-840-3331",
    "url": "http://mizuho-medicare.com/",
    "pref": "高知県",
    "city": "高知市",
    "category": "community_day_service",
    "serviceType": "地域密着型通所介護",
    "capacity": 18,
    "openDays": [
      "平日",
      "土曜日",
      "祝日"
    ],
    "openDaysNote": ""
  },
  {
    "id": "3970104497",
    "name": "しばてんハウス朝倉",
    "kana": "シバテンハウスアサクラ",
    "address": "高知市大谷公園町20-1エスコートいさむⅡ1階 エスコートいさむⅡ1階",
    "lat": 33.5347853,
    "lng": 133.4796821,
    "tel": "088-840-2271",
    "url": "kkhcoop@jeans.ocn.ne.jp",
    "pref": "高知県",
    "city": "高知市",
    "category": "community_day_service",
    "serviceType": "地域密着型通所介護",
    "capacity": 0,
    "openDays": [
      "平日",
      "土曜日",
      "祝日"
    ],
    "openDaysNote": "年末年始休日　12月30日から1月3日"
  },
  {
    "id": "3990101218",
    "name": "デイ・アズール",
    "kana": "デイ・アズール",
    "address": "高知県高知市北秦泉寺87-1コーポ泉１F コーポ泉１F",
    "lat": 33.5813895,
    "lng": 133.537315949074,
    "tel": "088-856-5858",
    "url": "",
    "pref": "高知県",
    "city": "高知市",
    "category": "community_day_service",
    "serviceType": "地域密着型通所介護",
    "capacity": null,
    "openDays": [
      "平日",
      "土曜日",
      "日曜日",
      "祝日"
    ],
    "openDaysNote": ""
  },
  {
    "id": "3970103614",
    "name": "ﾃﾞｲｻｰﾋﾞｽ奏",
    "kana": "デイサービス　カナデ",
    "address": "一宮東町３丁目４－３",
    "lat": 33.5883069755115,
    "lng": 133.579727884131,
    "tel": "088-845-7177",
    "url": "",
    "pref": "高知県",
    "city": "高知市",
    "category": "community_day_service",
    "serviceType": "地域密着型通所介護",
    "capacity": null,
    "openDays": [
      "平日",
      "土曜日",
      "日曜日",
      "祝日"
    ],
    "openDaysNote": ""
  },
  {
    "id": "3970103168",
    "name": "デイサービス　いごっそう",
    "kana": "デイサービス　イゴッソウ",
    "address": "高知市春野町仁ノ3291番地",
    "lat": 33.4697656,
    "lng": 133.4856261,
    "tel": "088-850-3121",
    "url": "",
    "pref": "高知県",
    "city": "高知市",
    "category": "community_day_service",
    "serviceType": "地域密着型通所介護",
    "capacity": 18,
    "openDays": [
      "平日",
      "土曜日",
      "祝日"
    ],
    "openDaysNote": ""
  },
  {
    "id": "3990100848",
    "name": "デイサービス　えにし",
    "kana": "デイサービス　エニシ",
    "address": "高知市昭和町23－24",
    "lat": 33.5704926,
    "lng": 133.5432751,
    "tel": "088－802－5852",
    "url": "",
    "pref": "高知県",
    "city": "高知市",
    "category": "community_day_service",
    "serviceType": "地域密着型通所介護",
    "capacity": 0,
    "openDays": [
      "平日",
      "日曜日",
      "祝日"
    ],
    "openDaysNote": "："
  },
  {
    "id": "3990100962",
    "name": "でいさぁびす　ぐりこ",
    "kana": "デイサァビス　グリコ",
    "address": "高知県高知市横浜東町3番26",
    "lat": 33.522386050278,
    "lng": 133.545667088113,
    "tel": "088-821-7255",
    "url": "http://hp.kaipoke.biz/9ye/",
    "pref": "高知県",
    "city": "高知市",
    "category": "community_day_service",
    "serviceType": "地域密着型通所介護",
    "capacity": 0,
    "openDays": [
      "平日",
      "土曜日",
      "日曜日",
      "祝日"
    ],
    "openDaysNote": "年末年始の休業においては変更あり。"
  },
  {
    "id": "3990100939",
    "name": "デイサービス　こころ",
    "kana": "デイサービス　　ココロ",
    "address": "高知県高知市南元町3－4",
    "lat": 33.5568503,
    "lng": 133.5082481,
    "tel": "088-802-2700",
    "url": "",
    "pref": "高知県",
    "city": "高知市",
    "category": "community_day_service",
    "serviceType": "地域密着型通所介護",
    "capacity": 0,
    "openDays": [
      "平日",
      "土曜日",
      "祝日"
    ],
    "openDaysNote": ""
  },
  {
    "id": "3990100855",
    "name": "デイサービス　スタイル潮江",
    "kana": "デイサービス　スタイルウシオエ",
    "address": "北新田町8-20",
    "lat": 33.5528243,
    "lng": 133.5522519,
    "tel": "088-802-5562",
    "url": "http://www.style-carewave.jp",
    "pref": "高知県",
    "city": "高知市",
    "category": "community_day_service",
    "serviceType": "地域密着型通所介護",
    "capacity": 0,
    "openDays": [
      "平日",
      "土曜日",
      "祝日"
    ],
    "openDaysNote": ""
  },
  {
    "id": "3970103838",
    "name": "デイサービス　スマイル",
    "kana": "デイサービス　スマイル",
    "address": "高知市長浜4618番地１",
    "lat": 33.4980943,
    "lng": 133.5448216,
    "tel": "088-842-1201",
    "url": "",
    "pref": "高知県",
    "city": "高知市",
    "category": "community_day_service",
    "serviceType": "地域密着型通所介護",
    "capacity": 0,
    "openDays": [
      "平日",
      "祝日"
    ],
    "openDaysNote": ""
  },
  {
    "id": "3990100871",
    "name": "デイサービス　たけのこ",
    "kana": "デイサービス　タケノコ",
    "address": "高知県高知市本町２丁目４番３号リンクノースケアセンター　３階 リンクノースケアセンター　３階",
    "lat": 33.5579621,
    "lng": 133.5385169,
    "tel": "088-803-4155",
    "url": "",
    "pref": "高知県",
    "city": "高知市",
    "category": "community_day_service",
    "serviceType": "地域密着型通所介護",
    "capacity": null,
    "openDays": [
      "平日"
    ],
    "openDaysNote": ""
  },
  {
    "id": "3970103937",
    "name": "デイサービス　どんぐりの家",
    "kana": "デイサービス　ドングリノイエ",
    "address": "高知県高知市旭天神町64番地",
    "lat": 33.5601804,
    "lng": 133.5081481,
    "tel": "088-802-6613",
    "url": "http://dongurikouchi5656.wixsite.com/donguri",
    "pref": "高知県",
    "city": "高知市",
    "category": "community_day_service",
    "serviceType": "地域密着型通所介護",
    "capacity": 13,
    "openDays": [
      "平日",
      "土曜日",
      "祝日"
    ],
    "openDaysNote": ""
  },
  {
    "id": "3970105346",
    "name": "デイサービス　はち",
    "kana": "デイサービス　ハチ",
    "address": "高知県高知市長浜539-10",
    "lat": 33.5022718,
    "lng": 133.5473213,
    "tel": "088-856-7058",
    "url": "",
    "pref": "高知県",
    "city": "高知市",
    "category": "community_day_service",
    "serviceType": "地域密着型通所介護",
    "capacity": 15,
    "openDays": [
      "平日",
      "祝日"
    ],
    "openDaysNote": "電話等により、24時間常時連絡が可能"
  },
  {
    "id": "3990101275",
    "name": "デイサービス　びす　朝倉",
    "kana": "デイサービス　ビス　アサクラ",
    "address": "高知県高知市朝倉丙2000-1",
    "lat": 33.5518398326767,
    "lng": 133.48054492976,
    "tel": "088-803-6677",
    "url": "",
    "pref": "高知県",
    "city": "高知市",
    "category": "community_day_service",
    "serviceType": "地域密着型通所介護",
    "capacity": 0,
    "openDays": [
      "平日",
      "土曜日",
      "日曜日",
      "祝日"
    ],
    "openDaysNote": ""
  },
  {
    "id": "3990100988",
    "name": "デイサービス　ひらり",
    "kana": "デイサービス　ヒラリ",
    "address": "高知市潮新町1丁目11-29",
    "lat": 33.5515279,
    "lng": 133.5480959,
    "tel": "888557015",
    "url": "",
    "pref": "高知県",
    "city": "高知市",
    "category": "community_day_service",
    "serviceType": "地域密着型通所介護",
    "capacity": 0,
    "openDays": [
      "平日",
      "土曜日"
    ],
    "openDaysNote": ""
  },
  {
    "id": "3970104612",
    "name": "デイサービス　フレンズ",
    "kana": "デイサービス　フレンズ",
    "address": "高知県高知市大津甲７９－１",
    "lat": 33.5759394,
    "lng": 133.6140397,
    "tel": "088-803-5006",
    "url": "",
    "pref": "高知県",
    "city": "高知市",
    "category": "community_day_service",
    "serviceType": "地域密着型通所介護",
    "capacity": 0,
    "openDays": [
      "平日",
      "土曜日",
      "祝日"
    ],
    "openDaysNote": ""
  },
  {
    "id": "3970104844",
    "name": "デイサービス　マイ・ガーデン",
    "kana": "デイサービス　マイ・ガーデン",
    "address": "高知県高知市仁井田767－2",
    "lat": 33.5146918661325,
    "lng": 133.575976808737,
    "tel": "088－837-6092",
    "url": "https://dreamcore.jp",
    "pref": "高知県",
    "city": "高知市",
    "category": "community_day_service",
    "serviceType": "地域密着型通所介護",
    "capacity": 4,
    "openDays": [
      "平日",
      "土曜日"
    ],
    "openDaysNote": ""
  },
  {
    "id": "3970106351",
    "name": "デイサービス　ミカリ",
    "kana": "デイサービス　ミカリ",
    "address": "高知県高知市潮新町2丁目5-20",
    "lat": 33.5502111846421,
    "lng": 133.550094404887,
    "tel": "088－821-9730",
    "url": "",
    "pref": "高知県",
    "city": "高知市",
    "category": "community_day_service",
    "serviceType": "地域密着型通所介護",
    "capacity": 15,
    "openDays": [
      "平日",
      "土曜日"
    ],
    "openDaysNote": ""
  },
  {
    "id": "3990101093",
    "name": "デイサービス　よつば",
    "kana": "デイサービスヨツバ",
    "address": "大谷公園町11-31",
    "lat": 33.5362156,
    "lng": 133.4824406,
    "tel": "088-856-9591",
    "url": "https://www.day-yotsuba.com/",
    "pref": "高知県",
    "city": "高知市",
    "category": "community_day_service",
    "serviceType": "地域密着型通所介護",
    "capacity": null,
    "openDays": [
      "平日",
      "土曜日",
      "日曜日",
      "祝日"
    ],
    "openDaysNote": ""
  },
  {
    "id": "3970103879",
    "name": "デイサービス　らく・らく",
    "kana": "デイサービス　ラク・ラク",
    "address": "高知市塚ノ原365-3",
    "lat": 33.5642046,
    "lng": 133.4958026,
    "tel": "088-855-5586",
    "url": "http://care-net.biz/39/rakuraku/",
    "pref": "高知県",
    "city": "高知市",
    "category": "community_day_service",
    "serviceType": "地域密着型通所介護",
    "capacity": 10,
    "openDays": [
      "平日",
      "土曜日",
      "祝日"
    ],
    "openDaysNote": ""
  },
  {
    "id": "3990100731",
    "name": "でいさーびす　ロミ",
    "kana": "デイサービス　ロミ",
    "address": "高知市秦南町２丁目8-2",
    "lat": 53.41291,
    "lng": -8.24388999999996,
    "tel": "088-872-5376",
    "url": "https://care-net.biz/39/romi/company.php",
    "pref": "高知県",
    "city": "高知市",
    "category": "community_day_service",
    "serviceType": "地域密着型通所介護",
    "capacity": 15,
    "openDays": [
      "平日",
      "祝日"
    ],
    "openDaysNote": ""
  },
  {
    "id": "3970103366",
    "name": "デイサービス　一ツ橋",
    "kana": "デイサービス　ヒトツバシ",
    "address": "高知県高知市一ツ橋1丁目38番地",
    "lat": 33.573399,
    "lng": 133.5320366,
    "tel": "088-803-7720",
    "url": "http://www.sanjyukai.com/annai/hitotubashi.htm",
    "pref": "高知県",
    "city": "高知市",
    "category": "community_day_service",
    "serviceType": "地域密着型通所介護",
    "capacity": 0,
    "openDays": [
      "平日",
      "祝日"
    ],
    "openDaysNote": "なし"
  },
  {
    "id": "3970103291",
    "name": "デイサービス　琴",
    "kana": "デイサービス　コト",
    "address": "高知県高知市万々611番地2",
    "lat": 33.5744926,
    "lng": 133.5097949,
    "tel": "088-823-3846",
    "url": "",
    "pref": "高知県",
    "city": "高知市",
    "category": "community_day_service",
    "serviceType": "地域密着型通所介護",
    "capacity": 8,
    "openDays": [
      "平日",
      "土曜日",
      "祝日"
    ],
    "openDaysNote": "12月30日～1月3日　休み"
  },
  {
    "id": "3970105908",
    "name": "デイサービス　昇鯉",
    "kana": "デイサービス　ショウリ",
    "address": "高知県高知市葛島4丁目10-33",
    "lat": 33.5661703,
    "lng": 133.5392301,
    "tel": "０８８－８８１－７６２８",
    "url": "",
    "pref": "高知県",
    "city": "高知市",
    "category": "community_day_service",
    "serviceType": "地域密着型通所介護",
    "capacity": 10,
    "openDays": [
      "平日",
      "土曜日",
      "祝日"
    ],
    "openDaysNote": "機能訓練・指導を受ける際は、従業者の助言に耳を傾け、用具の取り扱いに十分注意する。（改行）浴室を利用する際は、必要に応じた従業者の助言誘導のもと事故防止に努める。（改行）利用者間の協調性を保ち、喧嘩、口論等で他人に迷惑をかけないこと。（改行）災害対策等に可能な限り協力すること。（改行）自分の能力を維持し、在宅生活を継続ために必要な計画の実践において自らの努力、協力を心がける。"
  },
  {
    "id": "3990101200",
    "name": "デイサービスＳＥＬＥＣＴ",
    "kana": "デイサービスセレクト",
    "address": "高知県高知市神田462番地7",
    "lat": 33.5450461351059,
    "lng": 133.5072798737,
    "tel": "888219117",
    "url": "https://first-rate-kochi.com",
    "pref": "高知県",
    "city": "高知市",
    "category": "community_day_service",
    "serviceType": "地域密着型通所介護",
    "capacity": 18,
    "openDays": [
      "平日"
    ],
    "openDaysNote": ""
  },
  {
    "id": "3990101184",
    "name": "デイサービスあん",
    "kana": "デイサービスアン",
    "address": "高知県高知市浦戸33番地3",
    "lat": 33.4991693354208,
    "lng": 133.57244815582,
    "tel": "088-856-6423",
    "url": "",
    "pref": "高知県",
    "city": "高知市",
    "category": "community_day_service",
    "serviceType": "地域密着型通所介護",
    "capacity": 0,
    "openDays": [
      "平日",
      "土曜日",
      "祝日"
    ],
    "openDaysNote": "年末年始休業　12月30日～1月3日"
  },
  {
    "id": "3990100772",
    "name": "デイサービスいちご学校",
    "kana": "デイサービスイチゴガッコウ",
    "address": "高知県高知市介良乙3034番地1",
    "lat": 33.5586948055799,
    "lng": 133.601489411957,
    "tel": "088-878-4000",
    "url": "http://jinsei-kai.c.ooco.jp/itigoitie.html",
    "pref": "高知県",
    "city": "高知市",
    "category": "community_day_service",
    "serviceType": "地域密着型通所介護",
    "capacity": 0,
    "openDays": [
      "平日",
      "土曜日",
      "祝日"
    ],
    "openDaysNote": ""
  },
  {
    "id": "3990101382",
    "name": "デイサービスいろり",
    "kana": "デイサービスイロリ",
    "address": "高知県高知市大原町89",
    "lat": 33.5521194587666,
    "lng": 133.526777596959,
    "tel": "888793261",
    "url": "https://www.attract819.co.jp/",
    "pref": "高知県",
    "city": "高知市",
    "category": "community_day_service",
    "serviceType": "地域密着型通所介護",
    "capacity": null,
    "openDays": [
      "平日",
      "土曜日",
      "祝日"
    ],
    "openDaysNote": ""
  },
  {
    "id": "3970106252",
    "name": "でいさーびすうちんく和",
    "kana": "デイサービスウチンクノドカ",
    "address": "高知県高知市宇津野128-1",
    "lat": 33.5820256,
    "lng": 133.5305564,
    "tel": "088-820-1556",
    "url": "dayservicenodoca@outlook.jp",
    "pref": "高知県",
    "city": "高知市",
    "category": "community_day_service",
    "serviceType": "地域密着型通所介護",
    "capacity": 0,
    "openDays": [
      "平日",
      "土曜日",
      "日曜日",
      "祝日"
    ],
    "openDaysNote": ""
  },
  {
    "id": "3990101242",
    "name": "デイサービスきらら",
    "kana": "デイサービスキララ",
    "address": "高知県高知市薊野北町2丁目12-34",
    "lat": 33.5799118,
    "lng": 133.5568459,
    "tel": "088-856-8170",
    "url": "",
    "pref": "高知県",
    "city": "高知市",
    "category": "community_day_service",
    "serviceType": "地域密着型通所介護",
    "capacity": 0,
    "openDays": [
      "平日",
      "土曜日",
      "祝日"
    ],
    "openDaysNote": "施設改修や職員研修及び天候悪化によって臨時的に休業する場合があります。施設改修等、臨時休業する日程が事前にお知らせできる場合については速やかに臨時休業の理由・休業日をご利用者様にお伝えします。天候悪化等の場合は当日お電話によって臨時休業のお知らせをさせて頂きます。"
  },
  {
    "id": "3990100822",
    "name": "デイサービスこでまり",
    "kana": "デイサービスコデマリ",
    "address": "高知県高知市西塚ノ原115-40",
    "lat": 33.5643877,
    "lng": 133.4884786,
    "tel": "088-879-7064",
    "url": "",
    "pref": "高知県",
    "city": "高知市",
    "category": "community_day_service",
    "serviceType": "地域密着型通所介護",
    "capacity": 7,
    "openDays": [
      "平日",
      "祝日"
    ],
    "openDaysNote": ""
  },
  {
    "id": "3970105239",
    "name": "デイサービスささゆり",
    "kana": "デイサービスササユリ",
    "address": "高知県高知市鴨部2丁目6-10-4",
    "lat": 33.5506559655489,
    "lng": 133.5003775705,
    "tel": "088-840-5048",
    "url": "",
    "pref": "高知県",
    "city": "高知市",
    "category": "community_day_service",
    "serviceType": "地域密着型通所介護",
    "capacity": 10,
    "openDays": [
      "平日",
      "祝日"
    ],
    "openDaysNote": ""
  },
  {
    "id": "3970105858",
    "name": "デイサービススタイル",
    "kana": "デイサービススタイル",
    "address": "高知県高知市玉水町79",
    "lat": 33.5555784,
    "lng": 133.5143778,
    "tel": "088-855-5813",
    "url": "",
    "pref": "高知県",
    "city": "高知市",
    "category": "community_day_service",
    "serviceType": "地域密着型通所介護",
    "capacity": 17,
    "openDays": [
      "平日",
      "土曜日",
      "祝日"
    ],
    "openDaysNote": "年末年始（12月31日～1月3日）は休業"
  },
  {
    "id": "3970102517",
    "name": "デイサービスせいきょう　やまもも",
    "kana": "デイサービスセイキョウ　ヤマモモ",
    "address": "高知市南竹島町４－５",
    "lat": 33.5397896,
    "lng": 133.5459557,
    "tel": "088-831-8141",
    "url": "http://www.kochi-hco-op.or.jp",
    "pref": "高知県",
    "city": "高知市",
    "category": "community_day_service",
    "serviceType": "地域密着型通所介護",
    "capacity": 18,
    "openDays": [
      "平日",
      "土曜日",
      "祝日"
    ],
    "openDaysNote": ""
  },
  {
    "id": "3990101515",
    "name": "デイサービスせいきょうやまもも旭",
    "kana": "デイサービスセイキョウヤマモモアサヒ",
    "address": "旭上町32旭診療所2階 旭診療所2階",
    "lat": 33.5564513096997,
    "lng": 133.503194563893,
    "tel": "088-813-3349",
    "url": "http://www.kochi-hco-op.or.jp",
    "pref": "高知県",
    "city": "高知市",
    "category": "community_day_service",
    "serviceType": "地域密着型通所介護",
    "capacity": 18,
    "openDays": [
      "平日",
      "土曜日",
      "祝日"
    ],
    "openDaysNote": ""
  },
  {
    "id": "3970101923",
    "name": "デイサービスセンター　ぐりーんぴーす",
    "kana": "デイサービスセンター　グリーンピース",
    "address": "高知県高知市瀬戸2丁目13番47号",
    "lat": 33.5048187,
    "lng": 133.5449852,
    "tel": "088-841-7005",
    "url": "http://www.kochi-web.com/hp1/care/",
    "pref": "高知県",
    "city": "高知市",
    "category": "community_day_service",
    "serviceType": "地域密着型通所介護",
    "capacity": 0,
    "openDays": [
      "平日",
      "土曜日",
      "祝日"
    ],
    "openDaysNote": "特になし"
  },
  {
    "id": "3990101267",
    "name": "デイサービスセンター　スカイライン",
    "kana": "デイサービスセンター　スカイライン",
    "address": "帯屋町2丁目2-9帯屋町チェントロ２Ｆ－２－１－Ｄ 帯屋町チェントロ２Ｆ－２－１－Ｄ",
    "lat": 33.560384,
    "lng": 133.537206,
    "tel": "088-820-4187",
    "url": "",
    "pref": "高知県",
    "city": "高知市",
    "category": "community_day_service",
    "serviceType": "地域密着型通所介護",
    "capacity": 0,
    "openDays": [
      "平日",
      "土曜日",
      "祝日"
    ],
    "openDaysNote": "※積雪や台風等の悪天候時はやむを得ず、定休日以外の臨時休業（改行）となる場合もあります。"
  },
  {
    "id": "3970104943",
    "name": "デイサービスセンター　すみれ",
    "kana": "デイサービスセンター　スミレ",
    "address": "高知市朝倉字三月田丙１５９９番地１",
    "lat": 33.5350077,
    "lng": 133.4857538,
    "tel": "088-828-8359",
    "url": "http://www.kounankai.jp/asakura_sumire.html",
    "pref": "高知県",
    "city": "高知市",
    "category": "community_day_service",
    "serviceType": "地域密着型通所介護",
    "capacity": null,
    "openDays": [
      "平日",
      "土曜日",
      "祝日"
    ],
    "openDaysNote": ""
  },
  {
    "id": "3970101956",
    "name": "デイサービスセンター　やいろ",
    "kana": "デイサービスセンター　ヤイロ",
    "address": "高知市春野町西分695番1サービス付き高齢者向け住宅はるのガーデン１階 サービス付き高齢者向け住宅はるのガーデン１階",
    "lat": 33.5087377257856,
    "lng": 133.494045292105,
    "tel": "088-802-6753",
    "url": "http://furusatokai.or.jp/",
    "pref": "高知県",
    "city": "高知市",
    "category": "community_day_service",
    "serviceType": "地域密着型通所介護",
    "capacity": 0,
    "openDays": [
      "平日",
      "土曜日",
      "祝日"
    ],
    "openDaysNote": ""
  },
  {
    "id": "3970101626",
    "name": "デイサービスセンター　やさしい里",
    "kana": "デイサービスセンター　ヤサシイサト",
    "address": "高知県高知市朝倉己７７１－１",
    "lat": 33.5347412,
    "lng": 133.4897145,
    "tel": "088-843-1132",
    "url": "",
    "pref": "高知県",
    "city": "高知市",
    "category": "community_day_service",
    "serviceType": "地域密着型通所介護",
    "capacity": 0,
    "openDays": [
      "平日",
      "土曜日",
      "祝日"
    ],
    "openDaysNote": "特になし"
  },
  {
    "id": "3910115561",
    "name": "デイサービスセンター　やまびこ",
    "kana": "デイサービスセンター　ヤマビコ",
    "address": "高知市塚ノ原３７－２",
    "lat": 33.5609882,
    "lng": 133.4946555,
    "tel": "088-843-3484",
    "url": "",
    "pref": "高知県",
    "city": "高知市",
    "category": "community_day_service",
    "serviceType": "地域密着型通所介護",
    "capacity": 0,
    "openDays": [
      "平日",
      "祝日"
    ],
    "openDaysNote": ""
  },
  {
    "id": "3970104638",
    "name": "デイサービスセンター　りん",
    "kana": "デイサービスセンター　リン",
    "address": "高知市朝倉西町１丁目５番７号",
    "lat": 33.542297615941,
    "lng": 133.482669969512,
    "tel": "088-850-9020",
    "url": "",
    "pref": "高知県",
    "city": "高知市",
    "category": "community_day_service",
    "serviceType": "地域密着型通所介護",
    "capacity": 18,
    "openDays": [
      "平日",
      "土曜日",
      "祝日"
    ],
    "openDaysNote": "利用者、家族の都合に応じて、可能な限りの対応を行う。"
  },
  {
    "id": "3970104661",
    "name": "デイサービスセンター　庵",
    "kana": "デイサービスセンター　イオリ",
    "address": "高知県高知市介良乙3058-5",
    "lat": 33.5576916,
    "lng": 133.6007471,
    "tel": "088-855-8203",
    "url": "http://www.sawarabikai.net/index.html",
    "pref": "高知県",
    "city": "高知市",
    "category": "community_day_service",
    "serviceType": "地域密着型通所介護",
    "capacity": null,
    "openDays": [
      "平日",
      "祝日"
    ],
    "openDaysNote": ""
  },
  {
    "id": "3970103457",
    "name": "デイサービスセンター　夕顔",
    "kana": "デイサービスセンター　ユウガオ",
    "address": "高知県高知市西塚ノ原７６番１",
    "lat": 33.5664042,
    "lng": 133.4918365,
    "tel": "088-840-7007",
    "url": "deiyuugao@gmail.com",
    "pref": "高知県",
    "city": "高知市",
    "category": "community_day_service",
    "serviceType": "地域密着型通所介護",
    "capacity": 0,
    "openDays": [
      "平日",
      "土曜日",
      "祝日"
    ],
    "openDaysNote": "祝日も通常の時間で営業しています。"
  },
  {
    "id": "3970104232",
    "name": "デイサービスセンターあかり",
    "kana": "デイサービスセンターアカリ",
    "address": "高知市針木本町４０番地１６",
    "lat": 33.535946,
    "lng": 133.4692525,
    "tel": "088-844-8077",
    "url": "",
    "pref": "高知県",
    "city": "高知市",
    "category": "community_day_service",
    "serviceType": "地域密着型通所介護",
    "capacity": 0,
    "openDays": [
      "平日",
      "土曜日",
      "祝日"
    ],
    "openDaysNote": "特になし"
  },
  {
    "id": "3970101741",
    "name": "デイサービスセンターこだま",
    "kana": "デイサービスセンターコダマ",
    "address": "高知市本宮町１０１－１",
    "lat": 33.5567361,
    "lng": 133.497719,
    "tel": "088-840-0868",
    "url": "http://furusatokai.or.jp",
    "pref": "高知県",
    "city": "高知市",
    "category": "community_day_service",
    "serviceType": "地域密着型通所介護",
    "capacity": 0,
    "openDays": [
      "平日",
      "土曜日",
      "祝日"
    ],
    "openDaysNote": "特になし"
  },
  {
    "id": "3970104539",
    "name": "デイサービスセンターこはる",
    "kana": "デイサービスセンターコハル",
    "address": "高知県高知市大津甲１４１番地１",
    "lat": 33.5744646,
    "lng": 133.6175309,
    "tel": "088-855-8886",
    "url": "",
    "pref": "高知県",
    "city": "高知市",
    "category": "community_day_service",
    "serviceType": "地域密着型通所介護",
    "capacity": 15,
    "openDays": [
      "平日",
      "土曜日",
      "祝日"
    ],
    "openDaysNote": "居宅サービス計画により、休業日や営業時間外であっても、ご利用者またはご家族等のニーズに合わせて、サービスを提供する場合があります。"
  },
  {
    "id": "3970106369",
    "name": "デイサービスセンターはまもと",
    "kana": "デイサービスセンターハマモト",
    "address": "高知県高知市長浜6557番57",
    "lat": 33.4992947867961,
    "lng": 133.54185053373,
    "tel": "088-856-7774",
    "url": "",
    "pref": "高知県",
    "city": "高知市",
    "category": "community_day_service",
    "serviceType": "地域密着型通所介護",
    "capacity": null,
    "openDays": [
      "平日",
      "土曜日",
      "祝日"
    ],
    "openDaysNote": "年末年始12/31～1/3"
  },
  {
    "id": "3990101234",
    "name": "デイサービスセンターはる桟橋",
    "kana": "デイサービスセンターハルサンバシ",
    "address": "高知県高知市仲田町5-24",
    "lat": 33.5484968,
    "lng": 133.5545845,
    "tel": "088-855-3335",
    "url": "http://www.haru-care.net",
    "pref": "高知県",
    "city": "高知市",
    "category": "community_day_service",
    "serviceType": "地域密着型通所介護",
    "capacity": null,
    "openDays": [
      "平日",
      "土曜日",
      "祝日"
    ],
    "openDaysNote": ""
  },
  {
    "id": "3970104745",
    "name": "デイサービスセンター希月",
    "kana": "デイサービスセンターキヅキ",
    "address": "高知県朝倉本町１丁目12-28-6",
    "lat": 33.549059,
    "lng": 133.4902923,
    "tel": "088-821-9598",
    "url": "",
    "pref": "高知県",
    "city": "高知市",
    "category": "community_day_service",
    "serviceType": "地域密着型通所介護",
    "capacity": 0,
    "openDays": [
      "平日",
      "土曜日",
      "祝日"
    ],
    "openDaysNote": "なし"
  },
  {
    "id": "3970103739",
    "name": "デイサービスセンター幸のつどい",
    "kana": "デイサービスセンターサチノツドイ",
    "address": "高知県高知市大津乙１２１２番地７号",
    "lat": 33.5747486333641,
    "lng": 133.60357882209,
    "tel": "088-854‐7135",
    "url": "http://sachi-kochi.jp/",
    "pref": "高知県",
    "city": "高知市",
    "category": "community_day_service",
    "serviceType": "地域密着型通所介護",
    "capacity": 18,
    "openDays": [
      "平日",
      "土曜日",
      "祝日"
    ],
    "openDaysNote": "介護保険外のサービスを利用される場合は要相談。"
  },
  {
    "id": "3990101648",
    "name": "デイサービスセンター秦いきいき学校",
    "kana": "デイサービスセンターハダイキイキガッコウ",
    "address": "高知県高知市中秦泉寺87番地1",
    "lat": 33.5794424,
    "lng": 133.537222,
    "tel": "088-826-7251",
    "url": "https://www.fukudacl.or.jp/hataiki.html",
    "pref": "高知県",
    "city": "高知市",
    "category": "community_day_service",
    "serviceType": "地域密着型通所介護",
    "capacity": 0,
    "openDays": [
      "平日",
      "土曜日",
      "日曜日",
      "祝日"
    ],
    "openDaysNote": "特になし"
  },
  {
    "id": "3970105288",
    "name": "デイサービスなでしこ鏡川",
    "kana": "デイサービスナデシコカガミガワ",
    "address": "高知県高知市本宮町２２４",
    "lat": 33.5556113,
    "lng": 133.4999576,
    "tel": "０８８－８４０－８３４７",
    "url": "http:/nadeshiko102.jp",
    "pref": "高知県",
    "city": "高知市",
    "category": "community_day_service",
    "serviceType": "地域密着型通所介護",
    "capacity": 0,
    "openDays": [
      "平日",
      "土曜日",
      "祝日"
    ],
    "openDaysNote": ""
  },
  {
    "id": "3990100830",
    "name": "デイサービスふくわらい",
    "kana": "デイサービスフクワライ",
    "address": "高知県高知市相模町5-11",
    "lat": 33.5692994,
    "lng": 133.5323665,
    "tel": "888810645",
    "url": "",
    "pref": "高知県",
    "city": "高知市",
    "category": "community_day_service",
    "serviceType": "地域密着型通所介護",
    "capacity": 10,
    "openDays": [
      "平日",
      "土曜日",
      "日曜日",
      "祝日"
    ],
    "openDaysNote": "職員研修・悪天候等による臨時休業あり"
  },
  {
    "id": "3990101259",
    "name": "デイサービスプレイスsmile",
    "kana": "デイサービスプレイス　スミレ",
    "address": "高知県高知市大谷公園町16-25",
    "lat": 33.5349594,
    "lng": 133.4820645,
    "tel": "088-821-9191",
    "url": "https://www.day-yotsuba.com/sumile.html",
    "pref": "高知県",
    "city": "高知市",
    "category": "community_day_service",
    "serviceType": "地域密着型通所介護",
    "capacity": 16,
    "openDays": [
      "平日",
      "土曜日",
      "祝日"
    ],
    "openDaysNote": ""
  },
  {
    "id": "3990101051",
    "name": "デイサービスまろ",
    "kana": "デイサービスマロ",
    "address": "高知市大谷公園町11番39号",
    "lat": 33.5359924,
    "lng": 133.4816509,
    "tel": "088-844-9025",
    "url": "simomoto.kochiｰasakura＠outlook.jp",
    "pref": "高知県",
    "city": "高知市",
    "category": "community_day_service",
    "serviceType": "地域密着型通所介護",
    "capacity": 0,
    "openDays": [
      "平日",
      "土曜日",
      "祝日"
    ],
    "openDaysNote": ""
  },
  {
    "id": "3970105577",
    "name": "デイサービスむすび葉",
    "kana": "デイサービスムスビバ",
    "address": "高知市百石町4丁目11-2",
    "lat": 33.5428753,
    "lng": 133.5467916,
    "tel": "088-833-8358",
    "url": "",
    "pref": "高知県",
    "city": "高知市",
    "category": "community_day_service",
    "serviceType": "地域密着型通所介護",
    "capacity": 18,
    "openDays": [
      "平日",
      "土曜日",
      "日曜日",
      "祝日"
    ],
    "openDaysNote": "年末年始に勤務職員不足で、休所する場合がある。"
  },
  {
    "id": "3990101390",
    "name": "デイサービスむすび葉３プラス",
    "kana": "デイサービスムスビバサンプラス",
    "address": "高知県高知市東秦泉寺211",
    "lat": 33.580345,
    "lng": 133.546149638623,
    "tel": "088-879-8358",
    "url": "",
    "pref": "高知県",
    "city": "高知市",
    "category": "community_day_service",
    "serviceType": "地域密着型通所介護",
    "capacity": 18,
    "openDays": [
      "平日",
      "土曜日",
      "祝日"
    ],
    "openDaysNote": "風水害などの警報状況や行政機関からの指示により休所等の場合あり（改行）職員研修や建物等の設備補修等により臨時休業あり（改行）年末年始に勤務職員不足で、休所する場合あり"
  },
  {
    "id": "3970102491",
    "name": "デイサービスやえもん",
    "kana": "デイサービスヤエモン",
    "address": "高知市北久保2番39号",
    "lat": 33.5695338,
    "lng": 133.5642531,
    "tel": "088-878-1833",
    "url": "http://www.care-tomo.com/yaemon2.html",
    "pref": "高知県",
    "city": "高知市",
    "category": "community_day_service",
    "serviceType": "地域密着型通所介護",
    "capacity": 0,
    "openDays": [
      "平日",
      "土曜日",
      "祝日"
    ],
    "openDaysNote": ""
  },
  {
    "id": "3970105353",
    "name": "デイサービスロング・フィールド",
    "kana": "デイサービスロング・フィールド",
    "address": "高知県高知市塚ノ原１７３－１",
    "lat": 33.5614466,
    "lng": 133.4981495,
    "tel": "０８８－８７９－３１０７",
    "url": "http://hp.kaipoke.biz/333/index.html",
    "pref": "高知県",
    "city": "高知市",
    "category": "community_day_service",
    "serviceType": "地域密着型通所介護",
    "capacity": 0,
    "openDays": [
      "平日"
    ],
    "openDaysNote": "年末年始　１２月３１日～１月２日　休み"
  },
  {
    "id": "3990101465",
    "name": "デイサービスわがや",
    "kana": "デイサービスワガヤ",
    "address": "高知県高知市若草南町16-21",
    "lat": 33.5409493,
    "lng": 133.4902013,
    "tel": "088-844-6540",
    "url": "",
    "pref": "高知県",
    "city": "高知市",
    "category": "community_day_service",
    "serviceType": "地域密着型通所介護",
    "capacity": 0,
    "openDays": [
      "平日",
      "土曜日",
      "祝日"
    ],
    "openDaysNote": ""
  },
  {
    "id": "3970101568",
    "name": "デイサービスわたぼうし　-仁井田-",
    "kana": "デイサービスワタボウシ　-ニイダ-",
    "address": "高知市仁井田674-4",
    "lat": 33.5112212,
    "lng": 133.5718911,
    "tel": "088-847-5931",
    "url": "",
    "pref": "高知県",
    "city": "高知市",
    "category": "community_day_service",
    "serviceType": "地域密着型通所介護",
    "capacity": 0,
    "openDays": [
      "平日",
      "祝日"
    ],
    "openDaysNote": ""
  },
  {
    "id": "3970102897",
    "name": "デイサービスわたぼうし－種崎－",
    "kana": "デイサービスワタボウシ－タネザキ－",
    "address": "高知県高知市種崎699-18",
    "lat": 33.5022637,
    "lng": 133.5659449,
    "tel": "088-847-2116",
    "url": "",
    "pref": "高知県",
    "city": "高知市",
    "category": "community_day_service",
    "serviceType": "地域密着型通所介護",
    "capacity": 0,
    "openDays": [
      "平日",
      "土曜日",
      "祝日"
    ],
    "openDaysNote": ""
  },
  {
    "id": "3970104174",
    "name": "デイサービス愛結こうち",
    "kana": "デイサービスアイコウチ",
    "address": "高知県高知市布師田3591-5",
    "lat": 33.5890515,
    "lng": 133.6035133,
    "tel": "088-855-7811",
    "url": "http://ameblo.jp/day-ai/",
    "pref": "高知県",
    "city": "高知市",
    "category": "community_day_service",
    "serviceType": "地域密着型通所介護",
    "capacity": 0,
    "openDays": [
      "平日",
      "祝日"
    ],
    "openDaysNote": ""
  },
  {
    "id": "3990101135",
    "name": "デイサービス逢生",
    "kana": "デイサービスアオイ",
    "address": "高知県高知市中万々174",
    "lat": 33.5690225,
    "lng": 133.5156832,
    "tel": "088-875-2870",
    "url": "https://www.lib-2020.com/company",
    "pref": "高知県",
    "city": "高知市",
    "category": "community_day_service",
    "serviceType": "地域密着型通所介護",
    "capacity": 0,
    "openDays": [
      "平日",
      "土曜日",
      "祝日"
    ],
    "openDaysNote": "原則、12月30日～1月3日としますが、年末年始休業が長期に渡ることで、利用者の生活および生命に甚大な支障が生じると判断した場合など、この限りではありません。"
  },
  {
    "id": "3970102996",
    "name": "デイサービス元気",
    "kana": "デイサービスゲンキ",
    "address": "高知市横浜新町５－２５１０",
    "lat": 33.5155533,
    "lng": 133.5361298,
    "tel": "088-837-5200",
    "url": "http://www.aoi-ask.com/genki/",
    "pref": "高知県",
    "city": "高知市",
    "category": "community_day_service",
    "serviceType": "地域密着型通所介護",
    "capacity": 0,
    "openDays": [
      "平日",
      "土曜日",
      "祝日"
    ],
    "openDaysNote": "お客様のサービス利用希望時間帯に応じ、この限りではありません。"
  },
  {
    "id": "3990101333",
    "name": "デイサービス心音",
    "kana": "デイサービスココネ",
    "address": "高知県高知市瀬戸西町3丁目117",
    "lat": 33.5097705,
    "lng": 133.5420489,
    "tel": "088-874-6080",
    "url": "",
    "pref": "高知県",
    "city": "高知市",
    "category": "community_day_service",
    "serviceType": "地域密着型通所介護",
    "capacity": 0,
    "openDays": [
      "平日",
      "土曜日"
    ],
    "openDaysNote": ""
  },
  {
    "id": "3970104687",
    "name": "デイサービス想い人－いっく－",
    "kana": "デイサービスオモイビトイック",
    "address": "高知市一宮東町１丁目２６－３",
    "lat": 33.5831321,
    "lng": 133.5766409,
    "tel": "088-879-3408",
    "url": "http://www.life-tellus.jp",
    "pref": "高知県",
    "city": "高知市",
    "category": "community_day_service",
    "serviceType": "地域密着型通所介護",
    "capacity": 0,
    "openDays": [
      "平日",
      "土曜日",
      "祝日"
    ],
    "openDaysNote": "災害・天候等による警報発令時は休業する場合があります。"
  },
  {
    "id": "3970106286",
    "name": "デイサービス桃太郎",
    "kana": "デイサービスモモタロウ",
    "address": "高知県高知市大津乙1952-15",
    "lat": 33.5703149,
    "lng": 133.5919672,
    "tel": "088-855-6646",
    "url": "",
    "pref": "高知県",
    "city": "高知市",
    "category": "community_day_service",
    "serviceType": "地域密着型通所介護",
    "capacity": 0,
    "openDays": [
      "平日"
    ],
    "openDaysNote": ""
  },
  {
    "id": "3990101028",
    "name": "デイステーションりんくす",
    "kana": "デイステーションリンクス",
    "address": "高知県高知市杉井流２６－１１",
    "lat": 33.5677835,
    "lng": 133.5568149,
    "tel": "088-883-0131",
    "url": "ambition-links.co.jp",
    "pref": "高知県",
    "city": "高知市",
    "category": "community_day_service",
    "serviceType": "地域密着型通所介護",
    "capacity": null,
    "openDays": [
      "平日",
      "土曜日",
      "祝日"
    ],
    "openDaysNote": "年末年始12月30日～1月3日は休業"
  },
  {
    "id": "3970106013",
    "name": "デイトレあっぱれ",
    "kana": "デイトレアッパレ",
    "address": "高知県高知市横浜西町29-32",
    "lat": 33.519647849103,
    "lng": 133.538914927647,
    "tel": "088-842-8181",
    "url": "http://arigato.or.jp",
    "pref": "高知県",
    "city": "高知市",
    "category": "community_day_service",
    "serviceType": "地域密着型通所介護",
    "capacity": 10,
    "openDays": [
      "平日",
      "土曜日",
      "祝日"
    ],
    "openDaysNote": ""
  },
  {
    "id": "3990101069",
    "name": "デイフィオーレ高知",
    "kana": "デイフィオーレコウチ",
    "address": "高知県高知市上町5丁目8-24",
    "lat": 33.555409,
    "lng": 133.5178159,
    "tel": "888556075",
    "url": "http://liebe-fiore.com/",
    "pref": "高知県",
    "city": "高知市",
    "category": "community_day_service",
    "serviceType": "地域密着型通所介護",
    "capacity": 0,
    "openDays": [
      "平日",
      "土曜日",
      "祝日"
    ],
    "openDaysNote": ""
  },
  {
    "id": "3970103762",
    "name": "デイホーム　ぼたん",
    "kana": "デイホーム　ボタン",
    "address": "高知県高知市神田17-2",
    "lat": 33.5411103,
    "lng": 133.500816,
    "tel": "088-850-7071",
    "url": "https://chiiki-kaigo.casio.jp/kochi/info_services/58607",
    "pref": "高知県",
    "city": "高知市",
    "category": "community_day_service",
    "serviceType": "地域密着型通所介護",
    "capacity": 15,
    "openDays": [
      "平日",
      "土曜日",
      "祝日"
    ],
    "openDaysNote": ""
  },
  {
    "id": "3970104141",
    "name": "デイホームぼたんの家",
    "kana": "デイホームボタンノイエ",
    "address": "高知県高知市朝倉己１９０－２３",
    "lat": 33.5336022,
    "lng": 133.4826457,
    "tel": "088-843-2220",
    "url": "https://chiiki-kaigo.casio.jp/kochi/info_services/58607",
    "pref": "高知県",
    "city": "高知市",
    "category": "community_day_service",
    "serviceType": "地域密着型通所介護",
    "capacity": 18,
    "openDays": [
      "平日",
      "土曜日",
      "祝日"
    ],
    "openDaysNote": "祝祭日も営業しております。"
  },
  {
    "id": "3990101309",
    "name": "にじいろじかん針木",
    "kana": "ニジイロジカンハリギ",
    "address": "高知県高知市針木東町７−３２",
    "lat": 33.5346679,
    "lng": 133.4761101,
    "tel": "088-840-0722",
    "url": "https://nijinoyume-g.jp/",
    "pref": "高知県",
    "city": "高知市",
    "category": "community_day_service",
    "serviceType": "地域密着型通所介護",
    "capacity": 0,
    "openDays": [
      "平日",
      "土曜日",
      "祝日"
    ],
    "openDaysNote": ""
  },
  {
    "id": "3970105114",
    "name": "ハッピーライフゆたか",
    "kana": "ハッピーライフユタカ",
    "address": "高知県高知市新屋敷1丁目18番15号",
    "lat": 33.5657720797301,
    "lng": 133.522363654638,
    "tel": "088-881-3155",
    "url": "",
    "pref": "高知県",
    "city": "高知市",
    "category": "community_day_service",
    "serviceType": "地域密着型通所介護",
    "capacity": 0,
    "openDays": [
      "平日",
      "土曜日",
      "祝日"
    ],
    "openDaysNote": ""
  },
  {
    "id": "3990101374",
    "name": "ファンベース石立",
    "kana": "ファンベースイシダテ",
    "address": "高知県高知市東石立町77",
    "lat": 33.5529005,
    "lng": 133.5219683,
    "tel": "088-855-5135",
    "url": "",
    "pref": "高知県",
    "city": "高知市",
    "category": "community_day_service",
    "serviceType": "地域密着型通所介護",
    "capacity": 0,
    "openDays": [
      "平日",
      "土曜日",
      "祝日"
    ],
    "openDaysNote": ""
  },
  {
    "id": "3970105031",
    "name": "ふれあいのさと結",
    "kana": "フレアイノサトユイ",
    "address": "高知県高知市九反田15-13",
    "lat": 33.5562016,
    "lng": 133.5509436,
    "tel": "088-882-8480",
    "url": "https://instagram.com/yui.kochi?igshid=YmMyMTA2M2Y=",
    "pref": "高知県",
    "city": "高知市",
    "category": "community_day_service",
    "serviceType": "地域密着型通所介護",
    "capacity": 12,
    "openDays": [
      "平日",
      "土曜日",
      "祝日"
    ],
    "openDaysNote": ""
  },
  {
    "id": "3970105163",
    "name": "らくらくデイサービス",
    "kana": "ラクラクデイサービス",
    "address": "高知県高知市六泉寺町87-10キャロットハウス1階 キャロットハウス1階",
    "lat": 33.5378981,
    "lng": 133.5446975,
    "tel": "088-855-3690",
    "url": "",
    "pref": "高知県",
    "city": "高知市",
    "category": "community_day_service",
    "serviceType": "地域密着型通所介護",
    "capacity": 0,
    "openDays": [
      "平日",
      "土曜日",
      "日曜日",
      "祝日"
    ],
    "openDaysNote": ""
  },
  {
    "id": "3970106021",
    "name": "介護館2",
    "kana": "カイゴカン2",
    "address": "高知県高知県高知市東雲町4－10",
    "lat": 33.5600209,
    "lng": 133.5623758,
    "tel": "088－879－8145",
    "url": "http://hp.kaipoke.biz/86h/",
    "pref": "高知県",
    "city": "高知市",
    "category": "community_day_service",
    "serviceType": "地域密着型通所介護",
    "capacity": 14,
    "openDays": [
      "平日",
      "土曜日",
      "日曜日",
      "祝日"
    ],
    "openDaysNote": ""
  },
  {
    "id": "3970105932",
    "name": "健康ハピネス",
    "kana": "ケンコウハピネス",
    "address": "高知県高知市鳥越102番地2",
    "lat": 33.5631521219256,
    "lng": 133.489299878752,
    "tel": "088-856-8915",
    "url": "",
    "pref": "高知県",
    "city": "高知市",
    "category": "community_day_service",
    "serviceType": "地域密着型通所介護",
    "capacity": 75,
    "openDays": [
      "平日",
      "祝日"
    ],
    "openDaysNote": "祝日は営業しております。夏季休暇は3日程度・年末年始は5日程度（年度カレンダーによる）"
  },
  {
    "id": "3970106344",
    "name": "山の上のデイサービス",
    "kana": "ヤマノウエノデイサービス",
    "address": "高知県高知市上本宮町188番地2",
    "lat": 33.5554193,
    "lng": 133.49022,
    "tel": "088-844-6375",
    "url": "",
    "pref": "高知県",
    "city": "高知市",
    "category": "community_day_service",
    "serviceType": "地域密着型通所介護",
    "capacity": 8,
    "openDays": [
      "平日",
      "土曜日",
      "祝日"
    ],
    "openDaysNote": ""
  },
  {
    "id": "3910118102",
    "name": "山村病院　鏡居宅サービス事業所",
    "kana": "ヤマムラビョウイン　カガミキョタクサービスジギョウショ",
    "address": "高知市鏡今井１２６番地",
    "lat": 33.6079124,
    "lng": 133.4716458,
    "tel": "088-896-2200",
    "url": "",
    "pref": "高知県",
    "city": "高知市",
    "category": "community_day_service",
    "serviceType": "地域密着型通所介護",
    "capacity": 18,
    "openDays": [
      "平日",
      "土曜日",
      "祝日"
    ],
    "openDaysNote": ""
  },
  {
    "id": "3990101010",
    "name": "社会福祉法人　高知市社会福祉協議会　指定通所介護事業所　土佐山デイサービスセンター",
    "kana": "シャカイフクシホウジン　コウチシシャカイフクシキョウギカイ　シテイツウショカイゴジギョウショ　トサヤマデイサービスセンター",
    "address": "高知県高知市土佐山桑尾1842-2",
    "lat": 33.6318225247013,
    "lng": 133.526639520238,
    "tel": "088-895-2111",
    "url": "http://www.kochi-csw.or.jp",
    "pref": "高知県",
    "city": "高知市",
    "category": "community_day_service",
    "serviceType": "地域密着型通所介護",
    "capacity": 18,
    "openDays": [
      "平日",
      "土曜日",
      "祝日"
    ],
    "openDaysNote": ""
  },
  {
    "id": "3970104125",
    "name": "宅老所・デイサービス朱夏",
    "kana": "タクロウショ・デイサービスシュカ",
    "address": "高知県高知市南河ノ瀬町４４番６",
    "lat": 33.5472602,
    "lng": 133.524649,
    "tel": "０８８－８５５－５３２８",
    "url": "",
    "pref": "高知県",
    "city": "高知市",
    "category": "community_day_service",
    "serviceType": "地域密着型通所介護",
    "capacity": 0,
    "openDays": [
      "平日",
      "土曜日",
      "日曜日",
      "祝日"
    ],
    "openDaysNote": ""
  },
  {
    "id": "3970106096",
    "name": "地域密着型通所介護セカンドライフ",
    "kana": "チイキミッチャクガタツウショカイゴセカンドライフ",
    "address": "高知県高知市一宮中町１ー１８ー２７",
    "lat": 33.5835458,
    "lng": 133.5715858,
    "tel": "088-821-8451",
    "url": "",
    "pref": "高知県",
    "city": "高知市",
    "category": "community_day_service",
    "serviceType": "地域密着型通所介護",
    "capacity": 18,
    "openDays": [
      "平日",
      "土曜日",
      "祝日"
    ],
    "openDaysNote": ""
  },
  {
    "id": "3970105973",
    "name": "忠さんのデイサービス",
    "kana": "チュウサンノデイサービス",
    "address": "高知県高知市大川筋2丁目８番地4",
    "lat": 33.5642889,
    "lng": 133.5310952,
    "tel": "088-821-8816",
    "url": "",
    "pref": "高知県",
    "city": "高知市",
    "category": "community_day_service",
    "serviceType": "地域密着型通所介護",
    "capacity": 15,
    "openDays": [
      "平日"
    ],
    "openDaysNote": ""
  },
  {
    "id": "3970103432",
    "name": "通所介護　さくら草",
    "kana": "ツウショカイゴ　サクラソウ",
    "address": "高知市長浜6557-111",
    "lat": 33.4978803,
    "lng": 133.5406163,
    "tel": "088-841-6614",
    "url": "",
    "pref": "高知県",
    "city": "高知市",
    "category": "community_day_service",
    "serviceType": "地域密着型通所介護",
    "capacity": 22,
    "openDays": [
      "平日",
      "土曜日",
      "祝日"
    ],
    "openDaysNote": ""
  },
  {
    "id": "3990101523",
    "name": "歩きの専門デイサービス　いごりは",
    "kana": "アルキノセンモンデイサービス　イゴリハ",
    "address": "高知県高知市城山町２３－１宮地ビル１階 宮地ビル１階",
    "lat": 33.551108,
    "lng": 133.5161247,
    "tel": "０８８－８２１－８５１１",
    "url": "http://igoriha.nikita.jp",
    "pref": "高知県",
    "city": "高知市",
    "category": "community_day_service",
    "serviceType": "地域密着型通所介護",
    "capacity": 5,
    "openDays": [
      "平日",
      "土曜日",
      "祝日"
    ],
    "openDaysNote": ""
  },
  {
    "id": "3970105569",
    "name": "有限会社Livelyデイサービス　かもべ",
    "kana": "デイサービス　カモベ",
    "address": "高知県高知市鴨部1040-3",
    "lat": 33.5443795,
    "lng": 133.5058292,
    "tel": "088-832-3552",
    "url": "https://livelyhp.jimdo.com/",
    "pref": "高知県",
    "city": "高知市",
    "category": "community_day_service",
    "serviceType": "地域密着型通所介護",
    "capacity": 0,
    "openDays": [
      "平日",
      "土曜日",
      "祝日"
    ],
    "openDaysNote": ""
  },
  {
    "id": "3972600336",
    "name": "デイサービスセンター浮鞭",
    "kana": "デイサービスセンターウキブチ",
    "address": "高知県幡多郡黒潮町浮鞭３９５４－１",
    "lat": 33.0351311,
    "lng": 133.0289483,
    "tel": "0880-31-3339",
    "url": "",
    "pref": "高知県",
    "city": "黒潮町",
    "category": "community_day_service",
    "serviceType": "地域密着型通所介護",
    "capacity": null,
    "openDays": [
      "平日",
      "土曜日",
      "祝日"
    ],
    "openDaysNote": ""
  },
  {
    "id": "3972600310",
    "name": "黒潮町社会福祉協議会通所介護事業所こぶし",
    "kana": "クロシオチョウシャカイフクシキョウギカイツウショカイゴジギョウショコブシ",
    "address": "高知県幡多郡黒潮町拳ノ川17番地3",
    "lat": 33.1355304,
    "lng": 133.12329,
    "tel": "0880-55-7017",
    "url": "kuroshiochosyakyo.or.jp/",
    "pref": "高知県",
    "city": "黒潮町",
    "category": "community_day_service",
    "serviceType": "地域密着型通所介護",
    "capacity": 0,
    "openDays": [
      "平日"
    ],
    "openDaysNote": "なし"
  },
  {
    "id": "3972600211",
    "name": "黒潮町通所介護事業所鹿島ヶ浦",
    "kana": "クロシオチョウツウショカイゴジギョウショカシマガウラ",
    "address": "高知県幡多郡黒潮町佐賀3177-10",
    "lat": 33.0633266,
    "lng": 133.1060873,
    "tel": "0880-55-3555",
    "url": "",
    "pref": "高知県",
    "city": "黒潮町",
    "category": "community_day_service",
    "serviceType": "地域密着型通所介護",
    "capacity": 0,
    "openDays": [
      "平日"
    ],
    "openDaysNote": "なし"
  },
  {
    "id": "3972501013",
    "name": "デイサービス　きららの里",
    "kana": "デイサービス　キララノサト",
    "address": "高知県高岡郡佐川町乙1774-1きららビル４F きららビル４F",
    "lat": 33.5062081,
    "lng": 133.2806597,
    "tel": "0889-22-1410",
    "url": "http://www.kirara-harmony.com/staff.html",
    "pref": "高知県",
    "city": "佐川町",
    "category": "community_day_service",
    "serviceType": "地域密着型通所介護",
    "capacity": 0,
    "openDays": [
      "平日"
    ],
    "openDaysNote": ""
  },
  {
    "id": "3972501336",
    "name": "デイサービス　どんこ",
    "kana": "デイサービス　ドンコ",
    "address": "高知県高岡郡佐川町丙4279-1",
    "lat": 33.5170772707429,
    "lng": 133.286213675794,
    "tel": "0889-22-5001",
    "url": "",
    "pref": "高知県",
    "city": "佐川町",
    "category": "community_day_service",
    "serviceType": "地域密着型通所介護",
    "capacity": 15,
    "openDays": [
      "平日",
      "土曜日",
      "日曜日",
      "祝日"
    ],
    "openDaysNote": "24時間電話での対応は行っています。"
  },
  {
    "id": "3972501294",
    "name": "みのりのデイ",
    "kana": "ミノリノデイ",
    "address": "高知県高岡郡佐川町乙　２０５０－１０　１F",
    "lat": 33.512937,
    "lng": 133.2864048,
    "tel": "0889-20-9811",
    "url": "",
    "pref": "高知県",
    "city": "佐川町",
    "category": "community_day_service",
    "serviceType": "地域密着型通所介護",
    "capacity": 17,
    "openDays": [
      "平日",
      "土曜日",
      "祝日"
    ],
    "openDaysNote": "年末年始休業（１２月３１日～１月３日）"
  },
  {
    "id": "3971000389",
    "name": "アピアデイサービス",
    "kana": "アピアデイサービス",
    "address": "高知県四万十市右山五月町８－１３アピアさつき アピアさつき",
    "lat": 32.9871096,
    "lng": 132.9392991,
    "tel": "0880-34-8300",
    "url": "",
    "pref": "高知県",
    "city": "四万十市",
    "category": "community_day_service",
    "serviceType": "地域密着型通所介護",
    "capacity": 18,
    "openDays": [
      "平日",
      "祝日"
    ],
    "openDaysNote": ""
  },
  {
    "id": "3971000231",
    "name": "デイサービスせいきょう四万十",
    "kana": "デイサービスセイキョウシマント",
    "address": "高知県四万十市具同3227番地",
    "lat": 32.9797487,
    "lng": 132.9150793,
    "tel": "0880-37-3336",
    "url": "",
    "pref": "高知県",
    "city": "四万十市",
    "category": "community_day_service",
    "serviceType": "地域密着型通所介護",
    "capacity": 18,
    "openDays": [
      "平日",
      "土曜日",
      "祝日"
    ],
    "openDaysNote": ""
  },
  {
    "id": "3970700070",
    "name": "デイサービスセンターえびす",
    "kana": "デイサービスセンターエビス",
    "address": "高知県　四万十市　国見　929-1",
    "lat": 32.9799706,
    "lng": 132.8793375,
    "tel": "0880-37-1544",
    "url": "",
    "pref": "高知県",
    "city": "四万十市",
    "category": "community_day_service",
    "serviceType": "地域密着型通所介護",
    "capacity": 0,
    "openDays": [
      "平日",
      "土曜日",
      "祝日"
    ],
    "openDaysNote": "特になし。"
  },
  {
    "id": "3972500379",
    "name": "デイサービスセンター　さくら貝",
    "kana": "デイサービスセンター　サクラガイ",
    "address": "高知県高岡郡四万十町興津2520-1",
    "lat": 33.1768867,
    "lng": 133.2016015,
    "tel": "0880-25-0888",
    "url": "http://www11.ocn.ne.jp/~oikonia/sakurasyoukai.html",
    "pref": "高知県",
    "city": "四万十町",
    "category": "community_day_service",
    "serviceType": "地域密着型通所介護",
    "capacity": 0,
    "openDays": [
      "平日",
      "土曜日",
      "祝日"
    ],
    "openDaysNote": "特になし"
  },
  {
    "id": "3972500734",
    "name": "デイサービスセンターこいのぼり",
    "kana": "デイサービスセンターコイノボリ",
    "address": "高岡郡四万十町昭和４７０番地６",
    "lat": 33.2205189,
    "lng": 132.8961409,
    "tel": "0880-28-5331",
    "url": "http://shimanto-shakyo.jp/",
    "pref": "高知県",
    "city": "四万十町",
    "category": "community_day_service",
    "serviceType": "地域密着型通所介護",
    "capacity": 18,
    "openDays": [
      "平日",
      "土曜日",
      "祝日"
    ],
    "openDaysNote": ""
  },
  {
    "id": "3992500284",
    "name": "デイサービスセンターすみれ",
    "kana": "デイサービスセンタースミレ",
    "address": "高知県高岡郡四万十町黒石734番地",
    "lat": 33.2242249,
    "lng": 133.1916614,
    "tel": "080-3166-2807",
    "url": "",
    "pref": "高知県",
    "city": "四万十町",
    "category": "community_day_service",
    "serviceType": "地域密着型通所介護",
    "capacity": 10,
    "openDays": [
      "平日",
      "祝日"
    ],
    "openDaysNote": ""
  },
  {
    "id": "3972500742",
    "name": "デイサービスセンターひだまり",
    "kana": "デイサービスセンターヒダマリ",
    "address": "高知県高岡郡四万十町久保川４１番地１高齢者福祉多機能施設「十和の里」 高齢者福祉多機能施設「十和の里」",
    "lat": 33.2324253,
    "lng": 132.8770173,
    "tel": "0880-29-1051",
    "url": "http://shimanto-shakyo.jp/",
    "pref": "高知県",
    "city": "四万十町",
    "category": "community_day_service",
    "serviceType": "地域密着型通所介護",
    "capacity": 0,
    "openDays": [
      "平日",
      "土曜日",
      "祝日"
    ],
    "openDaysNote": ""
  },
  {
    "id": "3992500185",
    "name": "デイサービス結いの里",
    "kana": "デイサービスユイノサト",
    "address": "高知県高岡郡四万十町影野80番地イ",
    "lat": 33.2882139111114,
    "lng": 133.176982580426,
    "tel": "0880-22-8688",
    "url": "",
    "pref": "高知県",
    "city": "四万十町",
    "category": "community_day_service",
    "serviceType": "地域密着型通所介護",
    "capacity": null,
    "openDays": [
      "平日",
      "土曜日",
      "祝日"
    ],
    "openDaysNote": ""
  },
  {
    "id": "3972501328",
    "name": "デイサービス大井川",
    "kana": "デイサービスオオイガワ",
    "address": "高知県高岡郡四万十町大井川1462番地1デイサービス大井川 デイサービス大井川",
    "lat": 33.2196661,
    "lng": 132.8909442,
    "tel": "0880-29-1235",
    "url": "http://www.koubanfukushikai.or.jp/",
    "pref": "高知県",
    "city": "四万十町",
    "category": "community_day_service",
    "serviceType": "地域密着型通所介護",
    "capacity": 15,
    "openDays": [
      "平日"
    ],
    "openDaysNote": "台風・施設行事等により、休業となる場合があります。"
  },
  {
    "id": "3972501112",
    "name": "リハ・トレスタジオリブート",
    "kana": "リハ・トレスタジオリブート",
    "address": "高知県高岡郡四万十町琴平町3番8号",
    "lat": 33.2109932252866,
    "lng": 133.136138846033,
    "tel": "0880-29-6067",
    "url": "http://user.j-connect.net/actone/",
    "pref": "高知県",
    "city": "四万十町",
    "category": "community_day_service",
    "serviceType": "地域密着型通所介護",
    "capacity": 30,
    "openDays": [
      "平日",
      "土曜日",
      "祝日"
    ],
    "openDaysNote": "土曜・祝祭日は営業（改行）午後13時40分～16時40分（平日、土曜日、祝日）"
  },
  {
    "id": "3990200069",
    "name": "デイサービスセンターさんさん",
    "kana": "デイサービスセンターサンサン",
    "address": "高知県室戸市領家270-1",
    "lat": 33.2932048,
    "lng": 134.1661379,
    "tel": "0887-22-0201",
    "url": "http://f-shizenmura.or.jp",
    "pref": "高知県",
    "city": "室戸市",
    "category": "community_day_service",
    "serviceType": "地域密着型通所介護",
    "capacity": 0,
    "openDays": [
      "平日",
      "土曜日",
      "祝日"
    ],
    "openDaysNote": "なし"
  },
  {
    "id": "3990200036",
    "name": "デイサービスセンターにこにこリハビリクラブ",
    "kana": "デイサービスセンターニコニコリハビリクラブ",
    "address": "高知県室戸市室津1774-7",
    "lat": 33.2932797,
    "lng": 134.1594741,
    "tel": "0887-22-0511",
    "url": "",
    "pref": "高知県",
    "city": "室戸市",
    "category": "community_day_service",
    "serviceType": "地域密着型通所介護",
    "capacity": 0,
    "openDays": [
      "平日",
      "祝日"
    ],
    "openDaysNote": ""
  },
  {
    "id": "3990200077",
    "name": "デイサービスはな",
    "kana": "デイサービスハナ",
    "address": "高知県室戸市羽根町乙2033",
    "lat": 33.3784822,
    "lng": 134.0627452,
    "tel": "0887-26-1820",
    "url": "",
    "pref": "高知県",
    "city": "室戸市",
    "category": "community_day_service",
    "serviceType": "地域密着型通所介護",
    "capacity": null,
    "openDays": [
      "平日",
      "土曜日",
      "祝日"
    ],
    "openDaysNote": "地域サロンに場所の提供を検討中（改行）相談業務は行います。"
  },
  {
    "id": "3970200337",
    "name": "デイサービスゆうなぎ",
    "kana": "デイサービスユウナギ",
    "address": "高知県室戸市元甲2307番2",
    "lat": 33.2950380738799,
    "lng": 134.114078528836,
    "tel": "0887-23-1277",
    "url": "",
    "pref": "高知県",
    "city": "室戸市",
    "category": "community_day_service",
    "serviceType": "地域密着型通所介護",
    "capacity": 15,
    "openDays": [
      "平日",
      "祝日"
    ],
    "openDaysNote": "年末年始（12月30～1月3日）は休み"
  },
  {
    "id": "3970200154",
    "name": "指定通所介護事業所　むえんの舎",
    "kana": "シテイツウショカイゴジギョウショ　ムエンノヤ",
    "address": "室戸市佐喜浜町1578-2",
    "lat": 33.3950901779454,
    "lng": 134.208519456316,
    "tel": "0887-27-2225",
    "url": "",
    "pref": "高知県",
    "city": "室戸市",
    "category": "community_day_service",
    "serviceType": "地域密着型通所介護",
    "capacity": 10,
    "openDays": [
      "平日",
      "日曜日",
      "祝日"
    ],
    "openDaysNote": "土曜日は個別対応な必要に応じて、営業しています。"
  },
  {
    "id": "3990200044",
    "name": "地域密着通所介護事業所おくのさと",
    "kana": "チイキミッチャクツウショカイゴジギョウショオクノサト",
    "address": "高知県室戸市元甲１０７６",
    "lat": 33.321014,
    "lng": 134.129747,
    "tel": "0887-98-7037",
    "url": "",
    "pref": "高知県",
    "city": "室戸市",
    "category": "community_day_service",
    "serviceType": "地域密着型通所介護",
    "capacity": 12,
    "openDays": [
      "平日",
      "土曜日",
      "祝日"
    ],
    "openDaysNote": ""
  },
  {
    "id": "3972400604",
    "name": "仁淀川町デイサービスセンターひなた荘",
    "kana": "ニヨドガワチョウデイサービスセンターヒナタソウ",
    "address": "高知県吾川郡仁淀川町森4287番地",
    "lat": 33.5473867,
    "lng": 133.113742,
    "tel": "0889-32-1500",
    "url": "",
    "pref": "高知県",
    "city": "仁淀川町",
    "category": "community_day_service",
    "serviceType": "地域密着型通所介護",
    "capacity": 0,
    "openDays": [
      "平日",
      "土曜日",
      "祝日"
    ],
    "openDaysNote": ""
  },
  {
    "id": "3970600361",
    "name": "デイサービス　ひかり",
    "kana": "デイサービス　ヒカリ",
    "address": "高知県須崎市大谷551番地",
    "lat": 33.3901509250951,
    "lng": 133.32169167784,
    "tel": "0889-47-0670",
    "url": "",
    "pref": "高知県",
    "city": "須崎市",
    "category": "community_day_service",
    "serviceType": "地域密着型通所介護",
    "capacity": null,
    "openDays": [
      "平日",
      "土曜日",
      "祝日"
    ],
    "openDaysNote": "特になし"
  },
  {
    "id": "3970600312",
    "name": "デイサービスびんび",
    "kana": "デイサービスビンビ",
    "address": "高知県須崎市吾井郷乙706番地",
    "lat": 33.4264981,
    "lng": 133.2905298,
    "tel": "0889-40-6066",
    "url": "",
    "pref": "高知県",
    "city": "須崎市",
    "category": "community_day_service",
    "serviceType": "地域密着型通所介護",
    "capacity": 0,
    "openDays": [
      "平日",
      "土曜日",
      "祝日"
    ],
    "openDaysNote": "送迎は午前８：００から午後６時まで対応いたします。（改行）（往）午前8：00～（改行）（復）午後18：00迄"
  },
  {
    "id": "3970600437",
    "name": "リハビリデイサービス元気屋本舗",
    "kana": "リハビリデイサービスゲンキヤホンポ",
    "address": "高知県須崎市吾井郷乙1739-1",
    "lat": 33.4159852,
    "lng": 133.2938601,
    "tel": "0889-42-8455",
    "url": "",
    "pref": "高知県",
    "city": "須崎市",
    "category": "community_day_service",
    "serviceType": "地域密着型通所介護",
    "capacity": 216,
    "openDays": [
      "平日",
      "土曜日",
      "祝日"
    ],
    "openDaysNote": "１日型　　０９時００分～１６時０５分（改行）（改行）半日型　　午前０８時５５分～１２時００分/午後１３時００分～１６時０５分（改行）【年末年始・GWの休日あり】"
  },
  {
    "id": "3970600155",
    "name": "須崎市老人デイサービスセンター山ももの家",
    "kana": "スサキシロウジンデイサービスセンターヤマモモノイエ",
    "address": "高知県須崎市安和２１６番１",
    "lat": 33.3687729,
    "lng": 133.2565181,
    "tel": "0889-40-0660",
    "url": "",
    "pref": "高知県",
    "city": "須崎市",
    "category": "community_day_service",
    "serviceType": "地域密着型通所介護",
    "capacity": 0,
    "openDays": [
      "平日",
      "土曜日"
    ],
    "openDaysNote": ""
  },
  {
    "id": "3970600395",
    "name": "通所介護事業所楽リハ",
    "kana": "ツウショカイゴジギョウショラクリハ",
    "address": "高知県須崎市多ノ郷甲1069-8",
    "lat": 33.4132480893986,
    "lng": 133.2805813705,
    "tel": "0889-43-9577",
    "url": "",
    "pref": "高知県",
    "city": "須崎市",
    "category": "community_day_service",
    "serviceType": "地域密着型通所介護",
    "capacity": 18,
    "openDays": [
      "平日",
      "土曜日",
      "祝日"
    ],
    "openDaysNote": ""
  },
  {
    "id": "3990600060",
    "name": "老人デイサービスセンター清流の家",
    "kana": "ロウジンデイサービスセンターセイリュウノイエ",
    "address": "高知県須崎市上分丙1758番地８",
    "lat": 33.3995937,
    "lng": 133.2368273,
    "tel": "0889-46-0611",
    "url": "http：/ｗｗｗ．ｃａ．ｐｉｋａｒａ．ｎｅ．ｊｐ/ｓｅｉｒｙｕｓｏ",
    "pref": "高知県",
    "city": "須崎市",
    "category": "community_day_service",
    "serviceType": "地域密着型通所介護",
    "capacity": 0,
    "openDays": [
      "平日",
      "土曜日"
    ],
    "openDaysNote": ""
  },
  {
    "id": "3972200061",
    "name": "社会福祉法人　大豊町社会福祉協議会デイサービスセンターくろいし",
    "kana": "シャカイフクシホウジン　オオトヨチョウシャカイフクシキョウギカイ　デイサービスセンタークロイシ",
    "address": "高知県長岡郡大豊町黒石３４５－７",
    "lat": 33.7860585,
    "lng": 133.72638,
    "tel": "０８８７－７３－１２００",
    "url": "",
    "pref": "高知県",
    "city": "大豊町",
    "category": "community_day_service",
    "serviceType": "地域密着型通所介護",
    "capacity": 0,
    "openDays": [
      "平日",
      "祝日"
    ],
    "openDaysNote": ""
  },
  {
    "id": "3992200026",
    "name": "通所　よさく",
    "kana": "ツウショ　ヨサク",
    "address": "高知県長岡郡大豊町大滝498-44",
    "lat": 33.7919246654825,
    "lng": 133.780402788195,
    "tel": "0887-74-0270",
    "url": "",
    "pref": "高知県",
    "city": "大豊町",
    "category": "community_day_service",
    "serviceType": "地域密着型通所介護",
    "capacity": 0,
    "openDays": [
      "平日",
      "祝日"
    ],
    "openDaysNote": "※月～金の祝日は営業"
  },
  {
    "id": "3972500056",
    "name": "デイサービス　おおのみ",
    "kana": "デイサービス　オオノミ",
    "address": "高岡郡中土佐町大野見吉野１１８",
    "lat": 33.334555,
    "lng": 133.1405667,
    "tel": "0889-57-2138",
    "url": "",
    "pref": "高知県",
    "city": "中土佐町",
    "category": "community_day_service",
    "serviceType": "地域密着型通所介護",
    "capacity": 0,
    "openDays": [
      "平日"
    ],
    "openDaysNote": ""
  },
  {
    "id": "3972501260",
    "name": "リハビリデイサービス元気屋本舗",
    "kana": "リハビリデイサービスゲンキヤホンポ",
    "address": "高知県高岡郡中土佐町久礼6214-1",
    "lat": 33.3300194,
    "lng": 133.2300602,
    "tel": "0889-52-3525",
    "url": "",
    "pref": "高知県",
    "city": "中土佐町",
    "category": "community_day_service",
    "serviceType": "地域密着型通所介護",
    "capacity": 120,
    "openDays": [
      "平日",
      "土曜日",
      "祝日"
    ],
    "openDaysNote": "１日型　０９時～１６時０５分（改行）（改行）半日型　午前　０８時５５分～１２時００分　／　午後　１３時００分～１６時０５分"
  },
  {
    "id": "3992500276",
    "name": "地域密着型通所介護事業所デイサービスセンターのじぎく",
    "kana": "チイキミッチャクガタツウショカイゴジギョウショデイサービスセンターノジギク",
    "address": "高知県高岡郡中土佐町上ノ加江5163番地4",
    "lat": 33.3041359,
    "lng": 133.240853,
    "tel": "0889-52-3496",
    "url": "",
    "pref": "高知県",
    "city": "中土佐町",
    "category": "community_day_service",
    "serviceType": "地域密着型通所介護",
    "capacity": 0,
    "openDays": [
      "平日",
      "土曜日",
      "祝日"
    ],
    "openDaysNote": ""
  },
  {
    "id": "3992500250",
    "name": "指定地域密着型通所介護事業所デイサービスセンター津野ゆの里",
    "kana": "シテイチイキミッチャクガタツウショカイゴジギョウショデイサービスセンターツノユノサト",
    "address": "高知県高岡郡津野町姫野々417-1",
    "lat": 33.4394002,
    "lng": 133.2143862,
    "tel": "0889-55-2286",
    "url": "https://care-net.biz/39/hayamasou/",
    "pref": "高知県",
    "city": "津野町",
    "category": "community_day_service",
    "serviceType": "地域密着型通所介護",
    "capacity": null,
    "openDays": [
      "平日"
    ],
    "openDaysNote": ""
  },
  {
    "id": "3992500243",
    "name": "津野町地域密着型通所介護事業所　高原",
    "kana": "ツノチョウチイキミッチャクガタツウショカイゴジギョウショ　コウゲン",
    "address": "高知県高岡郡津野町力石5082番地",
    "lat": 33.3945778,
    "lng": 133.0305061,
    "tel": "0889-62-2154",
    "url": "",
    "pref": "高知県",
    "city": "津野町",
    "category": "community_day_service",
    "serviceType": "地域密着型通所介護",
    "capacity": null,
    "openDays": [
      "平日"
    ],
    "openDaysNote": ""
  },
  {
    "id": "3970500637",
    "name": "でいさーびす　かけはし",
    "kana": "デイサービス　カケハシ",
    "address": "高知県土佐市高岡町乙33番地",
    "lat": 33.4966162,
    "lng": 133.4205006,
    "tel": "088-821-8141",
    "url": "",
    "pref": "高知県",
    "city": "土佐市",
    "category": "community_day_service",
    "serviceType": "地域密着型通所介護",
    "capacity": 15,
    "openDays": [
      "平日",
      "土曜日",
      "祝日"
    ],
    "openDaysNote": ""
  },
  {
    "id": "3970500652",
    "name": "デイサービス　蓮池",
    "kana": "デイサービスハスイケ",
    "address": "高知県土佐市蓮池1396-2",
    "lat": 33.4898921,
    "lng": 133.4098186,
    "tel": "088-856-6900",
    "url": "",
    "pref": "高知県",
    "city": "土佐市",
    "category": "community_day_service",
    "serviceType": "地域密着型通所介護",
    "capacity": 0,
    "openDays": [
      "平日",
      "土曜日",
      "祝日"
    ],
    "openDaysNote": ""
  },
  {
    "id": "3970500710",
    "name": "デイサービス清滝",
    "kana": "デイサービスキヨタキ",
    "address": "高知県土佐市高岡町乙1568－１デイサービス清滝 デイサービス清滝",
    "lat": 33.502732,
    "lng": 133.4111349,
    "tel": "088-821-7564",
    "url": "refine.fem.jp",
    "pref": "高知県",
    "city": "土佐市",
    "category": "community_day_service",
    "serviceType": "地域密着型通所介護",
    "capacity": 15,
    "openDays": [
      "平日",
      "祝日"
    ],
    "openDaysNote": ""
  },
  {
    "id": "3972300168",
    "name": "デイサービスセンター　ときわ",
    "kana": "デイサービスセンター　トキワ",
    "address": "高知県土佐郡土佐町田井1377-29",
    "lat": 33.7463597689658,
    "lng": 133.557053861699,
    "tel": "0887-82-2741",
    "url": "www.tokiwaen-k.or.jp",
    "pref": "高知県",
    "city": "土佐町",
    "category": "community_day_service",
    "serviceType": "地域密着型通所介護",
    "capacity": 18,
    "openDays": [
      "平日",
      "祝日"
    ],
    "openDaysNote": "自然災害等で管理者が安全のため休業を決定した日は休業します。"
  },
  {
    "id": "3972000305",
    "name": "デイセンター海援隊",
    "kana": "デイセンター　カイエンタイ",
    "address": "高知県安芸郡東洋町大字河内字王子田353番地1",
    "lat": 33.5472795,
    "lng": 134.2933834,
    "tel": "0887-29-3301",
    "url": "https://www.kenshokai.group/institution/gh/shintaro/index.php",
    "pref": "高知県",
    "city": "東洋町",
    "category": "community_day_service",
    "serviceType": "地域密着型通所介護",
    "capacity": 0,
    "openDays": [
      "平日",
      "祝日"
    ],
    "openDaysNote": "年末年始及び台風・積雪等の天候状況の極めて悪いときは休日とすることができる。"
  },
  {
    "id": "3970400556",
    "name": "デイサービス　ときめき",
    "kana": "デイサービス　トキメキ",
    "address": "高知県南国市久枝164-2",
    "lat": 33.5349986,
    "lng": 133.6781741,
    "tel": "088-865-5215",
    "url": "http://fukuunmaru.com/",
    "pref": "高知県",
    "city": "南国市",
    "category": "community_day_service",
    "serviceType": "地域密着型通所介護",
    "capacity": null,
    "openDays": [
      "平日",
      "祝日"
    ],
    "openDaysNote": "12/29～1/3　冬季休み"
  },
  {
    "id": "3970400614",
    "name": "デイサービス　ながおか",
    "kana": "デイサービス　ナガオカ",
    "address": "高知県南国市上末松9番地8",
    "lat": 33.5940162733104,
    "lng": 133.659661908598,
    "tel": "088-856-9472",
    "url": "http://dayservicenagaoka.web.fc2.com",
    "pref": "高知県",
    "city": "南国市",
    "category": "community_day_service",
    "serviceType": "地域密着型通所介護",
    "capacity": 2,
    "openDays": [
      "平日",
      "土曜日",
      "祝日"
    ],
    "openDaysNote": ""
  },
  {
    "id": "3970400382",
    "name": "デイサービス　みそら",
    "kana": "デイサービス　ミソラ",
    "address": "高知県南国市十市１５２４番地２",
    "lat": 33.5301761,
    "lng": 133.6322225,
    "tel": "088-865-8171",
    "url": "https://tn-misora.co.jp/",
    "pref": "高知県",
    "city": "南国市",
    "category": "community_day_service",
    "serviceType": "地域密着型通所介護",
    "capacity": 0,
    "openDays": [
      "平日",
      "祝日"
    ],
    "openDaysNote": ""
  },
  {
    "id": "3970400432",
    "name": "デイサービス　みそら岡豊",
    "kana": "デイサービス　ミソラオコウ",
    "address": "高知県南国市岡豊町蒲原160-61",
    "lat": 33.5913429,
    "lng": 133.6028689,
    "tel": "088-803-4116",
    "url": "https://tn-misora.co.jp/",
    "pref": "高知県",
    "city": "南国市",
    "category": "community_day_service",
    "serviceType": "地域密着型通所介護",
    "capacity": 0,
    "openDays": [
      "平日",
      "土曜日",
      "祝日"
    ],
    "openDaysNote": ""
  },
  {
    "id": "3970400507",
    "name": "デイサービス　愛結",
    "kana": "デイサービス　アイ",
    "address": "高知県南国市岡豊町蒲原１６０－７８",
    "lat": 33.5910235,
    "lng": 133.6029023,
    "tel": "088-804-5225",
    "url": "http://ameblo.jp/day-ai/",
    "pref": "高知県",
    "city": "南国市",
    "category": "community_day_service",
    "serviceType": "地域密着型通所介護",
    "capacity": 13,
    "openDays": [
      "平日",
      "土曜日",
      "祝日"
    ],
    "openDaysNote": ""
  },
  {
    "id": "3970400606",
    "name": "デイサービスセンターこはる南国",
    "kana": "デイサービスセンターコハルナンゴク",
    "address": "高知県南国市篠原１７３９－５",
    "lat": 33.5747955,
    "lng": 133.6358934,
    "tel": "088－856－9849",
    "url": "",
    "pref": "高知県",
    "city": "南国市",
    "category": "community_day_service",
    "serviceType": "地域密着型通所介護",
    "capacity": 15,
    "openDays": [
      "平日",
      "土曜日",
      "祝日"
    ],
    "openDaysNote": ""
  },
  {
    "id": "3970400473",
    "name": "でいホームつぼみ",
    "kana": "デイホームツボミ",
    "address": "高知県南国市堀ノ内４５８番地",
    "lat": 33.577013,
    "lng": 133.6744543,
    "tel": "088-864-6363",
    "url": "www.tsubomi-n.com",
    "pref": "高知県",
    "city": "南国市",
    "category": "community_day_service",
    "serviceType": "地域密着型通所介護",
    "capacity": 0,
    "openDays": [
      "平日",
      "土曜日",
      "祝日"
    ],
    "openDaysNote": ""
  },
  {
    "id": "3972000149",
    "name": "馬路村デイサービスセンター",
    "kana": "ウマジムラデイサービスセンター",
    "address": "高知県安芸郡馬路村大字馬路407番地1",
    "lat": 33.5530806,
    "lng": 134.0483472,
    "tel": "0887-42-1020",
    "url": "",
    "pref": "高知県",
    "city": "馬路村",
    "category": "community_day_service",
    "serviceType": "地域密着型通所介護",
    "capacity": 15,
    "openDays": [
      "平日"
    ],
    "openDaysNote": ""
  },
  {
    "id": "3972200137",
    "name": "デイサービス長老大学",
    "kana": "デイサービスチョウロウダイガク",
    "address": "高知県長岡郡本山町吉野347番１",
    "lat": 33.7529244711709,
    "lng": 133.562029525546,
    "tel": "0887-82-1126",
    "url": "https://chouroudaigaku.jp/",
    "pref": "高知県",
    "city": "本山町",
    "category": "community_day_service",
    "serviceType": "地域密着型通所介護",
    "capacity": 18,
    "openDays": [
      "平日"
    ],
    "openDaysNote": ""
  }
]