[
  {
    "id": "3171100138",
    "name": "デイサービスセンター　あいの手",
    "kana": "デイサービスセンター　アイノテ",
    "address": "鳥取県岩美郡岩美町岩井279番地",
    "lat": 35.5570318,
    "lng": 134.3636127,
    "tel": "0857-37-5339",
    "url": "",
    "pref": "鳥取県",
    "city": "岩美町",
    "category": "community_day_service",
    "serviceType": "地域密着型通所介護",
    "capacity": 0,
    "openDays": [
      "平日",
      "土曜日",
      "祝日"
    ],
    "openDaysNote": ""
  },
  {
    "id": "3171100153",
    "name": "ながたんの里",
    "kana": "ナガタンノサト",
    "address": "鳥取県岩美郡岩美町長谷814番地",
    "lat": 22.6947932,
    "lng": 120.3608455,
    "tel": "0857-72-8123",
    "url": "",
    "pref": "鳥取県",
    "city": "岩美町",
    "category": "community_day_service",
    "serviceType": "地域密着型通所介護",
    "capacity": 10,
    "openDays": [
      "平日",
      "土曜日",
      "祝日"
    ],
    "openDaysNote": "年末年始（12/31～1/3）は休業"
  },
  {
    "id": "3171100120",
    "name": "松風の郷デイサービスセンター",
    "kana": "ショウフウノサトデイサービスセンター",
    "address": "鳥取県岩美郡岩美町浦富1418-2",
    "lat": 35.583903,
    "lng": 134.331281,
    "tel": "0857-72-3202",
    "url": "http://hyogofukushi.com/about/",
    "pref": "鳥取県",
    "city": "岩美町",
    "category": "community_day_service",
    "serviceType": "地域密着型通所介護",
    "capacity": 10,
    "openDays": [
      "平日",
      "祝日"
    ],
    "openDaysNote": "大多数の利用者のサービス提供時間は９：３０～１６：００（６時間３０分）。希望に応じて延長・夕食提供あり。"
  },
  {
    "id": "3190400113",
    "name": "デイサービスステーション　リハビりす",
    "kana": "デイサービスステーション　リハビリス",
    "address": "鳥取県境港市外江町3036",
    "lat": 35.5283062,
    "lng": 133.2088325,
    "tel": "0859-36-8255",
    "url": "",
    "pref": "鳥取県",
    "city": "境港市",
    "category": "community_day_service",
    "serviceType": "地域密着型通所介護",
    "capacity": null,
    "openDays": [
      "平日",
      "土曜日",
      "祝日"
    ],
    "openDaysNote": ""
  },
  {
    "id": "3190400154",
    "name": "レッツ倶楽部境港",
    "kana": "レッツクラブサカイミナト",
    "address": "鳥取県境港市上道町3737",
    "lat": 35.5356658,
    "lng": 133.2219738,
    "tel": "0859-21-1139",
    "url": "https://www.lets-club.jp/",
    "pref": "鳥取県",
    "city": "境港市",
    "category": "community_day_service",
    "serviceType": "地域密着型通所介護",
    "capacity": 0,
    "openDays": [
      "平日",
      "祝日"
    ],
    "openDaysNote": ""
  },
  {
    "id": "3191400161",
    "name": "地域密着型通所介護あすぷらすことうら",
    "kana": "チイキミッチャクガタツウショカイゴアスプラスコトウラ",
    "address": "鳥取県東伯郡琴浦町八橋775番地61",
    "lat": 35.4976093,
    "lng": 133.6742499,
    "tel": "0858-52-2768",
    "url": "https://us-plus-nekohige.com",
    "pref": "鳥取県",
    "city": "琴浦町",
    "category": "community_day_service",
    "serviceType": "地域密着型通所介護",
    "capacity": 0,
    "openDays": [
      "平日",
      "土曜日",
      "祝日"
    ],
    "openDaysNote": "８月１４日から８月１５日、１２月３１日から１月２日、春期２日、秋期２日をその他の休業日とする。"
  },
  {
    "id": "3171600376",
    "name": "合同会社いこいの広場らんちゅう",
    "kana": "ゴウドウガイシャイコイノヒロバランチュウ",
    "address": "鳥取県日野郡江府町大字武庫1198番地1",
    "lat": 35.2622396052272,
    "lng": 133.473115664418,
    "tel": "0859-77-2200",
    "url": "",
    "pref": "鳥取県",
    "city": "江府町",
    "category": "community_day_service",
    "serviceType": "地域密着型通所介護",
    "capacity": 18,
    "openDays": [
      "平日",
      "土曜日",
      "日曜日",
      "祝日"
    ],
    "openDaysNote": "8月14日・15日、12月31日、1月1日・2日は営業中止"
  },
  {
    "id": "3191200082",
    "name": "いいひ若桜デイサービス",
    "kana": "イイヒワカサデイサービス",
    "address": "鳥取県八頭郡若桜町若桜372",
    "lat": 35.3437645,
    "lng": 134.3980231,
    "tel": "0858-82-1001",
    "url": "",
    "pref": "鳥取県",
    "city": "若桜町",
    "category": "community_day_service",
    "serviceType": "地域密着型通所介護",
    "capacity": null,
    "openDays": [
      "平日",
      "土曜日",
      "祝日"
    ],
    "openDaysNote": ""
  },
  {
    "id": "3191200074",
    "name": "株式会社メディコープとっとり　デイサービスさくら",
    "kana": "カブシキカイシャメディコープトットリ　デイサービスサクラ",
    "address": "鳥取県八頭郡若桜町若桜922-1レインボーさくら レインボーさくら",
    "lat": 35.3399355127274,
    "lng": 134.401968675353,
    "tel": "0858-71-0273",
    "url": "http://mcp.mcoop-tottori.jp/gaiyou.html",
    "pref": "鳥取県",
    "city": "若桜町",
    "category": "community_day_service",
    "serviceType": "地域密着型通所介護",
    "capacity": 0,
    "openDays": [
      "平日"
    ],
    "openDaysNote": "なし"
  },
  {
    "id": "3170300564",
    "name": "ヴェルヴェチアデイサービスおおみや",
    "kana": "ウ゛ェルウ゛ェチアデイサービスオオミヤ",
    "address": "鳥取県倉吉市大宮４５１－１",
    "lat": 35.3991325,
    "lng": 133.8024917,
    "tel": "0858-28-6790",
    "url": "http://www.veruvetia.or.jp",
    "pref": "鳥取県",
    "city": "倉吉市",
    "category": "community_day_service",
    "serviceType": "地域密着型通所介護",
    "capacity": 10,
    "openDays": [
      "平日",
      "土曜日",
      "祝日"
    ],
    "openDaysNote": "１２月２９日、１２月３０日に限り日曜日でも営業します。"
  },
  {
    "id": "3170300713",
    "name": "デイサービスセンターひかり",
    "kana": "デイサービスセンターヒカリ",
    "address": "鳥取県倉吉市清谷町1丁目254-1",
    "lat": 35.4762031741998,
    "lng": 133.849091967459,
    "tel": "0858-26-4228",
    "url": "http://care-net.biz/31/hikari",
    "pref": "鳥取県",
    "city": "倉吉市",
    "category": "community_day_service",
    "serviceType": "地域密着型通所介護",
    "capacity": 15,
    "openDays": [
      "平日",
      "土曜日",
      "祝日"
    ],
    "openDaysNote": "盆、年末年始休業あり"
  },
  {
    "id": "3170300960",
    "name": "デイサービスはるかぜ",
    "kana": "デイサービスハルカゼ",
    "address": "鳥取県倉吉市福庭町１丁目２２５番地",
    "lat": 35.4686337199981,
    "lng": 133.848959508481,
    "tel": "0858-24-6960",
    "url": "",
    "pref": "鳥取県",
    "city": "倉吉市",
    "category": "community_day_service",
    "serviceType": "地域密着型通所介護",
    "capacity": 10,
    "openDays": [
      "平日",
      "土曜日",
      "祝日"
    ],
    "openDaysNote": ""
  },
  {
    "id": "3190300107",
    "name": "デイサービスひびの",
    "kana": "デイサービスヒビノ",
    "address": "鳥取県倉吉市円谷町508-3",
    "lat": 35.4252612,
    "lng": 133.8469148,
    "tel": "0858-27-0371",
    "url": "",
    "pref": "鳥取県",
    "city": "倉吉市",
    "category": "community_day_service",
    "serviceType": "地域密着型通所介護",
    "capacity": 0,
    "openDays": [
      "平日",
      "土曜日",
      "祝日"
    ],
    "openDaysNote": ""
  },
  {
    "id": "3170300754",
    "name": "デイサービスひまわり昭和町",
    "kana": "デイサービスヒマワリショウワマチ",
    "address": "鳥取県倉吉市東昭和町140",
    "lat": 35.4362847,
    "lng": 133.8410428,
    "tel": "0858-48-0008",
    "url": "http://www.siseikai.com/",
    "pref": "鳥取県",
    "city": "倉吉市",
    "category": "community_day_service",
    "serviceType": "地域密着型通所介護",
    "capacity": 10,
    "openDays": [
      "平日",
      "土曜日",
      "祝日"
    ],
    "openDaysNote": ""
  },
  {
    "id": "3170300796",
    "name": "株式会社メディコープとっとり　デイサービス倉吉",
    "kana": "カブシキカイシャ　メディコープトットリ　デイサービス　クラヨシ",
    "address": "鳥取県倉吉市福庭町１丁目２２５番地鳥取医療生協くらよし会館 鳥取医療生協くらよし会館",
    "lat": 35.4686005,
    "lng": 133.8489476,
    "tel": "０８５８－２４－５０２５",
    "url": "http://www.mcp.mcoop-tottori.jp/",
    "pref": "鳥取県",
    "city": "倉吉市",
    "category": "community_day_service",
    "serviceType": "地域密着型通所介護",
    "capacity": 10,
    "openDays": [
      "平日",
      "土曜日",
      "祝日"
    ],
    "openDaysNote": ""
  },
  {
    "id": "3170300762",
    "name": "寿々",
    "kana": "ジュジュ",
    "address": "鳥取県倉吉市山根585-1",
    "lat": 53.41291,
    "lng": -8.24388999999996,
    "tel": "0858-24-5991",
    "url": "",
    "pref": "鳥取県",
    "city": "倉吉市",
    "category": "community_day_service",
    "serviceType": "地域密着型通所介護",
    "capacity": 0,
    "openDays": [
      "平日",
      "土曜日"
    ],
    "openDaysNote": ""
  },
  {
    "id": "3171500832",
    "name": "サンライズデイサービスセンター",
    "kana": "サンライズデイサービスセンター",
    "address": "鳥取県西伯郡大山町富長848-1サンライズハウス サンライズハウス",
    "lat": 35.5002424,
    "lng": 133.4792353,
    "tel": "0859-54-5156",
    "url": "",
    "pref": "鳥取県",
    "city": "大山町",
    "category": "community_day_service",
    "serviceType": "地域密着型通所介護",
    "capacity": 0,
    "openDays": [
      "平日",
      "土曜日"
    ],
    "openDaysNote": "特になし"
  },
  {
    "id": "3171500402",
    "name": "ばんだの里やすはら通所介護事業所",
    "kana": "バンダノサトヤスハラツウショカイゴジギョウショ",
    "address": "鳥取県西伯郡大山町安原1119",
    "lat": 35.4671577,
    "lng": 133.4413503,
    "tel": "0859-53-3001",
    "url": "",
    "pref": "鳥取県",
    "city": "大山町",
    "category": "community_day_service",
    "serviceType": "地域密着型通所介護",
    "capacity": 0,
    "openDays": [
      "平日",
      "土曜日",
      "日曜日",
      "祝日"
    ],
    "openDaysNote": ""
  },
  {
    "id": "3191500093",
    "name": "大山町社会福祉協議会　地域密着型通所介護ほほえみ",
    "kana": "ダイセンチョウシャカイフクシキョウギカイ　チイキミッチャクガタツウショカイゴホホエミ",
    "address": "鳥取県西伯郡大山町赤坂764番地大山町福祉センターなかやま 大山町福祉センターなかやま",
    "lat": 35.5159594,
    "lng": 133.5801424,
    "tel": "0858-49-3012",
    "url": "https://daisensyakyo.org",
    "pref": "鳥取県",
    "city": "大山町",
    "category": "community_day_service",
    "serviceType": "地域密着型通所介護",
    "capacity": 18,
    "openDays": [
      "平日",
      "祝日"
    ],
    "openDaysNote": ""
  },
  {
    "id": "3171200482",
    "name": "デイサービスセンター春香",
    "kana": "デイサービスセンターハルカ",
    "address": "鳥取県八頭郡智頭町智頭1510番地2",
    "lat": 35.2675669,
    "lng": 134.2292841,
    "tel": "0858-76-1177",
    "url": "",
    "pref": "鳥取県",
    "city": "智頭町",
    "category": "community_day_service",
    "serviceType": "地域密着型通所介護",
    "capacity": 0,
    "openDays": [
      "平日",
      "土曜日",
      "祝日"
    ],
    "openDaysNote": "12月31日～1月3日は休み"
  },
  {
    "id": "3191200090",
    "name": "デイサービスやすらぎ",
    "kana": "デイサービスヤスラギ",
    "address": "鳥取県八頭郡智頭町中原352-2",
    "lat": 35.233048,
    "lng": 134.2913625,
    "tel": "0858-71-0358",
    "url": "https://inochine.com/",
    "pref": "鳥取県",
    "city": "智頭町",
    "category": "community_day_service",
    "serviceType": "地域密着型通所介護",
    "capacity": null,
    "openDays": [
      "平日",
      "祝日"
    ],
    "openDaysNote": ""
  },
  {
    "id": "3171200433",
    "name": "智頭デイサービス事業所　りんどう",
    "kana": "チヅデイサービスジギョウショ　リンドウ",
    "address": "鳥取県八頭郡智頭町大字三吉１３７－１１",
    "lat": 35.2307424,
    "lng": 134.2269021,
    "tel": "0858-75-6800",
    "url": "http://www.t-fukushi.co.jp/",
    "pref": "鳥取県",
    "city": "智頭町",
    "category": "community_day_service",
    "serviceType": "地域密着型通所介護",
    "capacity": 0,
    "openDays": [
      "平日",
      "土曜日",
      "祝日"
    ],
    "openDaysNote": ""
  },
  {
    "id": "3171200508",
    "name": "智頭デイサービス事業所すぎ玉",
    "kana": "チヅデイサービスジギョウショスギダマ",
    "address": "鳥取県八頭郡智頭町大字智頭2597-28",
    "lat": 35.2608341,
    "lng": 134.2197436,
    "tel": "0858-76-1212",
    "url": "http://www.t-fukushi.co.jp/",
    "pref": "鳥取県",
    "city": "智頭町",
    "category": "community_day_service",
    "serviceType": "地域密着型通所介護",
    "capacity": 0,
    "openDays": [
      "平日",
      "土曜日",
      "祝日"
    ],
    "openDaysNote": ""
  },
  {
    "id": "3170102879",
    "name": "おしどり　デイサービスセンター",
    "kana": "オシドリ　デイサービスセンター",
    "address": "鳥取県　鳥取市　鹿野町　今市１０４０番地1おしどり　デイサービスセンター おしどり　デイサービスセンター",
    "lat": 35.4726013,
    "lng": 134.0515505,
    "tel": "0857-84-2055",
    "url": "oshidori.dei@shikano-oshidori.jp",
    "pref": "鳥取県",
    "city": "鳥取市",
    "category": "community_day_service",
    "serviceType": "地域密着型通所介護",
    "capacity": 2,
    "openDays": [
      "平日",
      "土曜日",
      "祝日"
    ],
    "openDaysNote": "①　苦情に対して意識を持って接し、利用者の立場に立って対応する。（改行）②　サービス向上、質の向上の機会をとらえ、前向きに対処すること。　（改行）③　トラブルの原因を明らかにすることによって、同じトラブルを起こさないように職員全員の共通理解を　得る。"
  },
  {
    "id": "3170101368",
    "name": "おれんじ湖山デイサービスセンター",
    "kana": "オレンジコヤマデイサービスセンター",
    "address": "鳥取県鳥取市湖山町東４丁目５１番地",
    "lat": 35.5154354,
    "lng": 134.1890819,
    "tel": "0857-32-2211",
    "url": "http://sanbikai.hp.gogo.jp",
    "pref": "鳥取県",
    "city": "鳥取市",
    "category": "community_day_service",
    "serviceType": "地域密着型通所介護",
    "capacity": 18,
    "openDays": [
      "平日",
      "土曜日",
      "祝日"
    ],
    "openDaysNote": "特になし"
  },
  {
    "id": "3170101889",
    "name": "しらゆきデイサービスセンター",
    "kana": "シラユキデイサービスセンター",
    "address": "鳥取県鳥取市千代水4丁目43番地",
    "lat": 35.5158244,
    "lng": 134.1950757,
    "tel": "0857-30-5700",
    "url": "",
    "pref": "鳥取県",
    "city": "鳥取市",
    "category": "community_day_service",
    "serviceType": "地域密着型通所介護",
    "capacity": 0,
    "openDays": [
      "平日",
      "土曜日",
      "祝日"
    ],
    "openDaysNote": ""
  },
  {
    "id": "3170101707",
    "name": "つどいの里　梅花の庵",
    "kana": "ツドイノサト　ウメノイオリ",
    "address": "鳥取県鳥取市大杙217-1",
    "lat": 35.4835892687511,
    "lng": 134.248560081862,
    "tel": "0857-25-4880",
    "url": "",
    "pref": "鳥取県",
    "city": "鳥取市",
    "category": "community_day_service",
    "serviceType": "地域密着型通所介護",
    "capacity": 0,
    "openDays": [
      "平日",
      "土曜日",
      "祝日"
    ],
    "openDaysNote": "定休日について（改行）令和7年1月5日～土曜日も定休日となります。"
  },
  {
    "id": "3170103356",
    "name": "デイサービス　ありがとうの風",
    "kana": "デイサービス　アリガトウノカゼ",
    "address": "鳥取県　鳥取市　湖山町東３丁目５０",
    "lat": 35.5172713,
    "lng": 134.1906455,
    "tel": "0857-38-8100",
    "url": "",
    "pref": "鳥取県",
    "city": "鳥取市",
    "category": "community_day_service",
    "serviceType": "地域密着型通所介護",
    "capacity": 0,
    "openDays": [
      "平日",
      "土曜日",
      "祝日"
    ],
    "openDaysNote": ""
  },
  {
    "id": "3170102770",
    "name": "デイサービス　いきいきいっぽ",
    "kana": "デイサービス　イキイキイッポ",
    "address": "鳥取県鳥取市吉方温泉２丁目１６９",
    "lat": 35.4957020305056,
    "lng": 134.235408091263,
    "tel": "0857-30-4810",
    "url": "http://zuian.web.fc2.com/",
    "pref": "鳥取県",
    "city": "鳥取市",
    "category": "community_day_service",
    "serviceType": "地域密着型通所介護",
    "capacity": 0,
    "openDays": [
      "平日",
      "土曜日",
      "祝日"
    ],
    "openDaysNote": ""
  },
  {
    "id": "3170102457",
    "name": "デイサービス　しゃんしゃん",
    "kana": "デイサービス　シャンシャン",
    "address": "鳥取県鳥取市若桜町３９ロゴス文化会館　１Ｆ ロゴス文化会館　１Ｆ",
    "lat": 35.5002438,
    "lng": 134.2333611,
    "tel": "0857-29-2033",
    "url": "",
    "pref": "鳥取県",
    "city": "鳥取市",
    "category": "community_day_service",
    "serviceType": "地域密着型通所介護",
    "capacity": 0,
    "openDays": [
      "平日",
      "土曜日"
    ],
    "openDaysNote": ""
  },
  {
    "id": "3170103497",
    "name": "デイサービス　まんまるこ",
    "kana": "デイサービス　マンマルコ",
    "address": "鳥取県鳥取市吉成　566番地38",
    "lat": 35.4889256,
    "lng": 134.2178574,
    "tel": "0857-29-4600",
    "url": "",
    "pref": "鳥取県",
    "city": "鳥取市",
    "category": "community_day_service",
    "serviceType": "地域密着型通所介護",
    "capacity": 10,
    "openDays": [
      "平日",
      "祝日"
    ],
    "openDaysNote": "8/13～8/15、12/30～1/3は休み"
  },
  {
    "id": "3170103240",
    "name": "デイサービス　縁がわ",
    "kana": "デイサービス　エンガワ",
    "address": "鳥取県鳥取市相生町4丁目205番地24",
    "lat": 35.5103426,
    "lng": 134.228039,
    "tel": "0857-77-3384",
    "url": "",
    "pref": "鳥取県",
    "city": "鳥取市",
    "category": "community_day_service",
    "serviceType": "地域密着型通所介護",
    "capacity": 10,
    "openDays": [
      "平日",
      "土曜日",
      "祝日"
    ],
    "openDaysNote": "上記定休日を便宜によっては、営業する場合がある。ご利用者さんのご意向を重視する。"
  },
  {
    "id": "3170102952",
    "name": "デイサービス　心晴",
    "kana": "デイサービス　コハル",
    "address": "鳥取県鳥取市二階町3丁目204アイシン二階町ビル アイシン二階町ビル",
    "lat": 35.5016158,
    "lng": 134.2301808,
    "tel": "(0857)30-7521",
    "url": "http://koharu-care.com",
    "pref": "鳥取県",
    "city": "鳥取市",
    "category": "community_day_service",
    "serviceType": "地域密着型通所介護",
    "capacity": 15,
    "openDays": [
      "平日"
    ],
    "openDaysNote": ""
  },
  {
    "id": "3170102515",
    "name": "デイサービスきなんせ",
    "kana": "デイサービスキナンセ",
    "address": "鳥取県鳥取市美萩野1丁目126番地",
    "lat": 35.5224225,
    "lng": 134.1414826,
    "tel": "0857-54-1235",
    "url": "",
    "pref": "鳥取県",
    "city": "鳥取市",
    "category": "community_day_service",
    "serviceType": "地域密着型通所介護",
    "capacity": 0,
    "openDays": [
      "平日",
      "祝日"
    ],
    "openDaysNote": "12月31日～1月3日はお休みさせていただきます"
  },
  {
    "id": "3170102721",
    "name": "デイサービスきら星",
    "kana": "デイサービスキラボシ",
    "address": "鳥取県鳥取市大覚寺７７－５６",
    "lat": 35.4815433,
    "lng": 134.2308879,
    "tel": "0857－50－1110",
    "url": "http://nico-nico-care-tottori.jimdo.com/",
    "pref": "鳥取県",
    "city": "鳥取市",
    "category": "community_day_service",
    "serviceType": "地域密着型通所介護",
    "capacity": 10,
    "openDays": [
      "平日",
      "土曜日",
      "祝日"
    ],
    "openDaysNote": "年末年始休業　１２/３１～１/３"
  },
  {
    "id": "3170102127",
    "name": "デイサービスセンター　キリンの里もちがせ",
    "kana": "デイサービスセンター　キリンノサトモチガセ",
    "address": "鳥取県鳥取市用瀬町別府３５７－１６",
    "lat": 35.3394204,
    "lng": 134.1908086,
    "tel": "０８５８－８７－６１６１",
    "url": "",
    "pref": "鳥取県",
    "city": "鳥取市",
    "category": "community_day_service",
    "serviceType": "地域密着型通所介護",
    "capacity": 0,
    "openDays": [
      "平日",
      "土曜日",
      "日曜日",
      "祝日"
    ],
    "openDaysNote": "年中無休"
  },
  {
    "id": "3170102481",
    "name": "デイサービスセンター　ひなの郷",
    "kana": "デイサービスセンター・ヒナノサト",
    "address": "鳥取県鳥取市気高町山宮287番地５",
    "lat": 35.4793784516746,
    "lng": 134.037477079911,
    "tel": "0857-84-6080",
    "url": "",
    "pref": "鳥取県",
    "city": "鳥取市",
    "category": "community_day_service",
    "serviceType": "地域密着型通所介護",
    "capacity": 18,
    "openDays": [
      "平日",
      "土曜日",
      "祝日"
    ],
    "openDaysNote": "・年末年始（１２月３１日から１月３日まで）はお休みします。"
  },
  {
    "id": "3170103067",
    "name": "デイサービスセンターえんびより",
    "kana": "デイサービスセンターエンビヨリ",
    "address": "鳥取県鳥取市数津23番地10",
    "lat": 35.4668813713487,
    "lng": 134.227538949074,
    "tel": "0857-53-2562",
    "url": "http://www17.plala.or.jp/enbiyori1127/",
    "pref": "鳥取県",
    "city": "鳥取市",
    "category": "community_day_service",
    "serviceType": "地域密着型通所介護",
    "capacity": 13,
    "openDays": [
      "平日",
      "土曜日",
      "祝日"
    ],
    "openDaysNote": ""
  },
  {
    "id": "3170101483",
    "name": "デイサービスセンターもみじ庵",
    "kana": "デイサービスセンターモミジアン",
    "address": "鳥取県鳥取市美萩野一丁目70番地",
    "lat": 35.5237635834675,
    "lng": 134.142183105696,
    "tel": "0857-30-5855",
    "url": "https://momijian.wixsite.com/momijian",
    "pref": "鳥取県",
    "city": "鳥取市",
    "category": "community_day_service",
    "serviceType": "地域密着型通所介護",
    "capacity": 16,
    "openDays": [
      "平日",
      "土曜日",
      "祝日"
    ],
    "openDaysNote": "利用者の希望により、営業時間外も対応。"
  },
  {
    "id": "3170102168",
    "name": "デイサービスセンターゆず",
    "kana": "デイサービスセンターユズ",
    "address": "鳥取県鳥取市湯所町2丁目413番地",
    "lat": 35.5110985961321,
    "lng": 134.229820389011,
    "tel": "0857-23-1030",
    "url": "",
    "pref": "鳥取県",
    "city": "鳥取市",
    "category": "community_day_service",
    "serviceType": "地域密着型通所介護",
    "capacity": 18,
    "openDays": [
      "平日",
      "土曜日",
      "祝日"
    ],
    "openDaysNote": ""
  },
  {
    "id": "3170102671",
    "name": "デイサービスセンター暖の里",
    "kana": "デイサービスセンターダンノサト",
    "address": "鳥取県鳥取市吉岡温泉町52番地1",
    "lat": 35.4846933,
    "lng": 134.134051,
    "tel": "0857-57-0150",
    "url": "http://www.dannosato.jp/",
    "pref": "鳥取県",
    "city": "鳥取市",
    "category": "community_day_service",
    "serviceType": "地域密着型通所介護",
    "capacity": 0,
    "openDays": [
      "平日",
      "祝日"
    ],
    "openDaysNote": ""
  },
  {
    "id": "3170102606",
    "name": "デイサービスたちばな",
    "kana": "デイサービスタチバナ",
    "address": "鳥取市行徳3丁目976番地2",
    "lat": 35.502263,
    "lng": 134.2220287,
    "tel": "0857-22-4311",
    "url": "",
    "pref": "鳥取県",
    "city": "鳥取市",
    "category": "community_day_service",
    "serviceType": "地域密着型通所介護",
    "capacity": 15,
    "openDays": [
      "平日"
    ],
    "openDaysNote": ""
  },
  {
    "id": "3170103380",
    "name": "でんでん倶楽部湖山",
    "kana": "デンデンクラブ　コヤマ",
    "address": "鳥取県鳥取市湖山町北2丁目110",
    "lat": 35.5185262,
    "lng": 134.1737634,
    "tel": "0857-31-0551",
    "url": "https://www.godai.net/denden-club/index.html",
    "pref": "鳥取県",
    "city": "鳥取市",
    "category": "community_day_service",
    "serviceType": "地域密着型通所介護",
    "capacity": 0,
    "openDays": [
      "平日",
      "祝日"
    ],
    "openDaysNote": ""
  },
  {
    "id": "3170100667",
    "name": "とっとり福祉サービス雲山通所介護事業所",
    "kana": "トットリフクシサービス　クモヤマツウショカイゴジギョウショ",
    "address": "鳥取県鳥取市雲山４７５番地",
    "lat": 35.4748746,
    "lng": 134.2377559,
    "tel": "0857-21-9380",
    "url": "http://www.t-fukushi.co.jp/",
    "pref": "鳥取県",
    "city": "鳥取市",
    "category": "community_day_service",
    "serviceType": "地域密着型通所介護",
    "capacity": 0,
    "openDays": [
      "平日",
      "祝日"
    ],
    "openDaysNote": "-"
  },
  {
    "id": "3190100754",
    "name": "ナーシングデイこすもす",
    "kana": "ナーシングデイコスモス",
    "address": "鳥取県鳥取市江津318-1",
    "lat": 35.5229896,
    "lng": 134.2137957,
    "tel": "0857-30-5568",
    "url": "https://day-cosmos.jp",
    "pref": "鳥取県",
    "city": "鳥取市",
    "category": "community_day_service",
    "serviceType": "地域密着型通所介護",
    "capacity": 0,
    "openDays": [
      "平日"
    ],
    "openDaysNote": ""
  },
  {
    "id": "3170102036",
    "name": "なないろデイサービスセンター",
    "kana": "ナナイロデイサービスセンター",
    "address": "鳥取県鳥取市二階町二丁目201-4",
    "lat": 35.5006493,
    "lng": 134.2313001,
    "tel": "0857-30-2311",
    "url": "",
    "pref": "鳥取県",
    "city": "鳥取市",
    "category": "community_day_service",
    "serviceType": "地域密着型通所介護",
    "capacity": 0,
    "openDays": [
      "平日",
      "土曜日",
      "祝日"
    ],
    "openDaysNote": "特になし"
  },
  {
    "id": "3170102267",
    "name": "のんたんデイサービス",
    "kana": "ノンタンデイサービス",
    "address": "鳥取県鳥取市気高町浜村41－10",
    "lat": 35.5088527,
    "lng": 134.0532187,
    "tel": "0857-82-4332",
    "url": "",
    "pref": "鳥取県",
    "city": "鳥取市",
    "category": "community_day_service",
    "serviceType": "地域密着型通所介護",
    "capacity": 0,
    "openDays": [
      "平日",
      "土曜日",
      "祝日"
    ],
    "openDaysNote": ""
  },
  {
    "id": "3170103125",
    "name": "はまゆう中町デイサービスセンター",
    "kana": "ハマユウナカマチデイサービスセンター",
    "address": "鳥取県鳥取市中町49番地",
    "lat": 35.4992411,
    "lng": 134.239555,
    "tel": "0857-37-0881",
    "url": "http://www.hamayu.or.jp/",
    "pref": "鳥取県",
    "city": "鳥取市",
    "category": "community_day_service",
    "serviceType": "地域密着型通所介護",
    "capacity": 10,
    "openDays": [
      "平日",
      "祝日"
    ],
    "openDaysNote": ""
  },
  {
    "id": "3170101731",
    "name": "はるひなデイサービスセンター",
    "kana": "ハルヒナデイサービスセンター",
    "address": "鳥取県鳥取市用瀬町安蔵918番地6",
    "lat": 35.3148123,
    "lng": 134.1906899,
    "tel": "0858-87-3738",
    "url": "",
    "pref": "鳥取県",
    "city": "鳥取市",
    "category": "community_day_service",
    "serviceType": "地域密着型通所介護",
    "capacity": 0,
    "openDays": [
      "平日",
      "土曜日",
      "祝日"
    ],
    "openDaysNote": "ただし、１２月３１日から１月３日までを除く。"
  },
  {
    "id": "3170102697",
    "name": "フレッシュプラザなないろ",
    "kana": "フレッシュプラザナナイロ",
    "address": "鳥取県鳥取市二階町二丁目219",
    "lat": 35.5007687,
    "lng": 134.2314335,
    "tel": "0857-30-6802",
    "url": "",
    "pref": "鳥取県",
    "city": "鳥取市",
    "category": "community_day_service",
    "serviceType": "地域密着型通所介護",
    "capacity": 0,
    "openDays": [
      "平日",
      "土曜日",
      "祝日"
    ],
    "openDaysNote": ""
  },
  {
    "id": "3190100838",
    "name": "レコードブック鳥取西品治",
    "kana": "レコードブックトットリニシホンジ",
    "address": "西品治751-1",
    "lat": 35.5082877,
    "lng": 134.2226414,
    "tel": "0857-36-8058",
    "url": "SAUDE(サウージ)│鳥取市で運動＆健康促進をサポートする合同会社(saude-llc.com)",
    "pref": "鳥取県",
    "city": "鳥取市",
    "category": "community_day_service",
    "serviceType": "地域密着型通所介護",
    "capacity": null,
    "openDays": [
      "平日",
      "祝日"
    ],
    "openDaysNote": ""
  },
  {
    "id": "3190100846",
    "name": "レコードブック鳥取津ノ井",
    "kana": "レコードブックトットリツノイ",
    "address": "鳥取県鳥取市津ノ井613コーポラスFK2 コーポラスFK2",
    "lat": 35.4615435,
    "lng": 134.2505794,
    "tel": "0857-30-7801",
    "url": "",
    "pref": "鳥取県",
    "city": "鳥取市",
    "category": "community_day_service",
    "serviceType": "地域密着型通所介護",
    "capacity": 0,
    "openDays": [
      "平日",
      "祝日"
    ],
    "openDaysNote": ""
  },
  {
    "id": "3170103232",
    "name": "小規模デイサービスつむぎ",
    "kana": "ショウキボデイサービスツムギ",
    "address": "鳥取県鳥取市行徳1丁目312番地デイサービスつむぎ デイサービスつむぎ",
    "lat": 35.4981856,
    "lng": 134.2193791,
    "tel": "0857-30-5400",
    "url": "http://www.o-tsumugi.com",
    "pref": "鳥取県",
    "city": "鳥取市",
    "category": "community_day_service",
    "serviceType": "地域密着型通所介護",
    "capacity": 12,
    "openDays": [
      "平日",
      "土曜日",
      "祝日"
    ],
    "openDaysNote": ""
  },
  {
    "id": "3190100861",
    "name": "鳥取市社会福祉協議会佐治事業所",
    "kana": "トットリシシャカイフクシキョウギカイサジジギョウショ",
    "address": "鳥取県鳥取市佐治町加瀬木2171-2",
    "lat": 35.3303397,
    "lng": 134.1184263,
    "tel": "0858-89-1022",
    "url": "http://www.tottoricity-syakyo.or.jp/",
    "pref": "鳥取県",
    "city": "鳥取市",
    "category": "community_day_service",
    "serviceType": "地域密着型通所介護",
    "capacity": 0,
    "openDays": [
      "平日",
      "土曜日",
      "祝日"
    ],
    "openDaysNote": "年末年始休みあり。"
  },
  {
    "id": "3170103471",
    "name": "通所介護オ－ルデイズ",
    "kana": "ツウショカイゴオ－ルデイズ",
    "address": "鳥取県鳥取市吉方温泉四丁目４０１",
    "lat": 35.4905088,
    "lng": 134.238597,
    "tel": "0857-30-5375",
    "url": "",
    "pref": "鳥取県",
    "city": "鳥取市",
    "category": "community_day_service",
    "serviceType": "地域密着型通所介護",
    "capacity": 15,
    "openDays": [
      "平日",
      "祝日"
    ],
    "openDaysNote": ""
  },
  {
    "id": "3170101962",
    "name": "特定非営利活動法人笑風情の会　デイサービスセンター桃の花",
    "kana": "トクテイヒエイリカツドウホウジンショウフゼイノカイデイサービスセンターモモノハナ",
    "address": "鳥取県鳥取市下砂見529",
    "lat": 35.417857,
    "lng": 134.1734727,
    "tel": "0857-38-7600",
    "url": "",
    "pref": "鳥取県",
    "city": "鳥取市",
    "category": "community_day_service",
    "serviceType": "地域密着型通所介護",
    "capacity": 50,
    "openDays": [
      "平日"
    ],
    "openDaysNote": ""
  },
  {
    "id": "3170102911",
    "name": "本町デイサービス　たけだ",
    "kana": "ホンマチデイサービス　タケダ",
    "address": "鳥取市本町２－１０９",
    "lat": 35.5018677,
    "lng": 134.2322585,
    "tel": "0857-22-4320",
    "url": "",
    "pref": "鳥取県",
    "city": "鳥取市",
    "category": "community_day_service",
    "serviceType": "地域密着型通所介護",
    "capacity": 0,
    "openDays": [
      "平日",
      "土曜日"
    ],
    "openDaysNote": "但し、年末年始、お盆休みを除きます。（改行）大型連休もお休みです。"
  },
  {
    "id": "3171400553",
    "name": "社会福祉法人　湯梨浜町社会福祉協議会　泊指定地域密着型通所介護事業所",
    "kana": "シャカイフクシホウジン　ユリハマチョウシャカイフクシキョウギカイトマリシテイチイキミッチャクガタツウショカイゴジギョウショ",
    "address": "鳥取県東伯郡湯梨浜町泊１０８５番地１",
    "lat": 35.5143084,
    "lng": 133.9430979,
    "tel": "0858-34-2616",
    "url": "http://www.yurihama-shakyo.jp",
    "pref": "鳥取県",
    "city": "湯梨浜町",
    "category": "community_day_service",
    "serviceType": "地域密着型通所介護",
    "capacity": 18,
    "openDays": [
      "平日",
      "土曜日",
      "日曜日",
      "祝日"
    ],
    "openDaysNote": "特になし"
  },
  {
    "id": "3191500119",
    "name": "デイサービスセンターゆうらく",
    "kana": "デイサービスセンターユウラク",
    "address": "鳥取県西伯郡南部町落合480",
    "lat": 35.3354555,
    "lng": 133.3379151,
    "tel": "0859-66-2253",
    "url": "Http：//yuraku-houki.net/",
    "pref": "鳥取県",
    "city": "南部町",
    "category": "community_day_service",
    "serviceType": "地域密着型通所介護",
    "capacity": null,
    "openDays": [
      "平日",
      "土曜日",
      "祝日"
    ],
    "openDaysNote": "1日定員18名"
  },
  {
    "id": "3171600194",
    "name": "デイサービスセンター　ことぶき",
    "kana": "デイサービスセンター　コトブキ",
    "address": "鳥取県西伯郡伯耆町長山１６１番地１",
    "lat": 35.3509842,
    "lng": 133.4349213,
    "tel": "0859-39-9700",
    "url": "",
    "pref": "鳥取県",
    "city": "伯耆町",
    "category": "community_day_service",
    "serviceType": "地域密着型通所介護",
    "capacity": 18,
    "openDays": [
      "平日",
      "土曜日",
      "祝日"
    ],
    "openDaysNote": ""
  },
  {
    "id": "3171500634",
    "name": "デイホームこころ",
    "kana": "デイホームココロ",
    "address": "鳥取県西伯郡伯耆町大殿960-1",
    "lat": 35.3897046,
    "lng": 133.3948517,
    "tel": "0859-68-5085",
    "url": "",
    "pref": "鳥取県",
    "city": "伯耆町",
    "category": "community_day_service",
    "serviceType": "地域密着型通所介護",
    "capacity": 0,
    "openDays": [
      "平日",
      "祝日"
    ],
    "openDaysNote": "特になし"
  },
  {
    "id": "3171200532",
    "name": "あっとほーむ",
    "kana": "アットホーム",
    "address": "鳥取県　八頭郡　八頭町　郡家　７６－３５",
    "lat": 35.4133402,
    "lng": 134.2525231,
    "tel": "０９０－１６８３－４６５９",
    "url": "",
    "pref": "鳥取県",
    "city": "八頭町",
    "category": "community_day_service",
    "serviceType": "地域密着型通所介護",
    "capacity": 0,
    "openDays": [
      "平日",
      "土曜日",
      "祝日"
    ],
    "openDaysNote": ""
  },
  {
    "id": "3171200565",
    "name": "ディサービスセンターれしーぶ",
    "kana": "ディサービスセンターレシーブ",
    "address": "鳥取県八頭郡八頭町船岡1961番地",
    "lat": 35.3941553703908,
    "lng": 134.242659927803,
    "tel": "0858－76－0707",
    "url": "tusyo.day@resi-bu.jp",
    "pref": "鳥取県",
    "city": "八頭町",
    "category": "community_day_service",
    "serviceType": "地域密着型通所介護",
    "capacity": 17,
    "openDays": [
      "平日"
    ],
    "openDaysNote": ""
  },
  {
    "id": "3171200425",
    "name": "医療法人　悠志会　岸本内科医院デイサービスセンター",
    "kana": "イリョウホウジン　ユウシカイ　キシモトナイカイイン　デイサービスセンター",
    "address": "鳥取県八頭郡八頭町下門尾２０２－５９",
    "lat": 35.4174056152271,
    "lng": 134.2518369,
    "tel": "0858-76-0085",
    "url": "",
    "pref": "鳥取県",
    "city": "八頭町",
    "category": "community_day_service",
    "serviceType": "地域密着型通所介護",
    "capacity": 0,
    "openDays": [
      "平日",
      "土曜日",
      "祝日"
    ],
    "openDaysNote": ""
  },
  {
    "id": "3190200562",
    "name": "SOISTANCE",
    "kana": "ソイスタンス",
    "address": "鳥取県米子市塩町１６３",
    "lat": 35.4236461857909,
    "lng": 133.330994086508,
    "tel": "0859-31-8051",
    "url": "https://soistance.co.jp/",
    "pref": "鳥取県",
    "city": "米子市",
    "category": "community_day_service",
    "serviceType": "地域密着型通所介護",
    "capacity": null,
    "openDays": [
      "平日",
      "土曜日"
    ],
    "openDaysNote": ""
  },
  {
    "id": "3190200323",
    "name": "いきいきデイサービス旗ヶ崎",
    "kana": "イキイキデイサービスハタガサキ",
    "address": "鳥取県米子市旗ヶ崎1丁目5番6号いきいきデイサービス旗ヶ崎 いきいきデイサービス旗ヶ崎",
    "lat": 35.4379371,
    "lng": 133.3184951,
    "tel": "0859　31-6181",
    "url": "",
    "pref": "鳥取県",
    "city": "米子市",
    "category": "community_day_service",
    "serviceType": "地域密着型通所介護",
    "capacity": 15,
    "openDays": [
      "平日",
      "土曜日",
      "祝日"
    ],
    "openDaysNote": ""
  },
  {
    "id": "3170202208",
    "name": "デイサービス　ありがとう",
    "kana": "デイサービス　アリガトウ",
    "address": "鳥取県米子市両三柳４５９６－４",
    "lat": 35.4608017,
    "lng": 133.3186055,
    "tel": "0859-57-2944",
    "url": "",
    "pref": "鳥取県",
    "city": "米子市",
    "category": "community_day_service",
    "serviceType": "地域密着型通所介護",
    "capacity": 0,
    "openDays": [
      "平日",
      "祝日"
    ],
    "openDaysNote": ""
  },
  {
    "id": "3170202406",
    "name": "デイサービス　ウィズ",
    "kana": "デイサービス　ウィズ",
    "address": "鳥取県米子市米原８丁目４番３号",
    "lat": 35.4478291075118,
    "lng": 133.335517501414,
    "tel": "0859-21-5651",
    "url": "http://strength.jp/",
    "pref": "鳥取県",
    "city": "米子市",
    "category": "community_day_service",
    "serviceType": "地域密着型通所介護",
    "capacity": 4,
    "openDays": [
      "平日",
      "祝日"
    ],
    "openDaysNote": "夏期8月13日～8月15日と年末年始12月31日～1月3日まで休み"
  },
  {
    "id": "3170202588",
    "name": "デイサービス　エレファント",
    "kana": "デイサービス　エレファント",
    "address": "鳥取県米子市熊党129-23",
    "lat": 35.4291485288933,
    "lng": 133.378578949074,
    "tel": "0859-21-2272",
    "url": "https://www.loh.co.jp/",
    "pref": "鳥取県",
    "city": "米子市",
    "category": "community_day_service",
    "serviceType": "地域密着型通所介護",
    "capacity": 18,
    "openDays": [
      "平日",
      "土曜日",
      "祝日"
    ],
    "openDaysNote": ""
  },
  {
    "id": "3170201747",
    "name": "デイサービス　翠のさと",
    "kana": "デイサービス　ミドリノサト",
    "address": "鳥取県米子市西福原7丁目４－１",
    "lat": 35.4493380690753,
    "lng": 133.343503533211,
    "tel": "0859-22-1175",
    "url": "https://midorinosato.info",
    "pref": "鳥取県",
    "city": "米子市",
    "category": "community_day_service",
    "serviceType": "地域密着型通所介護",
    "capacity": 18,
    "openDays": [
      "平日",
      "土曜日",
      "祝日"
    ],
    "openDaysNote": "特になし"
  },
  {
    "id": "3190200661",
    "name": "デイサービスいいひ",
    "kana": "デイサービスイイヒ",
    "address": "大篠津町4631",
    "lat": 35.4925262,
    "lng": 133.265219,
    "tel": "0859-57-9911",
    "url": "",
    "pref": "鳥取県",
    "city": "米子市",
    "category": "community_day_service",
    "serviceType": "地域密着型通所介護",
    "capacity": 0,
    "openDays": [
      "平日",
      "土曜日",
      "祝日"
    ],
    "openDaysNote": "大雪警報発令や台風等によるサービス提供困難な場合は、送迎時間の変更やサービス中止を連絡の上臨時休業の場合あり。"
  },
  {
    "id": "3170202513",
    "name": "デイサービスセンター　ふくよね",
    "kana": "デイサービスセンター　フクヨネ",
    "address": "鳥取県　米子市　西福原　7丁目　6-32",
    "lat": 35.450756,
    "lng": 133.3427878,
    "tel": "0859-37-6570",
    "url": "https://www.big-advance.site/s/173/1500",
    "pref": "鳥取県",
    "city": "米子市",
    "category": "community_day_service",
    "serviceType": "地域密着型通所介護",
    "capacity": 18,
    "openDays": [
      "平日",
      "祝日"
    ],
    "openDaysNote": "年末年始の定休日は12月30日～1月3日"
  },
  {
    "id": "3170201945",
    "name": "デイサービスセンター　清願の郷",
    "kana": "デイサービスセンター　セイガンノサト",
    "address": "鳥取県米子市富益町１５番地３３",
    "lat": 35.4741976,
    "lng": 133.2929242,
    "tel": "0859-25-0591",
    "url": "http://www.careservice-yonago.ecnet.jp/",
    "pref": "鳥取県",
    "city": "米子市",
    "category": "community_day_service",
    "serviceType": "地域密着型通所介護",
    "capacity": 0,
    "openDays": [
      "平日",
      "土曜日",
      "祝日"
    ],
    "openDaysNote": "電話対応は２４時間年中無休"
  },
  {
    "id": "3190200604",
    "name": "デイサービスセンター　体アップ米子",
    "kana": "デイサービスセンター　タイアップヨナゴ",
    "address": "鳥取県米子市道笑町4-4-8",
    "lat": 35.424731,
    "lng": 133.344269,
    "tel": "0859-30-2430",
    "url": "https://www.purposeoflife.jp",
    "pref": "鳥取県",
    "city": "米子市",
    "category": "community_day_service",
    "serviceType": "地域密着型通所介護",
    "capacity": 0,
    "openDays": [
      "平日"
    ],
    "openDaysNote": ""
  },
  {
    "id": "3170202349",
    "name": "デイサービスセンターわらしべ",
    "kana": "デイサービスセンターワラシベ",
    "address": "鳥取県米子市福市1685-9",
    "lat": 35.3998754,
    "lng": 133.3737284,
    "tel": "0859-21-4165",
    "url": "https://ashitanoki.com/warashibe/",
    "pref": "鳥取県",
    "city": "米子市",
    "category": "community_day_service",
    "serviceType": "地域密着型通所介護",
    "capacity": 0,
    "openDays": [
      "平日",
      "土曜日",
      "祝日"
    ],
    "openDaysNote": "年末年始休業あり"
  },
  {
    "id": "3170202067",
    "name": "デイサービスセンター暖だん倶楽部",
    "kana": "デイサービスセンターダンダンクラブ",
    "address": "鳥取県米子市米原8-5-77",
    "lat": 35.4474424244116,
    "lng": 133.335526454457,
    "tel": "0859-37-3355",
    "url": "http://www.kohoen.jp",
    "pref": "鳥取県",
    "city": "米子市",
    "category": "community_day_service",
    "serviceType": "地域密着型通所介護",
    "capacity": 0,
    "openDays": [
      "平日",
      "祝日"
    ],
    "openDaysNote": "祝日は営業"
  },
  {
    "id": "3110210980",
    "name": "デイサービスたんぽぽ",
    "kana": "デイサービスタンポポ",
    "address": "鳥取県米子市博労町３丁目８０－１",
    "lat": 35.4341574,
    "lng": 133.3389328,
    "tel": "0859-21-3388",
    "url": "",
    "pref": "鳥取県",
    "city": "米子市",
    "category": "community_day_service",
    "serviceType": "地域密着型通所介護",
    "capacity": 0,
    "openDays": [
      "平日",
      "土曜日",
      "祝日"
    ],
    "openDaysNote": "特になし"
  },
  {
    "id": "3170201986",
    "name": "デイサービスまちくら",
    "kana": "デイサービスマチクラ",
    "address": "鳥取県米子市西倉吉町８３番地３",
    "lat": 35.4305409,
    "lng": 133.3297474,
    "tel": "0859-37-6630",
    "url": "http://www.machikura.com",
    "pref": "鳥取県",
    "city": "米子市",
    "category": "community_day_service",
    "serviceType": "地域密着型通所介護",
    "capacity": 12,
    "openDays": [
      "平日",
      "土曜日",
      "日曜日",
      "祝日"
    ],
    "openDaysNote": ""
  },
  {
    "id": "3190200612",
    "name": "デイサービスミント",
    "kana": "デイサービスミント",
    "address": "鳥取県米子市新山1番地",
    "lat": 35.3949538,
    "lng": 133.3383403,
    "tel": "0859-26-2707",
    "url": "support-iruka.com",
    "pref": "鳥取県",
    "city": "米子市",
    "category": "community_day_service",
    "serviceType": "地域密着型通所介護",
    "capacity": 6,
    "openDays": [
      "平日"
    ],
    "openDaysNote": ""
  },
  {
    "id": "3170202042",
    "name": "デイサービスめぐみ",
    "kana": "デイサービス　メグミ",
    "address": "鳥取県米子市目久美町38-6",
    "lat": 35.4226531,
    "lng": 133.3406526,
    "tel": "0859-21-5101",
    "url": "",
    "pref": "鳥取県",
    "city": "米子市",
    "category": "community_day_service",
    "serviceType": "地域密着型通所介護",
    "capacity": 0,
    "openDays": [
      "平日",
      "土曜日",
      "日曜日",
      "祝日"
    ],
    "openDaysNote": ""
  },
  {
    "id": "3170202232",
    "name": "デイサービスやわた橋",
    "kana": "デイサービスヤワタバシ",
    "address": "鳥取県米子市八幡365-9",
    "lat": 35.4002576379353,
    "lng": 133.386525317756,
    "tel": "0859-26-5189",
    "url": "http://hp.kaipoke.biz/p02/",
    "pref": "鳥取県",
    "city": "米子市",
    "category": "community_day_service",
    "serviceType": "地域密着型通所介護",
    "capacity": 0,
    "openDays": [
      "平日",
      "土曜日",
      "祝日"
    ],
    "openDaysNote": ""
  },
  {
    "id": "3110212606",
    "name": "デイサービス弓ヶ浜",
    "kana": "デイサービスユミガハマ",
    "address": "鳥取県米子市富益町１１２８",
    "lat": 35.4726255,
    "lng": 133.2920104,
    "tel": "0859-25-6030",
    "url": "http://www.ymc-net.or.jp/",
    "pref": "鳥取県",
    "city": "米子市",
    "category": "community_day_service",
    "serviceType": "地域密着型通所介護",
    "capacity": 15,
    "openDays": [
      "平日",
      "土曜日",
      "祝日"
    ],
    "openDaysNote": "特になし"
  },
  {
    "id": "3170202034",
    "name": "デイサービス笑家",
    "kana": "デイサービス　ショウカ",
    "address": "鳥取県米子市彦名町4500－73",
    "lat": 35.4569687,
    "lng": 133.2897721,
    "tel": "0859-21-8860",
    "url": "",
    "pref": "鳥取県",
    "city": "米子市",
    "category": "community_day_service",
    "serviceType": "地域密着型通所介護",
    "capacity": 0,
    "openDays": [
      "平日",
      "祝日"
    ],
    "openDaysNote": "祝日営業"
  },
  {
    "id": "3190200679",
    "name": "デイホーム土屋錦海",
    "kana": "デイホームツチヤキンカイ",
    "address": "鳥取県米子市錦海町3丁目6－9",
    "lat": 35.4177375,
    "lng": 133.3200722,
    "tel": "0859-21-1875",
    "url": "https://tcy.co.jp/service/dayhome/",
    "pref": "鳥取県",
    "city": "米子市",
    "category": "community_day_service",
    "serviceType": "地域密着型通所介護",
    "capacity": 0,
    "openDays": [
      "平日",
      "土曜日",
      "日曜日",
      "祝日"
    ],
    "openDaysNote": "年末年始・お盆も営業しています。"
  },
  {
    "id": "3170202596",
    "name": "ハピネリハビリテーション颯",
    "kana": "ハピネリハビリテーションソウ",
    "address": "鳥取県米子市米原7-2-18",
    "lat": 35.4452672,
    "lng": 133.330483,
    "tel": "0859-38-2567",
    "url": "http://www.hapine.com./",
    "pref": "鳥取県",
    "city": "米子市",
    "category": "community_day_service",
    "serviceType": "地域密着型通所介護",
    "capacity": 180,
    "openDays": [
      "平日"
    ],
    "openDaysNote": "※祝日は稼働する場合もある。"
  },
  {
    "id": "3170202604",
    "name": "ほかほか倶楽部",
    "kana": "ホカホカクラブ",
    "address": "鳥取県米子市目久美町42-1",
    "lat": 35.4226253,
    "lng": 133.341497,
    "tel": "0859-30-4347",
    "url": "https://hhp-yonago.com/seikotsu",
    "pref": "鳥取県",
    "city": "米子市",
    "category": "community_day_service",
    "serviceType": "地域密着型通所介護",
    "capacity": 180,
    "openDays": [
      "平日",
      "祝日"
    ],
    "openDaysNote": "８月１２日～８月１５日（改行）１２月３０～１月４日は休み"
  },
  {
    "id": "3190200703",
    "name": "リハデイ茶町",
    "kana": "リハデイチャマチ",
    "address": "鳥取県米子市茶町25番地",
    "lat": 35.425544,
    "lng": 133.332628,
    "tel": "0859-23-6665",
    "url": "http://www.chukai.or.jp",
    "pref": "鳥取県",
    "city": "米子市",
    "category": "community_day_service",
    "serviceType": "地域密着型通所介護",
    "capacity": 80,
    "openDays": [
      "平日",
      "祝日"
    ],
    "openDaysNote": ""
  },
  {
    "id": "3170202489",
    "name": "リハビリデイあしすと　彦名",
    "kana": "リハビリデイアシスト　ヒコナ",
    "address": "鳥取県米子市彦名町２９－７",
    "lat": 35.442595959444,
    "lng": 133.302078618385,
    "tel": "０８５９－２１－５１６５",
    "url": "",
    "pref": "鳥取県",
    "city": "米子市",
    "category": "community_day_service",
    "serviceType": "地域密着型通所介護",
    "capacity": 14,
    "openDays": [
      "平日",
      "土曜日",
      "祝日"
    ],
    "openDaysNote": "12月31日～1月３日を除く"
  },
  {
    "id": "3170202372",
    "name": "レッツ倶楽部米子南",
    "kana": "レッツクラブヨナゴミナミ",
    "address": "鳥取県米子市石井７０１－１",
    "lat": 35.4030607,
    "lng": 133.343681,
    "tel": "0859-26-3905",
    "url": "http://www.lets-club.jp/shop/yonagominami/",
    "pref": "鳥取県",
    "city": "米子市",
    "category": "community_day_service",
    "serviceType": "地域密着型通所介護",
    "capacity": 15,
    "openDays": [
      "平日",
      "祝日"
    ],
    "openDaysNote": "祝日は実施。"
  },
  {
    "id": "3170202323",
    "name": "わこうデイサービス河崎",
    "kana": "ワコウデイサービスカワサキ",
    "address": "鳥取県米子市河崎1740-10",
    "lat": 35.4512859,
    "lng": 133.2989798,
    "tel": "0859-30-2265",
    "url": "https://www.wakoukaigo.co.jp/",
    "pref": "鳥取県",
    "city": "米子市",
    "category": "community_day_service",
    "serviceType": "地域密着型通所介護",
    "capacity": 0,
    "openDays": [
      "平日",
      "土曜日",
      "祝日"
    ],
    "openDaysNote": ""
  },
  {
    "id": "3170200962",
    "name": "有限会社新生ケア・サービス　デイサービスセンター　コムハウス",
    "kana": "ユウゲンガイシャシンセイケア・サービスデイサービスセンターコムハウス",
    "address": "鳥取県米子市熊党201-2",
    "lat": 35.4294362,
    "lng": 133.3755917,
    "tel": "0859-27-1432",
    "url": "https://www.shinsei-care-service.com/",
    "pref": "鳥取県",
    "city": "米子市",
    "category": "community_day_service",
    "serviceType": "地域密着型通所介護",
    "capacity": 0,
    "openDays": [
      "平日",
      "土曜日",
      "祝日"
    ],
    "openDaysNote": "サービス提供時間：平日・土曜・祝日　9：00～16：00（改行）（ご都合に応じて、利用時間の延長に対応します）"
  }
]