[
  {
    "id": "4670500307",
    "name": "いろ葉の森",
    "kana": "イロハノモリ",
    "address": "いちき串木野市湊町2655-1",
    "lat": 31.7002175098353,
    "lng": 130.294225556097,
    "tel": "0996-36-5605",
    "url": "",
    "pref": "鹿児島県",
    "city": "いちき串木野市",
    "category": "community_day_service",
    "serviceType": "地域密着型通所介護",
    "capacity": 0,
    "openDays": [
      "平日",
      "土曜日",
      "祝日"
    ],
    "openDaysNote": ""
  },
  {
    "id": "4672800051",
    "name": "デイサービス　すこやか",
    "kana": "デイサービス　スコヤカ",
    "address": "鹿児島県いちき串木野市大里3910番地1",
    "lat": 31.6872425,
    "lng": 130.2985244,
    "tel": "0996-36-5800",
    "url": "ichiki-naikahifuka.com",
    "pref": "鹿児島県",
    "city": "いちき串木野市",
    "category": "community_day_service",
    "serviceType": "地域密着型通所介護",
    "capacity": 0,
    "openDays": [
      "平日",
      "土曜日",
      "祝日"
    ],
    "openDaysNote": ""
  },
  {
    "id": "4670500299",
    "name": "デイサービス　音いろ",
    "kana": "デイサービス　ネイロ",
    "address": "鹿児島県いちき串木野市川上44-4",
    "lat": 31.702163,
    "lng": 130.2958106,
    "tel": "0996-36-4554",
    "url": "",
    "pref": "鹿児島県",
    "city": "いちき串木野市",
    "category": "community_day_service",
    "serviceType": "地域密着型通所介護",
    "capacity": 0,
    "openDays": [
      "平日",
      "土曜日",
      "祝日"
    ],
    "openDaysNote": "営業時間外でも相談に応じる体制あり。"
  },
  {
    "id": "4670500364",
    "name": "デイサービス至誠舎くしきの",
    "kana": "デイサービスシセイシャクシキノ",
    "address": "鹿児島県いちき串木野市緑町７０番",
    "lat": 31.7118649377451,
    "lng": 130.273226040614,
    "tel": "0996-29-4866",
    "url": "",
    "pref": "鹿児島県",
    "city": "いちき串木野市",
    "category": "community_day_service",
    "serviceType": "地域密着型通所介護",
    "capacity": 18,
    "openDays": [
      "平日",
      "土曜日",
      "祝日"
    ],
    "openDaysNote": ""
  },
  {
    "id": "4670500281",
    "name": "デイサービス蓮華",
    "kana": "デイサービスレンゲ",
    "address": "鹿児島県いちき串木野市八房８８３番４",
    "lat": 31.7020739,
    "lng": 130.289539,
    "tel": "０９９６－３３－２２２７",
    "url": "",
    "pref": "鹿児島県",
    "city": "いちき串木野市",
    "category": "community_day_service",
    "serviceType": "地域密着型通所介護",
    "capacity": 17,
    "openDays": [
      "平日",
      "土曜日",
      "祝日"
    ],
    "openDaysNote": ""
  },
  {
    "id": "4670600271",
    "name": "デイサービス桃の家",
    "kana": "デイサービスモモノイエ",
    "address": "阿久根市山下4452-1",
    "lat": 31.9899412,
    "lng": 130.237872,
    "tel": "0996-72-3753",
    "url": "http://www.momonoie.jp",
    "pref": "鹿児島県",
    "city": "阿久根市",
    "category": "community_day_service",
    "serviceType": "地域密着型通所介護",
    "capacity": 0,
    "openDays": [
      "平日"
    ],
    "openDaysNote": ""
  },
  {
    "id": "4674500378",
    "name": "デイサービスセンター　くまひめの結",
    "kana": "デイサービスセンター　クマヒメノユ",
    "address": "鹿児島県姶良市加治木町木田4195",
    "lat": 31.7483957110899,
    "lng": 130.654720355286,
    "tel": "0995-73-7231",
    "url": "",
    "pref": "鹿児島県",
    "city": "姶良市",
    "category": "community_day_service",
    "serviceType": "地域密着型通所介護",
    "capacity": 0,
    "openDays": [
      "平日",
      "土曜日",
      "祝日"
    ],
    "openDaysNote": ""
  },
  {
    "id": "4674500329",
    "name": "デイサービスセンターのどか",
    "kana": "デイサービスセンターノドカ",
    "address": "鹿児島県姶良市西餅田３３３０番地６住宅型有料老人ホームのどか（敷地内） 住宅型有料老人ホームのどか（敷地内）",
    "lat": 31.7155859034908,
    "lng": 130.621754066934,
    "tel": "０９９５－６６－５５５５",
    "url": "",
    "pref": "鹿児島県",
    "city": "姶良市",
    "category": "community_day_service",
    "serviceType": "地域密着型通所介護",
    "capacity": 18,
    "openDays": [
      "平日",
      "土曜日",
      "日曜日",
      "祝日"
    ],
    "openDaysNote": ""
  },
  {
    "id": "4674500519",
    "name": "デイサービス友の和",
    "kana": "デイサービストモノワ",
    "address": "鹿児島県姶良市姶良市脇元７０３番地１デイサービス友の和 デイサービス友の和",
    "lat": 31.7105505797301,
    "lng": 130.615380311848,
    "tel": "０９９５－６６－５５５４",
    "url": "",
    "pref": "鹿児島県",
    "city": "姶良市",
    "category": "community_day_service",
    "serviceType": "地域密着型通所介護",
    "capacity": 18,
    "openDays": [
      "平日",
      "土曜日",
      "祝日"
    ],
    "openDaysNote": ""
  },
  {
    "id": "4674500279",
    "name": "リハビリ＆デイサービスＧＥＮＫＩ",
    "kana": "リハビリアンドデイサービスゲンキ",
    "address": "鹿児島県姶良市東餅田531番地",
    "lat": 31.7326491386118,
    "lng": 130.635121214294,
    "tel": "0995-73-5888",
    "url": "https://genkinowa.net/wp/",
    "pref": "鹿児島県",
    "city": "姶良市",
    "category": "community_day_service",
    "serviceType": "地域密着型通所介護",
    "capacity": 0,
    "openDays": [
      "平日",
      "土曜日",
      "日曜日",
      "祝日"
    ],
    "openDaysNote": ""
  },
  {
    "id": "4694500143",
    "name": "リハビリ特化型デイサービスムーブメントプロ姶良",
    "kana": "リハビリトッカガタデイサービスムーブメントプロアイラ",
    "address": "鹿児島県姶良市平松2965－2",
    "lat": 31.7197233,
    "lng": 130.6075265,
    "tel": "0995－73－8461",
    "url": "https://randc-shonan.co.jp",
    "pref": "鹿児島県",
    "city": "姶良市",
    "category": "community_day_service",
    "serviceType": "地域密着型通所介護",
    "capacity": 18,
    "openDays": [
      "平日",
      "土曜日",
      "祝日"
    ],
    "openDaysNote": ""
  },
  {
    "id": "4674500170",
    "name": "共生型地域自立支援センター　たたえ",
    "kana": "キョウセイガタチイキジリツシエンセンター　タタエ",
    "address": "鹿児島県姶良市加治木町木田1394番地32",
    "lat": 31.7227435246954,
    "lng": 130.64767936732,
    "tel": "0995-71-2113",
    "url": "http://www.sachikaze.jp/",
    "pref": "鹿児島県",
    "city": "姶良市",
    "category": "community_day_service",
    "serviceType": "地域密着型通所介護",
    "capacity": 5,
    "openDays": [
      "平日",
      "土曜日"
    ],
    "openDaysNote": ""
  },
  {
    "id": "4674500527",
    "name": "生活向上特化型リハビリデイサービス　チェスト",
    "kana": "セイカツコウジョウトッカガタリハビリデイサービス　チェスト",
    "address": "鹿児島県姶良市加治木町朝日町61-1",
    "lat": 31.7348735829734,
    "lng": 130.671157465082,
    "tel": "0995-63-1996",
    "url": "https://www.rehaactive.com/",
    "pref": "鹿児島県",
    "city": "姶良市",
    "category": "community_day_service",
    "serviceType": "地域密着型通所介護",
    "capacity": 0,
    "openDays": [
      "平日",
      "祝日"
    ],
    "openDaysNote": ""
  },
  {
    "id": "4675300265",
    "name": "通所介護（デイサービス）みすず",
    "kana": "ツウショカイゴ（デイサービス）ミスズ",
    "address": "姶良市西餅田1868番地",
    "lat": 31.7358028,
    "lng": 130.62003,
    "tel": "0995-65-9921",
    "url": "misuzu@po5.synapse.ne.jp",
    "pref": "鹿児島県",
    "city": "姶良市",
    "category": "community_day_service",
    "serviceType": "地域密着型通所介護",
    "capacity": 0,
    "openDays": [
      "平日",
      "土曜日",
      "日曜日",
      "祝日"
    ],
    "openDaysNote": ""
  },
  {
    "id": "4694500200",
    "name": "通所介護（デイサービス）わかな",
    "kana": "ツウショカイゴ（デイサービス）ワカナ",
    "address": "鹿児島県姶良市西餅田70番地5",
    "lat": 31.7349743,
    "lng": 130.6237571,
    "tel": "090-3603-1643",
    "url": "",
    "pref": "鹿児島県",
    "city": "姶良市",
    "category": "community_day_service",
    "serviceType": "地域密着型通所介護",
    "capacity": null,
    "openDays": [
      "平日",
      "土曜日",
      "日曜日",
      "祝日"
    ],
    "openDaysNote": ""
  },
  {
    "id": "4674400132",
    "name": "デイサービスさつま苑",
    "kana": "デイサービスサツマエン",
    "address": "鹿児島県伊佐市大口針持1613番地43",
    "lat": 31.9822373,
    "lng": 130.581506,
    "tel": "0995（25）2034",
    "url": "",
    "pref": "鹿児島県",
    "city": "伊佐市",
    "category": "community_day_service",
    "serviceType": "地域密着型通所介護",
    "capacity": null,
    "openDays": [
      "平日",
      "祝日"
    ],
    "openDaysNote": "必要に応じてサービス提供時間以外でも相談に応じる。"
  },
  {
    "id": "4670900283",
    "name": "デイサービスセンターめぐみ",
    "kana": "デイサービスセンターメグミ",
    "address": "鹿児島県伊佐市大口曾木470-3",
    "lat": 32.0138316,
    "lng": 130.6034465,
    "tel": "0995-25-2323",
    "url": "",
    "pref": "鹿児島県",
    "city": "伊佐市",
    "category": "community_day_service",
    "serviceType": "地域密着型通所介護",
    "capacity": 0,
    "openDays": [
      "平日",
      "土曜日",
      "祝日"
    ],
    "openDaysNote": ""
  },
  {
    "id": "4675100053",
    "name": "デイサービスセンター星のふる里",
    "kana": "デイサービスセンターホシノフルサト",
    "address": "伊佐市菱刈前目２６４１",
    "lat": 32.0019591,
    "lng": 130.6501764,
    "tel": "0995-26-2027",
    "url": "hoshinofurusato.or.jp/",
    "pref": "鹿児島県",
    "city": "伊佐市",
    "category": "community_day_service",
    "serviceType": "地域密着型通所介護",
    "capacity": 0,
    "openDays": [
      "平日"
    ],
    "openDaysNote": ""
  },
  {
    "id": "4678500044",
    "name": "社会福祉法人　宇検村社会福祉協議会",
    "kana": "シャカイフクシホウジン　ウケンソンシャカイフクシキョウギカイ",
    "address": "鹿児島県大島郡宇検村湯湾2937-87宇検村地域福祉センター　やけうちの里 宇検村地域福祉センター　やけうちの里",
    "lat": 28.27424,
    "lng": 129.2957368,
    "tel": "0997-67-2295",
    "url": "http://www.shakyo.or.jp/hp/1766/",
    "pref": "鹿児島県",
    "city": "宇検村",
    "category": "community_day_service",
    "serviceType": "地域密着型通所介護",
    "capacity": 18,
    "openDays": [
      "平日",
      "土曜日",
      "祝日"
    ],
    "openDaysNote": "電話については、営業時間以外は、管理者の携帯電話に転送して対応しています。"
  },
  {
    "id": "4678500077",
    "name": "通所介護事業所　虹の園",
    "kana": "ツウショカイゴジギョウショ　ニジノソノ",
    "address": "鹿児島県大島郡宇検村須古2番地4号",
    "lat": 28.2719265,
    "lng": 129.2995366,
    "tel": "0997-67-2288",
    "url": "nijinosono.info/",
    "pref": "鹿児島県",
    "city": "宇検村",
    "category": "community_day_service",
    "serviceType": "地域密着型通所介護",
    "capacity": 10,
    "openDays": [
      "平日",
      "土曜日",
      "祝日"
    ],
    "openDaysNote": ""
  },
  {
    "id": "4670700402",
    "name": "あおぞらデイサービス",
    "kana": "アオゾラデイサービス",
    "address": "鹿児島県奄美市名瀬幸町20番17号3Fシダマ薬局ビル3Ｆ シダマ薬局ビル3Ｆ",
    "lat": 28.3778785856265,
    "lng": 129.493293631877,
    "tel": "0997-53-2863",
    "url": "",
    "pref": "鹿児島県",
    "city": "奄美市",
    "category": "community_day_service",
    "serviceType": "地域密着型通所介護",
    "capacity": 14,
    "openDays": [
      "平日",
      "祝日"
    ],
    "openDaysNote": ""
  },
  {
    "id": "4690700168",
    "name": "いのべ・赤木名",
    "kana": "イノベ・アカキナ",
    "address": "鹿児島県奄美市笠利町大字里50番地2",
    "lat": 28.4521723,
    "lng": 129.6773764,
    "tel": "0997-57-1693",
    "url": "",
    "pref": "鹿児島県",
    "city": "奄美市",
    "category": "community_day_service",
    "serviceType": "地域密着型通所介護",
    "capacity": 2,
    "openDays": [
      "平日",
      "祝日"
    ],
    "openDaysNote": "延長サービスについて、16時より17時まで対応可能。"
  },
  {
    "id": "4670701103",
    "name": "デイきずな",
    "kana": "デイキズナ",
    "address": "鹿児島県奄美市名瀬浜里町４９番地",
    "lat": 28.3990256,
    "lng": 129.4714755,
    "tel": "0997-55-0052",
    "url": "amamikizuna.jp",
    "pref": "鹿児島県",
    "city": "奄美市",
    "category": "community_day_service",
    "serviceType": "地域密着型通所介護",
    "capacity": 15,
    "openDays": [
      "平日",
      "土曜日",
      "祝日"
    ],
    "openDaysNote": ""
  },
  {
    "id": "4690700069",
    "name": "デイサービス　センリアン",
    "kana": "デイサービス　センリアン",
    "address": "鹿児島県奄美市名瀬有屋町２６番地９",
    "lat": 28.3910806,
    "lng": 129.5287451,
    "tel": "0997-53-7670",
    "url": "http://senrian.dip.jp/-",
    "pref": "鹿児島県",
    "city": "奄美市",
    "category": "community_day_service",
    "serviceType": "地域密着型通所介護",
    "capacity": 8,
    "openDays": [
      "平日",
      "祝日"
    ],
    "openDaysNote": "なし"
  },
  {
    "id": "4670700873",
    "name": "デイサービスセンターしおさい",
    "kana": "デイサービスセンターシオサイ",
    "address": "鹿児島県奄美市名瀬朝仁町２番１０号",
    "lat": 28.3998313,
    "lng": 129.4813357,
    "tel": "０９９７－５７－６５５１",
    "url": "http://hp.kaipoke.biz/017/",
    "pref": "鹿児島県",
    "city": "奄美市",
    "category": "community_day_service",
    "serviceType": "地域密着型通所介護",
    "capacity": 12,
    "openDays": [
      "平日",
      "土曜日",
      "祝日"
    ],
    "openDaysNote": ""
  },
  {
    "id": "4670700899",
    "name": "デイサービスセンターてて",
    "kana": "デイサービスセンターテテ",
    "address": "鹿児島県奄美市笠利町大字屋仁1番地2",
    "lat": 28.4988916105865,
    "lng": 129.658621477869,
    "tel": "0997-63-1115",
    "url": "",
    "pref": "鹿児島県",
    "city": "奄美市",
    "category": "community_day_service",
    "serviceType": "地域密着型通所介護",
    "capacity": 0,
    "openDays": [
      "平日",
      "土曜日",
      "祝日"
    ],
    "openDaysNote": ""
  },
  {
    "id": "4670701004",
    "name": "デイサービスゆい",
    "kana": "デイサービスユイ",
    "address": "笠利町喜瀬2431-7",
    "lat": 28.4299152,
    "lng": 129.6584278,
    "tel": "0997-58-8200",
    "url": "",
    "pref": "鹿児島県",
    "city": "奄美市",
    "category": "community_day_service",
    "serviceType": "地域密着型通所介護",
    "capacity": 10,
    "openDays": [
      "平日",
      "土曜日",
      "祝日"
    ],
    "openDaysNote": ""
  },
  {
    "id": "4670700980",
    "name": "デイサービス和月",
    "kana": "デイサービスワヅキ",
    "address": "鹿児島県奄美市名瀬古田町3-13",
    "lat": 28.3720832,
    "lng": 129.4993365,
    "tel": "0997-57-6062",
    "url": "https://www.waduki-amami.com/",
    "pref": "鹿児島県",
    "city": "奄美市",
    "category": "community_day_service",
    "serviceType": "地域密着型通所介護",
    "capacity": 0,
    "openDays": [
      "平日",
      "祝日"
    ],
    "openDaysNote": ""
  },
  {
    "id": "4670700675",
    "name": "わんわんデイサービス",
    "kana": "ワンワンデイサービス",
    "address": "奄美市名瀬永田町4-15",
    "lat": 28.3762233,
    "lng": 129.4950769,
    "tel": "0997-55-1911",
    "url": "http://wanwan.amamin.jp/",
    "pref": "鹿児島県",
    "city": "奄美市",
    "category": "community_day_service",
    "serviceType": "地域密着型通所介護",
    "capacity": 10,
    "openDays": [
      "平日",
      "土曜日",
      "祝日"
    ],
    "openDaysNote": ""
  },
  {
    "id": "4690700093",
    "name": "奄美市社協笠利通所介護事業所",
    "kana": "アマミシシャキョウカサリツウショカイゴジギョウショ",
    "address": "鹿児島県奄美市笠利町中金久４５番地ふれ愛の郷 ふれ愛の郷",
    "lat": 28.4889862,
    "lng": 129.694933,
    "tel": "0997-63-2240",
    "url": "",
    "pref": "鹿児島県",
    "city": "奄美市",
    "category": "community_day_service",
    "serviceType": "地域密着型通所介護",
    "capacity": 0,
    "openDays": [
      "平日"
    ],
    "openDaysNote": "台風の影響により休むこともある"
  },
  {
    "id": "4670701020",
    "name": "地域密着型通所介護事業所あしゃげ",
    "kana": "チイキミッチャクガタツウショカイゴジギョウショアシャゲ",
    "address": "鹿児島県奄美市名瀬朝仁新町17番地17",
    "lat": 28.3969457,
    "lng": 129.4854549,
    "tel": "0997-69-4665",
    "url": "",
    "pref": "鹿児島県",
    "city": "奄美市",
    "category": "community_day_service",
    "serviceType": "地域密着型通所介護",
    "capacity": 0,
    "openDays": [
      "平日",
      "土曜日",
      "祝日"
    ],
    "openDaysNote": "・台風や災害時による臨時休業。（改行）（改行）・12/30、12/31、1/1～1/3日。（5日間）"
  },
  {
    "id": "4670701160",
    "name": "通所介護事業所　ゆとりあん",
    "kana": "ツウショカイゴジギョウショ　ユトリアン",
    "address": "鹿児島県奄美市名瀬小浜町24番7号サービス付き高齢者住宅ゆとりあん　1Ｆ サービス付き高齢者住宅ゆとりあん　1Ｆ",
    "lat": 28.3858837,
    "lng": 129.5012949,
    "tel": "0997-58-5551",
    "url": "http://mukai.ryuukyu/yutorian",
    "pref": "鹿児島県",
    "city": "奄美市",
    "category": "community_day_service",
    "serviceType": "地域密着型通所介護",
    "capacity": 30,
    "openDays": [
      "平日",
      "祝日"
    ],
    "openDaysNote": ""
  },
  {
    "id": "4678300114",
    "name": "ミニ・デイ　野の花",
    "kana": "ミニ・デイ　ノノハナ",
    "address": "熊毛郡屋久島町平内542-5",
    "lat": 30.2368654,
    "lng": 130.5015683,
    "tel": "0997-47-3118",
    "url": "",
    "pref": "鹿児島県",
    "city": "屋久島町",
    "category": "community_day_service",
    "serviceType": "地域密着型通所介護",
    "capacity": 1,
    "openDays": [
      "平日",
      "日曜日",
      "祝日"
    ],
    "openDaysNote": ""
  },
  {
    "id": "4678300098",
    "name": "ミニ・デイサービス｢ほほ笑み｣",
    "kana": "ミニデイサービス「ホホエミ」",
    "address": "熊毛郡屋久島町栗生１２４５番地１６ゆっくりかん ゆっくりかん",
    "lat": 30.2688847,
    "lng": 130.4209857,
    "tel": "0997-48-2099",
    "url": "",
    "pref": "鹿児島県",
    "city": "屋久島町",
    "category": "community_day_service",
    "serviceType": "地域密着型通所介護",
    "capacity": 1,
    "openDays": [
      "平日",
      "土曜日",
      "祝日"
    ],
    "openDaysNote": ""
  },
  {
    "id": "4677300289",
    "name": "デイサービス　あゆみ",
    "kana": "デイサービス　アユミ",
    "address": "鹿児島県肝属郡肝付町新富5183-1",
    "lat": 31.3479171,
    "lng": 130.9541193,
    "tel": "0994-65-7120",
    "url": "www.kk-thmm.com",
    "pref": "鹿児島県",
    "city": "肝付町",
    "category": "community_day_service",
    "serviceType": "地域密着型通所介護",
    "capacity": 22,
    "openDays": [
      "平日",
      "土曜日",
      "祝日"
    ],
    "openDaysNote": ""
  },
  {
    "id": "4677300230",
    "name": "デイサービスきしら",
    "kana": "デイサービスキシラ",
    "address": "岸良392番地1",
    "lat": 31.2281147,
    "lng": 131.0052004,
    "tel": "0994-45-6776",
    "url": "daykishira@po2.synapse.ne.jp",
    "pref": "鹿児島県",
    "city": "肝付町",
    "category": "community_day_service",
    "serviceType": "地域密着型通所介護",
    "capacity": 0,
    "openDays": [
      "平日",
      "日曜日",
      "祝日"
    ],
    "openDaysNote": "8月13日14日お盆休み。12月30日から1月3日まで年末年始休み。"
  },
  {
    "id": "4677300255",
    "name": "デイサービスセンター　こころ",
    "kana": "デイサービスセンター　ココロ",
    "address": "鹿児島県肝属郡肝付町新富4390番地",
    "lat": 31.3466326416939,
    "lng": 130.962212446155,
    "tel": "0994-45-5900",
    "url": "",
    "pref": "鹿児島県",
    "city": "肝付町",
    "category": "community_day_service",
    "serviceType": "地域密着型通所介護",
    "capacity": 0,
    "openDays": [
      "平日",
      "土曜日",
      "祝日"
    ],
    "openDaysNote": "ただし、自然災害等により送迎時や利用時間帯において利用者に危害が及ぶ恐れのあると判断した時は、休業することがあります。"
  },
  {
    "id": "4677300198",
    "name": "デイサービス幸芽",
    "kana": "デイサービスユメ",
    "address": "肝属郡肝付町後田5568番地1",
    "lat": 31.3125204,
    "lng": 130.9236655,
    "tel": "0994-65-5733",
    "url": "",
    "pref": "鹿児島県",
    "city": "肝付町",
    "category": "community_day_service",
    "serviceType": "地域密着型通所介護",
    "capacity": 0,
    "openDays": [
      "平日",
      "土曜日",
      "祝日"
    ],
    "openDaysNote": ""
  },
  {
    "id": "4677300214",
    "name": "ミニデイ　南の星",
    "kana": "ミニデイ　ミナミノホシ",
    "address": "肝属郡肝付町富山字今市牧1791番地1特定非営利活動法人南の太陽 特定非営利活動法人南の太陽",
    "lat": 31.3677656235346,
    "lng": 130.908466346947,
    "tel": "0994-45-6120",
    "url": "http://minaminotaiyo.co.jp",
    "pref": "鹿児島県",
    "city": "肝付町",
    "category": "community_day_service",
    "serviceType": "地域密着型通所介護",
    "capacity": 0,
    "openDays": [
      "平日",
      "土曜日",
      "祝日"
    ],
    "openDaysNote": ""
  },
  {
    "id": "4679000119",
    "name": "デイサービスセンター　聖愛の里",
    "kana": "デイサービスセンター　セイアイノサト",
    "address": "鹿児島県大島郡喜界町大字湾字宮戸５４０番地９なし なし",
    "lat": 28.3161965,
    "lng": 129.9375866,
    "tel": "0997-55-3240",
    "url": "なし",
    "pref": "鹿児島県",
    "city": "喜界町",
    "category": "community_day_service",
    "serviceType": "地域密着型通所介護",
    "capacity": 10,
    "openDays": [
      "平日",
      "土曜日",
      "祝日"
    ],
    "openDaysNote": "年末年始休ー新暦１２／２９～１／３"
  },
  {
    "id": "4677600142",
    "name": "デイサービスセンター菜の花",
    "kana": "デイサービスセンターナノハナ",
    "address": "鹿児島県肝属郡錦江町馬場998番地1",
    "lat": 31.2378828467742,
    "lng": 130.7780381,
    "tel": "0994-28-3055",
    "url": "",
    "pref": "鹿児島県",
    "city": "錦江町",
    "category": "community_day_service",
    "serviceType": "地域密着型通所介護",
    "capacity": 0,
    "openDays": [
      "平日",
      "土曜日",
      "祝日"
    ],
    "openDaysNote": "年末年始（12月31日～1月2日は休み）"
  },
  {
    "id": "4671500447",
    "name": "デイサービス　みどりのお家せんだい",
    "kana": "デイサービス　ミドリノオウチセンダイ",
    "address": "宮内町　3886番地1",
    "lat": 31.83094,
    "lng": 130.2874177,
    "tel": "0996-29-3911",
    "url": "www.fukushi-greencoop.or.jp",
    "pref": "鹿児島県",
    "city": "薩摩川内市",
    "category": "community_day_service",
    "serviceType": "地域密着型通所介護",
    "capacity": 14,
    "openDays": [
      "平日",
      "土曜日",
      "祝日"
    ],
    "openDaysNote": "営業時間については特別の需要がある場合はこの限りではありません"
  },
  {
    "id": "4670201260",
    "name": "デイサービスセンター　美里園",
    "kana": "デイサービスセンター　ミサトエン",
    "address": "宮里町397番地1",
    "lat": 31.8192268,
    "lng": 130.2761107,
    "tel": "0996-21-1234",
    "url": "http://misatoen.jp/",
    "pref": "鹿児島県",
    "city": "薩摩川内市",
    "category": "community_day_service",
    "serviceType": "地域密着型通所介護",
    "capacity": 0,
    "openDays": [
      "平日",
      "土曜日",
      "祝日"
    ],
    "openDaysNote": ""
  },
  {
    "id": "4671500512",
    "name": "デイサービスセンターひわきの郷",
    "kana": "デイサービスセンター　ヒワキノサト",
    "address": "鹿児島県薩摩川内市樋脇町塔之原2670-1",
    "lat": 31.8278528100331,
    "lng": 130.364688461377,
    "tel": "0996-37-3101",
    "url": "https://hiwakinosato.co.jp",
    "pref": "鹿児島県",
    "city": "薩摩川内市",
    "category": "community_day_service",
    "serviceType": "地域密着型通所介護",
    "capacity": 4,
    "openDays": [
      "平日",
      "土曜日",
      "祝日"
    ],
    "openDaysNote": "１２月３０日は入浴介助・食事介助まで利用は13：00まで（改行）日曜日・年末年始休み12月31日・1月1日～1月2日　　　　　　　　　　　　　　　　　（改行）災害時に応じて対応する。"
  },
  {
    "id": "4671500389",
    "name": "デイサービスみんなの家",
    "kana": "デイサービスミンナノイエ",
    "address": "天辰町716-3デイサービス・住宅型有料老人ホームみんなの家 デイサービス・住宅型有料老人ホームみんなの家",
    "lat": 31.8291273,
    "lng": 130.321648,
    "tel": "0996-27-0556",
    "url": "",
    "pref": "鹿児島県",
    "city": "薩摩川内市",
    "category": "community_day_service",
    "serviceType": "地域密着型通所介護",
    "capacity": 15,
    "openDays": [
      "平日",
      "土曜日",
      "祝日"
    ],
    "openDaysNote": "年末年始（１２/３０～１/３）"
  },
  {
    "id": "4691500195",
    "name": "デイサービス絆",
    "kana": "デイサービス　キズナ",
    "address": "鹿児島県　薩摩川内市五代町3035番地1",
    "lat": 31.8320009,
    "lng": 130.2832541,
    "tel": "0996－29－5123",
    "url": "",
    "pref": "鹿児島県",
    "city": "薩摩川内市",
    "category": "community_day_service",
    "serviceType": "地域密着型通所介護",
    "capacity": 0,
    "openDays": [
      "平日",
      "土曜日",
      "祝日"
    ],
    "openDaysNote": ""
  },
  {
    "id": "4670200916",
    "name": "薩摩川内市社会福祉協議会甑",
    "kana": "サツマセンダイシシャカイフクシキョウギカイカイコシキシマシショツウショカイゴジギョウショ",
    "address": "鹿児島県薩摩川内市里町里１９００番地の２里生活支援ハウス 里生活支援ハウス",
    "lat": 31.8421454,
    "lng": 129.9172737,
    "tel": "09969-3-2880",
    "url": "",
    "pref": "鹿児島県",
    "city": "薩摩川内市",
    "category": "community_day_service",
    "serviceType": "地域密着型通所介護",
    "capacity": 0,
    "openDays": [
      "平日"
    ],
    "openDaysNote": ""
  },
  {
    "id": "4670201310",
    "name": "薩摩川内市社会福祉協議会甑島敬老園地域密着通所介護事業所",
    "kana": "サツマセンダイシシャカイフクシキョウギカイチイキミッチャクツウショカイゴジギョウショ",
    "address": "下甑町長浜1185-2甑島敬老園特別養護老人ホーム2階 甑島敬老園特別養護老人ホーム2階",
    "lat": 31.7061877,
    "lng": 129.7389829,
    "tel": "09969‐5‐1752",
    "url": "",
    "pref": "鹿児島県",
    "city": "薩摩川内市",
    "category": "community_day_service",
    "serviceType": "地域密着型通所介護",
    "capacity": 0,
    "openDays": [
      "平日"
    ],
    "openDaysNote": ""
  },
  {
    "id": "4670201351",
    "name": "社会福祉法人伸志会　デイサービスセンター永利",
    "kana": "シャカイフクシホウジン　デイサービスセンターナガトシ",
    "address": "薩摩川内市永利町2531番地",
    "lat": 31.8068378583275,
    "lng": 130.346225373016,
    "tel": "0996-20-8137",
    "url": "dayservice.nagatosi@biscuit.ocn.ne.jp",
    "pref": "鹿児島県",
    "city": "薩摩川内市",
    "category": "community_day_service",
    "serviceType": "地域密着型通所介護",
    "capacity": 15,
    "openDays": [
      "平日",
      "土曜日",
      "祝日"
    ],
    "openDaysNote": "１２月２９日、３０日、３１日　１月１日、２日、３日　年間休業となります。"
  },
  {
    "id": "4671700252",
    "name": "デイサービス　一茶ん家",
    "kana": "デイサービス　イッサンゲ",
    "address": "有明町伊崎田8791-1",
    "lat": 31.52836,
    "lng": 131.0570147,
    "tel": "099-474-2662",
    "url": "global-day2662@btvm.ne.jp",
    "pref": "鹿児島県",
    "city": "志布志市",
    "category": "community_day_service",
    "serviceType": "地域密着型通所介護",
    "capacity": 18,
    "openDays": [
      "平日",
      "土曜日",
      "祝日"
    ],
    "openDaysNote": ""
  },
  {
    "id": "4691700100",
    "name": "株式会社　秀翠ディサービスセンター",
    "kana": "カブシキガイシャ　シュウスイ　ディサービスセンター",
    "address": "鹿児島県志布志市有明町野神3603-1",
    "lat": 31.4919779837246,
    "lng": 130.99916135899,
    "tel": "099-471-5255",
    "url": "http://syuusui.co.jp",
    "pref": "鹿児島県",
    "city": "志布志市",
    "category": "community_day_service",
    "serviceType": "地域密着型通所介護",
    "capacity": 16,
    "openDays": [
      "平日",
      "土曜日"
    ],
    "openDaysNote": "祝日営業おこなっております。現在　月、火、水、木、金、土曜日営業いたしております。"
  },
  {
    "id": "4671700070",
    "name": "社会福祉法人志布志市社会福祉協議会指定通所介護事業所",
    "kana": "シャカイフクシホウジンシブシシシャカイフクシキョウギカイシテイツウショカイゴジギョウショ",
    "address": "鹿児島県志布志市志布志町志布志3222番地1健康ふれあいプラザ内 健康ふれあいプラザ内",
    "lat": 31.4717972041746,
    "lng": 131.099023635463,
    "tel": "099-472-1800",
    "url": "http://shibushi-syakyo.jp/",
    "pref": "鹿児島県",
    "city": "志布志市",
    "category": "community_day_service",
    "serviceType": "地域密着型通所介護",
    "capacity": 0,
    "openDays": [
      "平日",
      "土曜日",
      "祝日"
    ],
    "openDaysNote": ""
  },
  {
    "id": "4676900063",
    "name": "小松の里デイサービスセンター",
    "kana": "コマツノサトデイサービスセンター",
    "address": "鹿児島県志布志市有明町野井倉2006番地1",
    "lat": 31.496472877299,
    "lng": 131.039525424992,
    "tel": "０９９－４７４－１１５５",
    "url": "http://kinseikai.jp/",
    "pref": "鹿児島県",
    "city": "志布志市",
    "category": "community_day_service",
    "serviceType": "地域密着型通所介護",
    "capacity": 0,
    "openDays": [
      "平日",
      "土曜日",
      "祝日"
    ],
    "openDaysNote": ""
  },
  {
    "id": "4671000695",
    "name": "つれづれ２",
    "kana": "ツレヅレ２",
    "address": "鹿児島県指宿市十町字古浜1952番地18",
    "lat": 31.2544255,
    "lng": 130.628865,
    "tel": "0993-22-3444",
    "url": "",
    "pref": "鹿児島県",
    "city": "指宿市",
    "category": "community_day_service",
    "serviceType": "地域密着型通所介護",
    "capacity": 0,
    "openDays": [
      "平日",
      "土曜日",
      "祝日"
    ],
    "openDaysNote": ""
  },
  {
    "id": "4671000711",
    "name": "デイサービスセンターオリビンの浜辺",
    "kana": "デイサービスセンターオリビンノハマベ",
    "address": "鹿児島県指宿市開聞川尻4912-4",
    "lat": 31.1859116784332,
    "lng": 130.560129990842,
    "tel": "993264970",
    "url": "https://www.olivinenohamabe.jp/",
    "pref": "鹿児島県",
    "city": "指宿市",
    "category": "community_day_service",
    "serviceType": "地域密着型通所介護",
    "capacity": 0,
    "openDays": [
      "平日",
      "土曜日",
      "祝日"
    ],
    "openDaysNote": ""
  },
  {
    "id": "4671000455",
    "name": "デイホームげんき",
    "kana": "デイホームゲンキ",
    "address": "鹿児島県指宿市東方田口田１０８５１番地７",
    "lat": 31.263439,
    "lng": 130.6270099,
    "tel": "0993-24-2999",
    "url": "",
    "pref": "鹿児島県",
    "city": "指宿市",
    "category": "community_day_service",
    "serviceType": "地域密着型通所介護",
    "capacity": 0,
    "openDays": [
      "平日",
      "土曜日",
      "祝日"
    ],
    "openDaysNote": ""
  },
  {
    "id": "4671000703",
    "name": "リハプライド指宿",
    "kana": "リハプライドイブスキ",
    "address": "湯の浜1丁目3-12",
    "lat": 31.2371834060512,
    "lng": 130.644762714681,
    "tel": "0993-26-3355",
    "url": "http://www.rehapride.co.jp/ibusuki/",
    "pref": "鹿児島県",
    "city": "指宿市",
    "category": "community_day_service",
    "serviceType": "地域密着型通所介護",
    "capacity": 10,
    "openDays": [
      "平日",
      "祝日"
    ],
    "openDaysNote": "12月31日～1月3日を年末年始の休暇とする。"
  },
  {
    "id": "4671000687",
    "name": "地域密着型通所介護　つれづれ",
    "kana": "チイキミッチャクガタ　ツウショカイゴ　ツレヅレ",
    "address": "鹿児島県指宿市大牟礼四丁目4番8号",
    "lat": 31.2450351,
    "lng": 130.6455444,
    "tel": "090-3733-0751",
    "url": "",
    "pref": "鹿児島県",
    "city": "指宿市",
    "category": "community_day_service",
    "serviceType": "地域密着型通所介護",
    "capacity": 0,
    "openDays": [
      "平日",
      "土曜日",
      "祝日"
    ],
    "openDaysNote": ""
  },
  {
    "id": "4670301771",
    "name": "デイサービス　スマイルガーデン　すみれ",
    "kana": "デイサービス　スマイルガーデン　スミレ",
    "address": "鹿屋市上谷町11199番地1",
    "lat": 31.3972958,
    "lng": 130.8453412,
    "tel": "0994-40-9502",
    "url": "http://medicalwill.info/",
    "pref": "鹿児島県",
    "city": "鹿屋市",
    "category": "community_day_service",
    "serviceType": "地域密着型通所介護",
    "capacity": 16,
    "openDays": [
      "平日",
      "土曜日",
      "祝日"
    ],
    "openDaysNote": ""
  },
  {
    "id": "4670301995",
    "name": "デイサービス　はっぴーらいふ",
    "kana": "デイサービス　ハッピーライフ",
    "address": "田崎町２２２２－５５",
    "lat": 31.3602911,
    "lng": 130.8494087,
    "tel": "０９９４－４５－５８００",
    "url": "",
    "pref": "鹿児島県",
    "city": "鹿屋市",
    "category": "community_day_service",
    "serviceType": "地域密着型通所介護",
    "capacity": 0,
    "openDays": [
      "平日",
      "土曜日",
      "祝日"
    ],
    "openDaysNote": ""
  },
  {
    "id": "4670302084",
    "name": "デイサービス　太陽の丘",
    "kana": "デイサービス　タイヨウノオカ",
    "address": "今坂町12557-1共生型地域自立支援センター太陽の丘 共生型地域自立支援センター太陽の丘",
    "lat": 31.3847625106832,
    "lng": 130.82031962304,
    "tel": "0994-45-6683",
    "url": "https://www.keishingroup.jp/",
    "pref": "鹿児島県",
    "city": "鹿屋市",
    "category": "community_day_service",
    "serviceType": "地域密着型通所介護",
    "capacity": 0,
    "openDays": [
      "平日",
      "土曜日",
      "祝日"
    ],
    "openDaysNote": "年末年始として１２月３１日・１月１日・１月２日を休みとする"
  },
  {
    "id": "4670301847",
    "name": "デイサービスセンター　うぐいすの里",
    "kana": "デイサービスセンター　ウグイスノサト",
    "address": "吾平町下名3397-14",
    "lat": 31.3343537,
    "lng": 130.8878174,
    "tel": "0994-58-8864",
    "url": "",
    "pref": "鹿児島県",
    "city": "鹿屋市",
    "category": "community_day_service",
    "serviceType": "地域密着型通所介護",
    "capacity": 16,
    "openDays": [
      "平日",
      "土曜日",
      "祝日"
    ],
    "openDaysNote": ""
  },
  {
    "id": "4670300906",
    "name": "デイサービスセンターまごころ",
    "kana": "デイサービスセンターマゴコロ",
    "address": "鹿屋市浜田町903番地7",
    "lat": 31.3361696,
    "lng": 130.8080957,
    "tel": "0994-31-7375",
    "url": "http://medicalwill.info/",
    "pref": "鹿児島県",
    "city": "鹿屋市",
    "category": "community_day_service",
    "serviceType": "地域密着型通所介護",
    "capacity": 16,
    "openDays": [
      "平日",
      "土曜日",
      "祝日"
    ],
    "openDaysNote": ""
  },
  {
    "id": "4670301359",
    "name": "デイサービスセンター湧水の里",
    "kana": "デイサービスセンターユウスイノサト",
    "address": "祓川町5277番地",
    "lat": 31.4172582,
    "lng": 130.856776,
    "tel": "0994-44-4608",
    "url": "",
    "pref": "鹿児島県",
    "city": "鹿屋市",
    "category": "community_day_service",
    "serviceType": "地域密着型通所介護",
    "capacity": 0,
    "openDays": [
      "平日",
      "土曜日",
      "日曜日",
      "祝日"
    ],
    "openDaysNote": ""
  },
  {
    "id": "4670301615",
    "name": "ディサービスセンター緑ヶ丘",
    "kana": "ディサービスセンター　ミドリガオカ",
    "address": "串良町岡崎2679番地1",
    "lat": 31.39121825781,
    "lng": 130.947626885848,
    "tel": "0994-36-8131",
    "url": "",
    "pref": "鹿児島県",
    "city": "鹿屋市",
    "category": "community_day_service",
    "serviceType": "地域密着型通所介護",
    "capacity": 0,
    "openDays": [
      "平日",
      "土曜日",
      "祝日"
    ],
    "openDaysNote": ""
  },
  {
    "id": "4670301706",
    "name": "デイサービスだんだん",
    "kana": "デイサービスダンダンダン",
    "address": "鹿屋市新川町５４５３番地１",
    "lat": 31.3755374,
    "lng": 130.869976,
    "tel": "０９９４－４５－４１９２",
    "url": "http://confiance-kaigo.com/wordpress/",
    "pref": "鹿児島県",
    "city": "鹿屋市",
    "category": "community_day_service",
    "serviceType": "地域密着型通所介護",
    "capacity": 0,
    "openDays": [
      "平日",
      "土曜日",
      "祝日"
    ],
    "openDaysNote": ""
  },
  {
    "id": "4670301300",
    "name": "デイサービス花ごよみ",
    "kana": "デイサービスハナゴヨミ",
    "address": "鹿児島県鹿屋市横山町２７６８番地３",
    "lat": 31.3446518265917,
    "lng": 130.821710154262,
    "tel": "0994-48-3636",
    "url": "",
    "pref": "鹿児島県",
    "city": "鹿屋市",
    "category": "community_day_service",
    "serviceType": "地域密着型通所介護",
    "capacity": 20,
    "openDays": [
      "平日"
    ],
    "openDaysNote": ""
  },
  {
    "id": "4670301441",
    "name": "デイサービス華蓮",
    "kana": "デイサービスカレン",
    "address": "鹿児島県鹿屋市野里町３４５６－８",
    "lat": 31.3597072990575,
    "lng": 130.816941214086,
    "tel": "０９９４－４５－４５０１",
    "url": "",
    "pref": "鹿児島県",
    "city": "鹿屋市",
    "category": "community_day_service",
    "serviceType": "地域密着型通所介護",
    "capacity": 15,
    "openDays": [
      "平日",
      "土曜日",
      "祝日"
    ],
    "openDaysNote": "台風等、災害時においては休みになることもあります。"
  },
  {
    "id": "4670301235",
    "name": "デイサービス志保の家",
    "kana": "デイサービスシホノイエ",
    "address": "鹿屋市王子町4328番地1",
    "lat": 31.3972481055174,
    "lng": 130.857713647885,
    "tel": "0994-40-5115",
    "url": "http://medicalwill.info/",
    "pref": "鹿児島県",
    "city": "鹿屋市",
    "category": "community_day_service",
    "serviceType": "地域密着型通所介護",
    "capacity": 15,
    "openDays": [
      "平日",
      "土曜日",
      "祝日"
    ],
    "openDaysNote": ""
  },
  {
    "id": "4670302183",
    "name": "デイサービス寿苑",
    "kana": "デイサービスジュエン",
    "address": "鹿児島県鹿屋市寿４丁目１５ー１２",
    "lat": 31.3882463,
    "lng": 130.8801691,
    "tel": "０９９４－４３－６１３６",
    "url": "",
    "pref": "鹿児島県",
    "city": "鹿屋市",
    "category": "community_day_service",
    "serviceType": "地域密着型通所介護",
    "capacity": 25,
    "openDays": [
      "平日",
      "土曜日",
      "祝日"
    ],
    "openDaysNote": "暦の通りの営業となります。"
  },
  {
    "id": "4670301334",
    "name": "デイサービス未里",
    "kana": "デイサービスミサト",
    "address": "永野田町525-11",
    "lat": 31.3508105153416,
    "lng": 130.882769427647,
    "tel": "0994-36-1111",
    "url": "village-misato.com",
    "pref": "鹿児島県",
    "city": "鹿屋市",
    "category": "community_day_service",
    "serviceType": "地域密着型通所介護",
    "capacity": 468,
    "openDays": [
      "平日",
      "土曜日",
      "日曜日",
      "祝日"
    ],
    "openDaysNote": "台風などの災害時は安全確保のためお休みすることもあります"
  },
  {
    "id": "4670301375",
    "name": "デイサービス柳の里",
    "kana": "デイサービスヤナギノサト",
    "address": "鹿児島県鹿屋市上野町４５５４-１１",
    "lat": 31.381068,
    "lng": 130.8105387,
    "tel": "0994-35-0531",
    "url": "",
    "pref": "鹿児島県",
    "city": "鹿屋市",
    "category": "community_day_service",
    "serviceType": "地域密着型通所介護",
    "capacity": 0,
    "openDays": [
      "平日",
      "土曜日",
      "祝日"
    ],
    "openDaysNote": "台風災害時等の緊急事態に休業することがあります。"
  },
  {
    "id": "4670301425",
    "name": "にっこりハウスデイサービス輝北",
    "kana": "ニッコリハウスデイサービスキホク",
    "address": "鹿屋市輝北町諏訪原１３６７番地１",
    "lat": 31.6092421,
    "lng": 130.8567192,
    "tel": "０９９－４８１－１５０１",
    "url": "",
    "pref": "鹿児島県",
    "city": "鹿屋市",
    "category": "community_day_service",
    "serviceType": "地域密着型通所介護",
    "capacity": 16,
    "openDays": [
      "平日",
      "土曜日",
      "祝日"
    ],
    "openDaysNote": ""
  },
  {
    "id": "4670301607",
    "name": "にっこりハウスデイサービス浜田",
    "kana": "ニッコリハウスデイサービスハマダ",
    "address": "鹿屋市浜田町９５１番地３",
    "lat": 31.3387749,
    "lng": 130.8083067,
    "tel": "０９９４－４７－３０７０",
    "url": "",
    "pref": "鹿児島県",
    "city": "鹿屋市",
    "category": "community_day_service",
    "serviceType": "地域密着型通所介護",
    "capacity": 16,
    "openDays": [
      "平日",
      "土曜日",
      "祝日"
    ],
    "openDaysNote": ""
  },
  {
    "id": "4670301573",
    "name": "ミニデイサービス　舷揮くん家",
    "kana": "ミニデイサービス　ゲンキクンチ",
    "address": "鹿児島県鹿屋市祓川町5204-3ミニデイサービス舷揮くん家 ミニデイサービス舷揮くん家",
    "lat": 31.417647,
    "lng": 130.8552344,
    "tel": "0994-41-5566",
    "url": "http://genki@kanoya-choujuen-jp",
    "pref": "鹿児島県",
    "city": "鹿屋市",
    "category": "community_day_service",
    "serviceType": "地域密着型通所介護",
    "capacity": 18,
    "openDays": [
      "平日",
      "土曜日",
      "祝日"
    ],
    "openDaysNote": ""
  },
  {
    "id": "4670301144",
    "name": "ミニデイサービス輝",
    "kana": "ミニデイサービスカガヤキ",
    "address": "鹿屋市輝北町上百引1919-1",
    "lat": 31.5509928,
    "lng": 130.8756141,
    "tel": "099-486-1301",
    "url": "http://medicalwill.info/",
    "pref": "鹿児島県",
    "city": "鹿屋市",
    "category": "community_day_service",
    "serviceType": "地域密着型通所介護",
    "capacity": 16,
    "openDays": [
      "平日",
      "土曜日",
      "祝日"
    ],
    "openDaysNote": ""
  },
  {
    "id": "4670301417",
    "name": "青い鳥　デイサービス",
    "kana": "アオイトリ　デイサービス",
    "address": "鹿児島県鹿屋市古江町７９６番地1",
    "lat": 31.4000674,
    "lng": 130.7697161,
    "tel": "0994-46-3083",
    "url": "",
    "pref": "鹿児島県",
    "city": "鹿屋市",
    "category": "community_day_service",
    "serviceType": "地域密着型通所介護",
    "capacity": 0,
    "openDays": [
      "平日",
      "土曜日",
      "日曜日",
      "祝日"
    ],
    "openDaysNote": "台風災害、新型コロナ発生時等によりやむを得ない場合（スタッフ調整できない時）は休む事があります。（改行）現在、日曜日利用の方はなし。"
  },
  {
    "id": "4670301391",
    "name": "壮快デイサービス下小原",
    "kana": "ソウカイデイサービスシモコハラ",
    "address": "鹿児島県鹿屋市串良町下小原4788",
    "lat": 31.3707477,
    "lng": 130.9431918,
    "tel": "0994-63-3322",
    "url": "",
    "pref": "鹿児島県",
    "city": "鹿屋市",
    "category": "community_day_service",
    "serviceType": "地域密着型通所介護",
    "capacity": 18,
    "openDays": [
      "平日",
      "土曜日",
      "祝日"
    ],
    "openDaysNote": ""
  },
  {
    "id": "4670301920",
    "name": "有限会社なごみ福祉会",
    "kana": "ユウゲンガイシャナゴミフクシカイ",
    "address": "古江町７９６－１デイサービス凪 デイサービス凪",
    "lat": 31.4000674,
    "lng": 130.7697161,
    "tel": "０９９４－４６－５２５５",
    "url": "",
    "pref": "鹿児島県",
    "city": "鹿屋市",
    "category": "community_day_service",
    "serviceType": "地域密着型通所介護",
    "capacity": 12,
    "openDays": [
      "平日",
      "土曜日",
      "日曜日",
      "祝日"
    ],
    "openDaysNote": "事業所に突発的事態が発生した場合"
  },
  {
    "id": "4690102431",
    "name": "「ほしがみね」デイサービスセンター",
    "kana": "ホシガミネデイサービスセンター",
    "address": "鹿児島県鹿児島市山田町２９７３番地１",
    "lat": 31.5684292,
    "lng": 130.500511,
    "tel": "099-265-9686",
    "url": "",
    "pref": "鹿児島県",
    "city": "鹿児島市",
    "category": "community_day_service",
    "serviceType": "地域密着型通所介護",
    "capacity": 0,
    "openDays": [
      "平日",
      "土曜日",
      "祝日"
    ],
    "openDaysNote": ""
  },
  {
    "id": "4690102498",
    "name": "LLさねかた",
    "kana": "エルエルサネカタ",
    "address": "鹿児島県鹿児島市吉野町４５１−１",
    "lat": 31.6306618,
    "lng": 130.5619184,
    "tel": "099-213-9490",
    "url": "sll.co.jp",
    "pref": "鹿児島県",
    "city": "鹿児島市",
    "category": "community_day_service",
    "serviceType": "地域密着型通所介護",
    "capacity": 35,
    "openDays": [
      "平日",
      "土曜日",
      "祝日"
    ],
    "openDaysNote": "１２月３１日から１月２日までは休日"
  },
  {
    "id": "4690103090",
    "name": "LLちゅうざん",
    "kana": "エルエルチュウザン",
    "address": "鹿児島県鹿児島市中山２丁目２８−６１",
    "lat": 31.5482421174242,
    "lng": 130.506679917197,
    "tel": "099-806-4030",
    "url": "https://sll.co.jp/",
    "pref": "鹿児島県",
    "city": "鹿児島市",
    "category": "community_day_service",
    "serviceType": "地域密着型通所介護",
    "capacity": null,
    "openDays": [
      "平日",
      "土曜日",
      "祝日"
    ],
    "openDaysNote": "12月31日から1月2日までは年末年始休業"
  },
  {
    "id": "4690102670",
    "name": "R.CISHIKIBase",
    "kana": "アールシー　イシキ　ベース",
    "address": "鹿児島県鹿児島市西伊敷4丁目5−1",
    "lat": 31.6403836,
    "lng": 130.5314115,
    "tel": "099~295~0680",
    "url": "https://www.unity-g.com",
    "pref": "鹿児島県",
    "city": "鹿児島市",
    "category": "community_day_service",
    "serviceType": "地域密着型通所介護",
    "capacity": 18,
    "openDays": [
      "平日",
      "土曜日",
      "祝日"
    ],
    "openDaysNote": "年末年始12/30ー1/3はお休み"
  },
  {
    "id": "4670106956",
    "name": "あおぞらデイサービスセンター",
    "kana": "アオゾラデイサービスセンター",
    "address": "武３丁目１３－４黒木ビル１Ｆ 黒木ビル１Ｆ",
    "lat": 35.2206308,
    "lng": 139.6453553,
    "tel": "099－206－0553",
    "url": "http://www.aozora-gp.com/",
    "pref": "鹿児島県",
    "city": "鹿児島市",
    "category": "community_day_service",
    "serviceType": "地域密着型通所介護",
    "capacity": 15,
    "openDays": [
      "平日",
      "土曜日",
      "日曜日",
      "祝日"
    ],
    "openDaysNote": "電話等により２４時間連絡が可能な体制とする"
  },
  {
    "id": "4690103066",
    "name": "あおぞらでいさーびすせんたーながよし",
    "kana": "アオゾラデイサービスセンター永吉",
    "address": "鹿児島県鹿児島市永吉2-1-14",
    "lat": 31.6028325,
    "lng": 130.5330272,
    "tel": "099-298-5242",
    "url": "https://www.aozora-cg.com/",
    "pref": "鹿児島県",
    "city": "鹿児島市",
    "category": "community_day_service",
    "serviceType": "地域密着型通所介護",
    "capacity": null,
    "openDays": [
      "平日",
      "土曜日",
      "日曜日",
      "祝日"
    ],
    "openDaysNote": ""
  },
  {
    "id": "4690102746",
    "name": "あおぞらデイサービスセンター田上",
    "kana": "アオゾラデイサービスセンタータガミ",
    "address": "鹿児島県鹿児島市田上5丁目3-2",
    "lat": 31.5765566,
    "lng": 130.526087,
    "tel": "099-258-1882",
    "url": "https://www.aozora-cg.com/",
    "pref": "鹿児島県",
    "city": "鹿児島市",
    "category": "community_day_service",
    "serviceType": "地域密着型通所介護",
    "capacity": 18,
    "openDays": [
      "平日",
      "土曜日",
      "日曜日",
      "祝日"
    ],
    "openDaysNote": "電話等により２４時間連絡が可能な体制とする"
  },
  {
    "id": "4670109125",
    "name": "アプリシエイション　たもん",
    "kana": "アプリシエイション　タモン",
    "address": "鹿児島県鹿児島市郡元２丁目６－７学生会館　京幸1階店舗 学生会館　京幸1階店舗",
    "lat": 31.5624738,
    "lng": 130.5470564,
    "tel": "099-202-0110",
    "url": "",
    "pref": "鹿児島県",
    "city": "鹿児島市",
    "category": "community_day_service",
    "serviceType": "地域密着型通所介護",
    "capacity": 10,
    "openDays": [
      "平日"
    ],
    "openDaysNote": "2部制　※ご都合のよろしい時間帯をご選択ください（改行）　午前の部　９時から12時まで（改行）　午後の部　13時30分から16時30分まで"
  },
  {
    "id": "4690102258",
    "name": "アルファデイサービスセンター上荒田",
    "kana": "アルファデイサービスセンターウエアラタ",
    "address": "鹿児島県鹿児島市上荒田町31-12アルファリビング鹿児島上荒田内 アルファリビング鹿児島上荒田内",
    "lat": 31.5747461,
    "lng": 130.5466272,
    "tel": "099-298-1654",
    "url": "https://www.a-living.jp/kagoshima/uearata/",
    "pref": "鹿児島県",
    "city": "鹿児島市",
    "category": "community_day_service",
    "serviceType": "地域密着型通所介護",
    "capacity": 0,
    "openDays": [
      "平日"
    ],
    "openDaysNote": ""
  },
  {
    "id": "4690102738",
    "name": "いこま永吉アリーナ２単位型通所介護",
    "kana": "イコマナガヨシアリーナニタンイガタツウショカイゴ",
    "address": "鹿児島県鹿児島市永吉１－１－２０1階 1階",
    "lat": 31.5991912,
    "lng": 130.5326611,
    "tel": "099-296-1496",
    "url": "https://life-care-ikoma.com",
    "pref": "鹿児島県",
    "city": "鹿児島市",
    "category": "community_day_service",
    "serviceType": "地域密着型通所介護",
    "capacity": 0,
    "openDays": [
      "平日"
    ],
    "openDaysNote": ""
  },
  {
    "id": "4670109604",
    "name": "いろ葉",
    "kana": "イロハ",
    "address": "坂之上7丁目42番地１",
    "lat": 31.4898450050497,
    "lng": 130.498873025795,
    "tel": "099-297-6242",
    "url": "http://www.168abc.jp",
    "pref": "鹿児島県",
    "city": "鹿児島市",
    "category": "community_day_service",
    "serviceType": "地域密着型通所介護",
    "capacity": 10,
    "openDays": [
      "平日",
      "土曜日",
      "祝日"
    ],
    "openDaysNote": "12月31日は、営業"
  },
  {
    "id": "4690102720",
    "name": "えんむすび谷山",
    "kana": "エンムスビタニヤマ",
    "address": "鹿児島県鹿児島市谷山中央4丁目4852",
    "lat": 31.5189245,
    "lng": 130.5179802,
    "tel": "099-801-1673",
    "url": "",
    "pref": "鹿児島県",
    "city": "鹿児島市",
    "category": "community_day_service",
    "serviceType": "地域密着型通所介護",
    "capacity": 18,
    "openDays": [
      "平日",
      "土曜日",
      "日曜日",
      "祝日"
    ],
    "openDaysNote": "365日営業"
  },
  {
    "id": "4670108952",
    "name": "おとなの学校天保山橋校デイサービスセンター",
    "kana": "オトナノガッコウ　テンポザンバシコウ　デイサービスセンター",
    "address": "下荒田1丁目37－2藤崎ビル1階 藤崎ビル1階",
    "lat": 31.5779557,
    "lng": 130.5583162,
    "tel": "099-812-6603",
    "url": "http://www.otona-gakkou.com/",
    "pref": "鹿児島県",
    "city": "鹿児島市",
    "category": "community_day_service",
    "serviceType": "地域密着型通所介護",
    "capacity": 0,
    "openDays": [
      "平日",
      "祝日"
    ],
    "openDaysNote": "8/13～15,12/30～1/3、4/29～5/6のうち2日間をのぞく"
  },
  {
    "id": "4690102233",
    "name": "ケアモール宇宿",
    "kana": "ケアモールウスキ",
    "address": "鹿児島県鹿児島市宇宿1-8-7",
    "lat": 31.5510484,
    "lng": 130.5426612,
    "tel": "099-297-6520",
    "url": "",
    "pref": "鹿児島県",
    "city": "鹿児島市",
    "category": "community_day_service",
    "serviceType": "地域密着型通所介護",
    "capacity": null,
    "openDays": [
      "平日",
      "土曜日",
      "日曜日",
      "祝日"
    ],
    "openDaysNote": ""
  },
  {
    "id": "4670108523",
    "name": "コープデイサービス田上にじいろ",
    "kana": "コープデイサービスタガミニジイロ",
    "address": "広木一丁目1番1号",
    "lat": 31.5688169,
    "lng": 130.5214717,
    "tel": "099-286-1171",
    "url": "http://www.kagoshima.coop/",
    "pref": "鹿児島県",
    "city": "鹿児島市",
    "category": "community_day_service",
    "serviceType": "地域密着型通所介護",
    "capacity": 0,
    "openDays": [
      "平日",
      "土曜日",
      "祝日"
    ],
    "openDaysNote": "定休日の他1月1日～3日は休業"
  },
  {
    "id": "4690103041",
    "name": "コミュニティデイサービスあしあと壱番館",
    "kana": "コミュニティデイサービスアシアトイチバンカン",
    "address": "鹿児島市鴨池２丁目１０－２１住宅型有料老人ホームあしあと壱番館６F 住宅型有料老人ホームあしあと壱番館６F",
    "lat": 31.5674723,
    "lng": 130.5516296,
    "tel": "099-204-4788",
    "url": "",
    "pref": "鹿児島県",
    "city": "鹿児島市",
    "category": "community_day_service",
    "serviceType": "地域密着型通所介護",
    "capacity": null,
    "openDays": [
      "平日",
      "土曜日",
      "日曜日",
      "祝日"
    ],
    "openDaysNote": ""
  },
  {
    "id": "4690103058",
    "name": "コミュニティデイサービスあしあと弐番館",
    "kana": "コミュニティデイサービスアシアトニバンカン",
    "address": "鹿児島県鹿児島市東谷山２丁目６－１住宅型有料老人ホームあしあと弐番館６F 住宅型有料老人ホームあしあと弐番館６F",
    "lat": 31.530667063306,
    "lng": 130.52403922209,
    "tel": "099-203-0081",
    "url": "",
    "pref": "鹿児島県",
    "city": "鹿児島市",
    "category": "community_day_service",
    "serviceType": "地域密着型通所介護",
    "capacity": 0,
    "openDays": [
      "平日",
      "土曜日",
      "日曜日",
      "祝日"
    ],
    "openDaysNote": ""
  },
  {
    "id": "4670110362",
    "name": "サロン・ド・プランタン",
    "kana": "サロン　ド　プランタン",
    "address": "鹿児島市鷹師１丁目４－１プランタン西田橋１F プランタン西田橋１F",
    "lat": 31.5890401766656,
    "lng": 130.544478642328,
    "tel": "０９９－２３０－７５７５",
    "url": "http://jikeikai.net/",
    "pref": "鹿児島県",
    "city": "鹿児島市",
    "category": "community_day_service",
    "serviceType": "地域密着型通所介護",
    "capacity": 18,
    "openDays": [
      "平日",
      "土曜日",
      "祝日"
    ],
    "openDaysNote": "１月１日～３日までは休み"
  },
  {
    "id": "4670104316",
    "name": "シオンの家",
    "kana": "シオンノイエ",
    "address": "鹿児島市光山２丁目３番２３号",
    "lat": 31.4896801,
    "lng": 130.5060537,
    "tel": "099-262-0672",
    "url": "http://zionnoie.jimdo.com/",
    "pref": "鹿児島県",
    "city": "鹿児島市",
    "category": "community_day_service",
    "serviceType": "地域密着型通所介護",
    "capacity": 15,
    "openDays": [
      "平日",
      "土曜日",
      "祝日"
    ],
    "openDaysNote": ""
  },
  {
    "id": "4670105958",
    "name": "シオンの家光山",
    "kana": "シオンノイエヒカリヤマ",
    "address": "光山２丁目１８番６号",
    "lat": 31.4892747,
    "lng": 130.5095728,
    "tel": "099-284-6770",
    "url": "http://zionnoie.jimdo.com/",
    "pref": "鹿児島県",
    "city": "鹿児島市",
    "category": "community_day_service",
    "serviceType": "地域密着型通所介護",
    "capacity": 13,
    "openDays": [
      "平日",
      "土曜日",
      "祝日"
    ],
    "openDaysNote": "通所介護定休日は日曜日のみです。"
  },
  {
    "id": "4670107525",
    "name": "シオンの家坂之上",
    "kana": "シオンノイエサカノウエ",
    "address": "鹿児島市坂之上6丁目5－21",
    "lat": 31.4963155,
    "lng": 130.5038456,
    "tel": "992108001",
    "url": "http://zionnoie.jimdo.com/",
    "pref": "鹿児島県",
    "city": "鹿児島市",
    "category": "community_day_service",
    "serviceType": "地域密着型通所介護",
    "capacity": 0,
    "openDays": [
      "平日",
      "土曜日",
      "祝日"
    ],
    "openDaysNote": ""
  },
  {
    "id": "4670109018",
    "name": "シオンの家生きる",
    "kana": "シオンノイエイキル",
    "address": "鹿児島県鹿児島市光山2丁目14番17号",
    "lat": 31.490233041566,
    "lng": 130.509013149074,
    "tel": "099-210-8586",
    "url": "https://zionnoie.jimdofree.com/",
    "pref": "鹿児島県",
    "city": "鹿児島市",
    "category": "community_day_service",
    "serviceType": "地域密着型通所介護",
    "capacity": 13,
    "openDays": [
      "平日",
      "土曜日",
      "祝日"
    ],
    "openDaysNote": ""
  },
  {
    "id": "4690101763",
    "name": "シオンの家中山",
    "kana": "シオンノイエチュウザン",
    "address": "鹿児島県鹿児島市東谷山６丁目３３番２２",
    "lat": 31.5385317,
    "lng": 130.5182794,
    "tel": "099-814-7162",
    "url": "Zionchuzan@gmail.com",
    "pref": "鹿児島県",
    "city": "鹿児島市",
    "category": "community_day_service",
    "serviceType": "地域密着型通所介護",
    "capacity": 0,
    "openDays": [
      "平日",
      "土曜日",
      "祝日"
    ],
    "openDaysNote": ""
  },
  {
    "id": "4670103912",
    "name": "ショコラうすき通い",
    "kana": "ショコラウスキカヨイ",
    "address": "鹿児島市宇宿7丁目14番3号",
    "lat": 31.5531994,
    "lng": 130.5268027,
    "tel": "099-275-7075",
    "url": "https://chocolatusuki.com",
    "pref": "鹿児島県",
    "city": "鹿児島市",
    "category": "community_day_service",
    "serviceType": "地域密着型通所介護",
    "capacity": 0,
    "openDays": [
      "平日",
      "土曜日",
      "祝日"
    ],
    "openDaysNote": ""
  },
  {
    "id": "4690102878",
    "name": "スイートピア吉野",
    "kana": "スイートピアヨシノ",
    "address": "鹿児島市下田町650-1",
    "lat": 31.6456417,
    "lng": 130.5617199,
    "tel": "099-272-9833",
    "url": "http://tanpoponosato.jp/",
    "pref": "鹿児島県",
    "city": "鹿児島市",
    "category": "community_day_service",
    "serviceType": "地域密着型通所介護",
    "capacity": 0,
    "openDays": [
      "平日",
      "土曜日",
      "日曜日",
      "祝日"
    ],
    "openDaysNote": ""
  },
  {
    "id": "4690102530",
    "name": "スイートピア楓",
    "kana": "スイートピアカエデ",
    "address": "鹿児島市坂之上2丁目21-45",
    "lat": 31.5053953,
    "lng": 130.505549,
    "tel": "099-284-6570",
    "url": "http://tanpoponosato.jp",
    "pref": "鹿児島県",
    "city": "鹿児島市",
    "category": "community_day_service",
    "serviceType": "地域密着型通所介護",
    "capacity": 0,
    "openDays": [
      "平日",
      "土曜日",
      "日曜日",
      "祝日"
    ],
    "openDaysNote": ""
  },
  {
    "id": "4670109356",
    "name": "スター倶楽部",
    "kana": "スタークラブ",
    "address": "池之上町６番１５号税所ビル１階（旧　田中ビル） 税所ビル１階（旧　田中ビル）",
    "lat": 31.6084885,
    "lng": 130.5636397,
    "tel": "099-248-9231",
    "url": "https://dayss.co.jp",
    "pref": "鹿児島県",
    "city": "鹿児島市",
    "category": "community_day_service",
    "serviceType": "地域密着型通所介護",
    "capacity": 18,
    "openDays": [
      "平日",
      "土曜日",
      "祝日"
    ],
    "openDaysNote": "但し年末年始臨時休業有り（改行）自然災害、新型コロナ発生時等によりやむを得ない場合は休む事があります。現在、日曜日利用者はなし。"
  },
  {
    "id": "4690101854",
    "name": "スター倶楽部よしの",
    "kana": "スタークラブヨシノ",
    "address": "鹿児島県鹿児島市吉野町6972-1",
    "lat": 31.6371052,
    "lng": 130.5840628,
    "tel": "099-248-9660",
    "url": "https://dayss.co.jp",
    "pref": "鹿児島県",
    "city": "鹿児島市",
    "category": "community_day_service",
    "serviceType": "地域密着型通所介護",
    "capacity": 18,
    "openDays": [
      "平日",
      "土曜日",
      "祝日"
    ],
    "openDaysNote": "年末年始臨時休業有り"
  },
  {
    "id": "4690102787",
    "name": "スプラウトデイサービス達者の家KAGOSHIMA",
    "kana": "スプラウトデイサービスタッシャノイエカゴシマ",
    "address": "鹿児島県鹿児島市小野３−３−１４",
    "lat": 31.6118094,
    "lng": 130.523879293254,
    "tel": "099-295-3111",
    "url": "http://www.carecraftsman.com/",
    "pref": "鹿児島県",
    "city": "鹿児島市",
    "category": "community_day_service",
    "serviceType": "地域密着型通所介護",
    "capacity": null,
    "openDays": [
      "平日",
      "土曜日",
      "祝日"
    ],
    "openDaysNote": ""
  },
  {
    "id": "4690102266",
    "name": "スマイル塾",
    "kana": "スマイルジュク",
    "address": "鹿児島県鹿児島市星ヶ峯三丁目40-8",
    "lat": 31.5818052,
    "lng": 130.4925298,
    "tel": "099-265-8801",
    "url": "http://www.seseragi-kagosima.com/",
    "pref": "鹿児島県",
    "city": "鹿児島市",
    "category": "community_day_service",
    "serviceType": "地域密着型通所介護",
    "capacity": null,
    "openDays": [
      "平日",
      "土曜日",
      "祝日"
    ],
    "openDaysNote": ""
  },
  {
    "id": "4670107186",
    "name": "それいゆ船津",
    "kana": "ソレイユフナツ",
    "address": "船津町3-11",
    "lat": 31.5879351,
    "lng": 130.5578715,
    "tel": "099-248-7028",
    "url": "",
    "pref": "鹿児島県",
    "city": "鹿児島市",
    "category": "community_day_service",
    "serviceType": "地域密着型通所介護",
    "capacity": 3,
    "openDays": [
      "平日",
      "土曜日",
      "日曜日",
      "祝日"
    ],
    "openDaysNote": ""
  },
  {
    "id": "4690102357",
    "name": "たけおかの郷通所介護",
    "kana": "タケオカノサトツウショカイゴ",
    "address": "武岡1丁目7-5",
    "lat": 31.590475,
    "lng": 130.5226795,
    "tel": "099-204-7898",
    "url": "https://life-care-ikoma.com",
    "pref": "鹿児島県",
    "city": "鹿児島市",
    "category": "community_day_service",
    "serviceType": "地域密着型通所介護",
    "capacity": 0,
    "openDays": [
      "平日",
      "祝日"
    ],
    "openDaysNote": ""
  },
  {
    "id": "4670111329",
    "name": "だんらん",
    "kana": "ダンラン",
    "address": "鹿児島県鹿児島市星ヶ峯２丁目１４番１号",
    "lat": 31.578141,
    "lng": 130.4977025,
    "tel": "099-298-5879",
    "url": "ブログ：npo.anpei@gmail.com",
    "pref": "鹿児島県",
    "city": "鹿児島市",
    "category": "community_day_service",
    "serviceType": "地域密着型通所介護",
    "capacity": 10,
    "openDays": [
      "平日",
      "土曜日",
      "祝日"
    ],
    "openDaysNote": "祝祭日にかかわらず、月曜日から土曜日までの営業時間とする。"
  },
  {
    "id": "4690103017",
    "name": "だんらんの家　鹿児島唐湊",
    "kana": "ダンランノイエカゴシマトソ",
    "address": "鹿児島県鹿児島市唐湊1丁目7番21号",
    "lat": 31.5727741,
    "lng": 130.535931,
    "tel": "992975811",
    "url": "",
    "pref": "鹿児島県",
    "city": "鹿児島市",
    "category": "community_day_service",
    "serviceType": "地域密着型通所介護",
    "capacity": 0,
    "openDays": [
      "平日",
      "土曜日",
      "祝日"
    ],
    "openDaysNote": "希望日時の要望があればご相談ください（改行）延長サービス（7:00～、17:01～　300円/時）対応いたします。"
  },
  {
    "id": "4670110917",
    "name": "ﾃﾞｲｻｰﾋﾞｽｾﾝﾀｰじゅらく常盤",
    "kana": "デイサービスセンタージュラクトキワ",
    "address": "鹿児島県鹿児島市常盤1-24-39",
    "lat": 31.5882010908179,
    "lng": 130.530098482938,
    "tel": "099-204-0200",
    "url": "",
    "pref": "鹿児島県",
    "city": "鹿児島市",
    "category": "community_day_service",
    "serviceType": "地域密着型通所介護",
    "capacity": 0,
    "openDays": [
      "平日",
      "祝日"
    ],
    "openDaysNote": "1月1日から2日正月休み（改行）サービス提供時間については、相談可能です。"
  },
  {
    "id": "4670107947",
    "name": "ﾃﾞｲｻｰﾋﾞｽ楓",
    "kana": "デイサービスカエデ",
    "address": "鹿児島県鹿児島市小川町22-15",
    "lat": 31.5998477,
    "lng": 130.5621263,
    "tel": "099-223-1118",
    "url": "http://kaede118.com/",
    "pref": "鹿児島県",
    "city": "鹿児島市",
    "category": "community_day_service",
    "serviceType": "地域密着型通所介護",
    "capacity": 0,
    "openDays": [
      "平日",
      "土曜日",
      "日曜日",
      "祝日"
    ],
    "openDaysNote": ""
  },
  {
    "id": "4690102837",
    "name": "デイサービス　アルティパス武",
    "kana": "デイサービス　アルティパスタケ",
    "address": "鹿児島市武2丁目11番8号",
    "lat": 31.581538,
    "lng": 130.537284,
    "tel": "099-204-7180",
    "url": "",
    "pref": "鹿児島県",
    "city": "鹿児島市",
    "category": "community_day_service",
    "serviceType": "地域密着型通所介護",
    "capacity": null,
    "openDays": [
      "平日",
      "土曜日",
      "祝日"
    ],
    "openDaysNote": "年末年始12/31～1/2"
  },
  {
    "id": "4670108309",
    "name": "デイサービス　ウェルカム",
    "kana": "デイサービス　ウェルカム",
    "address": "西伊敷1丁目15-21",
    "lat": 31.6330854916233,
    "lng": 130.529749692675,
    "tel": "099-248-9215",
    "url": "http://welcome-kagoshima.com/",
    "pref": "鹿児島県",
    "city": "鹿児島市",
    "category": "community_day_service",
    "serviceType": "地域密着型通所介護",
    "capacity": 15,
    "openDays": [
      "平日",
      "土曜日",
      "祝日"
    ],
    "openDaysNote": "年末年始及び日曜日のみ休みとなります。（変動あり）"
  },
  {
    "id": "4670110339",
    "name": "デイサービス　ウェルカムデイズ",
    "kana": "デイサービス　ウェルカムデイズ",
    "address": "鹿児島県鹿児島市西伊敷１－２８－３",
    "lat": 31.6313583,
    "lng": 130.5280969,
    "tel": "０９９－２９５－０５２５",
    "url": "http://welcome-kagoshima.com/",
    "pref": "鹿児島県",
    "city": "鹿児島市",
    "category": "community_day_service",
    "serviceType": "地域密着型通所介護",
    "capacity": 18,
    "openDays": [
      "平日",
      "土曜日",
      "祝日"
    ],
    "openDaysNote": "月～土曜日の祝日は、営業実施しております。"
  },
  {
    "id": "4670107954",
    "name": "デイサービス　オアシスケア郡元",
    "kana": "デイサービス　オアシスケアコオリモト",
    "address": "鹿児島市郡元町6番28号高齢者優良賃貸住宅　オアシスケア郡元 高齢者優良賃貸住宅　オアシスケア郡元",
    "lat": 31.5609795,
    "lng": 130.5451899,
    "tel": "099-296-9110",
    "url": "http://oasiscare.jp",
    "pref": "鹿児島県",
    "city": "鹿児島市",
    "category": "community_day_service",
    "serviceType": "地域密着型通所介護",
    "capacity": 15,
    "openDays": [
      "平日",
      "土曜日",
      "祝日"
    ],
    "openDaysNote": ""
  },
  {
    "id": "4670107731",
    "name": "デイサービス　オアシスケア原良",
    "kana": "デイサービス　オアシスケアハララ",
    "address": "鹿児島市原良1丁目1-5二千花ビル　1階 二千花ビル　1階",
    "lat": 31.5982472,
    "lng": 130.5388113,
    "tel": "099-296-8445",
    "url": "http://oasiscare.jp",
    "pref": "鹿児島県",
    "city": "鹿児島市",
    "category": "community_day_service",
    "serviceType": "地域密着型通所介護",
    "capacity": 6,
    "openDays": [
      "平日",
      "土曜日",
      "日曜日",
      "祝日"
    ],
    "openDaysNote": ""
  },
  {
    "id": "4670106493",
    "name": "デイサービス　おじゃったもんせ",
    "kana": "デイサービス　オジャッタモンセ",
    "address": "鹿児島市小川町11番8号2階メゾン・ド・ボヌール メゾン・ド・ボヌール",
    "lat": 31.6002339985272,
    "lng": 130.561665976721,
    "tel": "099-248-9512",
    "url": "https://ojyattamonse.jp/",
    "pref": "鹿児島県",
    "city": "鹿児島市",
    "category": "community_day_service",
    "serviceType": "地域密着型通所介護",
    "capacity": 18,
    "openDays": [
      "平日",
      "土曜日",
      "祝日"
    ],
    "openDaysNote": ""
  },
  {
    "id": "4670110123",
    "name": "デイサービス　おじゃったもんせ　伊敷",
    "kana": "デイサービス　オジャッタモンセ　イシキ",
    "address": "鹿児島県鹿児島市伊敷１丁目２３番３０号福田ビル 福田ビル",
    "lat": 31.621584,
    "lng": 130.5261613,
    "tel": "099-228-7766",
    "url": "https://ojyattamonse.jo/",
    "pref": "鹿児島県",
    "city": "鹿児島市",
    "category": "community_day_service",
    "serviceType": "地域密着型通所介護",
    "capacity": 18,
    "openDays": [
      "平日",
      "土曜日",
      "祝日"
    ],
    "openDaysNote": ""
  },
  {
    "id": "4690102696",
    "name": "デイサービス　かんまち",
    "kana": "デイサービス　カンマチ",
    "address": "鹿児島県鹿児島市大竜町7-35",
    "lat": 31.6049294,
    "lng": 130.5614597,
    "tel": "099-295-3077",
    "url": "http://yoshino-medical.com",
    "pref": "鹿児島県",
    "city": "鹿児島市",
    "category": "community_day_service",
    "serviceType": "地域密着型通所介護",
    "capacity": 0,
    "openDays": [
      "平日",
      "土曜日",
      "日曜日",
      "祝日"
    ],
    "openDaysNote": ""
  },
  {
    "id": "4690102712",
    "name": "デイサービス　きゅっきゅ",
    "kana": "デイサービス　キュッキュ",
    "address": "鹿児島県鹿児島市伊敷4丁目10-1",
    "lat": 31.6327477751519,
    "lng": 130.534118189549,
    "tel": "099-800-4557",
    "url": "",
    "pref": "鹿児島県",
    "city": "鹿児島市",
    "category": "community_day_service",
    "serviceType": "地域密着型通所介護",
    "capacity": 18,
    "openDays": [
      "平日",
      "土曜日",
      "日曜日",
      "祝日"
    ],
    "openDaysNote": ""
  },
  {
    "id": "4670109091",
    "name": "ディサービス　さざなみ",
    "kana": "ディサービス　サザナミ",
    "address": "鹿児島市谷山中央4丁目152-1ディサービス　さざなみ ディサービス　さざなみ",
    "lat": 31.517889,
    "lng": 130.516258,
    "tel": "099-268-5055",
    "url": "",
    "pref": "鹿児島県",
    "city": "鹿児島市",
    "category": "community_day_service",
    "serviceType": "地域密着型通所介護",
    "capacity": 10,
    "openDays": [
      "平日",
      "土曜日",
      "日曜日",
      "祝日"
    ],
    "openDaysNote": ""
  },
  {
    "id": "4690102621",
    "name": "デイサービス　まるちゃん家",
    "kana": "デイサービス　マルチャンチ",
    "address": "鹿児島県鹿児島市坂之上1-47-10",
    "lat": 31.5013293,
    "lng": 130.5096934,
    "tel": "099-297-6191",
    "url": "https://brace-sakanoue.localinfo.jp/",
    "pref": "鹿児島県",
    "city": "鹿児島市",
    "category": "community_day_service",
    "serviceType": "地域密着型通所介護",
    "capacity": 18,
    "openDays": [
      "平日",
      "土曜日",
      "祝日"
    ],
    "openDaysNote": ""
  },
  {
    "id": "4670108648",
    "name": "デイサービス　ゆうゆうクラブ",
    "kana": "デイサービス　ユウユウクラブ",
    "address": "鹿児島県鹿児島市樋之口町６番８号ハイツ渕上１階 ハイツ渕上１階",
    "lat": 31.5857457328268,
    "lng": 130.555270529955,
    "tel": "０９９－２２６－９３１１",
    "url": "http://www.pharmacom.jp/yuuyuuclub/",
    "pref": "鹿児島県",
    "city": "鹿児島市",
    "category": "community_day_service",
    "serviceType": "地域密着型通所介護",
    "capacity": 18,
    "openDays": [
      "平日",
      "土曜日",
      "日曜日",
      "祝日"
    ],
    "openDaysNote": ""
  },
  {
    "id": "4670111287",
    "name": "デイサービス　リスタ",
    "kana": "デイサービス　リスタ",
    "address": "桜ケ丘８丁目４０－７",
    "lat": 31.5451521978515,
    "lng": 130.530892608225,
    "tel": "099-295-6030",
    "url": "www.ab.auone-net.jp/~kyukyu/",
    "pref": "鹿児島県",
    "city": "鹿児島市",
    "category": "community_day_service",
    "serviceType": "地域密着型通所介護",
    "capacity": 15,
    "openDays": [
      "平日",
      "土曜日",
      "祝日"
    ],
    "openDaysNote": ""
  },
  {
    "id": "4670107426",
    "name": "デイサービス　元気庵錬",
    "kana": "デイサービス　ゲンキアンレン",
    "address": "鹿児島市伊敷台７丁目２７番２６号",
    "lat": 31.6265228,
    "lng": 130.5536117,
    "tel": "099-248-8400",
    "url": "http://www.hcd.co.jp/",
    "pref": "鹿児島県",
    "city": "鹿児島市",
    "category": "community_day_service",
    "serviceType": "地域密着型通所介護",
    "capacity": 60,
    "openDays": [
      "平日",
      "土曜日",
      "祝日"
    ],
    "openDaysNote": ""
  },
  {
    "id": "4690101953",
    "name": "デイサービス　桜の苑",
    "kana": "デイサービス　サクラノソノ",
    "address": "鹿児島県鹿児島市下福元町9073番地2",
    "lat": 31.4987144,
    "lng": 130.4883984,
    "tel": "099-210-8515",
    "url": "",
    "pref": "鹿児島県",
    "city": "鹿児島市",
    "category": "community_day_service",
    "serviceType": "地域密着型通所介護",
    "capacity": 10,
    "openDays": [
      "平日",
      "土曜日",
      "祝日"
    ],
    "openDaysNote": "正月は31日より3日まで休み"
  },
  {
    "id": "4690101565",
    "name": "ディサービス　優美庵",
    "kana": "デイサービス　ユウビアン",
    "address": "鹿児島県鹿児島市宇宿9丁目6番30号",
    "lat": 31.5552019,
    "lng": 130.5242083,
    "tel": "099-275-2288",
    "url": "www.amayurikai.or.jp",
    "pref": "鹿児島県",
    "city": "鹿児島市",
    "category": "community_day_service",
    "serviceType": "地域密着型通所介護",
    "capacity": 0,
    "openDays": [
      "平日",
      "土曜日",
      "祝日"
    ],
    "openDaysNote": ""
  },
  {
    "id": "4690101581",
    "name": "デイサービスあいがて真砂",
    "kana": "デイサービスアイガテマサゴ",
    "address": "鹿児島県鹿児島市真砂町74-4ユウセイ丸進ビル101 ユウセイ丸進ビル101",
    "lat": 31.5600509714133,
    "lng": 130.55119594418,
    "tel": "099-814-7717",
    "url": "https://aigate-masago.localinfo.jp/",
    "pref": "鹿児島県",
    "city": "鹿児島市",
    "category": "community_day_service",
    "serviceType": "地域密着型通所介護",
    "capacity": 20,
    "openDays": [
      "平日",
      "土曜日",
      "日曜日",
      "祝日"
    ],
    "openDaysNote": ""
  },
  {
    "id": "4670105271",
    "name": "デイサービスいろりの家",
    "kana": "デイサービスイロリノイエ",
    "address": "鹿児島市坂之上六丁目２０番３０号",
    "lat": 31.4959905,
    "lng": 130.5016958,
    "tel": "099-262-4647",
    "url": "",
    "pref": "鹿児島県",
    "city": "鹿児島市",
    "category": "community_day_service",
    "serviceType": "地域密着型通所介護",
    "capacity": 15,
    "openDays": [
      "平日",
      "土曜日",
      "日曜日",
      "祝日"
    ],
    "openDaysNote": "1月1日のみ休業"
  },
  {
    "id": "4670103813",
    "name": "デイサービスオアシスケア吉野",
    "kana": "デイサービスオアシスケアヨシノ",
    "address": "吉野町8859－2",
    "lat": 31.6370802,
    "lng": 130.5763492,
    "tel": "099－246－3407",
    "url": "http://oasiscare.jp/",
    "pref": "鹿児島県",
    "city": "鹿児島市",
    "category": "community_day_service",
    "serviceType": "地域密着型通所介護",
    "capacity": 15,
    "openDays": [
      "平日",
      "土曜日",
      "祝日"
    ],
    "openDaysNote": ""
  },
  {
    "id": "4670109612",
    "name": "デイサービスオアシスケア天保山",
    "kana": "デイサービスオアシスケアテンポウザン",
    "address": "鹿児島県鹿児島市下荒田２丁目４５番6号",
    "lat": 31.5733452,
    "lng": 130.5583052,
    "tel": "099-203-0025",
    "url": "http://www.symbio.jp",
    "pref": "鹿児島県",
    "city": "鹿児島市",
    "category": "community_day_service",
    "serviceType": "地域密着型通所介護",
    "capacity": 10,
    "openDays": [
      "平日",
      "土曜日",
      "祝日"
    ],
    "openDaysNote": "本年は、年末年始定休日無し"
  },
  {
    "id": "4670107665",
    "name": "デイサービスおたふく郡元",
    "kana": "デイサービスオタフクコオリモト",
    "address": "郡元１−１５−５井手ビル　１階 井手ビル　１階",
    "lat": 31.564818,
    "lng": 130.5451342,
    "tel": "099−297−4433",
    "url": "http://ohtadc-gp.jp/otafuku/",
    "pref": "鹿児島県",
    "city": "鹿児島市",
    "category": "community_day_service",
    "serviceType": "地域密着型通所介護",
    "capacity": 18,
    "openDays": [
      "平日",
      "土曜日",
      "祝日"
    ],
    "openDaysNote": "年末年始　１２月３１日　〜　１月２日までの　三日間お休みとなります。"
  },
  {
    "id": "4690101540",
    "name": "デイサービスきぼうの里",
    "kana": "デイサービスキボウノサト",
    "address": "鹿児島県鹿児島市玉里団地2-5-1",
    "lat": 31.6178734,
    "lng": 130.5467905,
    "tel": "099-813-7155",
    "url": "http://shimazu-hd.jp/",
    "pref": "鹿児島県",
    "city": "鹿児島市",
    "category": "community_day_service",
    "serviceType": "地域密着型通所介護",
    "capacity": 0,
    "openDays": [
      "平日",
      "土曜日",
      "日曜日",
      "祝日"
    ],
    "openDaysNote": ""
  },
  {
    "id": "4670107913",
    "name": "デイサービスセンター　おひさま",
    "kana": "デイサービスセンター　オヒサマ",
    "address": "鹿児島県鹿児島市田上８丁目１３ー２９",
    "lat": 31.5934062039624,
    "lng": 130.506738129848,
    "tel": "０９９－８００－７１４４",
    "url": "https://kagoshima-ohisama.com",
    "pref": "鹿児島県",
    "city": "鹿児島市",
    "category": "community_day_service",
    "serviceType": "地域密着型通所介護",
    "capacity": 18,
    "openDays": [
      "平日",
      "土曜日",
      "日曜日",
      "祝日"
    ],
    "openDaysNote": "特になし"
  },
  {
    "id": "4670105792",
    "name": "デイサービスセンター　キューピット",
    "kana": "デイサービスセンター　キューピット",
    "address": "上福元町5932番地1",
    "lat": 31.5322683,
    "lng": 130.4979903,
    "tel": "099-263-6485",
    "url": "",
    "pref": "鹿児島県",
    "city": "鹿児島市",
    "category": "community_day_service",
    "serviceType": "地域密着型通所介護",
    "capacity": 10,
    "openDays": [
      "平日",
      "土曜日",
      "日曜日",
      "祝日"
    ],
    "openDaysNote": "特になし"
  },
  {
    "id": "4670107343",
    "name": "デイサービスセンター　しおり",
    "kana": "デイサービスセンター　シオリ",
    "address": "清水町１０－７",
    "lat": 31.6090385,
    "lng": 130.5668339,
    "tel": "099-248-7961",
    "url": "http://www.kaigo-shiori.com/",
    "pref": "鹿児島県",
    "city": "鹿児島市",
    "category": "community_day_service",
    "serviceType": "地域密着型通所介護",
    "capacity": 15,
    "openDays": [
      "平日",
      "土曜日",
      "祝日"
    ],
    "openDaysNote": "日曜日以外の祝祭日は営業いたしております。"
  },
  {
    "id": "4690101839",
    "name": "デイサービスセンター　とうぶ",
    "kana": "デイサービスセンター　トウブ",
    "address": "鹿児島県鹿児島市東谷山４丁目　３４－２",
    "lat": 31.5324989,
    "lng": 130.5187546,
    "tel": "０９９－２９７－５３１５",
    "url": "",
    "pref": "鹿児島県",
    "city": "鹿児島市",
    "category": "community_day_service",
    "serviceType": "地域密着型通所介護",
    "capacity": 3,
    "openDays": [
      "平日",
      "土曜日",
      "祝日"
    ],
    "openDaysNote": ""
  },
  {
    "id": "4670108093",
    "name": "デイサービスセンター　ラビット",
    "kana": "デイサービスセンター　ラビット",
    "address": "鹿児島市上福元町5932番地1",
    "lat": 31.5322683,
    "lng": 130.4979903,
    "tel": "099-266-0003",
    "url": "https://tasukeai-k.jp/",
    "pref": "鹿児島県",
    "city": "鹿児島市",
    "category": "community_day_service",
    "serviceType": "地域密着型通所介護",
    "capacity": 10,
    "openDays": [
      "平日",
      "土曜日",
      "日曜日",
      "祝日"
    ],
    "openDaysNote": ""
  },
  {
    "id": "4670110834",
    "name": "ディサービスセンターあいせ平之町",
    "kana": "ヒラノチョウ",
    "address": "鹿児島県鹿児島市平之町10番9号",
    "lat": 31.5907567,
    "lng": 130.5485276,
    "tel": "099-222-5445",
    "url": "http://dayservice-aise.com/aise02.html",
    "pref": "鹿児島県",
    "city": "鹿児島市",
    "category": "community_day_service",
    "serviceType": "地域密着型通所介護",
    "capacity": 10,
    "openDays": [
      "平日",
      "土曜日",
      "祝日"
    ],
    "openDaysNote": "祝日は営業しております（改行）半日型ディサービスです（改行）午前は8:30から12:30まで（改行）午後は13:00から17:30の二部制です。"
  },
  {
    "id": "4670108150",
    "name": "デイサービスセンターいろえんぴつ",
    "kana": "デイサービスセンターイロエンピツ",
    "address": "田上台4丁目42番13号",
    "lat": 31.5747023,
    "lng": 130.5189663,
    "tel": "099-296-9925",
    "url": "",
    "pref": "鹿児島県",
    "city": "鹿児島市",
    "category": "community_day_service",
    "serviceType": "地域密着型通所介護",
    "capacity": 18,
    "openDays": [
      "平日",
      "土曜日",
      "祝日"
    ],
    "openDaysNote": "第２・第３水曜日に関しては、施設行事等により変更もあり"
  },
  {
    "id": "4690101821",
    "name": "デイサービスセンターおきがる",
    "kana": "デイサービスセンターオキガル",
    "address": "鹿児島県鹿児島市星ヶ峯二丁目11番8号",
    "lat": 31.5763224,
    "lng": 130.4991792,
    "tel": "099-800-7101",
    "url": "https://www.tannpopo-kai.com/",
    "pref": "鹿児島県",
    "city": "鹿児島市",
    "category": "community_day_service",
    "serviceType": "地域密着型通所介護",
    "capacity": 15,
    "openDays": [
      "平日",
      "土曜日",
      "祝日"
    ],
    "openDaysNote": ""
  },
  {
    "id": "4670110552",
    "name": "デイサービスセンターこころ",
    "kana": "デイサービスセンターココロ",
    "address": "向陽２丁目２１－２２",
    "lat": 31.5566406,
    "lng": 130.5168203,
    "tel": "099-204-0033",
    "url": "",
    "pref": "鹿児島県",
    "city": "鹿児島市",
    "category": "community_day_service",
    "serviceType": "地域密着型通所介護",
    "capacity": 0,
    "openDays": [
      "平日",
      "土曜日",
      "祝日"
    ],
    "openDaysNote": "１２月３１日から１月３日までを除く。"
  },
  {
    "id": "4690102332",
    "name": "デイサービスセンターこもれび",
    "kana": "デイサービスセンターコモレビ",
    "address": "鹿児島県鹿児島市小松原2丁目12番12号",
    "lat": 31.5303267261156,
    "lng": 130.525129465641,
    "tel": "099-210-1105",
    "url": "",
    "pref": "鹿児島県",
    "city": "鹿児島市",
    "category": "community_day_service",
    "serviceType": "地域密着型通所介護",
    "capacity": 0,
    "openDays": [
      "平日",
      "土曜日",
      "祝日"
    ],
    "openDaysNote": ""
  },
  {
    "id": "4690102456",
    "name": "デイサービスセンターさくら",
    "kana": "デイサービスセンターサクラ",
    "address": "鹿児島県鹿児島市喜入瀬々串町604番地147",
    "lat": 31.431846,
    "lng": 130.510856,
    "tel": "099-347-0003",
    "url": "",
    "pref": "鹿児島県",
    "city": "鹿児島市",
    "category": "community_day_service",
    "serviceType": "地域密着型通所介護",
    "capacity": 9,
    "openDays": [
      "平日",
      "土曜日"
    ],
    "openDaysNote": "平日の木曜日は13時30分～16時30分まで、土曜日は8時30分～12時40分までのサービス提供時間となります。"
  },
  {
    "id": "4690102381",
    "name": "デイサービスセンターさくら草",
    "kana": "デイサービスセンターサクラソウ",
    "address": "鹿児島県鹿児島市山田町2405番地1特別養護老人ホーム　ふれあいの街ねむの里　１階 特別養護老人ホーム　ふれあいの街ねむの里　１階",
    "lat": 31.562259,
    "lng": 130.498228,
    "tel": "099-275-9188",
    "url": "http://ueharaclinic.jp/facilities/",
    "pref": "鹿児島県",
    "city": "鹿児島市",
    "category": "community_day_service",
    "serviceType": "地域密着型通所介護",
    "capacity": 18,
    "openDays": [
      "平日",
      "土曜日",
      "祝日"
    ],
    "openDaysNote": "８月１４日から８月１５日、１２月３１日から１月３日は事業所定休日"
  },
  {
    "id": "4670106261",
    "name": "デイサービスセンターすずらん",
    "kana": "デイサービスセンタースズラン",
    "address": "鹿児島市平川町１５３９－１",
    "lat": 31.4699958,
    "lng": 130.5072731,
    "tel": "099-262-2288",
    "url": "",
    "pref": "鹿児島県",
    "city": "鹿児島市",
    "category": "community_day_service",
    "serviceType": "地域密着型通所介護",
    "capacity": 10,
    "openDays": [
      "平日",
      "土曜日",
      "祝日"
    ],
    "openDaysNote": ""
  },
  {
    "id": "4670110545",
    "name": "デイサービスセンターすずらん喜入",
    "kana": "デイサービスセンタースズランキイレ",
    "address": "鹿児島県鹿児島市喜入中名町2977-1",
    "lat": 31.3851405943461,
    "lng": 130.537018216932,
    "tel": "099-299-2212",
    "url": "",
    "pref": "鹿児島県",
    "city": "鹿児島市",
    "category": "community_day_service",
    "serviceType": "地域密着型通所介護",
    "capacity": 18,
    "openDays": [
      "平日",
      "土曜日",
      "祝日"
    ],
    "openDaysNote": ""
  },
  {
    "id": "4670107566",
    "name": "デイサービスセンターつばめ",
    "kana": "デイサービスセンターツバメ",
    "address": "鹿児島市山田町442-1有料老人ホームちどり 有料老人ホームちどり",
    "lat": 31.5546047,
    "lng": 130.5082243,
    "tel": "099-210-2288",
    "url": "",
    "pref": "鹿児島県",
    "city": "鹿児島市",
    "category": "community_day_service",
    "serviceType": "地域密着型通所介護",
    "capacity": 0,
    "openDays": [
      "平日",
      "土曜日",
      "祝日"
    ],
    "openDaysNote": ""
  },
  {
    "id": "4690102589",
    "name": "デイサービスセンターてあて",
    "kana": "デイサービスセンターテアテ",
    "address": "鹿児島県鹿児島市坂之上３丁目８番１号",
    "lat": 31.5061093,
    "lng": 130.5022204,
    "tel": "099-203-0793",
    "url": "",
    "pref": "鹿児島県",
    "city": "鹿児島市",
    "category": "community_day_service",
    "serviceType": "地域密着型通所介護",
    "capacity": 0,
    "openDays": [
      "平日",
      "土曜日",
      "祝日"
    ],
    "openDaysNote": ""
  },
  {
    "id": "4670111097",
    "name": "デイサービスセンターとらすと",
    "kana": "デイサービスセンタートラスト",
    "address": "鹿児島県鹿児島市稲荷町9-24",
    "lat": 31.6109347,
    "lng": 130.5672396,
    "tel": "099-811-0488",
    "url": "http://hp.kaipoke.biz/kud/",
    "pref": "鹿児島県",
    "city": "鹿児島市",
    "category": "community_day_service",
    "serviceType": "地域密着型通所介護",
    "capacity": 0,
    "openDays": [
      "平日",
      "土曜日"
    ],
    "openDaysNote": ""
  },
  {
    "id": "4670107269",
    "name": "デイサービスセンターフローラルガーデン早馬",
    "kana": "デイサービスセンターフローラルガーデンハヤマ",
    "address": "鹿児島市吉野町９０９１番地",
    "lat": 31.6304031,
    "lng": 130.57218,
    "tel": "０９９－２４３－３９６１",
    "url": "www.k-nonoka.com",
    "pref": "鹿児島県",
    "city": "鹿児島市",
    "category": "community_day_service",
    "serviceType": "地域密着型通所介護",
    "capacity": 10,
    "openDays": [
      "平日",
      "土曜日",
      "日曜日",
      "祝日"
    ],
    "openDaysNote": ""
  },
  {
    "id": "4690101417",
    "name": "デイサービスセンターほりんの里",
    "kana": "デイサービスセンターホリンノサト",
    "address": "鹿児島県鹿児島市石谷町４９９５－１総合福祉センターほりん 総合福祉センターほりん",
    "lat": 31.6160755118596,
    "lng": 130.446719931369,
    "tel": "099-295-6155",
    "url": "http://www5.synapse.ne.jp/horin/",
    "pref": "鹿児島県",
    "city": "鹿児島市",
    "category": "community_day_service",
    "serviceType": "地域密着型通所介護",
    "capacity": 18,
    "openDays": [
      "平日",
      "土曜日",
      "祝日"
    ],
    "openDaysNote": "特になし"
  },
  {
    "id": "4670104043",
    "name": "デイサービスセンターみやび",
    "kana": "デイサービスセンター　ミヤビ",
    "address": "鹿児島市谷山中央1丁目4319番地",
    "lat": 31.5244159363447,
    "lng": 130.514927298148,
    "tel": "099-263-3000",
    "url": "http://www4.synapse.ne.jp/miyabi/",
    "pref": "鹿児島県",
    "city": "鹿児島市",
    "category": "community_day_service",
    "serviceType": "地域密着型通所介護",
    "capacity": 0,
    "openDays": [
      "平日",
      "祝日"
    ],
    "openDaysNote": ""
  },
  {
    "id": "4670109497",
    "name": "デイサービスセンターゆりかご",
    "kana": "デイサービスセンターユリカゴ",
    "address": "鹿児島市伊敷5丁目17番1号シニアハウスはぴねす1階 シニアハウスはぴねす1階",
    "lat": 31.6267225,
    "lng": 130.5261583,
    "tel": "099-229-2755",
    "url": "",
    "pref": "鹿児島県",
    "city": "鹿児島市",
    "category": "community_day_service",
    "serviceType": "地域密着型通所介護",
    "capacity": 18,
    "openDays": [
      "平日",
      "土曜日",
      "祝日"
    ],
    "openDaysNote": ""
  },
  {
    "id": "4690101979",
    "name": "デイサービスセンターよりみち",
    "kana": "デイサービスセンターヨリミチ",
    "address": "鹿児島県鹿児島市西谷山3丁目10番15号",
    "lat": 31.5206482300474,
    "lng": 130.503222640956,
    "tel": "099-230-0590",
    "url": "",
    "pref": "鹿児島県",
    "city": "鹿児島市",
    "category": "community_day_service",
    "serviceType": "地域密着型通所介護",
    "capacity": null,
    "openDays": [
      "平日",
      "土曜日",
      "日曜日",
      "祝日"
    ],
    "openDaysNote": ""
  },
  {
    "id": "4690101573",
    "name": "デイサービスセンター縁側",
    "kana": "デイサービスセンターエンガワ",
    "address": "鹿児島県鹿児島市谷山中央5丁目39-1",
    "lat": 31.5160497689412,
    "lng": 130.511632284656,
    "tel": "099-814-7288",
    "url": "https://kyokuseikai.com/",
    "pref": "鹿児島県",
    "city": "鹿児島市",
    "category": "community_day_service",
    "serviceType": "地域密着型通所介護",
    "capacity": 0,
    "openDays": [
      "平日",
      "土曜日",
      "日曜日",
      "祝日"
    ],
    "openDaysNote": ""
  },
  {
    "id": "4670108408",
    "name": "デイサービスセンター元気の里　ゆくさ鹿児島館",
    "kana": "デイサービスセンターゲンキノサト　ユクサカゴシマカン",
    "address": "鹿児島県鹿児島市吉野町３０７３番地１３柳田ビル 柳田ビル",
    "lat": 31.645135,
    "lng": 130.570599,
    "tel": "099-298-9551",
    "url": "http://www.sun3.jp/genki-yukusa/",
    "pref": "鹿児島県",
    "city": "鹿児島市",
    "category": "community_day_service",
    "serviceType": "地域密着型通所介護",
    "capacity": 0,
    "openDays": [
      "平日",
      "土曜日",
      "祝日"
    ],
    "openDaysNote": ""
  },
  {
    "id": "4670106485",
    "name": "デイサービスセンター厚地",
    "kana": "デイサービスセンターアツチ",
    "address": "鹿児島市照国町13番36号２階 ２階",
    "lat": 31.592134288356,
    "lng": 130.551324782287,
    "tel": "090-8023-0084",
    "url": "https://jifukai.jp/dayserviceatsuchi/",
    "pref": "鹿児島県",
    "city": "鹿児島市",
    "category": "community_day_service",
    "serviceType": "地域密着型通所介護",
    "capacity": 0,
    "openDays": [
      "平日",
      "祝日"
    ],
    "openDaysNote": "営業日：月曜日～金曜日（改行）※祝日営業"
  },
  {
    "id": "4670110230",
    "name": "デイサービスセンター鹿児島中央",
    "kana": "デイサービスセンターカゴシマチュウオウ",
    "address": "鹿児島県鹿児島市新屋敷町25-10",
    "lat": 31.5841661,
    "lng": 130.5565245,
    "tel": "099-295-0485",
    "url": "http://shimazu-hd.jp/",
    "pref": "鹿児島県",
    "city": "鹿児島市",
    "category": "community_day_service",
    "serviceType": "地域密着型通所介護",
    "capacity": 18,
    "openDays": [
      "平日",
      "土曜日",
      "祝日"
    ],
    "openDaysNote": ""
  },
  {
    "id": "4690101896",
    "name": "デイサービスセンター七福神",
    "kana": "デイサービスセンターシチフクジン",
    "address": "小野2丁目8-15",
    "lat": 31.6152844,
    "lng": 130.5264476,
    "tel": "099-228-5729",
    "url": "729729.ｊｐ",
    "pref": "鹿児島県",
    "city": "鹿児島市",
    "category": "community_day_service",
    "serviceType": "地域密着型通所介護",
    "capacity": 0,
    "openDays": [
      "平日"
    ],
    "openDaysNote": ""
  },
  {
    "id": "4690101672",
    "name": "デイサービスセンター千年の杜",
    "kana": "デイサービスセンター　センネンノモリ",
    "address": "鹿児島県鹿児島市千年2丁目11-111階",
    "lat": 31.6395188,
    "lng": 130.5229416,
    "tel": "099-294-9360",
    "url": "https://eiwakai.jp/",
    "pref": "鹿児島県",
    "city": "鹿児島市",
    "category": "community_day_service",
    "serviceType": "地域密着型通所介護",
    "capacity": 0,
    "openDays": [
      "平日",
      "土曜日",
      "祝日"
    ],
    "openDaysNote": ""
  },
  {
    "id": "4690101961",
    "name": "デイサービスセンター道しるべ西伊敷",
    "kana": "デイサービスセンターミチシルベニシイシキ",
    "address": "鹿児島県鹿児島市西伊敷７丁目１０－２",
    "lat": 31.6468756,
    "lng": 130.5351463,
    "tel": "０９９－８００－８１２０",
    "url": "https://www.matthews-japan.com",
    "pref": "鹿児島県",
    "city": "鹿児島市",
    "category": "community_day_service",
    "serviceType": "地域密着型通所介護",
    "capacity": 18,
    "openDays": [
      "平日",
      "土曜日",
      "祝日"
    ],
    "openDaysNote": ""
  },
  {
    "id": "4690102399",
    "name": "デイサービスセンター日之出",
    "kana": "デイサービスセンターヒノデ",
    "address": "鹿児島県鹿児島市紫原3丁目31番10号",
    "lat": 31.5519756,
    "lng": 130.5369058,
    "tel": "099－296-7731",
    "url": "www.hwyuu.com",
    "pref": "鹿児島県",
    "city": "鹿児島市",
    "category": "community_day_service",
    "serviceType": "地域密着型通所介護",
    "capacity": 40,
    "openDays": [
      "平日",
      "土曜日",
      "祝日"
    ],
    "openDaysNote": ""
  },
  {
    "id": "4670110602",
    "name": "デイサービスセンター老祝",
    "kana": "デイサービスセンターオイワイ",
    "address": "鹿児島県鹿児島市春山町１７２６－５介護相談センター老祝 介護相談センター老祝",
    "lat": 31.587593446512,
    "lng": 130.458588711111,
    "tel": "099-295-0869",
    "url": "",
    "pref": "鹿児島県",
    "city": "鹿児島市",
    "category": "community_day_service",
    "serviceType": "地域密着型通所介護",
    "capacity": 3,
    "openDays": [
      "平日",
      "日曜日",
      "祝日"
    ],
    "openDaysNote": "12/31～1/2は休日"
  },
  {
    "id": "4670109851",
    "name": "デイサービスつどいの家",
    "kana": "デイサービスツドイノイエ",
    "address": "鹿児島県鹿児島市武岡４丁目22-20",
    "lat": 31.5941747642841,
    "lng": 130.510694251555,
    "tel": "992030980",
    "url": "http://hp.kaipoke.biz/816/",
    "pref": "鹿児島県",
    "city": "鹿児島市",
    "category": "community_day_service",
    "serviceType": "地域密着型通所介護",
    "capacity": 0,
    "openDays": [
      "平日",
      "土曜日",
      "祝日"
    ],
    "openDaysNote": ""
  },
  {
    "id": "4690102340",
    "name": "ディサービストマト",
    "kana": "ディサァビス　トマト",
    "address": "鹿児島市西坂元町１２－２５",
    "lat": 31.6100147,
    "lng": 130.5531836,
    "tel": "099-210-7080",
    "url": "",
    "pref": "鹿児島県",
    "city": "鹿児島市",
    "category": "community_day_service",
    "serviceType": "地域密着型通所介護",
    "capacity": 0,
    "openDays": [
      "平日",
      "祝日"
    ],
    "openDaysNote": ""
  },
  {
    "id": "4690102571",
    "name": "デイサービスハウスBell",
    "kana": "デイサービスハウスベル",
    "address": "鹿児島県鹿児島市田上7丁目24-10",
    "lat": 31.58565,
    "lng": 130.5195798,
    "tel": "099-837-2310",
    "url": "",
    "pref": "鹿児島県",
    "city": "鹿児島市",
    "category": "community_day_service",
    "serviceType": "地域密着型通所介護",
    "capacity": null,
    "openDays": [
      "平日"
    ],
    "openDaysNote": ""
  },
  {
    "id": "4670109554",
    "name": "デイサービスひびき",
    "kana": "デイサービスヒビキ",
    "address": "西田3丁目１５－５－4F",
    "lat": 31.5848099,
    "lng": 130.5368396,
    "tel": "099-250-7117",
    "url": "http://hayashi-care.com/",
    "pref": "鹿児島県",
    "city": "鹿児島市",
    "category": "community_day_service",
    "serviceType": "地域密着型通所介護",
    "capacity": 0,
    "openDays": [
      "平日",
      "土曜日",
      "祝日"
    ],
    "openDaysNote": "盆休２日、年末年始５日間"
  },
  {
    "id": "4670108275",
    "name": "デイサービスふく島",
    "kana": "デイサービスフクシマ",
    "address": "甲突町24-16",
    "lat": 31.5791445,
    "lng": 130.5596744,
    "tel": "992013131",
    "url": "http://kowakai.info/clinic.html",
    "pref": "鹿児島県",
    "city": "鹿児島市",
    "category": "community_day_service",
    "serviceType": "地域密着型通所介護",
    "capacity": 12,
    "openDays": [
      "平日",
      "祝日"
    ],
    "openDaysNote": ""
  },
  {
    "id": "4670108218",
    "name": "デイサービスみどりのお家　伊敷台",
    "kana": "デイサービスミドリノオウチ　イシキダイ",
    "address": "鹿児島県鹿児島市伊敷3丁目25番20号",
    "lat": 31.6247032,
    "lng": 130.5291467,
    "tel": "099-218-2301",
    "url": "http://www.greencoop.or.jp/",
    "pref": "鹿児島県",
    "city": "鹿児島市",
    "category": "community_day_service",
    "serviceType": "地域密着型通所介護",
    "capacity": 13,
    "openDays": [
      "平日",
      "土曜日",
      "祝日"
    ],
    "openDaysNote": "特別の需要がある場合は、この限りではありません。"
  },
  {
    "id": "4670109257",
    "name": "デイサービスむれがおかⅡ番館",
    "kana": "デイサービスムレガオカニバンカン",
    "address": "鹿児島県鹿児島市牟礼岡１丁目２１－５",
    "lat": 31.6739435,
    "lng": 130.5848358,
    "tel": "099-246-0660",
    "url": "muregaoaka.co.jp/",
    "pref": "鹿児島県",
    "city": "鹿児島市",
    "category": "community_day_service",
    "serviceType": "地域密着型通所介護",
    "capacity": 0,
    "openDays": [
      "平日",
      "土曜日",
      "祝日"
    ],
    "openDaysNote": "台風・積雪（公共交通機関運休）の場合は休業"
  },
  {
    "id": "4670106808",
    "name": "デイサービスむれがおかⅠ番館",
    "kana": "デイサービスムレガオカイチバンカン",
    "address": "鹿児島県鹿児島市牟礼岡３丁目２－１３",
    "lat": 31.6742037267478,
    "lng": 130.585050376721,
    "tel": "０９９－２４６－０６６１",
    "url": "muregaoka.co.jp/",
    "pref": "鹿児島県",
    "city": "鹿児島市",
    "category": "community_day_service",
    "serviceType": "地域密着型通所介護",
    "capacity": 0,
    "openDays": [
      "平日",
      "土曜日",
      "祝日"
    ],
    "openDaysNote": "台風・積雪（公共交通機関運休）の場合は休業"
  },
  {
    "id": "4670109562",
    "name": "デイサービスゆかりの里",
    "kana": "デイサービスユカリノサト",
    "address": "上荒田町５３番１３号ゆかりの里　上荒田 ゆかりの里　上荒田",
    "lat": 31.5738723,
    "lng": 130.5373066,
    "tel": "099-204-0111",
    "url": "http://yukarinosato.com/",
    "pref": "鹿児島県",
    "city": "鹿児島市",
    "category": "community_day_service",
    "serviceType": "地域密着型通所介護",
    "capacity": 10,
    "openDays": [
      "平日",
      "土曜日",
      "祝日"
    ],
    "openDaysNote": "祝日が日曜日と重なった場合は、営業しない。12月30日～1月3日は休みとする。"
  },
  {
    "id": "4670106279",
    "name": "デイサービスわかば",
    "kana": "デイサービスワカバ",
    "address": "吉野町７４９４番地４",
    "lat": 31.6304531175533,
    "lng": 130.584137387137,
    "tel": "099-801-5700",
    "url": "",
    "pref": "鹿児島県",
    "city": "鹿児島市",
    "category": "community_day_service",
    "serviceType": "地域密着型通所介護",
    "capacity": 15,
    "openDays": [
      "平日"
    ],
    "openDaysNote": "台風や集中豪雨、大雪等により休業する場合があります。"
  },
  {
    "id": "4670108333",
    "name": "デイサービス縁と笑",
    "kana": "デイサービスエントショウ",
    "address": "皇徳寺台3丁目33番12号",
    "lat": 31.5639256918745,
    "lng": 130.487814833999,
    "tel": "099－２９９－７７６０",
    "url": "www.entosyou.com",
    "pref": "鹿児島県",
    "city": "鹿児島市",
    "category": "community_day_service",
    "serviceType": "地域密着型通所介護",
    "capacity": 10,
    "openDays": [
      "平日",
      "土曜日",
      "日曜日",
      "祝日"
    ],
    "openDaysNote": ""
  },
  {
    "id": "4690102365",
    "name": "デイサービス家族",
    "kana": "デイサービスカゾク",
    "address": "鹿児島市小山田町1446",
    "lat": 31.6531954,
    "lng": 130.4957933,
    "tel": "099-800-9461",
    "url": "",
    "pref": "鹿児島県",
    "city": "鹿児島市",
    "category": "community_day_service",
    "serviceType": "地域密着型通所介護",
    "capacity": 18,
    "openDays": [
      "平日"
    ],
    "openDaysNote": ""
  },
  {
    "id": "4670110305",
    "name": "デイサービス架け橋",
    "kana": "デイサービスカケハシ",
    "address": "鹿児島市堀江町3-3ウェルネスじあいビル　5階 ウェルネスじあいビル　5階",
    "lat": 31.591007,
    "lng": 130.5593685,
    "tel": "099-219-3853",
    "url": "https://kakehashi.jiaikai-k.or.jp/",
    "pref": "鹿児島県",
    "city": "鹿児島市",
    "category": "community_day_service",
    "serviceType": "地域密着型通所介護",
    "capacity": 18,
    "openDays": [
      "平日",
      "土曜日",
      "祝日"
    ],
    "openDaysNote": ""
  },
  {
    "id": "4690102167",
    "name": "デイサービス金色のの",
    "kana": "デイサービスコンジキノノ",
    "address": "鹿児島県鹿児島市東谷山２丁目１９番９号",
    "lat": 31.5322161,
    "lng": 130.5245572,
    "tel": "099-269-3578",
    "url": "konjikinono.jp",
    "pref": "鹿児島県",
    "city": "鹿児島市",
    "category": "community_day_service",
    "serviceType": "地域密着型通所介護",
    "capacity": 0,
    "openDays": [
      "平日",
      "土曜日",
      "祝日"
    ],
    "openDaysNote": "年末年始12月31日～1月3日を除く"
  },
  {
    "id": "4670109943",
    "name": "デイサービス自由ヶ丘",
    "kana": "デイサービス自由ヶ丘",
    "address": "自由ヶ丘2丁目21-11",
    "lat": 31.5414924,
    "lng": 130.510808,
    "tel": "099-297-5031",
    "url": "",
    "pref": "鹿児島県",
    "city": "鹿児島市",
    "category": "community_day_service",
    "serviceType": "地域密着型通所介護",
    "capacity": 35,
    "openDays": [
      "平日",
      "土曜日",
      "祝日"
    ],
    "openDaysNote": "利用者様の希望に応じて営業時間前後の延長サービスも受け付けております。"
  },
  {
    "id": "4690101490",
    "name": "デイサービス昭和クラブ",
    "kana": "デイサービスショウワクラブ",
    "address": "高麗町２７−１９竹原ビル 竹原ビル",
    "lat": 31.5804552,
    "lng": 130.5484918,
    "tel": "099-252-5625",
    "url": "http://lifecareclub.info",
    "pref": "鹿児島県",
    "city": "鹿児島市",
    "category": "community_day_service",
    "serviceType": "地域密着型通所介護",
    "capacity": 15,
    "openDays": [
      "平日",
      "土曜日",
      "祝日"
    ],
    "openDaysNote": ""
  },
  {
    "id": "4670112442",
    "name": "デイサービス笑顔",
    "kana": "デイサービスエガオ",
    "address": "鹿児島市吉野2丁目17番15号",
    "lat": 31.655969,
    "lng": 130.5675524,
    "tel": "099-221-1500",
    "url": "http://yoshino-medical.com/",
    "pref": "鹿児島県",
    "city": "鹿児島市",
    "category": "community_day_service",
    "serviceType": "地域密着型通所介護",
    "capacity": 0,
    "openDays": [
      "平日",
      "土曜日",
      "祝日"
    ],
    "openDaysNote": "お盆（8月13日～8月15日）及び年末年始（12月29日～1月3日）休業する場合がある。"
  },
  {
    "id": "4670109182",
    "name": "デイサービス笑癒照国",
    "kana": "デイサービスワライテルクニ",
    "address": "鹿児島県鹿児島市照国町１８－９サンシュライン照国１階 サンシュライン照国１階",
    "lat": 31.593812,
    "lng": 130.5510524,
    "tel": "099-295-4903",
    "url": "",
    "pref": "鹿児島県",
    "city": "鹿児島市",
    "category": "community_day_service",
    "serviceType": "地域密着型通所介護",
    "capacity": 18,
    "openDays": [
      "平日",
      "土曜日",
      "祝日"
    ],
    "openDaysNote": ""
  },
  {
    "id": "4670107459",
    "name": "デイサービス笑癒中央",
    "kana": "デイサービスワライチュウオウ",
    "address": "上之園町3-1堂園メディカルハウス　２階 堂園メディカルハウス　２階",
    "lat": 31.5832896143537,
    "lng": 130.546754621611,
    "tel": "099-296-1472",
    "url": "https://care-warai.com/outpatient-care/chuoh/",
    "pref": "鹿児島県",
    "city": "鹿児島市",
    "category": "community_day_service",
    "serviceType": "地域密着型通所介護",
    "capacity": 18,
    "openDays": [
      "平日",
      "土曜日",
      "祝日"
    ],
    "openDaysNote": "年末年始休み"
  },
  {
    "id": "4690102043",
    "name": "デイサービス西駅乃湯",
    "kana": "デイサービスニシエキノユ",
    "address": "西田一丁目6-23アビタシオン松下1階 アビタシオン松下1階",
    "lat": 31.5874126,
    "lng": 130.5447502,
    "tel": "099-250-2557",
    "url": "http://matsushita-care.com",
    "pref": "鹿児島県",
    "city": "鹿児島市",
    "category": "community_day_service",
    "serviceType": "地域密着型通所介護",
    "capacity": 10,
    "openDays": [
      "平日",
      "祝日"
    ],
    "openDaysNote": "土日は定休日になりますが、お盆とお正月の時期の休みに関しては、平日との重なり具合や、ご利用者様のご希望などに応じて営業する場合もあります。"
  },
  {
    "id": "4690102563",
    "name": "デイサービス第三昭和クラブ",
    "kana": "デイサービスダイサンショウワクラブ",
    "address": "鹿児島市下荒田1-35-20ランブリッジ下荒田 ランブリッジ下荒田",
    "lat": 31.5769599,
    "lng": 130.5572775,
    "tel": "992976415",
    "url": "",
    "pref": "鹿児島県",
    "city": "鹿児島市",
    "category": "community_day_service",
    "serviceType": "地域密着型通所介護",
    "capacity": null,
    "openDays": [
      "平日",
      "土曜日",
      "祝日"
    ],
    "openDaysNote": ""
  },
  {
    "id": "4690102811",
    "name": "デイサービス土佐屋",
    "kana": "デイサービストサヤ",
    "address": "鹿児島市谷山中央6丁目25番5号",
    "lat": 31.5149076,
    "lng": 130.5085432,
    "tel": "992101280",
    "url": "",
    "pref": "鹿児島県",
    "city": "鹿児島市",
    "category": "community_day_service",
    "serviceType": "地域密着型通所介護",
    "capacity": 0,
    "openDays": [
      "平日",
      "土曜日",
      "祝日"
    ],
    "openDaysNote": "大型連休について一部、閉所とする場合あり。都度、利用者様に周知する"
  },
  {
    "id": "4690101722",
    "name": "デイサービス道しるべ荒田",
    "kana": "デイサービスミチシルベアラタ",
    "address": "鹿児島市荒田2-67-20オークハイツ１階 オークハイツ１階",
    "lat": 31.5695121,
    "lng": 130.5492254,
    "tel": "099-800-4999",
    "url": "https://www.matthews-japan.com",
    "pref": "鹿児島県",
    "city": "鹿児島市",
    "category": "community_day_service",
    "serviceType": "地域密着型通所介護",
    "capacity": 0,
    "openDays": [
      "平日",
      "土曜日",
      "祝日"
    ],
    "openDaysNote": ""
  },
  {
    "id": "4690103199",
    "name": "デイサービス歩続",
    "kana": "デイサービスアヅ",
    "address": "鹿児島県鹿児島市上谷口町２８６４－６",
    "lat": 31.6052563,
    "lng": 130.4365496,
    "tel": "０９９－２０１－５８８７",
    "url": "http://www.caresupportkagoshima.com/",
    "pref": "鹿児島県",
    "city": "鹿児島市",
    "category": "community_day_service",
    "serviceType": "地域密着型通所介護",
    "capacity": 18,
    "openDays": [
      "平日"
    ],
    "openDaysNote": ""
  },
  {
    "id": "4690103157",
    "name": "デイサービス優花",
    "kana": "デイサービスユウカ",
    "address": "鹿児島県鹿児島市広木２丁目４８番２号",
    "lat": 31.5616007,
    "lng": 130.5210759,
    "tel": "099-284-7112",
    "url": "www.amayurikai.or.jp",
    "pref": "鹿児島県",
    "city": "鹿児島市",
    "category": "community_day_service",
    "serviceType": "地域密着型通所介護",
    "capacity": null,
    "openDays": [
      "平日",
      "土曜日",
      "祝日"
    ],
    "openDaysNote": ""
  },
  {
    "id": "4670105255",
    "name": "デイサービス悠暮里",
    "kana": "デイサービスユクリ",
    "address": "鹿児島市郡山町68番地",
    "lat": 31.6815408,
    "lng": 130.479362,
    "tel": "099-245-6033",
    "url": "yukuri-grp.com/",
    "pref": "鹿児島県",
    "city": "鹿児島市",
    "category": "community_day_service",
    "serviceType": "地域密着型通所介護",
    "capacity": 10,
    "openDays": [
      "平日",
      "土曜日",
      "祝日"
    ],
    "openDaysNote": ""
  },
  {
    "id": "4690102076",
    "name": "デイサービス悠友",
    "kana": "デイサービスユウユウ",
    "address": "鹿児島市新栄町２番７号有料老人ホーム悠友内 有料老人ホーム悠友内",
    "lat": 31.5513235869705,
    "lng": 130.545444564943,
    "tel": "099-230-0068",
    "url": "http://www.jinaikai.com/",
    "pref": "鹿児島県",
    "city": "鹿児島市",
    "category": "community_day_service",
    "serviceType": "地域密着型通所介護",
    "capacity": null,
    "openDays": [
      "平日",
      "土曜日",
      "祝日"
    ],
    "openDaysNote": ""
  },
  {
    "id": "4690102472",
    "name": "デイサロンピース谷山",
    "kana": "デイサロンピースタニヤマ",
    "address": "鹿児島県鹿児島市小松原２丁目32-18ボイスビル１階 ボイスビル１階",
    "lat": 31.5293242,
    "lng": 130.5241743,
    "tel": "099-813-8388",
    "url": "https://www.je-wa.jp/introduction.html",
    "pref": "鹿児島県",
    "city": "鹿児島市",
    "category": "community_day_service",
    "serviceType": "地域密着型通所介護",
    "capacity": 0,
    "openDays": [
      "平日",
      "土曜日",
      "祝日"
    ],
    "openDaysNote": "夏季休暇８月１３日・１４日・１５日（改行）年末年始１２月３１日・１月１日・２日・３日"
  },
  {
    "id": "4670104662",
    "name": "デイセンター「たんぽぽの里」",
    "kana": "デイセンター「タンポポノサト」",
    "address": "鹿児島県鹿児島市下福元町6720",
    "lat": 31.483778,
    "lng": 130.5102311,
    "tel": "099-210-8810",
    "url": "http://tanpoponosato.jp",
    "pref": "鹿児島県",
    "city": "鹿児島市",
    "category": "community_day_service",
    "serviceType": "地域密着型通所介護",
    "capacity": 0,
    "openDays": [
      "平日",
      "土曜日",
      "日曜日",
      "祝日"
    ],
    "openDaysNote": ""
  },
  {
    "id": "4690101557",
    "name": "デイリーライフ鹿児島",
    "kana": "デイリーライフカゴシマ",
    "address": "鹿児島県鹿児島市谷山中央6丁目24-2デイリーライフ鹿児島 デイリーライフ鹿児島",
    "lat": 31.5148600402135,
    "lng": 130.508269636805,
    "tel": "099-806-0810",
    "url": "",
    "pref": "鹿児島県",
    "city": "鹿児島市",
    "category": "community_day_service",
    "serviceType": "地域密着型通所介護",
    "capacity": 0,
    "openDays": [
      "平日",
      "土曜日",
      "日曜日",
      "祝日"
    ],
    "openDaysNote": "やむをえない事情で休業することあり。"
  },
  {
    "id": "4670109737",
    "name": "ナカノデイサービス",
    "kana": "ナカノデイサービス",
    "address": "鹿児島県鹿児島市伊敷３丁目１４番８号",
    "lat": 31.6235894,
    "lng": 130.5301054,
    "tel": "099-228-2888",
    "url": "http://nakanozaitaku.jp/",
    "pref": "鹿児島県",
    "city": "鹿児島市",
    "category": "community_day_service",
    "serviceType": "地域密着型通所介護",
    "capacity": 0,
    "openDays": [
      "平日",
      "土曜日",
      "祝日"
    ],
    "openDaysNote": ""
  },
  {
    "id": "4690101789",
    "name": "ハウスメイト福平",
    "kana": "ハウスメイトフクヒラ",
    "address": "鹿児島市下福元町７５０７番地ハウスメイト福平 ハウスメイト福平",
    "lat": 31.4851057371668,
    "lng": 130.499629037573,
    "tel": "099-210-7551",
    "url": "http://www.hapinam.com",
    "pref": "鹿児島県",
    "city": "鹿児島市",
    "category": "community_day_service",
    "serviceType": "地域密着型通所介護",
    "capacity": 0,
    "openDays": [
      "平日",
      "土曜日",
      "日曜日",
      "祝日"
    ],
    "openDaysNote": ""
  },
  {
    "id": "4670104688",
    "name": "ふれあいステーション愛",
    "kana": "フレアイステーションアイ",
    "address": "吉野二丁目13-13",
    "lat": 31.6565284,
    "lng": 130.5659848,
    "tel": "099-243-0700",
    "url": "http://fureai-ai.kawamoto-cl.or.jp/",
    "pref": "鹿児島県",
    "city": "鹿児島市",
    "category": "community_day_service",
    "serviceType": "地域密着型通所介護",
    "capacity": 15,
    "openDays": [
      "平日",
      "土曜日",
      "祝日"
    ],
    "openDaysNote": "8月14、15日、12月30日～1月3日は休み"
  },
  {
    "id": "4690102597",
    "name": "フローラルガーデン花野",
    "kana": "フローラルガーデンケノ",
    "address": "鹿児島県鹿児島市皆与志町622‐4",
    "lat": 31.6494121,
    "lng": 130.5246259,
    "tel": "099‐801-1506",
    "url": "https://k-nonoka.com/",
    "pref": "鹿児島県",
    "city": "鹿児島市",
    "category": "community_day_service",
    "serviceType": "地域密着型通所介護",
    "capacity": 10,
    "openDays": [
      "平日",
      "土曜日",
      "祝日"
    ],
    "openDaysNote": "年末年始休みあり"
  },
  {
    "id": "4670108853",
    "name": "ほたるの家デイサービスセンター",
    "kana": "ホタルノイエデイサービスセンター",
    "address": "鹿児島県鹿児島市油須木町5番地",
    "lat": 31.6820546,
    "lng": 130.4839339,
    "tel": "099-298-2816",
    "url": "",
    "pref": "鹿児島県",
    "city": "鹿児島市",
    "category": "community_day_service",
    "serviceType": "地域密着型通所介護",
    "capacity": 0,
    "openDays": [
      "平日",
      "土曜日",
      "祝日"
    ],
    "openDaysNote": ""
  },
  {
    "id": "4670105669",
    "name": "ほたるの里デイサービスセンター",
    "kana": "ホタルノサトデイサービスセンター",
    "address": "鹿児島県鹿児島市油須木町21番地1",
    "lat": 31.6878735,
    "lng": 130.4788561,
    "tel": "099-298-2662",
    "url": "",
    "pref": "鹿児島県",
    "city": "鹿児島市",
    "category": "community_day_service",
    "serviceType": "地域密着型通所介護",
    "capacity": 0,
    "openDays": [
      "平日",
      "祝日"
    ],
    "openDaysNote": ""
  },
  {
    "id": "4670111212",
    "name": "マッサージ・リハビリ重視型デイサービスハーベスト",
    "kana": "マッサージ・リハビリジュウシガタデイサービスハーベスト",
    "address": "鹿児島県鹿児島市東谷山2丁目40-15",
    "lat": 31.5319983577422,
    "lng": 130.521080940433,
    "tel": "099-296-9844",
    "url": "",
    "pref": "鹿児島県",
    "city": "鹿児島市",
    "category": "community_day_service",
    "serviceType": "地域密着型通所介護",
    "capacity": 5,
    "openDays": [
      "平日",
      "土曜日",
      "祝日"
    ],
    "openDaysNote": "月曜日から土曜日営業。（改行）祝日関係なく営業致しております。"
  },
  {
    "id": "4670108945",
    "name": "みんかリハサービス",
    "kana": "ミンカリハサービス",
    "address": "鹿児島県鹿児島市西陵2丁目1-45-2",
    "lat": 31.5777820325299,
    "lng": 130.507225725421,
    "tel": "099-296-9825",
    "url": "",
    "pref": "鹿児島県",
    "city": "鹿児島市",
    "category": "community_day_service",
    "serviceType": "地域密着型通所介護",
    "capacity": 18,
    "openDays": [
      "平日",
      "祝日"
    ],
    "openDaysNote": ""
  },
  {
    "id": "4670105453",
    "name": "ゆうあいデイサービス",
    "kana": "ユウアイデイサービス",
    "address": "中山町5293-6",
    "lat": 31.5347654,
    "lng": 130.4981681,
    "tel": "099-263-1179",
    "url": "",
    "pref": "鹿児島県",
    "city": "鹿児島市",
    "category": "community_day_service",
    "serviceType": "地域密着型通所介護",
    "capacity": 0,
    "openDays": [
      "平日",
      "土曜日"
    ],
    "openDaysNote": "１２月３１日～翌年１月３日"
  },
  {
    "id": "4690102001",
    "name": "ゆたかのもりの花棚クラブ",
    "kana": "ユタカノモリノケダナクラブ",
    "address": "鹿児島県鹿児島市吉野2丁目38番13号",
    "lat": 31.658455469257,
    "lng": 130.567418203705,
    "tel": "099-248-7358",
    "url": "http://www.muginome-fukushi.or.jp/",
    "pref": "鹿児島県",
    "city": "鹿児島市",
    "category": "community_day_service",
    "serviceType": "地域密着型通所介護",
    "capacity": 0,
    "openDays": [
      "平日",
      "土曜日",
      "祝日"
    ],
    "openDaysNote": ""
  },
  {
    "id": "4670105883",
    "name": "ゆめの舎",
    "kana": "ユメノヤ",
    "address": "鹿児島県鹿児島市下荒田1丁目20-3",
    "lat": 31.5792278,
    "lng": 130.5558247,
    "tel": "099-256-5505",
    "url": "",
    "pref": "鹿児島県",
    "city": "鹿児島市",
    "category": "community_day_service",
    "serviceType": "地域密着型通所介護",
    "capacity": 15,
    "openDays": [
      "平日"
    ],
    "openDaysNote": ""
  },
  {
    "id": "4690103165",
    "name": "リハandカフェ　てあて",
    "kana": "リハアンドカフェ　テアテ",
    "address": "西谷山２丁目6-29",
    "lat": 31.5224148,
    "lng": 130.5056974,
    "tel": "099-298-1222",
    "url": "",
    "pref": "鹿児島県",
    "city": "鹿児島市",
    "category": "community_day_service",
    "serviceType": "地域密着型通所介護",
    "capacity": 15,
    "openDays": [
      "平日",
      "土曜日",
      "祝日"
    ],
    "openDaysNote": "悪天候時は状況を見て休止する場合があります。"
  },
  {
    "id": "4690102548",
    "name": "リハデイサービス　オーシャンハート",
    "kana": "リハデイサービス　オーシャンハート",
    "address": "鹿児島市唐湊1-14-28森山ビル102 森山ビル102",
    "lat": 31.5699172,
    "lng": 130.5378338,
    "tel": "099-258-2950",
    "url": "",
    "pref": "鹿児島県",
    "city": "鹿児島市",
    "category": "community_day_service",
    "serviceType": "地域密着型通所介護",
    "capacity": 100,
    "openDays": [
      "平日",
      "土曜日",
      "祝日"
    ],
    "openDaysNote": ""
  },
  {
    "id": "4670109620",
    "name": "リハビリデイサービス花咲かり",
    "kana": "リハビリデイサービスハナザカリ",
    "address": "坂之上６丁目３２番１１号",
    "lat": 31.4936934,
    "lng": 130.4990766,
    "tel": "099-210-8081",
    "url": "https://www.facebook.com/hanazakari.rehaday",
    "pref": "鹿児島県",
    "city": "鹿児島市",
    "category": "community_day_service",
    "serviceType": "地域密着型通所介護",
    "capacity": 75,
    "openDays": [
      "平日"
    ],
    "openDaysNote": "他休日　年末年始、GW、盆休み、他会社の指定する日"
  },
  {
    "id": "4690103140",
    "name": "リハビリデイサービス紡",
    "kana": "リハビリデイサービスツムギ",
    "address": "鹿児島県鹿児島市西谷山3丁目1-10萩原店舗3階 萩原店舗3階",
    "lat": 31.5223026,
    "lng": 130.5053167,
    "tel": "099-299-1420",
    "url": "https://hp.kaipoke.biz/yac/index.html",
    "pref": "鹿児島県",
    "city": "鹿児島市",
    "category": "community_day_service",
    "serviceType": "地域密着型通所介護",
    "capacity": 10,
    "openDays": [
      "平日",
      "土曜日",
      "祝日"
    ],
    "openDaysNote": ""
  },
  {
    "id": "4690102100",
    "name": "リハビリテーションハレ",
    "kana": "リハビリテーションハレ",
    "address": "鴨池1-16-8",
    "lat": 31.5666563,
    "lng": 130.5496382,
    "tel": "099-800-3430",
    "url": "",
    "pref": "鹿児島県",
    "city": "鹿児島市",
    "category": "community_day_service",
    "serviceType": "地域密着型通所介護",
    "capacity": 120,
    "openDays": [
      "平日",
      "土曜日",
      "祝日"
    ],
    "openDaysNote": ""
  },
  {
    "id": "4690103025",
    "name": "リハビリテーションハレ城西",
    "kana": "リハビリテーシヨンハレジョウセイ",
    "address": "西田3丁目26-19",
    "lat": 31.5867702,
    "lng": 130.536656,
    "tel": "099-801-3009",
    "url": "",
    "pref": "鹿児島県",
    "city": "鹿児島市",
    "category": "community_day_service",
    "serviceType": "地域密着型通所介護",
    "capacity": null,
    "openDays": [
      "平日",
      "祝日"
    ],
    "openDaysNote": ""
  },
  {
    "id": "4690102969",
    "name": "リハビリラボ歩むと",
    "kana": "リハビリラボアユムト",
    "address": "鹿児島県鹿児島市鴨池新町21-1町田ビル1階 町田ビル1階",
    "lat": 31.55731,
    "lng": 130.5598459,
    "tel": "099-204-4521",
    "url": "https://regait-8.co.jp/",
    "pref": "鹿児島県",
    "city": "鹿児島市",
    "category": "community_day_service",
    "serviceType": "地域密着型通所介護",
    "capacity": 15,
    "openDays": [
      "平日",
      "土曜日",
      "祝日"
    ],
    "openDaysNote": "営業日　月曜日から土曜日（祝日を含む）（改行）1月1日から1月3日までを除く"
  },
  {
    "id": "4690102118",
    "name": "リハビリ特化型デイサービス　プラスワン",
    "kana": "リハビリトッカガタデイサービス　プラスワン",
    "address": "鹿児島県鹿児島市唐湊4丁目5-6唐湊ビル１F 唐湊ビル１F",
    "lat": 31.5695832807782,
    "lng": 130.53785905582,
    "tel": "099-297-4410",
    "url": "http://hp.kaipoke.biz/6v8/140891/detail_0004.html",
    "pref": "鹿児島県",
    "city": "鹿児島市",
    "category": "community_day_service",
    "serviceType": "地域密着型通所介護",
    "capacity": 16,
    "openDays": [
      "平日",
      "土曜日",
      "祝日"
    ],
    "openDaysNote": ""
  },
  {
    "id": "4690102514",
    "name": "リハビリ特化型デイサービス　ムーブメントプロ鴨池",
    "kana": "リハビリトッカガタデイサービス　ムーブメントプロカモイケ",
    "address": "鹿児島県鹿児島市真砂本町29番7号松野ビル1階 松野ビル1階",
    "lat": 31.5562938,
    "lng": 130.5536577,
    "tel": "099-296-8731",
    "url": "https://www.randc-shonan.co.jp",
    "pref": "鹿児島県",
    "city": "鹿児島市",
    "category": "community_day_service",
    "serviceType": "地域密着型通所介護",
    "capacity": null,
    "openDays": [
      "平日",
      "祝日"
    ],
    "openDaysNote": "年末年始休暇あり(12月29日～1月3日)"
  },
  {
    "id": "4670110180",
    "name": "リハビリ特化型デイサービス　ムーブメントプロ星ヶ峯",
    "kana": "リハビリトッカガタデイサービスムーブメントプロホシガミネ",
    "address": "鹿児島県鹿児島市星ヶ峯４－５－１セントラルハイツ103号 セントラルハイツ103号",
    "lat": 31.5770856,
    "lng": 130.4922339,
    "tel": "０９９－２０２－０９４１",
    "url": "https://randc-shonan.co.jp/",
    "pref": "鹿児島県",
    "city": "鹿児島市",
    "category": "community_day_service",
    "serviceType": "地域密着型通所介護",
    "capacity": 180,
    "openDays": [
      "平日",
      "土曜日",
      "祝日"
    ],
    "openDaysNote": ""
  },
  {
    "id": "4690101797",
    "name": "リハビリ特化型デイサービス　ムーブメントプロ谷山",
    "kana": "リハビリトッカガタデイサービス　ムーブメントプロタニヤマ",
    "address": "鹿児島県鹿児島市東谷山1-64-20",
    "lat": 31.5352843587636,
    "lng": 130.526339017256,
    "tel": "099-203-0233",
    "url": "https://randc-shonan.co.jp/",
    "pref": "鹿児島県",
    "city": "鹿児島市",
    "category": "community_day_service",
    "serviceType": "地域密着型通所介護",
    "capacity": 10,
    "openDays": [
      "平日",
      "祝日"
    ],
    "openDaysNote": ""
  },
  {
    "id": "4690102555",
    "name": "リハビリ特化型デイサービス　リハビックス甲突店",
    "kana": "リハビリトッカガタデイサービス　リハビックスコウツキテン",
    "address": "鹿児島県鹿児島市甲突町２番７号",
    "lat": 31.5828707219378,
    "lng": 130.559540531283,
    "tel": "099-800-9527",
    "url": "http://hp.kaipoke.biz/6pw/",
    "pref": "鹿児島県",
    "city": "鹿児島市",
    "category": "community_day_service",
    "serviceType": "地域密着型通所介護",
    "capacity": 15,
    "openDays": [
      "平日"
    ],
    "openDaysNote": "年末年始12月29日〜1月3日は休み"
  },
  {
    "id": "4670109950",
    "name": "リハビリ特化型デイサービスたいそう",
    "kana": "リハビリトッカガタデイサービスタイソウ",
    "address": "鹿児島県鹿児島市花野光ヶ丘2丁目48番1号",
    "lat": 31.6516513867908,
    "lng": 130.526597181723,
    "tel": "099-202-3900",
    "url": "",
    "pref": "鹿児島県",
    "city": "鹿児島市",
    "category": "community_day_service",
    "serviceType": "地域密着型通所介護",
    "capacity": 0,
    "openDays": [
      "平日",
      "土曜日"
    ],
    "openDaysNote": ""
  },
  {
    "id": "4670110172",
    "name": "リハビリ特化型デイサービスムーブメントプロ清水",
    "kana": "リハビリトッカガタデイサービスムーブメントプロシミズ",
    "address": "鹿児島県鹿児島市清水町15-22エクステンド清水101 エクステンド清水101",
    "lat": 31.6078748,
    "lng": 130.5681866,
    "tel": "099-295-6275",
    "url": "https://randc-shonan.co.jp/",
    "pref": "鹿児島県",
    "city": "鹿児島市",
    "category": "community_day_service",
    "serviceType": "地域密着型通所介護",
    "capacity": 0,
    "openDays": [
      "平日",
      "土曜日",
      "祝日"
    ],
    "openDaysNote": ""
  },
  {
    "id": "4670107871",
    "name": "医療法人　秀愛会　デイサービス清滝",
    "kana": "イリョウホウジン　シュウアイカイ　デイサービスキヨタキ",
    "address": "鹿児島市西千石町13-30",
    "lat": 31.589443,
    "lng": 130.5490193,
    "tel": "099-213-9955",
    "url": "http://okino-hp.or.jp/",
    "pref": "鹿児島県",
    "city": "鹿児島市",
    "category": "community_day_service",
    "serviceType": "地域密着型通所介護",
    "capacity": 18,
    "openDays": [
      "平日",
      "土曜日",
      "祝日"
    ],
    "openDaysNote": "天災、感染症対策等により、臨時休業することがある。"
  },
  {
    "id": "4670107939",
    "name": "一本桜温泉デイサービス",
    "kana": "イッポンサクラオンセンデイサービス",
    "address": "鹿児島県鹿児島市紫原6丁目１－１５",
    "lat": 31.5625624,
    "lng": 130.5354655,
    "tel": "099-285-8228",
    "url": "",
    "pref": "鹿児島県",
    "city": "鹿児島市",
    "category": "community_day_service",
    "serviceType": "地域密着型通所介護",
    "capacity": 0,
    "openDays": [
      "平日",
      "土曜日",
      "祝日"
    ],
    "openDaysNote": ""
  },
  {
    "id": "4670105339",
    "name": "機能訓練重視型　デイサ－ビス　ささひら",
    "kana": "キノウクンレンジュウシガタ　デイサ-ビス　ササヒラ",
    "address": "小原町23-1",
    "lat": 31.5422812,
    "lng": 130.5228953,
    "tel": "099-266-4306",
    "url": "",
    "pref": "鹿児島県",
    "city": "鹿児島市",
    "category": "community_day_service",
    "serviceType": "地域密着型通所介護",
    "capacity": 10,
    "openDays": [
      "平日",
      "祝日"
    ],
    "openDaysNote": "午前　8：00～12：00　（改行）午後　13：00～17：00　（改行）※2単位で提供しています"
  },
  {
    "id": "4670101916",
    "name": "三船園ﾃﾞｲｻｰﾋﾞｽｾﾝﾀｰ",
    "kana": "ミフネエンデイサービスセンター",
    "address": "吉野町10005番地4",
    "lat": 31.6334059,
    "lng": 130.601356,
    "tel": "099-247-6470",
    "url": "http://www1.ocn.ne.jp/~mifuneen/",
    "pref": "鹿児島県",
    "city": "鹿児島市",
    "category": "community_day_service",
    "serviceType": "地域密着型通所介護",
    "capacity": 10,
    "openDays": [
      "平日"
    ],
    "openDaysNote": ""
  },
  {
    "id": "4690102605",
    "name": "寿康園通所介護事業所",
    "kana": "ジュコウエンツウショカイゴジギョウショ",
    "address": "鹿児島市本名町２３４番地寿康園通所介護事業所 寿康園通所介護事業所",
    "lat": 31.6949148894147,
    "lng": 130.547087331877,
    "tel": "（０９９）２９４－２６５３",
    "url": "https://jukouen.jp/",
    "pref": "鹿児島県",
    "city": "鹿児島市",
    "category": "community_day_service",
    "serviceType": "地域密着型通所介護",
    "capacity": 0,
    "openDays": [
      "平日",
      "土曜日",
      "祝日"
    ],
    "openDaysNote": ""
  },
  {
    "id": "4690102423",
    "name": "住宅型有料老人ホーム　デイサービス　小春日和",
    "kana": "ジュウタクガタユウリョウロウジンホーム　デイサービス　コハルビヨリ",
    "address": "鹿児島県鹿児島市小野1丁目5-25",
    "lat": 31.610823,
    "lng": 130.5310738,
    "tel": "099-210-7041",
    "url": "",
    "pref": "鹿児島県",
    "city": "鹿児島市",
    "category": "community_day_service",
    "serviceType": "地域密着型通所介護",
    "capacity": 0,
    "openDays": [
      "平日",
      "土曜日",
      "日曜日",
      "祝日"
    ],
    "openDaysNote": ""
  },
  {
    "id": "4670105842",
    "name": "清谿園デイサービスセンターひめゆり",
    "kana": "セイケイエンデイサービスセンターヒメユリ",
    "address": "鹿児島市中山町5216番地1",
    "lat": 31.5346543,
    "lng": 130.500715,
    "tel": "099-263-1077",
    "url": "http://www.seikeien.com",
    "pref": "鹿児島県",
    "city": "鹿児島市",
    "category": "community_day_service",
    "serviceType": "地域密着型通所介護",
    "capacity": null,
    "openDays": [
      "平日",
      "土曜日",
      "日曜日",
      "祝日"
    ],
    "openDaysNote": ""
  },
  {
    "id": "4690103033",
    "name": "生協デイサービスセンター・虹の家たにやま",
    "kana": "セイキョウデイサービスセンター・ニジノイエタニヤマ",
    "address": "鹿児島県鹿児島市谷山中央六丁目10番14号",
    "lat": 31.5176637,
    "lng": 130.5088786,
    "tel": "099-269-9155",
    "url": "day-nijinoie.jp",
    "pref": "鹿児島県",
    "city": "鹿児島市",
    "category": "community_day_service",
    "serviceType": "地域密着型通所介護",
    "capacity": 0,
    "openDays": [
      "平日",
      "土曜日",
      "祝日"
    ],
    "openDaysNote": "8月14日・15日及び12月30日～1月3日は除く"
  },
  {
    "id": "4690101474",
    "name": "千年デイサービスセンター",
    "kana": "センネンデイサービスセンター",
    "address": "鹿児島県鹿児島市千年2丁目11番12号1階",
    "lat": 31.6394771253905,
    "lng": 130.5236929538,
    "tel": "099-294-9185",
    "url": "https://eiwakai.jp",
    "pref": "鹿児島県",
    "city": "鹿児島市",
    "category": "community_day_service",
    "serviceType": "地域密着型通所介護",
    "capacity": null,
    "openDays": [
      "平日"
    ],
    "openDaysNote": ""
  },
  {
    "id": "4670111154",
    "name": "早稲田イーライフがじゅまるの木",
    "kana": "ワセダイーライフガジュマルノキ",
    "address": "鹿児島県鹿児島市坂之上4-1-5第2吉窪ビル101 第2吉窪ビル101",
    "lat": 31.5021124,
    "lng": 130.5084785,
    "tel": "099-262-2227",
    "url": "",
    "pref": "鹿児島県",
    "city": "鹿児島市",
    "category": "community_day_service",
    "serviceType": "地域密着型通所介護",
    "capacity": 10,
    "openDays": [
      "平日",
      "土曜日"
    ],
    "openDaysNote": "月・火・木・金は8：30～17:30（改行）水曜・土曜は午前中8:30～13:00のみ営業"
  },
  {
    "id": "4670109208",
    "name": "早稲田イーライフ鹿児島中央",
    "kana": "ワセダイーライフカゴシマチュウオウ",
    "address": "西田３丁目１番１９号FUJISAKIBLD　1F FUJISAKIBLD　1F",
    "lat": 31.5887700287786,
    "lng": 130.538775814958,
    "tel": "099-255-7811",
    "url": "kagoshima-chuo@waseda-e-life.co.jp",
    "pref": "鹿児島県",
    "city": "鹿児島市",
    "category": "community_day_service",
    "serviceType": "地域密着型通所介護",
    "capacity": 0,
    "openDays": [
      "平日",
      "土曜日"
    ],
    "openDaysNote": ""
  },
  {
    "id": "4670104993",
    "name": "第２せせらぎ",
    "kana": "ダイニセセラギ",
    "address": "星ヶ峯3丁目46番2",
    "lat": 31.5823694716308,
    "lng": 130.492565005774,
    "tel": "099-275-9395",
    "url": "http://www.seseragi-kagoshima.com/",
    "pref": "鹿児島県",
    "city": "鹿児島市",
    "category": "community_day_service",
    "serviceType": "地域密着型通所介護",
    "capacity": 15,
    "openDays": [
      "平日",
      "土曜日",
      "祝日"
    ],
    "openDaysNote": ""
  },
  {
    "id": "4670109190",
    "name": "宅老所　じぃじとばぁばのえんがわ",
    "kana": "タクロウショ　ジィジトバァバノエンガワ",
    "address": "鹿児島市吉野町７７３番地1",
    "lat": 31.6383745,
    "lng": 130.5626079,
    "tel": "099-244-0007",
    "url": "",
    "pref": "鹿児島県",
    "city": "鹿児島市",
    "category": "community_day_service",
    "serviceType": "地域密着型通所介護",
    "capacity": 10,
    "openDays": [
      "平日",
      "土曜日",
      "祝日"
    ],
    "openDaysNote": "※台風や自然災害などで休業する場合もございます。"
  },
  {
    "id": "4690101714",
    "name": "地域密着型通所介護　オーシャン倶楽部",
    "kana": "チイキミッチャクガタ　ツウショカイゴ　オーシャンクラブ",
    "address": "鹿児島県鹿児島市紫原４丁目４－２　３階",
    "lat": 31.5598275792017,
    "lng": 130.533417440559,
    "tel": "099-296-1800",
    "url": "http://jyouseikai.jp",
    "pref": "鹿児島県",
    "city": "鹿児島市",
    "category": "community_day_service",
    "serviceType": "地域密着型通所介護",
    "capacity": 18,
    "openDays": [
      "平日",
      "土曜日",
      "祝日"
    ],
    "openDaysNote": "年末年始　12/311/11/21/3休み"
  },
  {
    "id": "4690102795",
    "name": "地域密着型通所介護　糀-cozy-",
    "kana": "チイキミッチャクガタツウショカイゴ　コージィ",
    "address": "玉里団地3丁目37番18号",
    "lat": 31.6217671640982,
    "lng": 130.547099593254,
    "tel": "272-9621",
    "url": "cozy-prop.com",
    "pref": "鹿児島県",
    "city": "鹿児島市",
    "category": "community_day_service",
    "serviceType": "地域密着型通所介護",
    "capacity": 10,
    "openDays": [
      "平日",
      "土曜日",
      "祝日"
    ],
    "openDaysNote": ""
  },
  {
    "id": "4690102217",
    "name": "通所介護カレッジケア桜ヶ丘",
    "kana": "ツウショカイゴカレッジケアサクラガオカ",
    "address": "鹿児島市鹿児島市桜ヶ丘6丁目16番7号",
    "lat": 31.5472369,
    "lng": 130.5212482,
    "tel": "099-814-7558",
    "url": "",
    "pref": "鹿児島県",
    "city": "鹿児島市",
    "category": "community_day_service",
    "serviceType": "地域密着型通所介護",
    "capacity": 18,
    "openDays": [
      "平日",
      "土曜日",
      "祝日"
    ],
    "openDaysNote": ""
  },
  {
    "id": "4670110164",
    "name": "通所介護カレッジケア東谷山",
    "kana": "ツウショカイゴカレッジケアヒガシタニヤマ",
    "address": "鹿児島県鹿児島市東谷山1丁目72番10号",
    "lat": 31.5340153167613,
    "lng": 130.525470264418,
    "tel": "099-210-1890",
    "url": "",
    "pref": "鹿児島県",
    "city": "鹿児島市",
    "category": "community_day_service",
    "serviceType": "地域密着型通所介護",
    "capacity": 18,
    "openDays": [
      "平日",
      "土曜日",
      "祝日"
    ],
    "openDaysNote": ""
  },
  {
    "id": "4670109380",
    "name": "通所介護リバーサイド城西",
    "kana": "ツウショカイゴリバーサイドジョウセイ",
    "address": "鹿児島市城西１丁目２－２２　3階こしのクリニック３階 こしのクリニック３階",
    "lat": 31.5936868,
    "lng": 130.5421585,
    "tel": "099-256-5025",
    "url": "http://www.taihoukai.jp/",
    "pref": "鹿児島県",
    "city": "鹿児島市",
    "category": "community_day_service",
    "serviceType": "地域密着型通所介護",
    "capacity": 0,
    "openDays": [
      "平日",
      "祝日"
    ],
    "openDaysNote": "ただし、その他やむを得ない事情で休業する場合もあります。"
  },
  {
    "id": "4670107574",
    "name": "南国東千石デイサービス",
    "kana": "ナンゴクヒガシセンゴクデイサービス",
    "address": "鹿児島市東千石町3－15南国東千石ケアハイツ 南国東千石ケアハイツ",
    "lat": 31.5913145779942,
    "lng": 130.552961111778,
    "tel": "099－248－8602",
    "url": "http://nangoku-lc.com/",
    "pref": "鹿児島県",
    "city": "鹿児島市",
    "category": "community_day_service",
    "serviceType": "地域密着型通所介護",
    "capacity": 15,
    "openDays": [
      "平日",
      "土曜日",
      "祝日"
    ],
    "openDaysNote": ""
  },
  {
    "id": "4690101730",
    "name": "梅ヶ丘デイセンター",
    "kana": "ウメガオカデイセンター",
    "address": "鹿児島市下福元町7284-13",
    "lat": 31.4875394175769,
    "lng": 130.498105542853,
    "tel": "099-230-7780",
    "url": "",
    "pref": "鹿児島県",
    "city": "鹿児島市",
    "category": "community_day_service",
    "serviceType": "地域密着型通所介護",
    "capacity": 0,
    "openDays": [
      "平日",
      "土曜日",
      "日曜日",
      "祝日"
    ],
    "openDaysNote": ""
  },
  {
    "id": "4670110321",
    "name": "民家型デイサービス　のんびり小町",
    "kana": "ミンカガタデイサービス　ノンビリコマチ",
    "address": "鹿児島県鹿児島市和田2丁目32-3",
    "lat": 31.5117865,
    "lng": 130.5056647,
    "tel": "099-230-7382",
    "url": "www4.hp-ez/hp/nonbirikomati",
    "pref": "鹿児島県",
    "city": "鹿児島市",
    "category": "community_day_service",
    "serviceType": "地域密着型通所介護",
    "capacity": 0,
    "openDays": [
      "平日",
      "土曜日",
      "祝日"
    ],
    "openDaysNote": ""
  },
  {
    "id": "4670107780",
    "name": "民家型デイサービス大地",
    "kana": "ミンカガタデイサービスダイチ",
    "address": "鹿児島市本名町844-2",
    "lat": 31.6838788,
    "lng": 130.5574622,
    "tel": "099-331-0222",
    "url": "",
    "pref": "鹿児島県",
    "city": "鹿児島市",
    "category": "community_day_service",
    "serviceType": "地域密着型通所介護",
    "capacity": 4,
    "openDays": [
      "平日",
      "土曜日",
      "祝日"
    ],
    "openDaysNote": "年末年始：12月28日～1月3日"
  },
  {
    "id": "4690800125",
    "name": "デイサービス　コミュニティケアいずみ",
    "kana": "デイサービス　コミュニティケアイズミ",
    "address": "鹿児島県出水市上鯖淵1475番地３",
    "lat": 32.0854199801408,
    "lng": 130.36377214447,
    "tel": "0996-68-1190",
    "url": "",
    "pref": "鹿児島県",
    "city": "出水市",
    "category": "community_day_service",
    "serviceType": "地域密着型通所介護",
    "capacity": 13,
    "openDays": [
      "平日",
      "土曜日",
      "祝日"
    ],
    "openDaysNote": ""
  },
  {
    "id": "4670800798",
    "name": "デイサービス彩加里",
    "kana": "デイサービスアカリ",
    "address": "高尾野町下水流2280-3",
    "lat": 32.0950403,
    "lng": 130.3019563,
    "tel": "0996-64-2130",
    "url": "",
    "pref": "鹿児島県",
    "city": "出水市",
    "category": "community_day_service",
    "serviceType": "地域密着型通所介護",
    "capacity": 10,
    "openDays": [
      "平日",
      "土曜日",
      "祝日"
    ],
    "openDaysNote": "年末年始の休みは、年度により異なる。"
  },
  {
    "id": "4670800954",
    "name": "ひなたの家",
    "kana": "ヒナタノイエ",
    "address": "鹿児島県出水市上鯖渕2215番地",
    "lat": 32.076874764804,
    "lng": 130.369436990907,
    "tel": "0996-79-3685",
    "url": "http://www.atago-kai.jp/about/",
    "pref": "鹿児島県",
    "city": "出水市",
    "category": "community_day_service",
    "serviceType": "地域密着型通所介護",
    "capacity": 0,
    "openDays": [
      "平日",
      "土曜日",
      "祝日"
    ],
    "openDaysNote": ""
  },
  {
    "id": "4670800301",
    "name": "有限会社　さくらケアサービス",
    "kana": "ユウゲンガイシャサクラケアサービス",
    "address": "鹿児島県出水市福ノ江町758番地",
    "lat": 32.1029061,
    "lng": 130.3163744,
    "tel": "0996-64-8041",
    "url": "http://sakura-izumi.com",
    "pref": "鹿児島県",
    "city": "出水市",
    "category": "community_day_service",
    "serviceType": "地域密着型通所介護",
    "capacity": 22,
    "openDays": [
      "平日",
      "土曜日",
      "祝日"
    ],
    "openDaysNote": ""
  },
  {
    "id": "4671700369",
    "name": "デイサービス　恵顔の泉",
    "kana": "デイサービス　エガオノイズミ",
    "address": "鹿児島県垂水市新城955番地2",
    "lat": 31.4537265,
    "lng": 130.726585,
    "tel": "0994-35-2300",
    "url": "wakiaiai2018.com",
    "pref": "鹿児島県",
    "city": "垂水市",
    "category": "community_day_service",
    "serviceType": "地域密着型通所介護",
    "capacity": 0,
    "openDays": [
      "平日",
      "土曜日"
    ],
    "openDaysNote": ""
  },
  {
    "id": "4671400234",
    "name": "ほほえみデイサービスセンター",
    "kana": "ホホエミデイサービスセンター",
    "address": "鹿児島県垂水市海潟663番地3",
    "lat": 31.5275853,
    "lng": 130.7004918,
    "tel": "0994-32-9255",
    "url": "www.hohoemi.trmz.jp",
    "pref": "鹿児島県",
    "city": "垂水市",
    "category": "community_day_service",
    "serviceType": "地域密着型通所介護",
    "capacity": null,
    "openDays": [
      "平日",
      "土曜日",
      "祝日"
    ],
    "openDaysNote": "特になし"
  },
  {
    "id": "4671300434",
    "name": "デイサービス　はまゆう",
    "kana": "デイサービス　ハマユウ",
    "address": "住吉　3209番地",
    "lat": 30.6690365543732,
    "lng": 130.942343259247,
    "tel": "0997-28-3358",
    "url": "",
    "pref": "鹿児島県",
    "city": "西之表市",
    "category": "community_day_service",
    "serviceType": "地域密着型通所介護",
    "capacity": 8,
    "openDays": [
      "平日",
      "土曜日"
    ],
    "openDaysNote": ""
  },
  {
    "id": "4671300442",
    "name": "デイサービスあんしん",
    "kana": "デイサービスアンシン",
    "address": "鴨女町50-10",
    "lat": 30.7238904,
    "lng": 130.9970356,
    "tel": "0997-28-3560",
    "url": "",
    "pref": "鹿児島県",
    "city": "西之表市",
    "category": "community_day_service",
    "serviceType": "地域密着型通所介護",
    "capacity": 0,
    "openDays": [
      "平日",
      "土曜日",
      "祝日"
    ],
    "openDaysNote": "年末年始の休みあり"
  },
  {
    "id": "4671300277",
    "name": "デイサービスすばる",
    "kana": "デイサービススバル",
    "address": "鹿児島県西之表市西之表7627-2",
    "lat": 30.7313861354946,
    "lng": 130.998927812235,
    "tel": "0997-23-1918",
    "url": "",
    "pref": "鹿児島県",
    "city": "西之表市",
    "category": "community_day_service",
    "serviceType": "地域密着型通所介護",
    "capacity": 0,
    "openDays": [
      "平日",
      "土曜日",
      "祝日"
    ],
    "openDaysNote": ""
  },
  {
    "id": "4671300350",
    "name": "デイサービスなごみ苑",
    "kana": "デイサービスナゴミエン",
    "address": "西之表市西之表６４１７－１５",
    "lat": 30.7409002,
    "lng": 131.0032622,
    "tel": "０９９７－２３－２５１３",
    "url": "",
    "pref": "鹿児島県",
    "city": "西之表市",
    "category": "community_day_service",
    "serviceType": "地域密着型通所介護",
    "capacity": 0,
    "openDays": [
      "平日",
      "土曜日",
      "日曜日",
      "祝日"
    ],
    "openDaysNote": ""
  },
  {
    "id": "4671300418",
    "name": "なごみ苑　2号棟",
    "kana": "ナゴミエン　ニゴウトウ",
    "address": "西之表市西之表6417－18",
    "lat": 30.7410029,
    "lng": 131.00354,
    "tel": "0997－23－2513",
    "url": "",
    "pref": "鹿児島県",
    "city": "西之表市",
    "category": "community_day_service",
    "serviceType": "地域密着型通所介護",
    "capacity": 0,
    "openDays": [
      "平日",
      "土曜日",
      "日曜日",
      "祝日"
    ],
    "openDaysNote": ""
  },
  {
    "id": "4671300392",
    "name": "ポシブル種子島",
    "kana": "ポシブルタネガシマ",
    "address": "鹿児島県西之表市西之表14415-26砂剛アパート１階 砂剛アパート１階",
    "lat": 30.7237097,
    "lng": 130.9932443,
    "tel": "0997-23-5040",
    "url": "ポシブル.COM",
    "pref": "鹿児島県",
    "city": "西之表市",
    "category": "community_day_service",
    "serviceType": "地域密着型通所介護",
    "capacity": 0,
    "openDays": [
      "平日",
      "土曜日",
      "祝日"
    ],
    "openDaysNote": ""
  },
  {
    "id": "4671300343",
    "name": "国上デイサービスセンター",
    "kana": "クニガミデイサービスセンター",
    "address": "鹿児島県西之表市国上2066-5",
    "lat": 30.8091728949884,
    "lng": 131.040263316463,
    "tel": "０９９７－２８－0689",
    "url": "",
    "pref": "鹿児島県",
    "city": "西之表市",
    "category": "community_day_service",
    "serviceType": "地域密着型通所介護",
    "capacity": 10,
    "openDays": [
      "平日",
      "祝日"
    ],
    "openDaysNote": "営業時間：午前8時00分～午後5時00分までとする。"
  },
  {
    "id": "4671600536",
    "name": "ＪＡそお鹿児島　デイサービス　ゆずの郷",
    "kana": "ジェイエイ　ソオカゴシマ　デイサービス　ユズノサト",
    "address": "鹿児島県曽於市末吉町諏訪方字北横尾８０００－１",
    "lat": 31.6493159,
    "lng": 131.0176855,
    "tel": "０９８６－５１－８０１１",
    "url": "",
    "pref": "鹿児島県",
    "city": "曽於市",
    "category": "community_day_service",
    "serviceType": "地域密着型通所介護",
    "capacity": 0,
    "openDays": [
      "平日",
      "祝日"
    ],
    "openDaysNote": "年末年始（１２月２８日～１月３日）休業日"
  },
  {
    "id": "4671600395",
    "name": "ディサービス　えん",
    "kana": "ディサービス　エン",
    "address": "財部町北俣1823-1",
    "lat": 31.7282000356354,
    "lng": 130.991565148479,
    "tel": "0986-72-2002",
    "url": "",
    "pref": "鹿児島県",
    "city": "曽於市",
    "category": "community_day_service",
    "serviceType": "地域密着型通所介護",
    "capacity": 14,
    "openDays": [
      "平日",
      "土曜日",
      "祝日"
    ],
    "openDaysNote": ""
  },
  {
    "id": "4671600445",
    "name": "デイサービス　てんとうむし",
    "kana": "デイサービス　テントウムシ",
    "address": "鹿児島県曽於市財部町下財部1685番地1",
    "lat": 31.7247032453282,
    "lng": 131.009370214681,
    "tel": "0986-77-2173",
    "url": "",
    "pref": "鹿児島県",
    "city": "曽於市",
    "category": "community_day_service",
    "serviceType": "地域密着型通所介護",
    "capacity": 18,
    "openDays": [
      "平日",
      "土曜日",
      "日曜日",
      "祝日"
    ],
    "openDaysNote": ""
  },
  {
    "id": "4671600379",
    "name": "デイサービス　なのはな",
    "kana": "デイサービス　ナノハナ",
    "address": "鹿児島県曽於市末吉町南之郷4354番地2",
    "lat": 31.6206563,
    "lng": 131.0642353,
    "tel": "0986-36-7004",
    "url": "http://www.oasis-soo.com",
    "pref": "鹿児島県",
    "city": "曽於市",
    "category": "community_day_service",
    "serviceType": "地域密着型通所介護",
    "capacity": null,
    "openDays": [
      "平日",
      "祝日"
    ],
    "openDaysNote": "特になし"
  },
  {
    "id": "4671600437",
    "name": "デイサービスセンター　ゆずり葉",
    "kana": "デイサービスセンター　ユズリハ",
    "address": "鹿児島県曽於市末吉町上町7丁目3番地5",
    "lat": 31.6488854,
    "lng": 131.021699,
    "tel": "0986-36-6537",
    "url": "",
    "pref": "鹿児島県",
    "city": "曽於市",
    "category": "community_day_service",
    "serviceType": "地域密着型通所介護",
    "capacity": 0,
    "openDays": [
      "平日",
      "土曜日",
      "祝日"
    ],
    "openDaysNote": ""
  },
  {
    "id": "4676600150",
    "name": "デイサービスセンターさくらの里",
    "kana": "デイサービスサクラノサト",
    "address": "曽於市末吉町二之方3085番地2",
    "lat": 31.6359954,
    "lng": 131.0399565,
    "tel": "0986－76－1011",
    "url": "http://hakufu-kai.or.jp/",
    "pref": "鹿児島県",
    "city": "曽於市",
    "category": "community_day_service",
    "serviceType": "地域密着型通所介護",
    "capacity": 29,
    "openDays": [
      "平日",
      "土曜日",
      "祝日"
    ],
    "openDaysNote": ""
  },
  {
    "id": "4671600387",
    "name": "みつばちデイサービス",
    "kana": "ミツバチデイサービス",
    "address": "末吉町上町4丁目9番3",
    "lat": 31.6527461,
    "lng": 131.0224682,
    "tel": "0986-36-7705",
    "url": "",
    "pref": "鹿児島県",
    "city": "曽於市",
    "category": "community_day_service",
    "serviceType": "地域密着型通所介護",
    "capacity": 10,
    "openDays": [
      "平日"
    ],
    "openDaysNote": ""
  },
  {
    "id": "4671600478",
    "name": "みつばちデイサービス　1日型",
    "kana": "ミツバチデイサービス　イチニチガタ",
    "address": "鹿児島県曽於市末吉町上町4丁目9番3",
    "lat": 31.6527461,
    "lng": 131.0224682,
    "tel": "0986-36-7705",
    "url": "",
    "pref": "鹿児島県",
    "city": "曽於市",
    "category": "community_day_service",
    "serviceType": "地域密着型通所介護",
    "capacity": 3,
    "openDays": [
      "平日",
      "土曜日",
      "祝日"
    ],
    "openDaysNote": ""
  },
  {
    "id": "4677000228",
    "name": "かきの木",
    "kana": "カキノキ",
    "address": "鹿児島県曽於郡大崎町假宿３５５－１８",
    "lat": 31.4275669496061,
    "lng": 130.996355334918,
    "tel": "０９９－４７９－４７５７",
    "url": "kakinoki-ref.localinfo.jp",
    "pref": "鹿児島県",
    "city": "大崎町",
    "category": "community_day_service",
    "serviceType": "地域密着型通所介護",
    "capacity": 20,
    "openDays": [
      "平日",
      "土曜日",
      "日曜日",
      "祝日"
    ],
    "openDaysNote": "現在、日曜日の利用者がいない状態である。（定休日ではないが職員は休んでいる）"
  },
  {
    "id": "4678400054",
    "name": "大和村社会福祉協議会　通所介護事業所",
    "kana": "ヤマトソンシャカイフクシキョウギカイ　ツウショカイゴジギョウショ",
    "address": "大島郡大和村戸円１８８２番地３大和村老人福祉センター 大和村老人福祉センター",
    "lat": 28.3467879,
    "lng": 129.3159946,
    "tel": "０９９７－５８－３４３４",
    "url": "",
    "pref": "鹿児島県",
    "city": "大和村",
    "category": "community_day_service",
    "serviceType": "地域密着型通所介護",
    "capacity": 0,
    "openDays": [
      "平日",
      "祝日"
    ],
    "openDaysNote": ""
  },
  {
    "id": "4699500098",
    "name": "さくら園デイサービスセンター",
    "kana": "サクラエンデイサービスセンター",
    "address": "鹿児島県大島郡知名町知名1952-1",
    "lat": 27.3343399,
    "lng": 128.5632697,
    "tel": "0997-93-5151",
    "url": "",
    "pref": "鹿児島県",
    "city": "知名町",
    "category": "community_day_service",
    "serviceType": "地域密着型通所介護",
    "capacity": null,
    "openDays": [
      "平日",
      "土曜日",
      "祝日"
    ],
    "openDaysNote": ""
  },
  {
    "id": "4679500142",
    "name": "憩いの森ゆしきゃ",
    "kana": "イコイノモリユシキャ",
    "address": "大字下平川７２５番地",
    "lat": 27.3585612800825,
    "lng": 128.597645392972,
    "tel": "0997-93-2463",
    "url": "",
    "pref": "鹿児島県",
    "city": "知名町",
    "category": "community_day_service",
    "serviceType": "地域密着型通所介護",
    "capacity": 3,
    "openDays": [
      "平日",
      "土曜日",
      "日曜日",
      "祝日"
    ],
    "openDaysNote": "利用時間：ご利用者様・ご家族様からの要望がある時には１９時までの延長は可能（改行）令和2年8月1日より、自費事業で通所利用者限定で宿泊サービスを開始しました。"
  },
  {
    "id": "4678000185",
    "name": "通所介護おたつめたつ",
    "kana": "ツウショカイゴオタツメタツ",
    "address": "鹿児島県熊毛郡中種子町納官5170番地",
    "lat": 30.5955637,
    "lng": 130.9530231,
    "tel": "0997-24-8556",
    "url": "",
    "pref": "鹿児島県",
    "city": "中種子町",
    "category": "community_day_service",
    "serviceType": "地域密着型通所介護",
    "capacity": 3,
    "openDays": [
      "平日",
      "土曜日",
      "祝日"
    ],
    "openDaysNote": "盆休み　8/14～8/15　　年末年始　12/29～1/3"
  },
  {
    "id": "4695000036",
    "name": "デイサービスセンター結",
    "kana": "デイサービスセンターユイ",
    "address": "鹿児島県出水郡長島町川床3410-1",
    "lat": 32.1563536,
    "lng": 130.1796449,
    "tel": "0996-65-2701",
    "url": "",
    "pref": "鹿児島県",
    "city": "長島町",
    "category": "community_day_service",
    "serviceType": "地域密着型通所介護",
    "capacity": 0,
    "openDays": [
      "平日",
      "土曜日",
      "祝日"
    ],
    "openDaysNote": ""
  },
  {
    "id": "4675000113",
    "name": "社会福祉法人長島町社会福祉協議会デイサービス事業所",
    "kana": "シャカイフクシホウジンナガシマチョウシャカイフクシキョウギカイデイサービスジギョウショ",
    "address": "鹿児島県出水郡長島町鷹巣１６５９番地１長島町保健福祉センター 長島町保健福祉センター",
    "lat": 32.1961804,
    "lng": 130.1771466,
    "tel": "０９９６－８６－２３３１",
    "url": "",
    "pref": "鹿児島県",
    "city": "長島町",
    "category": "community_day_service",
    "serviceType": "地域密着型通所介護",
    "capacity": 0,
    "openDays": [
      "平日"
    ],
    "openDaysNote": ""
  },
  {
    "id": "4675000154",
    "name": "達者の家",
    "kana": "タッシャノイエ",
    "address": "鹿児島県出水郡長島町蔵之元３６９６番地",
    "lat": 32.1822514,
    "lng": 130.1066274,
    "tel": "0996-88-5875",
    "url": "http://carecraftsman.com",
    "pref": "鹿児島県",
    "city": "長島町",
    "category": "community_day_service",
    "serviceType": "地域密着型通所介護",
    "capacity": 18,
    "openDays": [
      "平日",
      "土曜日",
      "祝日"
    ],
    "openDaysNote": ""
  },
  {
    "id": "4695000051",
    "name": "桃源郷デイサービスセンター",
    "kana": "トウゲンキョウデイサービスセンター",
    "address": "鹿児島県出水郡長島町鷹巣740番地２",
    "lat": 32.1964347,
    "lng": 130.1794991,
    "tel": "0996-86-1000",
    "url": "",
    "pref": "鹿児島県",
    "city": "長島町",
    "category": "community_day_service",
    "serviceType": "地域密着型通所介護",
    "capacity": null,
    "openDays": [
      "平日",
      "土曜日"
    ],
    "openDaysNote": ""
  },
  {
    "id": "4677200240",
    "name": "デイサービス　らんらん",
    "kana": "デイサービス　ランラン",
    "address": "鹿児島県肝属郡東串良町池之原1998番地1",
    "lat": 31.3914854788364,
    "lng": 130.972619612982,
    "tel": "0994-63-7668",
    "url": "http://www5.synapse.ne.jp/ajisai/",
    "pref": "鹿児島県",
    "city": "東串良町",
    "category": "community_day_service",
    "serviceType": "地域密着型通所介護",
    "capacity": 0,
    "openDays": [
      "平日",
      "土曜日",
      "祝日"
    ],
    "openDaysNote": ""
  },
  {
    "id": "4677200273",
    "name": "デイサービスセンター　あじさい",
    "kana": "デイサービスセンター　アジサイ",
    "address": "鹿児島県肝属郡東串良町池之原1998番地1",
    "lat": 31.3911471,
    "lng": 130.974039,
    "tel": "0994-45-7666",
    "url": "http://www5.synaspe.ne.jp/azisai/",
    "pref": "鹿児島県",
    "city": "東串良町",
    "category": "community_day_service",
    "serviceType": "地域密着型通所介護",
    "capacity": 0,
    "openDays": [
      "平日",
      "土曜日",
      "日曜日",
      "祝日"
    ],
    "openDaysNote": "災害、悪天候等やむを得ない事情が発生した場合は、利用者等に連絡のうえ変更することがある。"
  },
  {
    "id": "4677200281",
    "name": "明光園デイサービスセンター",
    "kana": "メイコウエンデイサービスセンター",
    "address": "鹿児島県肝属郡東串良町川東4292番地",
    "lat": 31.3737170585042,
    "lng": 131.00770706211,
    "tel": "0994-45-5557",
    "url": "",
    "pref": "鹿児島県",
    "city": "東串良町",
    "category": "community_day_service",
    "serviceType": "地域密着型通所介護",
    "capacity": 12,
    "openDays": [
      "平日",
      "土曜日",
      "祝日"
    ],
    "openDaysNote": ""
  },
  {
    "id": "4671100263",
    "name": "サロン・ド・じゃがいも",
    "kana": "サロン・ド・ジャガイモ",
    "address": "鹿児島県南さつま市加世田高橋1958番地6",
    "lat": 31.4360148098069,
    "lng": 130.293980269975,
    "tel": "0993-52-8642",
    "url": "",
    "pref": "鹿児島県",
    "city": "南さつま市",
    "category": "community_day_service",
    "serviceType": "地域密着型通所介護",
    "capacity": 10,
    "openDays": [
      "平日",
      "土曜日",
      "日曜日",
      "祝日"
    ],
    "openDaysNote": "但し、緊急時やその他希望があればその限りではない。"
  },
  {
    "id": "4691100178",
    "name": "デイサービスつぬき",
    "kana": "デイサービスツヌキ",
    "address": "鹿児島県南さつま市加世田津貫１１１４４番地１",
    "lat": 31.3539716222186,
    "lng": 130.29105311446,
    "tel": "０９９３－５９－１８１１",
    "url": "",
    "pref": "鹿児島県",
    "city": "南さつま市",
    "category": "community_day_service",
    "serviceType": "地域密着型通所介護",
    "capacity": 20,
    "openDays": [
      "平日",
      "土曜日",
      "祝日"
    ],
    "openDaysNote": "土曜日・日曜日・お盆・年末年始は利用の有無により決定する"
  },
  {
    "id": "4671100511",
    "name": "デイサービス和顔施",
    "kana": "デイサービスワガンセ",
    "address": "鹿児島県南さつま市金峰町浦之名1430番地",
    "lat": 31.451566,
    "lng": 130.3667882,
    "tel": "0993-77-2612",
    "url": "",
    "pref": "鹿児島県",
    "city": "南さつま市",
    "category": "community_day_service",
    "serviceType": "地域密着型通所介護",
    "capacity": 15,
    "openDays": [
      "平日",
      "祝日"
    ],
    "openDaysNote": "※上記はデイサービスの提供時間であり、事業所は8:30～17:30の間営業している。"
  },
  {
    "id": "4672300060",
    "name": "石垣の里",
    "kana": "イシガキノサト",
    "address": "笠沙町片浦9878",
    "lat": 31.4221221,
    "lng": 130.1688888,
    "tel": "0993-58-8000",
    "url": "https://koujin-ayanokai.or.jp/",
    "pref": "鹿児島県",
    "city": "南さつま市",
    "category": "community_day_service",
    "serviceType": "地域密着型通所介護",
    "capacity": null,
    "openDays": [
      "平日",
      "土曜日",
      "日曜日",
      "祝日"
    ],
    "openDaysNote": ""
  },
  {
    "id": "4671100321",
    "name": "通所介護事業所潮風の里",
    "kana": "ツウショカイゴジギョウショシオカゼノサト",
    "address": "鹿児島県南さつま市笠沙町片浦１０８６番地１南さつま市生活支援ハウス潮風の里 南さつま市生活支援ハウス潮風の里",
    "lat": 31.406384364526,
    "lng": 130.191222676721,
    "tel": "０９９３－６３－１１１０",
    "url": "",
    "pref": "鹿児島県",
    "city": "南さつま市",
    "category": "community_day_service",
    "serviceType": "地域密着型通所介護",
    "capacity": 0,
    "openDays": [
      "平日",
      "祝日"
    ],
    "openDaysNote": ""
  },
  {
    "id": "4694300122",
    "name": "あおぞらデイサービス",
    "kana": "アオゾラデイサービス",
    "address": "鹿児島県南九州市頴娃町牧之内1846-1",
    "lat": 31.2426142,
    "lng": 130.4897176,
    "tel": "0993-26-3662",
    "url": "",
    "pref": "鹿児島県",
    "city": "南九州市",
    "category": "community_day_service",
    "serviceType": "地域密着型通所介護",
    "capacity": 10,
    "openDays": [
      "平日"
    ],
    "openDaysNote": "通常営業日と祝日が重なった場合は土曜日に振り替える"
  },
  {
    "id": "4674300282",
    "name": "しせいそうデイサービスセンター",
    "kana": "シセイソウデイサービスセンター",
    "address": "鹿児島県南九州市頴娃町牧之内2228番地５しせいそうデイサービスセンター しせいそうデイサービスセンター",
    "lat": 31.2410557445132,
    "lng": 130.484488101514,
    "tel": "0993-27-3321",
    "url": "",
    "pref": "鹿児島県",
    "city": "南九州市",
    "category": "community_day_service",
    "serviceType": "地域密着型通所介護",
    "capacity": 0,
    "openDays": [
      "平日",
      "土曜日",
      "祝日"
    ],
    "openDaysNote": ""
  },
  {
    "id": "4674300217",
    "name": "デイサービス　こころ",
    "kana": "デイサービス　ココロ",
    "address": "南九州市頴娃町上別府2193番地1",
    "lat": 31.297718266373,
    "lng": 130.483330434804,
    "tel": "0993－39－1823",
    "url": "",
    "pref": "鹿児島県",
    "city": "南九州市",
    "category": "community_day_service",
    "serviceType": "地域密着型通所介護",
    "capacity": 5,
    "openDays": [
      "平日",
      "土曜日",
      "祝日"
    ],
    "openDaysNote": ""
  },
  {
    "id": "4674300241",
    "name": "デイサービスおはな松山",
    "kana": "デイサービスオハナマツヤマ",
    "address": "鹿児島県南九州市知覧町塩屋14946-5",
    "lat": 31.2887515,
    "lng": 130.3990417,
    "tel": "0993-59-2310",
    "url": "",
    "pref": "鹿児島県",
    "city": "南九州市",
    "category": "community_day_service",
    "serviceType": "地域密着型通所介護",
    "capacity": 0,
    "openDays": [
      "平日",
      "土曜日",
      "日曜日",
      "祝日"
    ],
    "openDaysNote": ""
  },
  {
    "id": "4674300464",
    "name": "でいさーびすさつまふじ",
    "kana": "デイサービスサツマフジ",
    "address": "鹿児島県南九州市頴娃町牧之内2156番地",
    "lat": 31.2404228,
    "lng": 130.4942728,
    "tel": "0993-36-2200",
    "url": "",
    "pref": "鹿児島県",
    "city": "南九州市",
    "category": "community_day_service",
    "serviceType": "地域密着型通所介護",
    "capacity": 0,
    "openDays": [
      "平日",
      "土曜日",
      "祝日"
    ],
    "openDaysNote": ""
  },
  {
    "id": "4674300266",
    "name": "のぎく園デイサービス",
    "kana": "ノギクエンデイサービス",
    "address": "鹿児島県南九州市頴娃町御領３４５０番地２",
    "lat": 31.2518938559511,
    "lng": 130.478709138623,
    "tel": "0993-36-3900",
    "url": "https://goryofukushikai.jp",
    "pref": "鹿児島県",
    "city": "南九州市",
    "category": "community_day_service",
    "serviceType": "地域密着型通所介護",
    "capacity": 0,
    "openDays": [
      "平日",
      "土曜日",
      "祝日"
    ],
    "openDaysNote": ""
  },
  {
    "id": "4674300142",
    "name": "岡村さん家",
    "kana": "オカムラサンチ",
    "address": "頴娃町別府4845-3",
    "lat": 31.2563673,
    "lng": 130.432564,
    "tel": "0993-38-2840",
    "url": "",
    "pref": "鹿児島県",
    "city": "南九州市",
    "category": "community_day_service",
    "serviceType": "地域密着型通所介護",
    "capacity": 0,
    "openDays": [
      "平日",
      "日曜日",
      "祝日"
    ],
    "openDaysNote": "天候その他諸事情によりサービスが提供できない場合を除く"
  },
  {
    "id": "4674300381",
    "name": "通所介護さくらさくら",
    "kana": "ツウショカイゴサクラサクラ",
    "address": "鹿児島県南九州市知覧町郡17825番4",
    "lat": 31.3613222,
    "lng": 130.4311552,
    "tel": "0993-58-7733",
    "url": "",
    "pref": "鹿児島県",
    "city": "南九州市",
    "category": "community_day_service",
    "serviceType": "地域密着型通所介護",
    "capacity": 15,
    "openDays": [
      "平日",
      "土曜日",
      "祝日"
    ],
    "openDaysNote": "年末年始（12月31日～1月3日）は休み"
  },
  {
    "id": "4678100159",
    "name": "デイサービス島間",
    "kana": "デイサービスシママ",
    "address": "鹿児島県熊毛郡南種子町島間2123番地",
    "lat": 30.4563391113739,
    "lng": 130.860779811223,
    "tel": "0997-26-4321",
    "url": "",
    "pref": "鹿児島県",
    "city": "南種子町",
    "category": "community_day_service",
    "serviceType": "地域密着型通所介護",
    "capacity": 0,
    "openDays": [
      "平日",
      "土曜日",
      "祝日"
    ],
    "openDaysNote": ""
  },
  {
    "id": "4671500546",
    "name": "デイサービス健康はうす湯之元",
    "kana": "デイサービスケンコウハウスユノモト",
    "address": "東市来町湯田3633-15",
    "lat": 31.6736028,
    "lng": 130.3358083,
    "tel": "099-274-0361",
    "url": "kenkouhouse.sakura.ne.jp",
    "pref": "鹿児島県",
    "city": "日置市",
    "category": "community_day_service",
    "serviceType": "地域密着型通所介護",
    "capacity": 10,
    "openDays": [
      "平日",
      "土曜日"
    ],
    "openDaysNote": ""
  },
  {
    "id": "4691500302",
    "name": "里山デイサービスひむかの郷",
    "kana": "サトヤマデイサービスヒムカノサト",
    "address": "鹿児島県日置市日吉町日置７９５２番地",
    "lat": 31.5901453,
    "lng": 130.3706304,
    "tel": "099-292-3588",
    "url": "",
    "pref": "鹿児島県",
    "city": "日置市",
    "category": "community_day_service",
    "serviceType": "地域密着型通所介護",
    "capacity": null,
    "openDays": [
      "平日"
    ],
    "openDaysNote": ""
  },
  {
    "id": "4690400082",
    "name": "サザン・ヒルズデイサービスセンター",
    "kana": "サザン・ヒルズデイサービスセンター",
    "address": "鹿児島県枕崎市住吉町14番地",
    "lat": 31.2717303,
    "lng": 130.2982525,
    "tel": "0993-72-3335",
    "url": "https://southernregion.jp",
    "pref": "鹿児島県",
    "city": "枕崎市",
    "category": "community_day_service",
    "serviceType": "地域密着型通所介護",
    "capacity": null,
    "openDays": [
      "平日",
      "土曜日",
      "祝日"
    ],
    "openDaysNote": "お盆（8月14日、15日）・年末年始（12月31日、１月1日～1月3日）は休みとなります。"
  },
  {
    "id": "4690400090",
    "name": "デイサービス　暖家",
    "kana": "デイサービス　ダンケン",
    "address": "鹿児島県枕崎市大塚中町424",
    "lat": 31.2730909,
    "lng": 130.2722779,
    "tel": "0993-88-9004",
    "url": "",
    "pref": "鹿児島県",
    "city": "枕崎市",
    "category": "community_day_service",
    "serviceType": "地域密着型通所介護",
    "capacity": null,
    "openDays": [
      "平日",
      "祝日"
    ],
    "openDaysNote": ""
  },
  {
    "id": "4670400250",
    "name": "デイサービスセンター　櫻",
    "kana": "デイサービスセンター　サクラ",
    "address": "枕崎市若葉町83番地シニアハウス櫻内 シニアハウス櫻内",
    "lat": 31.2767777,
    "lng": 130.3023011,
    "tel": "0993-72-5008",
    "url": "http://sakura.fumiwaki.com/",
    "pref": "鹿児島県",
    "city": "枕崎市",
    "category": "community_day_service",
    "serviceType": "地域密着型通所介護",
    "capacity": 108,
    "openDays": [
      "平日",
      "土曜日",
      "祝日"
    ],
    "openDaysNote": ""
  },
  {
    "id": "4670400318",
    "name": "地域ふれあいサロンたんぽぽ",
    "kana": "チイキフレアイサロンタンポポ",
    "address": "鹿児島県枕崎市田布川町１６７",
    "lat": 31.3162368,
    "lng": 130.2877512,
    "tel": "0993-72-4556",
    "url": "",
    "pref": "鹿児島県",
    "city": "枕崎市",
    "category": "community_day_service",
    "serviceType": "地域密着型通所介護",
    "capacity": 0,
    "openDays": [
      "平日",
      "土曜日",
      "祝日"
    ],
    "openDaysNote": ""
  },
  {
    "id": "4671200832",
    "name": "スイートピア霧島",
    "kana": "スイートピアキリシマ",
    "address": "霧島市国分上小川732",
    "lat": 31.7237913587563,
    "lng": 130.767894935582,
    "tel": "0995-73-3730",
    "url": "http://tanpoponosato.jp",
    "pref": "鹿児島県",
    "city": "霧島市",
    "category": "community_day_service",
    "serviceType": "地域密着型通所介護",
    "capacity": 0,
    "openDays": [
      "平日",
      "土曜日",
      "日曜日",
      "祝日"
    ],
    "openDaysNote": ""
  },
  {
    "id": "4671200857",
    "name": "デイサービス　かたろう家",
    "kana": "デイサービス　カタロウヤ",
    "address": "霧島市隼人町松永3277-13",
    "lat": 31.7800734538402,
    "lng": 130.765717682872,
    "tel": "0995-43-7773",
    "url": "enyusya.com",
    "pref": "鹿児島県",
    "city": "霧島市",
    "category": "community_day_service",
    "serviceType": "地域密着型通所介護",
    "capacity": 18,
    "openDays": [
      "平日",
      "土曜日",
      "祝日"
    ],
    "openDaysNote": "サービス延長可能時間　午前9時10分～午後6時30分"
  },
  {
    "id": "4691200614",
    "name": "デイサービス　クオーレ霧島",
    "kana": "デイサービス",
    "address": "鹿児島県霧島市国分福島１丁目２３番４０号",
    "lat": 31.72808,
    "lng": 130.7575951,
    "tel": "0995-73-6000",
    "url": "",
    "pref": "鹿児島県",
    "city": "霧島市",
    "category": "community_day_service",
    "serviceType": "地域密着型通所介護",
    "capacity": null,
    "openDays": [
      "平日",
      "土曜日",
      "祝日"
    ],
    "openDaysNote": ""
  },
  {
    "id": "4671201061",
    "name": "デイサービス　テラス",
    "kana": "デイサービス　テラス",
    "address": "鹿児島県霧島市国分新町二丁目15番7号デイサービス　テラス デイサービス　テラス",
    "lat": 31.7542588,
    "lng": 130.76323,
    "tel": "0995-45-3939",
    "url": "http://e-terasu.com/",
    "pref": "鹿児島県",
    "city": "霧島市",
    "category": "community_day_service",
    "serviceType": "地域密着型通所介護",
    "capacity": 12,
    "openDays": [
      "平日",
      "土曜日",
      "祝日"
    ],
    "openDaysNote": ""
  },
  {
    "id": "4671201178",
    "name": "デイサービスセンター　より愛きりしま",
    "kana": "デイサービスセンター　ヨリアイキリシマ",
    "address": "鹿児島県霧島市国分新町１５３７－１",
    "lat": 31.7550846595595,
    "lng": 130.774746932841,
    "tel": "0995-46-4358",
    "url": "http://www.mct.ne.jp/users/yorikiri/index.html",
    "pref": "鹿児島県",
    "city": "霧島市",
    "category": "community_day_service",
    "serviceType": "地域密着型通所介護",
    "capacity": 15,
    "openDays": [
      "平日",
      "祝日"
    ],
    "openDaysNote": ""
  },
  {
    "id": "4691200523",
    "name": "デイサービスセンター元気の里　霧島館",
    "kana": "デイサービスセンターゲンキノサト　キリシマカン",
    "address": "鹿児島県霧島市国分新町966番地1",
    "lat": 31.7615137,
    "lng": 130.7781286,
    "tel": "0995-73-6124",
    "url": "http://www.sun3.jp/genki-kirishima/",
    "pref": "鹿児島県",
    "city": "霧島市",
    "category": "community_day_service",
    "serviceType": "地域密着型通所介護",
    "capacity": 0,
    "openDays": [
      "平日",
      "土曜日",
      "祝日"
    ],
    "openDaysNote": ""
  },
  {
    "id": "4671201525",
    "name": "デイサービスセンター日和館",
    "kana": "デイサービスセンターヒヨリカン",
    "address": "鹿児島県霧島市隼人町住吉１８６-１住宅型有料老人ホーム日和館 住宅型有料老人ホーム日和館",
    "lat": 31.7239422831989,
    "lng": 130.746537427292,
    "tel": "0995-73-5637",
    "url": "http:/www/.yoshimitsu-group.com",
    "pref": "鹿児島県",
    "city": "霧島市",
    "category": "community_day_service",
    "serviceType": "地域密着型通所介護",
    "capacity": 0,
    "openDays": [
      "平日",
      "土曜日",
      "祝日"
    ],
    "openDaysNote": "但し１２/３１・１/１は休み（改行）・上記の営業日、営業時間のほか、電話等により２４時間常時連絡が可能な体制とする。"
  },
  {
    "id": "4671201186",
    "name": "デイサービスつくしのわ",
    "kana": "デイサービスツクシノワ",
    "address": "鹿児島県霧島市国分敷根９０５番地１",
    "lat": 31.7047411,
    "lng": 130.7936013,
    "tel": "0995-45-8681",
    "url": "",
    "pref": "鹿児島県",
    "city": "霧島市",
    "category": "community_day_service",
    "serviceType": "地域密着型通所介護",
    "capacity": 0,
    "openDays": [
      "平日",
      "土曜日",
      "祝日"
    ],
    "openDaysNote": ""
  },
  {
    "id": "4671200733",
    "name": "デイサービスぽっかぽか",
    "kana": "デイサービスポッカポカ",
    "address": "国分剣之宇都町12番地3",
    "lat": 31.7693991,
    "lng": 130.7667095,
    "tel": "0995-48-8611",
    "url": "http://ikoi-athome.info/",
    "pref": "鹿児島県",
    "city": "霧島市",
    "category": "community_day_service",
    "serviceType": "地域密着型通所介護",
    "capacity": 18,
    "openDays": [
      "平日",
      "土曜日",
      "日曜日",
      "祝日"
    ],
    "openDaysNote": ""
  },
  {
    "id": "4671201079",
    "name": "デイサービスほほえみの郷",
    "kana": "デイサービスホホエミノサト",
    "address": "鹿児島県霧島市隼人町姫城１９０４番地",
    "lat": 31.7692953109982,
    "lng": 130.764750557672,
    "tel": "０９９５－４３－４０３９",
    "url": "",
    "pref": "鹿児島県",
    "city": "霧島市",
    "category": "community_day_service",
    "serviceType": "地域密着型通所介護",
    "capacity": 0,
    "openDays": [
      "平日",
      "祝日"
    ],
    "openDaysNote": ""
  },
  {
    "id": "4691200507",
    "name": "デイサービスむけいん",
    "kana": "デイサービスムケイン",
    "address": "鹿児島県霧島市国分府中59番地1むけいん むけいん",
    "lat": 31.7600888,
    "lng": 130.7739567,
    "tel": "0995-73-3777",
    "url": "info@mukein.jp",
    "pref": "鹿児島県",
    "city": "霧島市",
    "category": "community_day_service",
    "serviceType": "地域密着型通所介護",
    "capacity": 2,
    "openDays": [
      "平日",
      "土曜日",
      "祝日"
    ],
    "openDaysNote": "※諸事情により、他営業日が休業になる場合もある。"
  },
  {
    "id": "4671200964",
    "name": "デイサービス青春",
    "kana": "デイサービスセイシュン",
    "address": "国分湊463-4",
    "lat": 31.7236086,
    "lng": 130.7765523,
    "tel": "0995-45-3181",
    "url": "",
    "pref": "鹿児島県",
    "city": "霧島市",
    "category": "community_day_service",
    "serviceType": "地域密着型通所介護",
    "capacity": 10,
    "openDays": [
      "平日",
      "日曜日",
      "祝日"
    ],
    "openDaysNote": ""
  },
  {
    "id": "4671201319",
    "name": "リハビリデイサービス隼人国分",
    "kana": "リハビリデイサービスハヤトコクブ",
    "address": "国分野口西289番地",
    "lat": 31.7366830912371,
    "lng": 130.743085170253,
    "tel": "0995-70-0615",
    "url": "http://www.rehaday.life-aid-llc.com/",
    "pref": "鹿児島県",
    "city": "霧島市",
    "category": "community_day_service",
    "serviceType": "地域密着型通所介護",
    "capacity": 0,
    "openDays": [
      "平日",
      "祝日"
    ],
    "openDaysNote": ""
  },
  {
    "id": "4671200535",
    "name": "国分府中デイサービス",
    "kana": "コクブフチュウデイサービス",
    "address": "鹿児島県霧島市国分府中町１３－１５",
    "lat": 31.7445791,
    "lng": 130.7597752,
    "tel": "０９９５－４８－６６０３",
    "url": "",
    "pref": "鹿児島県",
    "city": "霧島市",
    "category": "community_day_service",
    "serviceType": "地域密着型通所介護",
    "capacity": 0,
    "openDays": [
      "平日",
      "土曜日",
      "祝日"
    ],
    "openDaysNote": "8/13～8/15　お盆休業（改行）12/31～1/3　年末年始休業"
  },
  {
    "id": "4671200741",
    "name": "茶話本舗デイサービス姫城",
    "kana": "サワホンポデイサービスヒメギ",
    "address": "国分姫城2935番",
    "lat": 31.7581167,
    "lng": 130.7709931,
    "tel": "０９９５－７３－５０２０",
    "url": "http://hp.kaipoke.biz/y66/94956/base_0004.html",
    "pref": "鹿児島県",
    "city": "霧島市",
    "category": "community_day_service",
    "serviceType": "地域密着型通所介護",
    "capacity": 5,
    "openDays": [
      "平日",
      "土曜日",
      "日曜日",
      "祝日"
    ],
    "openDaysNote": ""
  },
  {
    "id": "4611910607",
    "name": "隼人尚愛会病院",
    "kana": "ハヤトショウアイカイビョウイン",
    "address": "隼人町小田240番地",
    "lat": 31.7366483,
    "lng": 130.7257574,
    "tel": "0995-43-2222",
    "url": "",
    "pref": "鹿児島県",
    "city": "霧島市",
    "category": "community_day_service",
    "serviceType": "地域密着型通所介護",
    "capacity": 0,
    "openDays": [
      "平日",
      "土曜日",
      "祝日"
    ],
    "openDaysNote": ""
  },
  {
    "id": "4691200515",
    "name": "福山の里デイサービスセンター",
    "kana": "フクヤマノサトデイサービスセンター",
    "address": "鹿児島県霧島市福山町福山７７５-１",
    "lat": 31.6546271,
    "lng": 130.8248803,
    "tel": "0995-55-2011",
    "url": "http://www.sfc-tachibanakai.or.jp/",
    "pref": "鹿児島県",
    "city": "霧島市",
    "category": "community_day_service",
    "serviceType": "地域密着型通所介護",
    "capacity": 0,
    "openDays": [
      "平日",
      "祝日"
    ],
    "openDaysNote": "月曜日から金曜日内の祝日は営業。"
  },
  {
    "id": "4671201004",
    "name": "木の花デイサービス",
    "kana": "コノハナデイサービス",
    "address": "隼人町松永1丁目39番地1",
    "lat": 31.774240035062,
    "lng": 130.759342896295,
    "tel": "0995-55-5858",
    "url": "",
    "pref": "鹿児島県",
    "city": "霧島市",
    "category": "community_day_service",
    "serviceType": "地域密着型通所介護",
    "capacity": 15,
    "openDays": [
      "平日",
      "土曜日",
      "祝日"
    ],
    "openDaysNote": "年末年始（12/31～1/3）休み"
  },
  {
    "id": "4675700035",
    "name": "デイサービスセンター　グリーン光芳",
    "kana": "デイサービスセンター　グリーンコウホウ",
    "address": "姶良郡湧水町米永2387番地",
    "lat": 31.9252629,
    "lng": 130.7211058,
    "tel": "0995-74-1113",
    "url": "http://greenkouhouyusui.ec-net.jp/",
    "pref": "鹿児島県",
    "city": "湧水町",
    "category": "community_day_service",
    "serviceType": "地域密着型通所介護",
    "capacity": 0,
    "openDays": [
      "平日",
      "土曜日",
      "祝日"
    ],
    "openDaysNote": "利用者からの希望及び災害その他やむを得ない事情がある場合はこの限りではありません。"
  },
  {
    "id": "4695700056",
    "name": "デイサービスほほえみ",
    "kana": "デイサービスホホエミ",
    "address": "鹿児島県姶良郡湧水町中津川1086-1",
    "lat": 32.0190034,
    "lng": 130.7453837,
    "tel": "0995-75-3222",
    "url": "",
    "pref": "鹿児島県",
    "city": "湧水町",
    "category": "community_day_service",
    "serviceType": "地域密着型通所介護",
    "capacity": 0,
    "openDays": [
      "平日",
      "祝日"
    ],
    "openDaysNote": ""
  },
  {
    "id": "4695700031",
    "name": "デイサービス西福",
    "kana": "デイサービスサイフク",
    "address": "鹿児島県姶良郡湧水町恒次1105-2",
    "lat": 31.960805,
    "lng": 130.6912152,
    "tel": "0995-73-5767",
    "url": "",
    "pref": "鹿児島県",
    "city": "湧水町",
    "category": "community_day_service",
    "serviceType": "地域密着型通所介護",
    "capacity": 18,
    "openDays": [
      "平日",
      "土曜日",
      "祝日"
    ],
    "openDaysNote": ""
  },
  {
    "id": "4695700049",
    "name": "リハビリ専門デイサービス　ひゆもりの和",
    "kana": "リハビリセンモンデイサービス　ヒユモリノワ",
    "address": "鹿児島県姶良郡湧水町木場29-1",
    "lat": 31.9536465,
    "lng": 130.7181912,
    "tel": "0995-73-8531",
    "url": "http://hp.kaipoke.biz/k5f/",
    "pref": "鹿児島県",
    "city": "湧水町",
    "category": "community_day_service",
    "serviceType": "地域密着型通所介護",
    "capacity": 10,
    "openDays": [
      "平日",
      "祝日"
    ],
    "openDaysNote": ""
  },
  {
    "id": "4675700183",
    "name": "湧水館デイサービスセンター",
    "kana": "ユウスイカンデイサービスセンター",
    "address": "姶良郡湧水町木場1077番地2",
    "lat": 31.9521885,
    "lng": 130.7244242,
    "tel": "0995-74-4008",
    "url": "",
    "pref": "鹿児島県",
    "city": "湧水町",
    "category": "community_day_service",
    "serviceType": "地域密着型通所介護",
    "capacity": 0,
    "openDays": [
      "平日",
      "土曜日",
      "祝日"
    ],
    "openDaysNote": "但し、8月14日・15日及び12月31日～翌年1月2日は休業日となります。"
  },
  {
    "id": "4678800055",
    "name": "愛寿園デイサービスセンター",
    "kana": "アイジュエンデイサービスセンター",
    "address": "鹿児島県大島郡龍郷町浦1874番地",
    "lat": 28.4122002,
    "lng": 129.5954507,
    "tel": "0997-62-5031",
    "url": "ryuusenkai.org",
    "pref": "鹿児島県",
    "city": "龍郷町",
    "category": "community_day_service",
    "serviceType": "地域密着型通所介護",
    "capacity": null,
    "openDays": [
      "平日",
      "祝日"
    ],
    "openDaysNote": ""
  },
  {
    "id": "4679400236",
    "name": "ディサービスぐぅくる",
    "kana": "ディサービスグゥクル",
    "address": "鹿児島県大島郡和泊町和泊４７５－３",
    "lat": 27.3940758,
    "lng": 128.656011,
    "tel": "997923354",
    "url": "",
    "pref": "鹿児島県",
    "city": "和泊町",
    "category": "community_day_service",
    "serviceType": "地域密着型通所介護",
    "capacity": 10,
    "openDays": [
      "平日",
      "土曜日",
      "日曜日",
      "祝日"
    ],
    "openDaysNote": ""
  }
]